     2.10           OBSERVATION DATA    G (GPS)             RINEX VERSION / TYPE
teqc  2002Dec5      gpsops              20031031 00:06:23UTCPGM / RUN BY / DATE
    30.0000                                                 INTERVAL
     1     1                                                WAVELENGTH FACT L1/2
     7    L1    L2    P1    P2    C1    S1    S2            # / TYPES OF OBSERV
Linux 2.0.36|Pentium II|gcc -static|Linux|486/DX+           COMMENT
soc2rnx ver 1.14    gpsops              31-Oct-2003 00:06:20COMMENT
S1, if present, is the SNR for the C/A data stream on L1.   COMMENT
 SNR is mapped to RINEX snr flag value [1,4-9]              COMMENT
    SNR:   >316  >100  >31.6  >10  >3.2    >0 bad=0         COMMENT
L1 & L2:      9     8     7     6     5     4     1         COMMENT
                                                            COMMENT
This data is provided as a public service by NASA/JPL.      COMMENT
No warranty is expressed or implied regarding suitability   COMMENT
for use.  For further information, contact:                 COMMENT
Dave Stowers, NASA/JPL m/s 238-600                          COMMENT
4800 Oak Grove Drive, Pasadena CA 91109 USA                 COMMENT
                                                            COMMENT
  2003    10    30     0     0    0.0000000     GPS         TIME OF FIRST OBS
GGN                 USNO                                    OBSERVER / AGENCY
KW-5-0001           AOAD/M_T        NONE                    ANT # / TYPE
 -1248596.2410 -4819429.5890  3976506.9870                  APPROX POSITION XYZ
        0.0000        0.0000        0.0000                  ANTENNA: DELTA H/E/N
RT920013101         ASHTECH Z-XII3T     IL01-1D04-MCF-12MX  REC # / TYPE / VERS
AMC2                                                        MARKER NAME
40472S004                                                   MARKER NUMBER
                                                            END OF HEADER
 03 10 30  0  0  0.0000000  0  8G 9G11G29G28G26G 4G 7G 8
 121139546.70048  94394463.81748  23052073.4824   23052074.4394   23052074.1134
       220.000         161.000
 125666056.36548  97921592.06648  23913464.7494   23913463.9044   23913464.3574
       217.000         155.000
 127835568.86348  99611932.81448  24326452.2344   24326493.4624   24326452.7074
       216.000         152.000
 109580855.90048  85387684.06248  20852540.7694   20852538.9114   20852541.2904
       242.000         203.000
 126619519.18148  98664470.79248  24094962.4304   24094986.2354   24094961.8604
       220.000         152.000
 118444796.87348  92294629.47148  22539308.2054   22539311.7784   22539308.3924
       224.000         170.000
 107319410.10748  83625513.00648  20422205.3954   20422205.2904   20422206.2344
       245.000         213.000
 119083050.32748  92791972.81248  22660761.5684   22660765.7224   22660762.1904
       221.000         167.000
 03 10 30  0  0 30.0000000  0  8G 9G11G29G28G26G 4G 7G 8
 121054491.20248  94328186.93148  23035888.5464   23035889.0184   23035888.8594
       220.000         160.000
 125751509.48548  97988178.58748  23929725.4514   23929724.9054   23929725.7454
       217.000         155.000
 127910679.62248  99670459.68048  24340746.5894   24340788.5044   24340746.4704
       215.000         150.000
 109606865.51748  85407951.32648  20857490.1874   20857488.4574   20857490.7164
       242.000         203.000
 136689372.24958  88718893.17158  24108259.9125   24108283.4965   24108260.1945
       215.000         154.000
 118341736.51248  92214323.13648  22519696.5854   22519699.5884   22519696.4594
       224.000         169.000
 107324603.95248  83629560.21148  20423193.8144   20423193.7764   20423194.5074
       245.000         213.000
 119192871.20548  92877547.12848  22681660.2054   22681664.3904   22681660.8164
       221.000         165.000
 03 10 30  0  1  0.0000000  0  8G 9G11G29G28G26G 4G 7G 8
 120969808.44748  94262200.38348  23019774.1024   23019774.2054   23019774.0504
       219.000         160.000
 125837273.23648  98055007.44948  23946045.4074   23946045.6184   23946045.7054
       216.000         153.000
 127985929.69648  99729095.04948  24355066.3334   24355109.5654   24355066.7824
       214.000         151.000
 109633167.51148  85428446.40648  20862495.2544   20862493.6144   20862495.7134
       242.000         203.000
 116759498.69758 108773532.66858  24121607.4235   24121632.3745   24121608.2685
       216.000         153.000
 118238929.11548  92134213.80948  22500132.4334   22500135.5334   22500132.4194
       225.000         169.000
 107330100.63848  83633843.39348  20424239.7394   20424239.8714   20424240.3814
       245.000         213.000
 119302927.27348  92963304.85648  22702603.0224   22702607.6274   22702603.7574
       220.000         165.000
 03 10 30  0  1 30.0000000  0  8G 9G11G29G28G26G 4G 7G 8
 120885501.32048  94196506.53948  23003730.8054   23003731.2154   23003731.2184
       219.000         162.000
 125923344.77648  98122076.21248  23962424.2874   23962424.4924   23962424.2544
       216.000         152.000
 128061316.05048  99787836.59148  24369412.8954   24369456.1984   24369412.9444
       214.000         148.000
 109659762.31748  85449169.64548  20867556.0024   20867554.4824   20867556.5164
       241.000         203.000
 116829902.44448 108828392.07648  24135005.7634   24135030.1634   24135005.7164
       212.000         152.000
 118136377.87048  92054303.99548  22480617.3924   22480620.7124   22480617.1404
       223.000         170.000
 107335899.30148  83638361.90548  20425343.0874   20425343.3344   20425343.8244
       245.000         213.000
 119413215.51048  93049243.41948  22723590.5104   22723594.7904   22723591.1134
       221.000         166.000
 03 10 30  0  2  0.0000000  0  8G 9G11G29G28G26G 4G 7G 8
 120801572.61148  94131107.61948  22987759.7094   22987759.9414   22987759.8924
       218.000         162.000
 126009721.69348  98189382.89948  23978860.8654   23978861.0854   23978861.5764
       216.000         150.000
 128136835.50248  99846681.83848  24383784.1884   24383828.1494   24383784.9184
       210.000         147.000
 109686650.12148  85470121.17448  20872672.4084   20872670.9744   20872672.9514
       241.000         202.000
 136900613.46058  88883502.86758  24148453.4735   24148477.0025   24148452.6015
       217.000         153.000
 118034086.00348  91974596.34348  22461151.7154   22461154.8084   22461151.3304
       223.000         168.000
 107341998.72648  83643114.71648  20426503.8214   20426503.9634   20426504.4454
       245.000         213.000
 119523733.04648  93135360.49948  22744621.5554   22744626.2144   22744622.3414
       220.000         165.000
 03 10 30  0  2 30.0000000  0  7G 9G11G29G28G 4G 7G 8
 120718024.59948  94066005.22448  22971861.0964   22971861.6744   22971861.0744
       218.000         164.000
 126096399.91648  98256923.74848  23995355.5134   23995356.1574   23995356.2404
       215.000         150.000
 128212485.03848  99905628.46148  24398181.0024   24398224.7234   24398181.3494
       207.000         146.000
 109713831.84448  85491301.71048  20877845.0114   20877843.3984   20877845.4784
       241.000         202.000
 117932056.73348  91895093.39648  22441735.6574   22441739.0544   22441735.5224
       225.000         171.000
 107348397.91648  83648101.14248  20427721.5934   20427721.5794   20427722.2924
       245.000         213.000
 119634477.71848  93221654.53948  22765696.2464   22765701.0144   22765696.7834
       221.000         165.000
 03 10 30  0  3  0.0000000  0  8G 9G11G29G28G26G 4G 7G 8
 120634860.21448  94001201.80648  22956035.3174   22956035.9804   22956035.6084
       219.000         165.000
 126183378.74948  98324698.82248  24011907.7964   24011907.7554   24011908.2104
       216.000         149.000
 128288261.76148  99964674.21148  24412601.7694   24412645.8044   24412602.2364
       208.000         143.000
 109741307.78448  85512711.53348  20883073.5144   20883071.8404   20883074.0484
       241.000         202.000
 117042708.87058 108994229.10058  24175491.4205   24175515.1745   24175491.3405
       216.000         151.000
 117830292.41448  91815796.77048  22422370.4134   22422373.8044   22422370.5094
       225.000         172.000
 107355096.02548  83653320.50048  20428996.2204   20428996.0864   20428996.9594
       245.000         213.000
 119745446.68548  93308123.26348  22786813.1404   22786818.4424   22786813.8134
       219.000         165.000
 03 10 30  0  3 30.0000000  0  8G 9G11G29G28G26G 4G 7G 8
 120552081.80548  93936699.08548  22940283.1294   22940283.7724   22940283.3424
       220.000         166.000
 126270657.03048  98392707.98148  24028516.7724   24028516.7844   24028517.0054
       216.000         147.000
 128364162.37248 100023816.49848  24427045.7444   24427089.7514   24427045.9854
       205.000         141.000
 109769078.48748  85534350.96848  20888358.1484   20888356.6644   20888358.5474
       241.000         202.000
 117114124.09648 109049876.67048  24189081.4314   24189106.3164   24189081.1374
       216.000         151.000
 117728796.19648  91736709.01748  22403056.5944   22403059.3804   22403056.6654
       226.000         172.000
 107362091.71148  83658771.63048  20430327.4264   20430327.3644   20430328.1674
       245.000         213.000
 119856637.42148  93394764.79448  22807972.6504   22807977.8184   22807973.2584
       219.000         164.000
 03 10 30  0  4  0.0000000  0  8G 9G11G29G28G26G 4G 7G 8
 120469692.22348  93872499.40648  22924604.7064   22924605.5524   22924605.1284
       219.000         165.000
 126358229.72248  98460946.05448  24045181.5054   24045180.5364   24045181.5454
       215.000         144.000
 128440183.94448 100083053.01248  24441512.9654   24441557.3404   24441512.9584
       205.000         141.000
 109797144.49448  85556220.56248  20893698.9244   20893697.4784   20893699.4574
       241.000         202.000
 117185784.25148 109105715.00248  24202718.6144   24202743.6174   24202718.1044
       216.000         149.000
 117627571.12048  91657832.49348  22383793.6224   22383796.7654   22383793.7994
       227.000         173.000
 107369384.28848  83664454.12148  20431715.1804   20431715.1924   20431715.9274
       245.000         214.000
 119968047.92348  93481577.72648  22829174.0364   22829178.7524   22829174.4474
       220.000         162.000
 03 10 30  0  4 30.0000000  0  8G 9G11G29G28G26G 4G 7G 8
 120387693.97448  93808604.66848  22909001.0564   22909001.8774   22909001.2764
       220.000         165.000
 126446095.95948  98529413.05948  24061901.4074   24061900.3144   24061902.1524
       214.000         143.000
 128516323.75248 100142381.65748  24456002.5204   24456047.6334   24456002.6324
       202.000         142.000
 109825506.20948  85578320.54148  20899095.9454   20899094.4944   20899096.4744
       241.000         202.000
 117257686.66148 109161742.07948  24216402.4144   24216426.1564   24216402.0074
       213.000         151.000
 117526619.96148  91579169.40248  22364582.8764   22364586.4254   22364582.8684
       226.000         170.000
 107376972.97448  83670367.47848  20433159.2104   20433159.2084   20433159.9544
       245.000         214.000
 120079674.84048  93568559.20348  22850415.8864   22850421.3334   22850416.5454
       218.000         160.000
 03 10 30  0  5  0.0000000  0  8G 9G11G29G28G26G 4G 7G 8
 120306089.66948  93745016.86548  22893472.0884   22893473.1944   22893472.2724
       220.000         166.000
 126534252.58748  98598106.23448  24078677.2304   24078678.1694   24078677.7934
       212.000         139.000
 128592578.56148 100201799.90448  24470513.7854   24470559.8624   24470514.4444
       202.000         140.000
 109854164.31948  85600651.60248  20904549.5184   20904547.8734   20904549.9604
       241.000         202.000
 117329828.24948 109217955.53948  24230130.7034   24230155.2264   24230130.5704
       214.000         149.000
 117425945.76048  91500722.00148  22345425.3104   22345428.4334   22345425.2184
       227.000         174.000
 107384856.38148  83676510.48848  20434659.1664   20434659.3034   20434659.9094
       245.000         214.000
 120191515.64548  93655707.24448  22871698.9284   22871704.4584   22871699.5484
       216.000         160.000
 03 10 30  0  5 30.0000000  0  8G 9G11G29G28G26G 4G 7G 8
 120224882.02648  93681738.19348  22878019.3004   22878019.9054   22878019.3924
       221.000         165.000
 126622697.93648  98667024.67248  24095507.6164   24095506.2504   24095508.1834
       210.000         139.000
 128668945.22448 100261305.31948  24485046.8724   24485092.1694   24485047.0974
       202.000         140.000
 109883119.25748  85623213.90248  20910059.5584   20910057.6964   20910060.0744
       242.000         201.000
 117402205.78948 109274352.72148  24243904.0774   24243929.9064   24243903.8534
       214.000         149.000
 117325551.58348  91422492.82248  22326320.9914   22326323.8414   22326320.7924
       227.000         173.000
 107393033.31548  83682882.11848  20436215.2164   20436215.3564   20436215.8364
       245.000         214.000
 120303568.13648  93743020.32648  22893022.3864   22893028.1094   22893022.7174
       218.000         162.000
 03 10 30  0  6  0.0000000  0  8G 9G11G29G28G26G 4G 7G 8
 120144073.65148  93618770.70648  22862641.7644   22862642.2614   22862642.3484
       220.000         165.000
 126711428.46648  98736164.79548  24112393.3514   24112394.0824   24112393.5274
       209.000         138.000
 128745421.06148 100320895.83248  24499600.9664   24499647.1224   24499601.0444
       201.000         140.000
 109912371.55448  85646007.93448  20915625.9424   20915624.1974   20915626.4774
       240.000         201.000
 117474816.69848 109330931.82648  24257722.8084   24257747.4844   24257722.0854
       217.000         149.000
 117225440.42048  91344484.21548  22307270.3584   22307273.1674   22307270.2404
       227.000         174.000
 107401503.04448  83689481.88748  20437827.1064   20437827.1434   20437827.8124
       245.000         214.000
 120415829.78048  93830496.46948  22914385.2844   22914390.8674   22914385.9354
       217.000         161.000
 03 10 30  0  6 30.0000000  0  8G 9G11G29G28G26G 4G 7G 8
 120063667.20648  93556116.33048  22847340.9934   22847341.2814   22847341.3264
       219.000         164.000
 126800443.02748  98805526.93248  24129332.5574   24129331.6254   24129332.5784
       212.000         139.000
 128822002.67348 100380568.76148  24514174.5034   24514221.3314   24514175.0074
       201.000         139.000
 109941921.56848  85669033.97048  20921248.9324   20921247.5154   20921249.3084
       241.000         202.000
 117547657.59948 109387690.15848  24271584.4924   24271609.6014   24271583.5984
       213.000         147.000
 117125615.18748  91266698.42348  22288274.1964   22288276.9954   22288274.0334
       227.000         175.000
 107410264.45748  83696308.93948  20439494.4114   20439494.3894   20439495.1284
       245.000         214.000
 120528297.70248  93918133.39948  22935787.3354   22935793.1984   22935788.2994
       216.000         161.000
 03 10 30  0  7  0.0000000  0  8G 9G11G29G28G26G 4G 7G 8
 119983665.36548  93493777.31248  22832116.8484   22832117.5314   22832117.0014
       219.000         164.000
 126889737.37948  98875106.26148  24146325.0094   24146325.8604   24146325.2564
       214.000         142.000
 128898687.07748 100440321.81848  24528767.9164   24528813.4094   24528767.3794
       200.000         137.000
 109971769.68048  85692292.30948  20926928.8694   20926927.4344   20926929.4134
       241.000         202.000
 117620725.49248 109444625.40248  24285489.0654   24285514.5204   24285488.6854
       207.000         142.000
 117026078.68948  91189137.52748  22269333.0914   22269335.7894   22269333.0834
       229.000         175.000
 107419316.53448  83703362.48348  20441216.9414   20441216.9504   20441217.5864
       245.000         213.000
 120640968.90448  94005928.56248  22957228.4264   22957234.5564   22957229.1114
       218.000         161.000
 03 10 30  0  7 30.0000000  0  8G 9G11G29G28G26G 4G 7G 8
 119904070.58948  93431755.51548  22816970.2554   22816970.6564   22816970.2994
       217.000         164.000
 126979310.46848  98944903.14248  24163370.4494   24163370.4244   24163370.6924
       216.000         146.000
 128975471.63848 100500152.93648  24543379.1394   24543426.4424   24543379.0754
       199.000         135.000
 110001916.06548  85715782.96748  20932665.5244   20932664.2394   20932666.0304
       240.000         202.000
 117694017.22648 109501734.99148  24299436.1654   24299462.5064   24299436.4154
       206.000         143.000
 116926834.04648  91111804.01448  22250447.6644   22250450.1794   22250447.7124
       228.000         176.000
 107428658.32348  83710641.79848  20442994.5034   20442994.7024   20442995.3104
       244.000         213.000
 120753841.06148  94093880.34648  22978707.9234   22978713.9824   22978708.6054
       217.000         162.000
 03 10 30  0  8  0.0000000  0  8G 9G11G29G28G26G 4G 7G 8
 119824885.38748  93370052.81748  22801901.7464   22801902.2604   22801901.9214
       220.000         164.000
 127069160.21248  99014915.84248  24180468.7784   24180468.9694   24180468.7364
       216.000         148.000
 129052352.90248 100560059.38648  24558010.7974   24558057.7764   24558010.9394
       199.000         135.000
 110032361.63948  85739506.78948  20938459.2844   20938457.9104   20938459.7334
       241.000         202.000
 117767530.09448 109559016.94648  24313426.1384   24313452.5604   24313426.0504
       208.000         144.000
 116827884.40048  91034700.50348  22231617.8574   22231620.8994   22231617.8094
       229.000         177.000
 107438288.76248  83718146.06848  20444827.0224   20444827.2914   20444827.7084
       245.000         213.000
 120866911.87848  94181986.95548  23000225.0544   23000231.1064   23000225.8034
       219.000         165.000
 03 10 30  0  8 30.0000000  0  8G 9G11G29G28G26G 4G 7G 8
 119746112.46048  93308671.46948  22786911.8204   22786912.4504   22786911.9874
       221.000         165.000
 127159284.59048  99085143.24748  24197618.0034   24197618.1844   24197618.9214
       219.000         152.000
 129129328.28248 100620039.18848  24572659.2944   24572706.1394   24572659.9314
       201.000         136.000
 110063106.91648  85763464.11248  20944310.0284   20944308.4344   20944310.4474
       241.000         202.000
 117841260.66348 109616468.50048  24327456.8454   24327484.1614   24327457.0404
       202.000         143.000
 116729232.28048  90957828.75348  22212845.0464   22212848.0034   22212845.0584
       227.000         178.000
 107448206.78948  83725874.39648  20446714.3214   20446714.5264   20446715.0054
       244.000         213.000
 120980178.82648  94270246.67448  23021779.1484   23021785.6204   23021779.7094
       219.000         164.000
 03 10 30  0  9  0.0000000  0  8G 9G11G29G28G26G 4G 7G 8
 119667754.19248  93247613.19848  22772000.5884   22772001.0374   22772000.9424
       221.000         166.000
 127249679.80148  99155581.72048  24214819.9284   24214819.6874   24214820.0874
       221.000         154.000
 129206394.61748 100680089.85848  24587325.6604   24587373.6424   24587325.0954
       203.000         136.000
 110094152.19248  85787655.25548  20950217.5584   20950216.1154   20950218.0264
       240.000         201.000
 117915205.95148 109674087.36748  24341529.1934   24341556.4774   24341528.7784
       208.000         144.000
 116630880.40548  90881190.80848  22194129.2754   22194132.6624   22194129.2264
       228.000         178.000
 107458411.52048  83733826.19848  20448656.1584   20448656.2864   20448656.8774
       244.000         213.000
 121093638.93348  94358656.84148  23043370.1614   23043376.7674   23043370.5384
       218.000         164.000
 03 10 30  0  9 30.0000000  0  8G 9G11G29G28G26G 4G 7G 8
 119589813.05348  93186879.86248  22757169.1184   22757169.3384   22757169.2544
       222.000         166.000
 127340343.04248  99226228.54948  24232072.7814   24232072.8224   24232072.6504
       221.000         154.000
 129283548.19048 100740208.54348  24602008.2914   24602055.0604   24602008.2124
       207.000         137.000
 110125498.07548  85812080.68248  20956182.4324   20956181.0844   20956182.9574
       240.000         201.000
 117989362.95848 109731871.23148  24355640.5254   24355668.1134   24355641.1284
       208.000         142.000
 116532832.57748  90804790.07448  22175471.2414   22175474.6044   22175471.0974
       229.000         178.000
 107468901.66648  83742000.35848  20450652.4234   20450652.5034   20450653.1404
       244.000         213.000
 121207289.34548  94447215.26848  23064997.2554   23065003.8424   23064997.8504
       220.000         164.000
 03 10 30  0 10  0.0000000  0  8G 9G11G29G28G26G 4G 7G 8
 119512291.96048  93126473.93848  22742417.4904   22742417.8644   22742417.6204
       223.000         167.000
 127431272.57848  99297082.86748  24249375.5114   24249375.1394   24249375.8684
       220.000         156.000
 129360786.63348 100800393.32948  24616707.6874   24616754.0384   24616707.6264
       210.000         136.000
 110157144.77548  85836740.48848  20962204.6104   20962203.2544   20962205.2294
       240.000         201.000
 118063728.75248 109789817.78548  24369793.9004   24369820.2904   24369793.5034
       206.000         142.000
 116435091.20748  90728628.11348  22156871.5104   22156874.8134   22156871.3924
       229.000         178.000
 107479676.29348  83750396.15548  20452702.7524   20452702.9394   20452703.5274
       244.000         213.000
 121321127.38048  94535919.76848  23086660.4734   23086667.0674   23086661.2164
       218.000         163.000
 03 10 30  0 10 30.0000000  0  8G 9G11G29G28G26G 4G 7G 8
 119435192.97448  93066396.85748  22727746.0264   22727746.2574   22727746.3744
       223.000         167.000
 127522465.43348  99368142.23848  24266728.6074   24266728.8594   24266729.0364
       220.000         156.000
 129438107.19648 100860642.11848  24631421.9454   24631467.9474   24631421.7804
       207.000         134.000
 110189092.92648  85861635.16848  20968283.9854   20968282.6234   20968284.4064
       239.000         200.000
 118138300.13448 109847924.57748  24383984.3074   24384011.3804   24383984.5234
       207.000         142.000
 116337659.45648  90652707.46248  22138330.9014   22138333.8944   22138330.8024
       230.000         179.000
 107490734.47448  83759012.91448  20454807.0084   20454807.2824   20454807.6544
       244.000         213.000
 121435150.80348  94624768.81148  23108358.9114   23108365.2844   23108359.6024
       220.000         162.000
 03 10 30  0 11  0.0000000  0  8G 9G11G29G28G26G 4G 7G 8
 119358518.82548  93006650.82348  22713155.3744   22713155.5064   22713155.9354
       223.000         168.000
 127613919.37548  99439405.02348  24284131.7254   24284132.1304   24284131.9714
       218.000         153.000
 129515505.96448 100920951.84548  24646149.4224   24646197.8604   24646150.3914
       207.000         132.000
 110221342.87248  85886765.04348  20974420.8434   20974419.4204   20974421.2374
       239.000         200.000
 118213074.02848 109906189.13448  24398214.3534   24398241.7864   24398214.0884
       208.000         142.000
 116240539.53248  90577029.68448  22119849.6414   22119852.4574   22119849.7594
       230.000         178.000
 107502075.03548  83767849.72148  20456965.0414   20456965.2204   20456965.7094
       245.000         212.000
 121549357.04548  94713760.35148  23130092.3564   23130098.1874   23130093.0464
       220.000         162.000
 03 10 30  0 11 30.0000000  0  8G 9G11G29G28G26G 4G 7G 8
 119282272.04748  92947237.80848  22698645.8384   22698646.5464   22698646.2704
       222.000         168.000
 127705631.90048  99510869.15348  24301583.8334   24301584.2684   24301584.2024
       216.000         154.000
 129592981.03348 100981321.02548  24660893.9674   24660942.7454   24660894.0744
       206.000         134.000
 110253895.16848  85912130.48048  20980615.4374   20980613.8844   20980615.9134
       240.000         200.000
 118288047.69848 109964609.37448  24412482.0034   24412509.5754   24412481.8864
       210.000         143.000
 116143734.74748  90501597.40048  22101428.3564   22101431.0554   22101428.3004
       229.000         179.000
 107513697.15348  83776905.99748  20459176.6624   20459176.6544   20459177.3804
       244.000         212.000
 121663743.19348  94802891.93448  23151859.4634   23151865.5754   23151860.2624
       222.000         162.000
 03 10 30  0 12  0.0000000  0  8G 9G11G29G28G26G 4G 7G 8
 119206454.97548  92888159.50548  22684217.9694   22684218.7944   22684218.2994
       222.000         168.000
 127797601.77048  99582534.33148  24319084.8694   24319085.2524   24319085.3864
       215.000         149.000
 129670528.88648 101041746.90948  24675652.4974   24675700.5434   24675651.4994
       206.000         134.000
 110286750.11448  85937731.74948  20986867.5154   20986865.9794   20986868.0104
       240.000         200.000
 118363217.49948 110023182.43248  24426785.0824   24426814.5474   24426785.9854
       207.000         142.000
 116047248.03048  90426412.97848  22083067.4834   22083070.3614   22083067.3934
       230.000         180.000
 107525599.63548  83786180.69048  20461441.6714   20461441.6084   20461442.3074
       245.000         213.000
 121778306.43748  94892161.45048  23173660.5544   23173666.6364   23173661.4514
       221.000         162.000
 03 10 30  0 12 30.0000000  0  8G 9G11G29G28G26G 4G 7G 8
 119131070.49848  92829418.44748  22669872.6844   22669873.3114   22669872.7994
       222.000         168.000
 127889824.62448  99654396.19848  24336634.4914   24336635.0414   24336634.8124
       214.000         146.000
 129748145.99248 101102226.70148  24690423.2214   24690471.5954   24690422.1894
       208.000         136.000
 110319908.02248  85963569.07448  20993177.3034   20993175.7124   20993177.8044
       241.000         200.000
 118438580.75148 110081906.29848  24441128.4664   24441156.0424   24441127.1934
       207.000         142.000
 115951082.18748  90351478.57648  22064767.6794   22064770.6894   22064767.5604
       230.000         180.000
 107537781.31348  83795672.91248  20463759.8524   20463759.7564   20463760.5474
       245.000         213.000
 121893044.36848  94981567.10448  23195495.1864   23195501.2654   23195496.0104
       221.000         160.000
 03 10 30  0 13  0.0000000  0  9G 9G11G29G20G28G26G 4G 7G 8
 119056120.98548  92771016.31948  22655609.8934   22655611.0144   22655610.2924
       223.000         167.000
 127982298.84048  99726454.10548  24354231.7874   24354232.0394   24354232.2354
       211.000         143.000
 129825830.29248 101162758.84648  24705205.3514   24705255.5444   24705206.3884
       211.000         139.000
 141523583.10458  92485918.89958  25028098.0735   25028098.5875   25028099.8755
       206.000         132.000
 110353369.35448  85989642.80348  20999545.0384   20999543.2384   20999545.5994
       241.000         201.000
 118514134.22148 110140778.31848  24455505.3444   24455535.3604   24455505.7954
       209.000         142.000
 115855240.05648  90276796.31848  22046529.3454   22046532.5714   22046529.3044
       231.000         181.000
 107550241.30148  83805381.99648  20466130.9284   20466130.8584   20466131.6554
       245.000         213.000
 122007954.46148  95071107.02048  23217361.8864   23217368.0364   23217362.4584
       220.000         159.000
 03 10 30  0 13 30.0000000  0  9G 9G11G29G20G28G26G 4G 7G 8
 118981608.99648  92712955.08248  22641430.8814   22641431.5954   22641430.8854
       222.000         167.000
 128075022.00748  99798705.98048  24371876.8244   24371876.3824   24371876.6874
       209.000         140.000
 129903578.45848 101223340.72548  24720002.8174   24720052.5464   24720002.9854
       212.000         143.000
 141472784.03848  92446334.92448  25018431.5724   25018433.9024   25018433.1244
       206.000         133.000
 110387134.82648  86015953.57848  21005970.2274   21005968.6354   21005970.7234
       241.000         200.000
 118589874.77148 110199796.08048  24469919.1324   24469947.7534   24469919.4864
       215.000         142.000
 115759724.93748  90202368.98748  22028353.4254   22028356.6594   22028353.2794
       231.000         182.000
 107562978.81648  83815307.43248  20468554.5884   20468554.5384   20468555.3174
       245.000         212.000
 122123033.97548  95160778.95948  23239260.6404   23239267.6524   23239261.3604
       219.000         159.000
 03 10 30  0 14  0.0000000  0  9G 9G11G29G20G28G26G 4G 7G 8
 118907537.12248  92655236.82348  22627335.4224   22627336.3074   22627335.7284
       223.000         169.000
 128167991.51548  99871149.55948  24389567.5754   24389568.1214   24389568.5844
       204.000         134.000
 129981386.82948 101283969.49748  24734810.4234   24734860.4914   24734810.6624
       211.000         142.000
 141422318.28148  92407010.57048  25008828.0874   25008828.9684   25008827.3994
       201.000         133.000
 110421204.86048  86042501.75048  21012453.3184   21012451.7594   21012453.7634
       241.000         200.000
 118665799.36748 110258957.22148  24484369.0564   24484395.9904   24484368.2454
       212.000         143.000
 115664539.31548  90128198.39048  22010240.3844   22010243.3204   22010240.4364
       233.000         183.000
 107575992.44548  83825447.96248  20471030.9084   20471030.8974   20471031.5294
       244.000         212.000
 122238280.28848  95250580.83548  23261191.2204   23261198.2034   23261192.0194
       219.000         159.000
 03 10 30  0 14 30.0000000  0  9G 9G11G29G20G28G26G 4G 7G 8
 118833907.46848  92597863.07048  22613324.6344   22613324.8484   22613324.8034
       225.000         169.000
 128261204.74548  99943783.05748  24407307.4054   24407303.7114   24407306.4374
       204.000         131.000
 130059253.24448 101344643.47848  24749628.3054   24749677.7824   24749628.4484
       208.000         141.000
 141372188.53348  92367948.09248  24999289.5654   24999288.1914   24999288.5574
       205.000         132.000
 110455579.71848  86069287.44548  21018994.6504   21018993.0334   21018995.2904
       241.000         200.000
 118741904.89748 110318259.31148  24498851.8254   24498880.5174   24498851.6484
       213.000         144.000
 115569685.99748  90054286.69948  21992190.4204   21992193.2654   21992190.4254
       231.000         183.000
 107589281.29748  83835803.01748  20473559.6604   20473559.5894   20473560.3244
       245.000         212.000
 122353690.84848  95340510.70048  23283153.3744   23283161.1104   23283153.8214
       213.000         154.000
 03 10 30  0 15  0.0000000  0  9G 9G11G29G20G28G26G 4G 7G 8
 118760722.56648  92540835.89948  22599398.1414   22599398.1744   22599398.5724
       225.000         170.000
 128354660.00948 100016605.18548  24425088.7134   24425090.0574   24425090.4494
       205.000         128.000
 130137174.80348 101405360.41548  24764456.6394   24764507.4034   24764457.1574
       207.000         139.000
 141322397.90048  92329150.11348  24989814.8334   24989814.6734   24989815.7864
       202.000         130.000
 110490259.66548  86096310.82148  21025593.8634   21025592.3854   21025594.4314
       240.000         199.000
 118818188.41448 110377700.09648  24513367.8554   24513398.1144   24513368.5394
       207.000         143.000
 115475167.90348  89980636.19648  21974204.1374   21974207.1824   21974204.0674
       233.000         183.000
 107602844.10748  83846371.42548  20476140.5894   20476140.5334   20476141.2684
       245.000         212.000
 122469263.02148  95430566.58948  23305146.1454   23305154.0364   23305146.3544
       216.000         155.000
 03 10 30  0 15 30.0000000  0  9G 9G11G29G20G28G26G 4G 7G 8
 118687985.08048  92484157.47648  22585556.6204   22585556.7304   22585556.9134
       223.000         169.000
 128448354.42448 100089613.88248  24442918.6414   24442918.7934   24442919.2134
       209.000         131.000
 130215147.67348 101466117.34048  24779295.7744   24779345.0234   24779295.7884
       204.000         136.000
 141272948.74548  92290618.25448  24980404.6324   24980404.8384   24980405.0204
       203.000         134.000
 110525245.18848  86123572.32548  21032251.3064   21032249.8664   21032251.7434
       240.000         200.000
 118894646.70848 110437277.05848  24527919.0274   24527947.7224   24527918.5084
       210.000         144.000
 115380987.93348  89907249.16148  21956282.1454   21956285.0674   21956281.9664
       233.000         183.000
 107616679.99148  83857152.64348  20478773.4814   20478773.3594   20478774.1374
       245.000         212.000
 122584994.22748  95520746.40648  23327169.2334   23327177.3554   23327169.6394
       213.000         153.000
 03 10 30  0 16  0.0000000  0  9G 9G11G29G20G28G26G 4G 7G 8
 118615697.33848  92427829.44848  22571800.5234   22571800.4464   22571800.6384
       224.000         169.000
 128542284.91848 100162806.15148  24460794.0614   24460791.8364   24460794.0624
       211.000         135.000
 130293169.88348 101526912.71348  24794143.0754   24794194.6904   24794143.1924
       199.000         133.000
 141223843.54948  92252354.33648  24971059.7994   24971062.3324   24971060.7084
       205.000         135.000
 110560536.58348  86151072.14948  21038967.0954   21038965.7074   21038967.6424
       241.000         201.000
 118971276.99348 110496988.02148  24542501.7054   24542530.9434   24542502.1914
       214.000         145.000
 115287148.74948  89834127.60948  21938425.4234   21938428.1864   21938425.2214
       233.000         183.000
 107630787.86948  83868145.73348  20481458.2114   20481457.9884   20481458.9224
       245.000         212.000
 122700881.83648  95611048.17748  23349222.1704   23349230.0844   23349222.6864
       215.000         153.000
 03 10 30  0 16 30.0000000  0  9G 9G11G29G20G28G26G 4G 7G 8
 118543861.71048  92371853.68948  22558130.5464   22558130.5334   22558130.8124
       224.000         169.000
 128636450.26448 100236181.88048  24478711.7144   24478711.4644   24478713.4204
       213.000         138.000
 130371237.93448 101587743.78448  24809000.5984   24809051.3764   24809000.7104
       204.000         134.000
 141175084.94148  92214360.58148  24961781.8504   24961782.6044   24961784.0164
       206.000         133.000
 110596134.29548  86178810.62548  21045741.2024   21045739.8134   21045741.6394
       241.000         201.000
 119048075.93348 110556830.31848  24557117.2544   24557145.9634   24557117.3574
       214.000         145.000
 115193653.28348  89761273.86848  21920633.9634   21920636.8434   21920633.8624
       233.000         183.000
 107645166.91948  83879350.19648  20484194.4234   20484194.2394   20484195.1284
       244.000         212.000
 122816922.97248  95701469.44548  23371304.3834   23371312.5904   23371304.8464
       213.000         153.000
 03 10 30  0 17  0.0000000  0  9G 9G11G29G20G28G26G 4G 7G 8
 118472480.46548  92316231.96448  22544547.1694   22544546.8864   22544547.3884
       224.000         168.000
 128730846.82848 100309737.39748  24496675.9494   24496677.1804   24496676.6004
       215.000         142.000
 130449348.83348 101648608.20148  24823864.2104   24823916.4624   24823866.2734
       203.000         135.000
 141126675.42748  92176638.82148  24952570.1654   24952571.1354   24952570.9954
       204.000         137.000
 110632038.65048  86206788.06848  21052573.6274   21052572.1094   21052574.0914
       241.000         201.000
 119125040.35148 110616801.60348  24571764.2864   24571793.0244   24571763.4684
       212.000         146.000
 115100504.44048  89688690.23848  21902908.4284   21902911.2774   21902908.3984
       232.000         183.000
 107659815.95248  83890765.07448  20486982.0274   20486981.8444   20486982.7214
       245.000         212.000
 122933115.09248  95792008.52948  23393415.4674   23393423.9724   23393416.2794
       214.000         156.000
 03 10 30  0 17 30.0000000  0  9G 9G11G29G20G28G26G 4G 7G 8
 118401556.25948  92260966.42748  22531050.4214   22531050.4094   22531050.9684
       223.000         169.000
 128825473.21148 100383472.16148  24514683.5564   24514682.0114   24514683.5764
       218.000         144.000
 130527499.77048 101709503.83448  24838739.0794   24838788.8604   24838738.9014
       203.000         136.000
 141078617.50648  92139190.84848  24943424.8974   24943427.4724   24943424.5024
       205.000         138.000
 110668250.08948  86235004.75548  21059464.5404   21059462.7884   21059465.0954
       241.000         200.000
 119202167.46748 110676899.58848  24586440.6914   24586470.8344   24586440.9294
       217.000         148.000
 115007704.94248  89616378.78648  21885249.4794   21885252.3424   21885249.4334
       231.000         182.000
 107674734.04148  83902389.66348  20489820.8684   20489820.6114   20489821.6084
       245.000         212.000
 123049455.58748  95882663.07848  23415554.7624   23415563.0584   23415555.6644
       215.000         155.000
 03 10 30  0 18  0.0000000  0  9G 9G11G29G20G28G26G 4G 7G 8
 118331091.34048  92206058.72448  22517641.4714   22517641.5274   22517641.6004
       224.000         170.000
 128920326.75948 100457384.18948  24532733.3054   24532732.7644   24532733.4384
       220.000         148.000
 130605687.71548 101770428.28648  24853617.3384   24853669.9274   24853617.2794
       199.000         137.000
 141030913.97048  92102019.13348  24934347.1484   24934347.7844   24934347.9304
       207.000         137.000
 110704769.02148  86263461.06848  21066413.8714   21066412.0274   21066414.3184
       242.000         200.000
 119279453.99048 110737121.76448  24601149.1154   24601179.8854   24601149.1054
       212.000         149.000
 114915257.53548  89544341.65148  21867657.1984   21867660.4874   21867657.1324
       230.000         182.000
 107689920.06148  83914222.97348  20492710.5504   20492710.4114   20492711.2734
       245.000         212.000
 123165941.79048  95973431.22348  23437721.5294   23437730.3084   23437722.5764
       213.000         157.000
 03 10 30  0 18 30.0000000  0  9G 9G11G29G20G28G26G 4G 7G 8
 118261088.41648  92151511.08748  22504320.4674   22504320.3594   22504320.5904
       225.000         172.000
 129015405.11448 100531471.81548  24550825.2744   24550824.8484   24550826.0554
       217.000         151.000
 130683909.59748 101831379.15848  24868503.4934   24868555.8914   24868502.5954
       200.000         138.000
 140983567.21648  92065125.41348  24925338.2444   24925339.4714   24925338.9864
       207.000         138.000
 110741595.86848  86292157.32148  21073421.7974   21073419.9054   21073422.2064
       242.000         200.000
 119356896.96748 110797465.80048  24615887.0694   24615917.9794   24615886.8854
       212.000         150.000
 114823165.23248  89472581.19948  21850132.8084   21850136.2094   21850132.7144
       232.000         184.000
 107705372.89448  83926264.20848  20495651.0264   20495650.9464   20495651.6654
       244.000         212.000
 123282570.91648  96064310.73848  23459915.8824   23459923.9424   23459916.5034
       217.000         161.000
 03 10 30  0 19  0.0000000  0  9G 9G11G29G20G28G26G 4G 7G 8
 118191549.38248  92097324.88548  22491087.6344   22491087.6684   22491088.0504
       226.000         172.000
 129110704.40148 100605730.83748  24568960.6134   24568960.9964   24568960.9084
       219.000         152.000
 130762162.48248 101892354.16148  24883395.9454   24883448.9324   24883395.2524
       191.000         136.000
 140936579.84248  92028511.63648  24916396.8024   24916397.5054   24916397.2504
       205.000         138.000
 110778731.08648  86321093.93248  21080488.3334   21080486.4604   21080488.8314
       241.000         199.000
 119434493.26248 110857929.26348  24630653.9544   24630685.1854   24630653.4384
       215.000         151.000
 114731430.88148  89401099.74248  21832676.6454   21832679.8924   21832676.5064
       232.000         185.000
 107721091.50548  83938512.49148  20498642.2764   20498642.0844   20498642.9584
       244.000         212.000
 123399340.57548  96155299.77148  23482136.6474   23482145.2804   23482137.2204
       217.000         160.000
 03 10 30  0 19 30.0000000  0  9G 9G11G29G20G28G26G 4G 7G 8
 118122476.77548  92043502.11748  22477943.8334   22477943.7614   22477943.9974
       226.000         173.000
 129206223.47148 100680161.35148  24587137.4744   24587137.4344   24587137.9144
       216.000         151.000
 130840443.76648 101953351.26548  24898293.6394   24898346.1304   24898292.8144
       190.000         133.000
 140889954.49548  91992180.14548  24907524.4274   24907524.5134   24907525.7484
       205.000         137.000
 110816174.85248  86350270.94048  21087613.6054   21087611.7924   21087614.1284
       241.000         200.000
 119512239.68348 110918509.63448  24645449.1534   24645481.3284   24645449.3624
       213.000         150.000
 114640057.23848  89329899.41148  21815288.9524   21815292.1844   21815288.9674
       232.000         185.000
 107737075.04248  83950967.27848  20501683.7624   20501683.4874   20501684.4934
       244.000         212.000
 123516248.10948  96246396.40248  23504383.6454   23504391.9114   23504384.4104
       217.000         158.000
 03 10 30  0 20  0.0000000  0  9G 9G11G29G20G28G26G 4G 7G 8
 118053873.00548  91990044.69148  22464888.7514   22464888.6494   22464888.9754
       226.000         173.000
 129301959.43748 100754760.88948  24605355.0734   24605355.7774   24605355.3944
       211.000         149.000
 130918750.24348 102014367.93248  24913194.1524   24913247.6474   24913193.8034
       194.000         130.000
 140843693.37648  91956132.39948  24898720.8504   24898722.3504   24898722.0044
       205.000         138.000
 110853927.50348  86379688.62548  21094797.5934   21094795.8734   21094798.1014
       241.000         199.000
 119590133.34748 110979204.75448  24660273.1984   24660305.2284   24660273.1914
       214.000         152.000
 114549047.11448  89258982.38148  21797970.2604   21797973.4934   21797970.2214
       234.000         186.000
 107753322.18948  83963627.39848  20504775.4474   20504775.1764   20504776.1044
       244.000         211.000
 123633291.03148  96337598.58748  23526656.1524   23526664.3244   23526656.7454
       214.000         156.000
 03 10 30  0 20 30.0000000  0  9G 9G11G29G20G28G26G 4G 7G 8
 117985740.38448  91936954.38148  22451923.3924   22451923.3564   22451923.5604
       225.000         172.000
 129397909.74748 100829527.15348  24623614.2934   24623614.7464   24623614.3344
       210.000         147.000
 130997078.28048 102075401.39448  24928099.9784   24928156.3014   24928100.7094
       191.000         134.000
 140797799.30548  91920370.67248  24889988.2854   24889989.0464   24889987.5284
       207.000         138.000
 110891989.25248  86409347.10848  21102040.4974   21102038.7314   21102040.9144
       241.000         199.000
 119668171.13848 111040012.14848  24675124.1914   24675156.4924   24675124.1284
       214.000         151.000
 114458403.54548  89188351.17748  21780721.2124   21780724.3604   21780721.1354
       233.000         185.000
 107769832.08848  83976492.22948  20507917.2134   20507917.0004   20507917.8614
       244.000         211.000
 123750466.50448  96428904.06748  23548953.7794   23548961.6344   23548954.4334
       216.000         157.000
 03 10 30  0 21  0.0000000  0  9G 9G11G29G20G28G26G 4G 7G 8
 117918081.45148  91884233.25848  22439048.2024   22439047.8864   22439048.2514
       225.000         172.000
 129494072.52548 100904459.25648  24641912.7814   24641913.5784   24641912.6654
       200.000         141.000
 131075426.31148 102136450.40148  24943012.2054   24943066.0004   24943012.5924
       202.000         135.000
 140752274.33448  91884896.45948  24881324.6494   24881326.2454   24881324.8564
       207.000         137.000
 110930360.97848  86439247.19248  21109342.3464   21109340.5354   21109342.8694
       240.000         198.000
 119746350.13848 111100929.59648  24690002.1474   24690034.6754   24690001.9374
       212.000         148.000
 114368128.69248  89118007.19548  21763542.1124   21763545.4114   21763541.9264
       233.000         185.000
 107786603.66748  83989561.00448  20511108.7164   20511108.5084   20511109.3324
       244.000         211.000
 123867771.35448  96520310.14848  23571276.3144   23571284.5614   23571276.9134
       216.000         156.000
 03 10 30  0 21 30.0000000  0  9G 9G11G29G20G28G26G 4G 7G 8
 117850898.35548  91831882.91848  22426263.3854   22426263.3484   22426263.6954
       224.000         171.000
 129590444.26048 100979553.73248  24660250.1224   24660253.5064   24660251.3114
       194.000         138.000
 131153790.82948 102197512.22948  24957926.1604   24957980.5204   24957926.4554
       204.000         138.000
 140707121.35748  91849712.07248  24872732.3924   24872734.0144   24872732.7064
       207.000         139.000
 110969042.67048  86469388.76448  21116703.1654   21116701.3504   21116703.6464
       240.000         198.000
 119824667.19148 111161954.59248  24704906.5794   24704939.1854   24704906.2324
       210.000         147.000
 114278225.07748  89047952.25848  21746434.0554   21746437.4024   21746433.8344
       233.000         185.000
 107803635.80048  84002832.80548  20514349.7804   20514349.6364   20514350.4754
       244.000         211.000
 123985203.59848  96611815.59748  23593623.2004   23593631.3104   23593623.7614
       215.000         154.000
 03 10 30  0 22  0.0000000  0  8G 9G29G20G28G26G 4G 7G 8
 117784193.25048  91779904.98048  22413569.7444   22413569.8834   22413569.9144
       224.000         171.000
 131232168.29048 102258584.13648  24972841.3134   24972894.2404   24972841.6814
       206.000         141.000
 140662342.88948  91814819.60548  24864211.4334   24864212.9594   24864212.4264
       208.000         140.000
 111008034.44948  86499771.97248  21124122.9724   21124121.2184   21124123.4824
       240.000         197.000
 119903119.18548 111223084.74048  24719836.1474   24719869.2624   24719835.8114
       208.000         146.000
 114188696.06048  88978189.37248  21729397.3294   21729400.5814   21729397.3804
       233.000         186.000
 107820927.53648  84016306.90348  20517640.3264   20517640.1134   20517641.0644
       244.000         211.000
 124102760.59648  96703418.31248  23615993.7064   23616001.3814   23615994.1944
       213.000         150.000
 03 10 30  0 22 30.0000000  0  9G 9G11G29G20G28G26G 4G 7G 8
 117717968.62548  91728301.48348  22400967.7054   22400967.4704   22400967.6094
       224.000         173.000
 139783866.28958  91130285.50058  24697046.1405   24697042.4235   24697046.6995
       195.000         125.000
 131310556.82648 102319664.66248  24987759.0054   24987813.4084   24987759.9444
       208.000         140.000
 140617941.34448  91780220.91248  24855762.6464   24855763.7184   24855763.8624
       210.000         139.000
 111047336.85148  86530397.20048  21131601.9594   21131600.3894   21131602.3984
       241.000         198.000
 119981702.98748 111284317.59948  24734791.3414   24734824.5504   24734790.8064
       207.000         147.000
 114099544.53748  88908720.78448  21712432.3404   21712435.6364   21712432.3454
       233.000         185.000
 107838477.86148  84029982.46548  20520980.1804   20520979.8194   20520980.8634
       244.000         211.000
 124220439.55148  96795116.05948  23638387.1494   23638395.3324   23638388.3184
       215.000         152.000
 03 10 30  0 23  0.0000000  0  9G 9G11G29G20G28G26G 4G 7G 8
 117652226.71748  91677074.12248  22388457.4494   22388457.0614   22388457.8754
       226.000         174.000
 139880853.17648  91205859.81848  24715504.1354   24715503.9194   24715503.9054
       194.000         135.000
 131388952.97848 102380751.12248  25002678.5524   25002733.8294   25002678.7844
       207.000         139.000
 140573918.80548  91745917.48848  24847385.7774   24847386.4064   24847386.0834
       212.000         140.000
 111086949.94048  86561264.50148  21139140.3304   21139138.6624   21139140.8704
       240.000         198.000
 120060415.64148 111345650.82548  24749770.2274   24749804.0814   24749770.4364
       209.000         147.000
 114010772.93548  88839548.23148  21695539.3994   21695542.9404   21695539.3784
       234.000         187.000
 107856285.82448  84043858.83648  20524368.9004   20524368.4704   20524369.5754
       244.000         211.000
 124338237.33348  96886906.21648  23660803.8834   23660812.5394   23660805.1344
       217.000         152.000
 03 10 30  0 23 30.0000000  0  9G 9G11G29G20G28G26G 4G 7G 8
 117586969.67948  91626224.54748  22376039.5484   22376039.3604   22376039.7654
       226.000         174.000
 139978039.68648  91281589.19348  24733997.2184   24734002.1104   24733998.4324
       196.000         135.000
 131467353.60748 102441841.01148  25017597.4634   25017653.1324   25017598.0004
       205.000         138.000
 140530277.88548  91711911.23448  24839081.8144   24839082.1964   24839082.0544
       209.000         139.000
 111126874.45248  86592374.49748  21146737.8044   21146735.8984   21146738.2364
       240.000         197.000
 120139254.10848 111407082.05848  24764773.8974   24764808.3564   24764774.0384
       211.000         146.000
 113922384.09248  88770674.05948  21678719.4454   21678722.8774   21678719.3724
       231.000         186.000
 107874350.13548  84057934.89248  20527806.4004   20527806.0604   20527807.1074
       244.000         211.000
 124456151.91948  96978787.47648  23683243.0844   23683250.9384   23683243.7064
       214.000         153.000
 03 10 30  0 24  0.0000000  0  9G 9G11G29G20G28G26G 4G 7G 8
 117522199.53148  91575754.26448  22363714.1414   22363713.8844   22363714.5314
       227.000         176.000
 140075423.96248  91357472.94548  24752530.1904   24752530.7084   24752529.7794
       208.000         133.000
 131545755.86048 102502932.18448  25032517.8724   25032573.8914   25032518.0814
       207.000         134.000
 140487021.26348  91678204.64148  24830850.2174   24830850.2704   24830849.9614
       210.000         139.000
 111167110.73748  86623727.49248  21154394.3014   21154392.4464   21154394.6974
       240.000         197.000
 120218215.24048 111468608.89548  24779800.8754   24779835.3214   24779801.4984
       210.000         147.000
 113834380.02848  88702099.60048  21661972.6034   21661976.1044   21661972.4104
       232.000         186.000
 107892669.86948  84072209.99648  20531292.4564   20531292.1724   20531293.1624
       243.000         210.000
 124574180.31548  97070757.27448  23705703.3874   23705711.9224   23705704.0574
       212.000         149.000
 03 10 30  0 24 30.0000000  0  9G 9G11G29G20G28G26G 4G 7G 8
 117457918.96048  91525665.57348  22351481.7674   22351481.7364   22351482.0204
       227.000         175.000
 140173003.65848  91433509.24548  24771097.8194   24771099.3334   24771099.3134
       213.000         138.000
 131624157.31248 102564022.69248  25047439.2174   25047495.1594   25047439.0604
       204.000         136.000
 140444151.32948  91644799.45948  24822691.2564   24822691.7954   24822692.5454
       210.000         139.000
 111207658.72048  86655323.28048  21162110.3764   21162108.5674   21162110.8824
       241.000         197.000
 120297296.10548 111530228.98448  24794850.7064   24794885.2884   24794850.9444
       211.000         147.000
 113746764.30848  88633827.85348  21645299.5424   21645303.0424   21645299.5014
       231.000         186.000
 107911244.22548  84086683.54148  20534826.9504   20534826.7774   20534827.5834
       243.000         210.000
 124692320.00848  97162813.74348  23728184.7874   23728192.7174   23728185.9874
       215.000         151.000
 03 10 30  0 25  0.0000000  0  9G 9G11G29G20G28G26G 4G 7G 8
 117394129.97048  91475959.95648  22339342.9614   22339343.0154   22339343.2544
       228.000         175.000
 140270775.53648  91509695.27648  24789703.5794   24789704.2394   24789704.7444
       215.000         135.000
 131702554.85748 102625110.08748  25062359.8774   25062416.1024   25062359.8814
       208.000         136.000
 140401670.35548  91611697.38448  24814607.4174   24814609.6524   24814608.9454
       206.000         138.000
 111248518.72648  86687162.24748  21169885.8554   21169884.0904   21169886.3924
       239.000         197.000
 120376493.52748 111591939.94148  24809922.4424   24809957.3754   24809922.4574
       211.000         148.000
 113659539.08548  88565860.33748  21628701.2034   21628704.4684   21628701.0844
       233.000         186.000
 107930072.03648  84101354.60248  20538409.7274   20538409.5144   20538410.4394
       243.000         210.000
 124810568.65948  97254955.20948  23750687.2464   23750695.5434   23750688.1344
       215.000         151.000
 03 10 30  0 25 30.0000000  0  9G 9G11G29G20G28G26G 4G 7G 8
 117330834.76848  91426639.00348  22327298.5244   22327298.1974   22327298.8014
       227.000         176.000
 140368737.44648  91586029.09848  24808346.2864   24808346.6814   24808346.1444
       216.000         131.000
 131780945.61748 102686192.23648  25077278.4734   25077334.0814   25077278.4344
       210.000         136.000
 140359580.61648  91578900.04248  24806597.6954   24806600.6214   24806599.2384
       208.000         139.000
 111289691.36148  86719244.82048  21177720.6454   21177719.0544   21177721.1574
       239.000         197.000
 120455804.45848 111653739.32548  24825015.9714   24825050.7884   24825015.5564
       211.000         147.000
 113572707.38848  88498199.58248  21612177.5174   21612180.6414   21612177.3704
       234.000         188.000
 107949152.15048  84116222.20948  20542040.6064   20542040.3274   20542041.2954
       243.000         210.000
 124928923.52248  97347179.45748  23773210.0344   23773217.9304   23773210.5324
       215.000         154.000
 03 10 30  0 26  0.0000000  0  9G 9G11G29G20G28G26G 4G 7G 8
 117268035.70048  91377704.68548  22315348.4534   22315347.6374   22315348.6684
       227.000         175.000
 140466887.41548  91662509.47048  24827022.4464   24827021.3914   24827023.6624
       218.000         134.000
 131859326.51448 102747266.68648  25092195.1914   25092251.0704   25092195.4624
       208.000         137.000
 140317884.64148  91546409.70348  24798663.9404   24798665.4224   24798664.4854
       206.000         138.000
 111331176.61148  86751570.98948  21185615.0404   21185613.4134   21185615.4114
       240.000         197.000
 120535226.00748 111715624.92548  24840130.0124   24840165.2254   24840129.9834
       210.000         145.000
 113486271.67148  88430847.41948  21595729.2024   21595732.1794   21595729.1394
       234.000         189.000
 107968483.70848  84131285.82648  20545719.2624   20545718.9614   20545719.9774
       243.000         210.000
 125047382.00748  97439484.56948  23795751.7664   23795759.7334   23795752.4514
       218.000         157.000
 03 10 30  0 26 30.0000000  0  9G 9G11G29G20G28G26G 4G 7G 8
 117205734.97648  91329158.67448  22303493.0204   22303492.3134   22303493.3074
       227.000         175.000
 140565222.98648  91739134.68648  24845735.1294   24845734.9094   24845736.5504
       218.000         138.000
 131937694.94548 102808331.38748  25107109.3874   25107166.9864   25107109.1354
       205.000         135.000
 140276584.77448  91514228.06848  24790806.0714   24790806.6074   24790804.7334
       206.000         137.000
 111372974.71748  86784140.89248  21193569.0434   21193567.2924   21193569.6714
       239.000         196.000
 120614755.05648 111777594.28048  24855265.1274   24855300.3084   24855264.4184
       210.000         145.000
 113400234.72248  88363805.97648  21579356.7354   21579359.7584   21579356.6434
       235.000         190.000
 107988065.40648  84146544.25248  20549445.5144   20549445.2714   20549446.2064
       243.000         209.000
 125165941.36148  97531868.20048  23818313.2504   23818321.7804   23818313.9644
       218.000         159.000
 03 10 30  0 27  0.0000000  0  9G 9G11G29G20G28G26G 4G 7G 8
 117143934.76848  91281002.72548  22291732.6444   22291731.7864   22291732.8754
       227.000         175.000
 140663741.56548  91815902.46048  24864483.9104   24864485.6484   24864484.2524
       216.000         137.000
 132016048.16548 102869384.28748  25122019.4264   25122078.3824   25122019.7084
       206.000         133.000
 140235683.48748  91482357.05048  24783021.0264   24783021.9474   24783022.0924
       206.000         138.000
 111415086.16748  86816954.99048  21201582.4784   21201580.7604   21201582.8984
       240.000         197.000
 120694388.48248 111839644.99148  24870420.2614   24870455.4154   24870419.3634
       211.000         144.000
 113314598.92648  88297077.17148  21563060.4554   21563063.5124   21563060.3834
       234.000         190.000
 108007896.48148  84161997.00648  20553219.2454   20553219.0064   20553220.0104
       243.000         209.000
 125284598.96148  97624328.46348  23840893.2074   23840901.4744   23840893.8264
       220.000         161.000
 03 10 30  0 27 30.0000000  0  9G 9G11G29G20G28G26G 4G 7G 8
 117082637.31048  91233238.56148  22280067.8474   22280067.2754   22280068.1314
       226.000         174.000
 140762440.67548  91892810.89548  24883265.2454   24883266.4634   24883265.8104
       215.000         139.000
 132094382.72748 102930422.62048  25136926.0744   25136987.2054   25136926.7064
       202.000         130.000
 140195182.63448  91450797.97248  24775314.7894   24775317.0374   24775314.9904
       206.000         135.000
 111457511.02448  86850013.32248  21209655.7294   21209653.9644   21209656.0994
       239.000         197.000
 120774123.36848 111901774.79948  24885594.3094   24885629.2664   24885593.9834
       209.000         142.000
 113229367.40248  88230663.54448  21546841.0594   21546843.7474   21546840.9764
       235.000         190.000
 108027975.79048  84177643.18548  20557040.2134   20557040.0904   20557040.9484
       243.000         209.000
 125403352.26148  97716863.30448  23863491.1884   23863499.7214   23863491.7674
       222.000         162.000
 03 10 30  0 28  0.0000000  0  9G 9G11G29G20G28G26G 4G 7G 8
 117021844.42248  91185867.50548  22268499.0364   22268499.0734   22268499.2954
       227.000         175.000
 140861317.84248  91969858.04148  24902081.2684   24902081.5704   24902081.8084
       214.000         141.000
 132172696.08348 102991444.36848  25151829.3254   25151890.5784   25151830.8814
       204.000         128.000
 140155084.92048  91419553.06448  24767684.5224   24767685.4194   24767684.9204
       204.000         135.000
 111500249.86248  86883316.31548  21217788.7724   21217787.0344   21217789.3174
       239.000         196.000
 120853956.61748 111963981.26448  24900787.3374   24900822.5364   24900786.4394
       205.000         139.000
 113144542.50648  88164566.90048  21530698.8174   21530701.4214   21530698.7764
       233.000         189.000
 108048302.35548  84193482.03748  20560908.1554   20560908.1654   20560908.8454
       242.000         209.000
 125522198.55748  97809470.61248  23886106.7734   23886115.3814   23886107.4024
       221.000         162.000
 03 10 30  0 28 30.0000000  0  9G 9G11G29G20G28G26G 4G 7G 8
 116961558.29048  91138891.32848  22257027.1534   22257027.1474   22257027.2774
       227.000         177.000
 140960370.47148  92047041.75248  24920930.2764   24920931.4824   24920930.9044
       208.000         140.000
 132250985.53448 103052447.44048  25166728.5104   25166790.5614   25166730.7774
       203.000         123.000
 140115392.75648  91388624.35648  24760130.7984   24760130.2204   24760131.4844
       202.000         134.000
 111543302.72348  86916864.00248  21225981.3684   21225979.8194   21225981.9264
       239.000         196.000
 120933885.18448 112026261.99748  24915997.3134   24916034.5244   24915997.7924
       208.000         141.000
 113060126.37748  88098788.60248  21514634.4514   21514637.0484   21514634.4004
       234.000         191.000
 108068875.36648  84209512.99748  20564823.1184   20564823.0454   20564823.8244
       243.000         209.000
 125641135.03148  97902148.13848  23908739.4264   23908748.5684   23908740.1704
       218.000         160.000
 03 10 30  0 29  0.0000000  0  8G 9G11G20G28G26G 4G 7G 8
 116901781.17948  91092311.85648  22245652.0194   22245652.0114   22245652.2514
       229.000         179.000
 141059596.72348  92124360.71648  24939812.5474   24939813.5794   24939812.7804
       205.000         140.000
 140076108.03948  91358013.11748  24752654.1704   24752657.3474   24752655.0694
       206.000         135.000
 111586669.84448  86950656.57948  21234233.7604   21234232.3074   21234234.2234
       238.000         196.000
 121013906.04748 112088614.65748  24931224.7704   24931263.3564   24931226.1444
       209.000         140.000
 112976121.59748  88033330.73248  21498648.4594   21498650.9074   21498648.3524
       236.000         191.000
 108089693.32448  84225734.73048  20568784.8224   20568784.5544   20568785.4914
       243.000         210.000
 125760159.18048  97994893.90948  23931389.2744   23931398.6394   23931389.6154
       215.000         157.000
 03 10 30  0 29 30.0000000  0  8G 9G11G20G28G26G 4G 7G 8
 116842515.06648  91046130.51348  22234374.1994   22234373.9664   22234374.4754
       229.000         179.000
 141158993.85648  92201812.78848  24958727.0334   24958728.9044   24958727.5784
       210.000         137.000
 140037232.80948  91327720.79648  24745256.8194   24745258.7654   24745257.5254
       202.000         134.000
 111630351.22748  86984693.98848  21242546.0614   21242544.5934   21242546.5324
       239.000         196.000
 121094016.00148 112151036.76448  24946470.4584   24946508.2114   24946470.6554
       211.000         142.000
 112892531.27048  87968195.84248  21482741.5334   21482743.7794   21482741.3914
       235.000         191.000
 108110755.83448  84242147.16048  20572792.8154   20572792.5594   20572793.5724
       243.000         210.000
 125879268.53048  98087706.07948  23954054.6214   23954064.2654   23954055.5174
       213.000         155.000
 03 10 30  0 30  0.0000000  0  8G 9G11G20G28G26G 4G 7G 8
 116783762.07148  91000349.01048  22223193.7754   22223193.6114   22223193.9824
       229.000         178.000
 141258559.50648  92279396.50848  24977674.0504   24977673.6904   24977674.8534
       207.000         138.000
 139998769.55148  91297749.38548  24737937.6634   24737939.1404   24737937.2374
       202.000         132.000
 111674347.46548  87018976.79648  21250918.3444   21250916.7334   21250918.7834
       240.000         196.000
 121174212.15348 112213526.06648  24961733.1844   24961770.5304   24961732.9044
       215.000         143.000
 112809357.59948  87903385.50348  21466914.1004   21466916.0494   21466913.8324
       235.000         192.000
 108132061.41448  84258748.88848  20576847.0484   20576846.9414   20576847.7704
       243.000         209.000
 125998460.16348  98180582.31348  23976736.1924   23976745.7824   23976736.9344
       206.000         145.000
 03 10 30  0 30 30.0000000  0  8G 9G11G20G28G26G 4G 7G 8
 116725524.32648  90954969.00148  22212111.3134   22212111.2244   22212111.5394
       228.000         178.000
 141358291.79148  92357109.89248  24996651.2844   24996653.2654   24996652.5254
       200.000         136.000
 139960720.73248  91268101.01248  24730697.1864   24730698.4484   24730697.4444
       206.000         135.000
 111718658.60548  87053504.94848  21259350.6034   21259348.8404   21259351.2054
       239.000         196.000
 121254491.35748 112276080.03248  24977010.8734   24977049.0494   24977010.1434
       217.000         143.000
 112726603.30348  87838902.00048  21451166.3654   21451168.1604   21451166.2584
       237.000         194.000
 108153609.02848  84275539.22148  20580947.4254   20580947.3964   20580948.1014
       242.000         209.000
 126117731.79148  98273520.88248  23999432.4404   23999442.7674   23999433.6454
       208.000         148.000
 03 10 30  0 31  0.0000000  0  8G 9G11G20G28G26G 4G 7G 8
 116667803.76148  90909992.01748  22201127.2384   22201127.1484   22201127.5354
       227.000         177.000
 121458006.25158 112434766.41058  25015660.8445   25015668.6865   25015662.9465
       200.000         136.000
 139923088.28748  91238777.03248  24723536.5914   24723536.6014   24723537.7204
       205.000         135.000
 111763284.98448  87088278.76348  21267842.4964   21267840.9974   21267842.9914
       239.000         196.000
 121334850.71348 112338696.48748  24992303.9424   24992340.7424   24992303.1774
       221.000         143.000
 112644270.95448  87774747.23148  21435498.7904   21435500.4404   21435498.7484
       236.000         192.000
 108175397.83948  84292517.48548  20585093.7034   20585093.7294   20585094.4244
       243.000         209.000
 126237080.75748  98366519.81448  24022144.4464   24022154.2844   24022144.5474
       207.000         140.000
 03 10 30  0 31 30.0000000  0  8G 9G11G20G28G26G 4G 7G 8
 116610602.34848  90865419.52948  22190241.8924   22190242.0054   22190241.9774
       227.000         177.000
 121558062.77348 112512732.03048  25034702.7664   25034703.4904   25034702.9884
       203.000         138.000
 139885874.42848  91209779.29048  24716454.5684   24716455.1104   24716455.7184
       207.000         137.000
 111808226.62348  87123298.18948  21276394.4864   21276393.1884   21276394.9404
       239.000         196.000
 121415287.20448 112401373.07848  25007611.0524   25007649.0764   25007611.3104
       219.000         144.000
 112562362.81248  87710922.94448  21419911.8404   21419913.5474   21419911.7644
       237.000         193.000
 108197426.79348  84309682.84148  20589285.7514   20589285.7424   20589286.4104
       243.000         209.000
 126356504.52048  98459577.03948  24044870.8784   24044880.2864   24044870.6694
       205.000         141.000
 03 10 30  0 32  0.0000000  0  8G 9G11G20G28G26G 4G 7G 8
 116553922.14848  90821253.16348  22179455.9414   22179455.9954   22179456.1984
       228.000         178.000
 121658278.45948 112590821.72948  25053771.8554   25053773.4264   25053773.2304
       193.000         132.000
 139849081.72248  91181109.61748  24709453.1014   24709453.9784   24709455.0234
       208.000         139.000
 111853483.85248  87158563.51748  21285006.5424   21285005.2734   21285007.0994
       239.000         195.000
 121495797.65848 112464107.25748  25022932.8204   25022971.5034   25022932.2974
       219.000         143.000
 112480881.52348  87647431.22348  21404406.4394   21404408.0494   21404406.2114
       238.000         193.000
 108219694.98348  84327034.69848  20593523.2054   20593523.2444   20593523.8624
       243.000         210.000
 126476000.36548  98552690.53548  24067609.7354   24067619.5894   24067610.0264
       206.000         140.000
 03 10 30  0 32 30.0000000  0  8G 9G11G20G28G26G 4G 7G 8
 116497765.30148  90777494.61248  22168770.0054   22168769.5504   22168770.2724
       229.000         178.000
 121758651.45248 112669034.33848  25072873.0214   25072872.4694   25072873.5744
       196.000         134.000
 139812712.05148  91152769.63748  24702532.5544   24702533.5384   24702533.1264
       207.000         140.000
 111899057.01448  87194075.08048  21293678.9984   21293677.4324   21293679.4744
       238.000         195.000
 121576379.25148 112526896.90848  25038267.8774   25038306.5344   25038267.6084
       219.000         142.000
 112399830.12648  87584274.73148  21388982.4194   21388984.0274   21388982.3324
       238.000         194.000
 108242201.46748  84344572.28048  20597806.0274   20597806.0604   20597806.6614
       243.000         210.000
 126595565.94748  98645858.35548  24090362.5894   24090372.7284   24090362.6464
       205.000         140.000
 03 10 30  0 33  0.0000000  0  8G 9G11G20G28G26G 4G 7G 8
 116442133.61648  90734145.27248  22158183.9104   22158183.0024   22158184.0894
       230.000         179.000
 121859178.38748 112747366.70748  25092003.6734   25092005.2984   25092003.5024
       200.000         138.000
 139776767.55048  91124760.85048  24695692.9954   24695693.5144   24695693.2464
       205.000         141.000
 111944946.32748  87229833.04248  21302411.4394   21302409.8544   21302411.9634
       238.000         195.000
 121657028.80848 112589739.48748  25053615.7484   25053655.2894   25053615.9284
       221.000         143.000
 112319210.74448  87521454.86648  21373640.8744   21373642.3544   21373640.8664
       237.000         196.000
 108264945.05748  84362294.60048  20602133.9804   20602133.9394   20602134.7174
       242.000         209.000
 126715198.19148  98739078.11548  24113128.1764   24113137.7604   24113128.1974
       207.000         140.000
 03 10 30  0 33 30.0000000  0  8G 9G11G20G28G26G 4G 7G 8
 116387029.32048  90691206.89148  22147697.9064   22147696.9544   22147698.0564
       229.000         177.000
 121959856.65948 112825816.98148  25111162.1414   25111162.3654   25111161.4494
       204.000         136.000
 139741250.74348  91097085.57848  24688934.5354   24688933.6874   24688934.7384
       205.000         139.000
 111991151.57948  87265837.11748  21311204.0394   21311202.3684   21311204.4904
       238.000         195.000
 121737743.58648 112652632.89148  25068975.7694   25069015.9624   25068976.2654
       219.000         144.000
 112239025.87748  87458973.61648  21358381.8164   21358383.2254   21358381.8224
       238.000         195.000
 108287924.82348  84380200.96648  20606506.8394   20606506.7674   20606507.5484
       243.000         209.000
 126834894.50248  98832347.79948  24135905.9324   24135915.7584   24135906.3314
       210.000         142.000
 03 10 30  0 34  0.0000000  0  8G 9G11G20G28G26G 4G 7G 8
 116332454.13848  90648680.77148  22137312.5104   22137311.6844   22137312.7264
       230.000         179.000
 122060684.64948 112904383.70748  25130348.6904   25130350.8144   25130349.1244
       202.000         132.000
 139706163.41148  91069744.98748  24682256.4674   24682257.9474   24682257.4034
       207.000         139.000
 112037673.22748  87302087.76548  21320056.8024   21320055.3064   21320057.2674
       238.000         196.000
 121818520.39148 112715574.66348  25084348.3234   25084388.1964   25084348.3804
       217.000         147.000
 112159277.59248  87396832.37148  21343205.9064   21343207.3694   21343205.7944
       238.000         195.000
 108311139.64948  84398290.43548  20610924.4024   20610924.4274   20610924.9584
       242.000         209.000
 126954652.53148  98925665.60248  24158695.3214   24158703.8474   24158695.9514
       211.000         141.000
 03 10 30  0 34 30.0000000  0  8G 9G11G20G28G26G 4G 7G 8
 116278410.23348  90606568.66448  22127028.0304   22127027.5734   22127028.2344
       229.000         179.000
 122161658.93648 112983064.39048  25149563.8324   25149564.7304   25149564.5734
       201.000         130.000
 139671507.64348  91042740.67048  24675662.9974   24675663.0914   24675662.9044
       205.000         138.000
 112084511.30148  87338584.95848  21328969.9234   21328968.4324   21328970.3694
       238.000         196.000
 121899356.18048 112778562.39648  25099732.1894   25099771.7444   25099732.1994
       218.000         146.000
 112079969.17148  87335034.13448  21328113.5254   21328114.9274   21328113.4064
       238.000         196.000
 108334588.63348  84416562.37548  20615386.6114   20615386.5854   20615387.3264
       243.000         209.000
 127074469.44948  99019029.17748  24181496.3914   24181505.6574   24181496.8254
       216.000         146.000
 03 10 30  0 35  0.0000000  0  8G 9G11G20G28G26G 4G 7G 8
 116224899.27748  90564871.82848  22116845.2344   22116844.7644   22116845.4074
       230.000         179.000
 122262778.14548 113061857.66048  25168804.1114   25168810.8564   25168807.6274
       202.000         131.000
 139637285.77648  91016074.47048  24669149.5124   24669150.5984   24669150.5814
       206.000         140.000
 112131666.04848  87375328.96248  21337943.2514   21337941.6104   21337943.8564
       239.000         197.000
 121980248.10148 112841593.88648  25115126.2284   25115166.7454   25115126.0444
       215.000         147.000
 112001102.33648  87273579.79348  21313105.4584   21313106.7204   21313105.2494
       237.000         195.000
 108358270.74648  84435015.97148  20619893.1974   20619893.1384   20619893.9664
       243.000         209.000
 127194343.04648  99112437.07148  24204307.2284   24204316.2414   24204308.1494
       213.000         145.000
 03 10 30  0 35 30.0000000  0  7G 9G20G28G26G 4G 7G 8
 116171923.26848  90523591.84848  22106764.2674   22106763.8004   22106764.5774
       231.000         181.000
 139603499.48948  90989747.56948  24662720.2434   24662722.4944   24662720.7674
       205.000         141.000
 112179137.52948  87412319.73348  21346976.7494   21346974.9324   21346977.2384
       239.000         196.000
 122061193.04548 112904666.69048  25130530.5284   25130570.5324   25130529.9914
       212.000         146.000
 111922679.29048  87212471.16648  21298181.9054   21298183.0974   21298181.7484
       237.000         195.000
 108382185.02748  84453650.45048  20624443.9644   20624443.8754   20624444.6654
       242.000         209.000
 127314270.55648  99205886.91748  24227129.5734   24227138.5314   24227130.0454
       215.000         147.000
 03 10 30  0 36  0.0000000  0  7G 9G20G28G26G 4G 7G 8
 116119483.94848  90482730.00748  22096785.3884   22096785.0674   22096785.6284
       230.000         179.000
 139570150.61748  90963761.31848  24656374.3674   24656375.6384   24656375.0494
       206.000         140.000
 112226925.94148  87449557.46448  21356070.4654   21356068.7534   21356070.9704
       238.000         195.000
 122142188.12248 112967778.62648  25145943.7864   25145984.8794   25145944.0384
       210.000         147.000
 111844702.97448  87151710.66648  21283343.4554   21283344.4694   21283343.3444
       240.000         197.000
 108406330.60548  84472465.22448  20629038.6854   20629038.6744   20629039.3294
       243.000         209.000
 127434249.17348  99299376.60548  24249960.5964   24249969.9034   24249961.4554
       217.000         148.000
 03 10 30  0 36 30.0000000  0  7G 9G20G28G26G 4G 7G 8
 116067583.42448  90442288.04648  22086908.9064   22086908.7524   22086909.1844
       230.000         180.000
 139537241.94248  90938118.28148  24650111.9274   24650111.7284   24650111.9244
       204.000         139.000
 112275031.36248  87487042.22348  21365224.2944   21365222.8934   21365224.8164
       239.000         195.000
 122223230.30648 113030927.26148  25161366.3514   25161408.5884   25161366.0964
       203.000         143.000
 111767175.80948  87091300.16948  21268590.1534   21268591.3174   21268590.0234
       238.000         196.000
 108430706.32448  84491459.27448  20633677.2414   20633677.2554   20633678.0104
       242.000         209.000
 127554276.48648  99392904.20948  24272801.6644   24272810.6784   24272802.0604
       212.000         147.000
 03 10 30  0 37  0.0000000  0  7G 9G20G28G26G 4G 7G 8
 116016223.49248  90402267.38548  22077135.1934   22077135.2314   22077135.4884
       229.000         180.000
 139504775.46248  90912819.88548  24643932.7554   24643933.8974   24643933.7044
       208.000         140.000
 112323454.05148  87524774.21748  21374438.7924   21374437.4254   21374439.2344
       238.000         196.000
 122304316.67648 113094110.39248  25176797.8604   25176839.7004   25176797.5974
       197.000         140.000
 111690100.26548  87031241.61448  21253923.0914   21253923.9324   21253923.0184
       240.000         196.000
 108455311.26348  84510631.99348  20638359.3444   20638359.3244   20638360.0854
       242.000         208.000
 127674350.05748  99486467.92948  24295650.6364   24295659.9294   24295651.3774
       214.000         147.000
 03 10 30  0 37 30.0000000  0  7G 9G20G28G26G 4G 7G 8
 115965405.85648  90362669.30848  22067464.6894   22067464.7324   22067464.9844
       229.000         179.000
 139472752.77748  90887867.30948  24637839.1054   24637840.8364   24637840.4674
       209.000         141.000
 112372194.01648  87562753.41248  21383713.7904   21383712.4074   21383714.3464
       240.000         196.000
 142385371.02958  93157250.37658  25192235.1745   25192279.9355   25192235.7045
       189.000         134.000
 111613478.40748  86971536.62848  21239342.0524   21239342.8804   21239342.0214
       238.000         197.000
 108480144.31648  84529982.37448  20643084.9424   20643084.8804   20643085.6714
       242.000         208.000
 127794467.03648  99580065.51448  24318508.4234   24318518.2524   24318508.8794
       209.000         146.000
 03 10 30  0 38  0.0000000  0  9G 9G11G24G20G28G26G 4G 7G 8
 115915132.12548  90323495.02448  22057897.9864   22057897.9574   22057898.0964
       231.000         181.000
 142872551.70358  93537039.38858  25284815.5285   25284817.5925   25284817.0355
       207.000         132.000
 137137053.53158  89067760.70458  24193432.1115   24193449.6785   24193432.3575
       211.000         149.000
 139441175.86148  90863261.98448  24631830.9224   24631832.3424   24631831.4474
       211.000         142.000
 112421251.43648  87600979.98748  21393049.2414   21393047.7034   21393049.7514
       238.000         196.000
 142466536.59848  93220495.10848  25207682.6124   25207723.9414   25207682.9754
       184.000         129.000
 111537312.71848  86912187.04648  21224847.9674   21224848.7264   21224847.8714
       240.000         197.000
 108505204.81248  84549510.06448  20647853.7814   20647853.6774   20647854.3814
       243.000         208.000
 127914625.03848  99673695.09448  24341372.2744   24341383.0704   24341373.7114
       201.000         142.000
 03 10 30  0 38 30.0000000  0  8G 9G11G24G20G28G 4G 7G 8
 115865404.25648  90284746.07048  22048435.2994   22048435.0844   22048435.5554
       231.000         181.000
 142974620.52848  93616573.32848  25304239.4984   25304243.3414   25304239.8474
       199.000         124.000
 137025665.74248  88980967.23048  24172234.2664   24172250.8914   24172234.4254
       214.000         150.000
 139410046.64548  90839005.40348  24625908.6634   24625908.8174   24625908.2894
       211.000         142.000
 112470626.53348  87639454.11748  21402445.0184   21402443.4084   21402445.4504
       239.000         196.000
 111461605.47848  86853194.64348  21210441.0934   21210441.7614   21210441.0404
       239.000         197.000
 108530491.51448  84569213.97248  20652665.6724   20652665.6194   20652666.3274
       242.000         208.000
 128034821.51048  99767354.57048  24364245.5594   24364254.8484   24364246.4654
       204.000         139.000
 03 10 30  0 39  0.0000000  0  8G 9G24G20G28G26G 4G 7G 8
 115816224.05448  90246423.87048  22039076.5634   22039076.2274   22039076.8174
       230.000         180.000
 136914364.26348  88894240.82148  24151053.1484   24151068.6514   24151053.0564
       215.000         147.000
 139379367.70948  90815099.81848  24620069.0774   24620068.4344   24620070.0384
       211.000         143.000
 112520319.18648  87678175.68048  21411901.2194   21411899.5224   21411901.6924
       238.000         195.000
 142628970.37148  93347064.43948  25238592.3124   25238637.1134   25238593.3584
       188.000         131.000
 111386359.18048  86794561.43848  21196122.0544   21196122.7024   21196121.9594
       239.000         196.000
 108556003.58248  84589093.53648  20657520.4084   20657520.3674   20657521.1664
       242.000         207.000
 128155053.58148  99861041.81648  24387125.1124   24387134.9574   24387125.7984
       201.000         139.000
 03 10 30  0 39 30.0000000  0  8G 9G24G20G28G26G 4G 7G 8
 115767593.28648  90208529.76848  22029822.5394   22029822.0824   22029822.6064
       232.000         180.000
 136803151.51548  88807583.45048  24129888.2764   24129903.5944   24129888.2794
       214.000         147.000
 139349140.18948  90791545.92948  24614316.8614   24614317.6464   24614317.3994
       210.000         145.000
 112570329.54648  87717144.77648  21421417.8914   21421416.2584   21421418.3504
       239.000         196.000
 142710232.56948  93410384.50448  25254060.1164   25254101.4844   25254058.1004
       195.000         135.000
 111311575.95248  86736289.09148  21181890.9934   21181891.6954   21181890.9644
       238.000         197.000
 108581739.95648  84609147.85948  20662417.8894   20662417.8714   20662418.5244
       242.000         207.000
 128275318.78448  99954754.83448  24410011.3304   24410021.3484   24410011.5734
       201.000         140.000
 03 10 30  0 40  0.0000000  0  8G 9G24G20G28G26G 4G 7G 8
 115719513.71448  90171065.19848  22020673.2694   22020672.7514   22020673.6184
       230.000         180.000
 136692030.33648  88720997.29948  24108742.0054   24108755.5014   24108741.2824
       214.000         146.000
 139319366.48348  90768345.55248  24608651.3274   24608652.6174   24608651.9554
       215.000         146.000
 112620657.79748  87756361.64848  21430995.1264   21430993.3584   21430995.5644
       239.000         196.000
 142791521.11648  93473725.09848  25269528.9094   25269571.8024   25269528.2234
       199.000         139.000
 111237258.04948  86678379.28648  21167748.7824   21167749.3204   21167748.6144
       239.000         197.000
 108607699.67748  84629376.24348  20667357.8624   20667357.7804   20667358.5764
       242.000         207.000
 128395614.85248 100048491.99448  24432902.5594   24432912.5734   24432903.3984
       205.000         142.000
 03 10 30  0 40 30.0000000  0  8G 9G24G20G28G26G 4G 7G 8
 115671986.91848  90134031.35648  22011628.9764   22011628.7104   22011629.2484
       230.000         179.000
 136581003.03048  88634484.16448  24087612.4124   24087626.8224   24087612.3244
       213.000         145.000
 139290048.35948  90745500.24948  24603072.5134   24603072.5144   24603072.9354
       213.000         146.000
 112671303.84848  87795826.12848  21440632.8064   21440630.8644   21440633.2374
       240.000         195.000
 142872833.02548  93537083.97848  25285002.7154   25285044.9614   25285002.4204
       198.000         139.000
 111163407.97648  86620834.02748  21153695.1694   21153695.7414   21153695.0174
       239.000         196.000
 108633881.83448  84649777.92348  20672340.2064   20672340.1324   20672340.9794
       242.000         208.000
 128515938.85648 100142250.84648  24455799.3984   24455809.4654   24455800.3564
       200.000         138.000
 03 10 30  0 41  0.0000000  0  8G 9G24G20G28G26G 4G 7G 8
 115625014.86448  90097429.82448  22002690.3894   22002690.1494   22002690.6304
       230.000         179.000
 136470072.04348  88548045.91648  24066502.4054   24066514.7804   24066501.4924
       211.000         144.000
 139261187.36148  90723010.98048  24597580.1334   24597581.7284   24597580.9244
       214.000         147.000
 112722268.03948  87835538.50548  21450330.8314   21450328.9214   21450331.2804
       239.000         196.000
 142954165.41248  93600458.84148  25300478.4864   25300524.5384   25300478.5884
       206.000         139.000
 111090027.74148  86563654.88448  21139731.1114   21139731.6514   21139730.9184
       238.000         197.000
 108660285.42348  84670352.11148  20677364.6764   20677364.5514   20677365.2844
       242.000         207.000
 128636288.35648 100236029.58748  24478700.9204   24478711.7284   24478701.2864
       198.000         137.000
 03 10 30  0 41 30.0000000  0  8G 9G24G20G28G26G 4G 7G 8
 115578598.95548  90061261.61448  21993857.7364   21993857.5894   21993858.1264
       230.000         182.000
 136359240.45748  88461685.05348  24045409.8004   24045422.2504   24045410.0684
       211.000         142.000
 139232785.84748  90700879.79148  24592175.9634   24592176.3954   24592177.0324
       213.000         146.000
 112773550.26048  87875498.70548  21460089.5964   21460087.6174   21460090.1414
       239.000         195.000
 143035515.28548  93663847.35748  25315960.1004   25316005.1314   25315960.1714
       208.000         140.000
 111017119.85448  86506843.87148  21125857.0754   21125857.3644   21125856.9664
       239.000         197.000
 108686909.52148  84691098.13148  20682431.1014   20682430.9814   20682431.8084
       242.000         207.000
 128756660.93448 100329826.33048  24501606.5994   24501616.7804   24501607.0414
       194.000         129.000
 03 10 30  0 42  0.0000000  0  8G 9G24G20G28G26G 4G 7G 8
 115532740.82648  90025528.02848  21985131.3494   21985131.1814   21985131.5534
       231.000         181.000
 136248510.42248  88375403.38048  24024337.5434   24024349.5754   24024337.7884
       210.000         144.000
 139204845.31048  90679107.72848  24586858.7934   24586860.7394   24586859.3894
       213.000         145.000
 112825150.48648  87915706.67248  21469908.6314   21469906.8764   21469909.1094
       239.000         195.000
 143116879.76748  93727247.23648  25331443.5324   25331489.0494   25331443.7474
       204.000         139.000
 110944686.42448  86450402.55548  21112073.3534   21112073.3984   21112073.3304
       240.000         197.000
 108713753.06448  84712015.12048  20687539.2494   20687539.1144   20687539.9514
       242.000         207.000
 128877053.78848 100423638.79248  24524515.4404   24524529.6364   24524515.9994
       194.000         124.000
 03 10 30  0 42 30.0000000  0  8G 9G24G20G28G26G 4G 7G 8
 115487442.34548  89990230.55848  21976511.3474   21976511.0924   21976511.5424
       232.000         183.000
 136137884.88948  88289203.14248  24003284.8004   24003297.0724   24003285.0354
       208.000         145.000
 139177367.62148  90657696.24048  24581629.5354   24581631.9554   24581630.4414
       213.000         145.000
 112877068.89848  87956162.57448  21479788.3924   21479786.6084   21479788.7414
       239.000         195.000
 143198255.76648  93790656.10648  25346930.0134   25346975.7854   25346929.8024
       206.000         141.000
 110872729.62748  86394332.64548  21098380.2044   21098380.2084   21098380.2974
       240.000         198.000
 108740815.30748  84733102.51648  20692689.0794   20692688.9314   20692689.7284
       242.000         207.000
 128997464.39348 100517465.03548  24547429.2534   24547438.9234   24547430.9684
       199.000         126.000
 03 10 30  0 43  0.0000000  0  8G 9G24G20G28G26G 4G 7G 8
 115442704.89048  89955370.25248  21967998.0534   21967997.9214   21967998.4394
       231.000         184.000
 136027365.70448  88203085.64948  23982253.1324   23982265.3874   23982253.1924
       211.000         147.000
 139150355.17848  90636647.36048  24576489.6654   24576491.7114   24576490.8184
       211.000         146.000
 112929305.41948  87996866.34848  21489728.8044   21489727.0614   21489729.3434
       240.000         195.000
 143279640.47948  93854071.73848  25362418.9404   25362463.7754   25362419.0574
       210.000         140.000
 110801251.72648  86338635.90848  21084778.0364   21084778.0854   21084777.9994
       239.000         197.000
 108768095.21948  84754359.58748  20697880.3614   20697880.1324   20697881.0314
       242.000         207.000
 129117890.23148 100611303.27048  24570344.4274   24570354.5384   24570347.9004
       203.000         128.000
 03 10 30  0 43 30.0000000  0  8G 9G24G20G28G26G 4G 7G 8
 115398529.77248  89920948.08948  21959591.9684   21959591.6534   21959592.1514
       232.000         183.000
 135916956.00048  88117053.48448  23961242.2054   23961252.9264   23961242.1264
       213.000         149.000
 139123809.44348  90615962.11648  24571438.2634   24571440.7264   24571439.2174
       210.000         146.000
 112981860.35648  88037818.23148  21499729.6904   21499727.9134   21499730.2384
       239.000         195.000
 143361030.86748  93917491.81548  25377908.2804   25377952.8004   25377908.2074
       210.000         139.000
 110730254.81748  86283313.91848  21071267.4044   21071267.3454   21071267.1894
       239.000         197.000
 108795591.83248  84775785.53048  20703112.7844   20703112.5474   20703113.5104
       242.000         207.000
 129238328.74048 100705151.30748  24593264.7504   24593278.7534   24593266.8034
       207.000         131.000
 03 10 30  0 44  0.0000000  0  8G 9G24G20G28G26G 4G 7G 8
 115354919.15948  89886965.83748  21951292.9404   21951292.6494   21951293.1184
       233.000         183.000
 135806657.82848  88031108.12648  23940252.4574   23940263.5104   23940252.2294
       213.000         151.000
 139097732.19248  90595642.11348  24566476.9184   24566477.6584   24566477.1024
       213.000         145.000
 113034733.31948  88079017.95548  21509791.2254   21509789.1594   21509791.6104
       239.000         195.000
 143442424.04848  93980913.96348  25393397.8384   25393442.7474   25393396.5094
       208.000         137.000
 110659741.10348  86228368.40148  21057848.9074   21057848.9334   21057848.8114
       238.000         196.000
 108823304.11248  84797379.43748  20708386.3924   20708386.1504   20708387.1614
       242.000         207.000
 129358777.60148 100799007.28848  24616188.2364   24616197.4914   24616187.4644
       210.000         134.000
 03 10 30  0 44 30.0000000  0  8G 9G24G20G28G26G 4G 7G 8
 115311874.36648  89853424.41948  21943101.8324   21943101.3674   21943102.0354
       232.000         183.000
 135696473.96248  87945251.78848  23919283.9564   23919294.2794   23919284.1974
       215.000         152.000
 139072125.40248  90575688.71148  24561603.9644   24561605.6564   24561605.0414
       213.000         145.000
 113087924.47548  88120465.60948  21519913.0744   21519911.0154   21519913.6554
       239.000         194.000
 143523817.28448  94044336.22448  25408886.7454   25408932.4454   25408886.3464
       212.000         135.000
 110589712.69448  86173801.03048  21044522.8254   21044522.7924   21044522.8174
       239.000         197.000
 108851231.20548  84819140.72648  20713700.8164   20713700.6084   20713701.5414
       242.000         207.000
 129479234.18148 100892869.42848  24639108.7374   24639119.2684   24639109.7154
       209.000         136.000
 03 10 30  0 45  0.0000000  0  8G 9G24G20G28G26G 4G 7G 8
 115269396.93148  89820325.09448  21935018.5864   21935017.9894   21935018.8994
       231.000         182.000
 135586406.82648  87859486.38048  23898337.5664   23898347.9364   23898337.9494
       212.000         151.000
 139046990.77748  90556103.38148  24556820.5774   24556822.2884   24556821.3534
       212.000         144.000
 113141433.94348  88162161.29848  21530095.3274   21530093.5074   21530095.7684
       237.000         193.000
 143605207.61148  94107756.25748  25424373.7984   25424419.8574   25424374.9974
       203.000         132.000
 110520171.67148  86119613.40648  21031289.5174   21031289.5034   21031289.4824
       239.000         197.000
 108879372.50548  84841069.07448  20719055.7914   20719055.7554   20719056.5514
       242.000         207.000
 129599696.03848 100986735.71948  24662031.8444   24662041.9034   24662032.6614
       202.000         137.000
 03 10 30  0 45 30.0000000  0  8G 9G24G20G28G26G 4G 7G 8
 115227488.43948  89787669.12048  21927043.7034   21927043.1574   21927043.8414
       232.000         182.000
 135476458.97548  87773813.94848  23877414.7994   23877424.8114   23877415.1754
       217.000         154.000
 139022330.08548  90536887.45448  24552127.8014   24552129.1214   24552128.8714
       214.000         142.000
 113195261.46048  88204104.79748  21540338.2034   21540336.6454   21540338.5404
       238.000         193.000
 143686592.11048  94171171.70548  25439860.6044   25439910.4974   25439861.6354
       205.000         128.000
 110451120.21848  86065807.25248  21018149.2104   21018149.3624   21018149.2074
       239.000         197.000
 108907726.60648  84863163.14048  20724451.4114   20724451.3874   20724451.9884
       242.000         207.000
 129720160.53048 101080603.99648  24684955.6104   24684967.3224   24684956.1514
       194.000         131.000
 03 10 30  0 46  0.0000000  0  8G 9G24G20G28G26G 4G 7G 8
 115186150.30448  89755457.57048  21919177.1894   21919176.9614   21919177.3244
       231.000         183.000
 135366632.93448  87688236.31148  23856514.7734   23856523.7594   23856515.0894
       216.000         155.000
 138998144.70348  90518042.00548  24547524.7554   24547526.5724   24547525.5634
       212.000         140.000
 113249407.33548  88246296.37248  21550641.8454   21550640.2974   21550642.1984
       238.000         193.000
 143767967.70248  94234580.21348  25455348.2084   25455393.3674   25455348.3474
       210.000         128.000
 110382560.54048  86012384.28848  21005102.7104   21005102.6354   21005102.5884
       240.000         198.000
 108936292.88148  84885422.58948  20729887.4434   20729887.3094   20729888.1284
       242.000         207.000
 129840625.07248 101174472.24248  24707879.4914   24707891.3844   24707880.1834
       193.000         128.000
 03 10 30  0 46 30.0000000  0  8G 9G24G20G28G26G 4G 7G 8
 115145384.21748  89723691.81048  21911419.6764   21911419.4824   21911419.9284
       233.000         184.000
 135256931.49148  87602755.80548  23835638.8604   23835647.5534   23835639.0204
       218.000         156.000
 138974436.12348  90499567.87348  24543012.6724   24543015.2384   24543013.7924
       213.000         140.000
 113303871.56448  88288735.99048  21561006.3494   21561004.5874   21561006.8884
       238.000         193.000
 143849331.71648  94297979.71348  25470831.5734   25470878.4854   25470832.9544
       206.000         128.000
 110314494.51148  85959345.95048  20992150.1684   20992149.7854   20992150.0184
       240.000         198.000
 108965070.33848  84907846.62548  20735363.6014   20735363.4364   20735364.3154
       242.000         207.000
 129961086.98648 101268338.40348  24730803.9784   24730814.3034   24730803.1604
       189.000         128.000
 03 10 30  0 47  0.0000000  0  8G 9G24G20G28G26G 4G 7G 8
 115105191.37848  89692372.74848  21903771.3144   21903771.1144   21903771.5574
       233.000         185.000
 135147356.43348  87517373.73448  23814786.3464   23814795.0214   23814786.6834
       216.000         153.000
 138951206.31948  90481466.89248  24538593.4464   24538592.9054   24538594.2264
       213.000         138.000
 113358653.98448  88331423.57048  21571431.2484   21571429.3724   21571431.8914
       238.000         193.000
 143930681.19448  94361367.85548  25486313.5184   25486362.9684   25486314.2834
       209.000         129.000
 110246924.42248  85906694.05548  20979291.8354   20979291.4944   20979291.7594
       240.000         199.000
 108994057.77848  84930434.19448  20740879.8194   20740879.6804   20740880.5274
       242.000         207.000
 130081543.95848 101362200.72948  24753725.8014   24753736.2634   24753725.3294
       193.000         124.000
 03 10 30  0 47 30.0000000  0  8G 9G24G20G28G26G 4G 7G 8
 115065573.19448  89661501.44948  21896232.3114   21896232.0844   21896232.6864
       234.000         186.000
 135037910.73548  87432092.25748  23793958.5694   23793967.3244   23793959.4174
       215.000         152.000
 138928457.53748  90463740.99948  24534263.1394   24534263.2724   24534264.5414
       212.000         137.000
 113413754.50448  88374359.03748  21581916.2744   21581914.6014   21581916.8034
       237.000         192.000
 144012013.28948  94424742.48848  25501793.5684   25501840.0564   25501791.9114
       208.000         129.000
 110179852.11548  85854430.05748  20966528.3644   20966528.0204   20966528.2164
       240.000         200.000
 109023254.57548  84953184.89648  20746435.8104   20746435.7174   20746436.5174
       242.000         207.000
 130201993.43248 101456057.15848  24776645.0824   24776658.3334   24776646.3174
       188.000         124.000
 03 10 30  0 48  0.0000000  0  8G 9G24G20G28G26G 4G 7G 8
 115026531.12948  89631079.10148  21888803.0154   21888802.6454   21888803.3914
       234.000         188.000
 134928596.85248  87346913.56848  23773155.8724   23773164.2144   23773156.7644
       214.000         151.000
 138906190.30548  90446390.20348  24530026.8204   24530026.3684   24530027.1144
       212.000         137.000
 113469173.18348  88417542.42348  21592462.0814   21592460.4534   21592462.3374
       237.000         192.000
 144093325.30348  94488101.45848  25517267.1084   25517315.9624   25517266.9164
       211.000         128.000
 110113279.71248  85802555.55848  20953859.9024   20953859.6884   20953859.7814
       240.000         200.000
 109052659.77148  84976098.01748  20752031.4024   20752031.3934   20752032.0594
       242.000         207.000
 130322433.14248 101549906.03048  24799565.9684   24799577.7674   24799565.0494
       192.000         129.000
 03 10 30  0 48 30.0000000  0  8G 9G24G20G28G26G 4G 7G 8
 114988066.51748  89601106.73448  21881483.2654   21881482.9914   21881483.5334
       233.000         187.000
 134819417.22948  87261839.40748  23752379.3394   23752387.0174   23752379.6764
       206.000         150.000
 138884406.37748  90429415.78248  24525880.7594   24525880.6194   24525881.3234
       210.000         135.000
 113524909.86348  88460973.59948  21603068.3054   21603066.8704   21603068.7914
       237.000         192.000
 144174614.15448  94551442.37648  25532737.5654   25532781.1894   25532736.7094
       205.000         124.000
 110047209.31348  85751072.23648  20941287.2094   20941286.8784   20941287.1074
       241.000         200.000
 109082272.45248  84999172.82748  20757666.3704   20757666.4394   20757667.0714
       242.000         207.000
 130442860.12148 101643744.91848  24822482.1644   24822495.4474   24822482.9484
       197.000         129.000
 03 10 30  0 49  0.0000000  0  8G 9G24G20G28G26G 4G 7G 8
 114950180.63948  89571585.28848  21874273.8374   21874273.5004   21874274.0884
       234.000         187.000
 134710374.38848  87176871.75848  23731627.3804   23731636.7514   23731628.4434
       213.000         148.000
 138863108.14948  90412820.19848  24521827.0124   24521826.4514   24521827.8644
       209.000         134.000
 113580964.42548  88504652.43248  21613735.3964   21613733.8314   21613735.8654
       238.000         193.000
 144255876.95848  94614763.01848  25548202.5784   25548248.6424   25548200.7424
       205.000         125.000
 109981642.85748  85699981.58148  20928810.1764   20928809.7914   20928810.2154
       240.000         200.000
 109112091.67348  85022408.56248  20763340.7074   20763340.8574   20763341.4444
       242.000         207.000
 130563272.04548 101737572.05648  24845395.5904   24845408.1044   24845396.6594
       196.000         131.000
 03 10 30  0 49 30.0000000  0  8G 9G24G20G28G26G 4G 7G 8
 114912874.80848  89542515.88948  21867174.7804   21867174.2044   21867175.0644
       233.000         186.000
 134601470.96348  87092012.72048  23710903.6524   23710911.9354   23710904.2764
       214.000         148.000
 138842296.53548  90396603.74548  24517865.2724   24517868.0074   24517866.9394
       208.000         136.000
 113637337.11048  88548579.23348  21624462.8834   21624461.1604   21624463.5474
       237.000         193.000
 144337111.12548  94678061.28948  25563659.9044   25563709.7154   25563660.8764
       198.000         125.000
 109916582.23948  85649285.07148  20916429.3904   20916429.0524   20916429.2564
       240.000         200.000
 109142116.68748  85045804.68248  20769054.1954   20769054.3994   20769054.8874
       241.000         206.000
 130683666.70348 101831385.64948  24868307.8864   24868318.9024   24868306.7424
       192.000         128.000
 03 10 30  0 50  0.0000000  0  6G 9G24G20G28G 4G 7
 114876150.53748  89513899.61548  21860186.3294   21860185.6734   21860186.5694
       232.000         185.000
 134492709.20748  87007264.05748  23690207.0674   23690214.3924   23690207.2264
       212.000         145.000
 138821972.91748  90380767.45448  24513997.4214   24514000.0154   24513999.7224
       207.000         133.000
 113694027.58248  88592753.62848  21635250.5974   21635248.9254   21635251.1294
       238.000         192.000
 109852029.42448  85598984.25248  20904145.4454   20904144.9914   20904145.2654
       241.000         200.000
 109172346.60048  85069360.53548  20774806.6884   20774806.9584   20774807.3614
       241.000         206.000
 03 10 30  0 50 30.0000000  0  6G 9G24G20G28G 4G 7
 114840009.12748  89485737.51048  21853308.6464   21853308.1184   21853308.9714
       232.000         184.000
 134384091.87148  86922627.75948  23669537.5414   23669544.5554   23669537.5374
       210.000         149.000
 138802139.21848  90365313.05048  24510224.4594   24510225.6854   24510224.8764
       208.000         134.000
 113751036.04348  88637175.86548  21646098.5884   21646097.2284   21646099.0874
       237.000         192.000
 109787986.51848  85549080.75548  20891958.5794   20891957.8924   20891958.5504
       242.000         201.000
 109202780.21348  85093074.99048  20780598.0524   20780598.2844   20780598.7674
       242.000         206.000
 03 10 30  0 51  0.0000000  0  6G 9G24G20G28G 4G 7
 114804451.81348  89458030.57648  21846542.2424   21846541.7404   21846542.4684
       233.000         185.000
 134275621.02548  86838105.58748  23648895.0784   23648903.6554   23648895.8024
       213.000         150.000
 138782796.94148  90350241.69648  24506543.8344   24506544.0754   24506544.0244
       207.000         136.000
 113808361.91648  88681845.36848  21657007.2384   21657006.1344   21657007.6254
       236.000         192.000
 109724455.21148  85499575.88648  20879869.0254   20879868.1704   20879868.9144
       242.000         201.000
 109233417.06648  85116947.96048  20786427.9884   20786428.1674   20786428.7034
       241.000         206.000
 03 10 30  0 51 30.0000000  0  7G 9G24G20G28G 4G 7G 8
 114769479.85348  89430779.72848  21839887.5454   21839886.7124   21839887.7884
       233.000         185.000
 134167299.90748  86753700.09448  23628282.4934   23628289.4084   23628282.3814
       211.000         150.000
 138763946.89048  90335553.47848  24502956.5584   24502957.4924   24502957.2674
       207.000         135.000
 113866005.43448  88726762.40348  21667976.5074   21667975.2854   21667976.9524
       236.000         192.000
 109661437.62748  85450471.34148  20867877.0194   20867876.2564   20867876.9574
       242.000         202.000
 109264255.98448  85140978.35148  20792296.4124   20792296.5614   20792297.1024
       241.000         206.000
 141165036.17558  92206480.35658  24959905.6745   24959919.9935   24959904.9525
       188.000         130.000
 03 10 30  0 52  0.0000000  0  7G 9G24G20G28G 4G 7G 8
 114735094.47748  89403985.97848  21833344.0744   21833343.4374   21833344.2734
       233.000         185.000
 134059130.64748  86669412.91148  23607697.7994   23607705.6624   23607698.2604
       210.000         147.000
 138745591.14348  90321250.52948  24499463.2514   24499461.9344   24499463.6724
       207.000         134.000
 113923966.48148  88771926.87648  21679006.3354   21679004.9734   21679006.9364
       237.000         192.000
 109598935.44148  85401768.41148  20855983.0114   20855982.3294   20855982.9054
       242.000         201.000
 109295296.00748  85165165.40048  20798203.1484   20798203.2754   20798203.8694
       242.000         206.000
 141285306.49648  92300197.04748  24982792.4594   24982805.3644   24982791.9454
       189.000         131.000
 03 10 30  0 52 30.0000000  0  7G 9G24G20G28G 4G 7G 8
 114701296.84248  89377650.20848  21826912.5334   21826911.9694   21826912.7134
       234.000         188.000
 133951115.46548  86585245.58448  23587143.2394   23587150.1004   23587143.2244
       206.000         148.000
 138727730.51648  90307333.10548  24496064.3594   24496065.0914   24496064.9084
       204.000         133.000
 113982244.52048  88817338.33248  21690096.3554   21690095.0644   21690096.8774
       237.000         192.000
 109536950.78048  85353468.77548  20844187.7454   20844186.9144   20844187.6104
       241.000         201.000
 109326536.39748  85189508.53948  20804148.0184   20804148.1114   20804148.7354
       242.000         206.000
 141405544.54048  92393888.57148  25005672.3044   25005688.8164   25005673.4714
       195.000         130.000
 03 10 30  0 53  0.0000000  0  7G 9G24G20G28G 4G 7G 8
 114668087.89648  89351773.11848  21820593.2224   21820592.6044   21820593.5594
       234.000         187.000
 133843257.04648  86501200.53348  23566617.6434   23566625.1014   23566618.2124
       211.000         150.000
 138710367.32748  90293803.45548  24492760.0344   24492759.1704   24492760.9904
       205.000         134.000
 114040839.90948  88862997.08748  21701246.8484   21701245.3294   21701247.3084
       237.000         193.000
 109475485.19948  85305573.62748  20832491.1204   20832490.3474   20832491.0414
       242.000         201.000
 109357976.34648  85214007.20248  20810130.9054   20810130.8884   20810131.6314
       242.000         205.000
 141525747.82648  92487552.99248  25028549.1854   25028560.5044   25028547.9654
       198.000         131.000
 03 10 30  0 53 30.0000000  0  7G 9G24G20G28G 4G 7G 8
 114635468.75548  89326355.63248  21814385.8904   21814385.4144   21814386.2394
       234.000         188.000
 133735558.04248  86417279.64048  23546123.3884   23546130.6404   23546123.5724
       212.000         152.000
 138693502.31748  90280662.03348  24489551.3974   24489551.4484   24489551.1864
       202.000         129.000
 114099752.46948  88908902.98548  21712457.3894   21712456.0044   21712457.8304
       236.000         192.000
 109414540.62548  85258084.43148  20820893.8694   20820892.9474   20820893.8424
       242.000         202.000
 109389614.75448  85238660.45048  20816151.5554   20816151.5004   20816152.2224
       242.000         205.000
 141645913.67748  92581188.21948  25051415.1514   25051429.9584   25051414.6814
       200.000         132.000
 03 10 30  0 54  0.0000000  0  7G 9G24G20G28G 4G 7G 8
 114603440.77848  89301398.78448  21808291.0154   21808290.5164   21808291.1894
       233.000         188.000
 133628020.78348  86333484.65448  23525659.7134   23525666.5244   23525659.7634
       211.000         151.000
 138677136.90748  90267909.74148  24486436.8894   24486436.6314   24486437.0244
       201.000         130.000
 114158981.85248  88955055.73948  21723728.1644   21723727.0414   21723728.7104
       237.000         192.000
 109354118.90948  85211002.64048  20809395.9694   20809395.0034   20809395.8674
       242.000         202.000
 109421450.88348  85263467.72848  20822209.8244   20822209.8634   20822210.5734
       242.000         205.000
 141766039.95648  92674792.59548  25074275.1554   25074288.8004   25074274.7064
       203.000         131.000
 03 10 30  0 54 30.0000000  0  7G 9G24G20G28G 4G 7G 8
 114572005.24948  89276903.61148  21802308.9524   21802308.3804   21802309.1034
       233.000         187.000
 133520647.68448  86249817.52048  23505226.7574   23505233.8824   23505227.0884
       207.000         152.000
 138661272.41148  90255547.68248  24483416.6114   24483418.1824   24483418.2324
       195.000         130.000
 114218527.94248  89001455.27248  21735059.3864   21735058.2044   21735059.8694
       236.000         191.000
 109294221.74148  85164329.61948  20797997.8574   20797996.8894   20797997.7354
       243.000         202.000
 109453484.10648  85288428.69748  20828305.5454   20828305.5334   20828306.2004
       241.000         205.000
 141886124.19948  92768364.21948  25097127.3974   25097139.2994   25097126.7434
       200.000         127.000
 03 10 30  0 55  0.0000000  0  7G 9G24G20G28G 4G 7G 8
 114541163.08148  89252870.81048  21796439.8554   21796439.1974   21796440.0064
       233.000         186.000
 133413441.68448  86166280.61848  23484825.8494   23484832.7304   23484825.9444
       209.000         153.000
 138645910.75048  90243577.45948  24480492.8654   24480494.2214   24480493.3884
       200.000         128.000
 114278390.79348  89048101.63348  21746450.9604   21746449.6974   21746451.3954
       237.000         190.000
 109234851.15248  85118066.96248  20786699.9484   20786698.8734   20786699.8844
       242.000         202.000
 109485713.28948  85313542.28148  20834438.5364   20834438.6004   20834439.1854
       241.000         205.000
 142006163.99248  92861901.20348  25119969.6844   25119985.4324   25119970.1334
       202.000         124.000
 03 10 30  0 55 30.0000000  0  6G 9G24G20G28G 4G 7
 114510915.16748  89229301.05148  21790683.9764   21790683.1954   21790684.1764
       235.000         187.000
 133306404.70648  86082875.28948  23464457.4004   23464464.8184   23464457.4734
       211.000         154.000
 138631052.65148  90231999.70848  24477667.0604   24477665.9384   24477668.2394
       195.000         129.000
 114338569.96948  89094994.49848  21757902.8594   21757901.4184   21757903.4604
       237.000         190.000
 109176008.65448  85072215.76048  20775502.3794   20775501.3874   20775502.1964
       243.000         202.000
 109518137.77548  85338808.11948  20840608.7134   20840608.7554   20840609.4444
       242.000         205.000
 03 10 30  0 56  0.0000000  0  6G 9G24G20G28G 4G 7
 114481262.56948  89206195.13048  21785041.4464   21785040.1534   21785041.7284
       234.000         187.000
 133199539.18348  85999603.55748  23444121.6364   23444128.5434   23444121.5514
       211.000         154.000
 138616699.83048  90220815.70348  24474935.7214   24474936.3254   24474935.2774
       198.000         127.000
 114399065.34248  89142133.73648  21769414.7424   21769413.2894   21769415.3614
       236.000         190.000
 109117695.90048  85026777.36748  20764405.7654   20764404.8054   20764405.6274
       242.000         202.000
 109550756.54048  85364225.30748  20846815.9894   20846815.9134   20846816.7904
       241.000         205.000
 03 10 30  0 56 30.0000000  0  6G 9G24G20G28G 4G 7
 114452206.53348  89183554.12348  21779512.3084   21779510.8424   21779512.6504
       236.000         187.000
 133092847.68448  85916467.38648  23423819.2144   23423825.9644   23423819.2024
       213.000         155.000
 138602853.28948  90210026.25548  24472300.3634   24472301.7334   24472301.9884
       194.000         130.000
 114459876.87548  89189519.35048  21780986.9124   21780985.2224   21780987.4654
       237.000         189.000
 109059914.70848  84981753.17448  20753410.2214   20753409.3234   20753410.0984
       242.000         203.000
 109583568.86248  85389793.29848  20853060.0254   20853060.0344   20853060.7454
       242.000         205.000
 03 10 30  0 57  0.0000000  0  6G 9G24G20G28G 4G 7
 114423747.94048  89161378.65048  21774096.6554   21774095.3374   21774096.8574
       234.000         186.000
 132986332.79648  85833468.82148  23403550.3784   23403556.5824   23403550.4764
       218.000         157.000
 138589514.73548  90199632.71148  24469760.2054   24469761.5864   24469761.8214
       197.000         128.000
 114521004.14648  89237150.98548  21792618.9834   21792617.3514   21792619.4854
       237.000         188.000
 109002666.55048  84937144.31648  20742516.1324   20742515.2134   20742515.9724
       243.000         203.000
 109616574.04248  85415511.68548  20859340.6734   20859340.6124   20859341.4254
       242.000         204.000
 03 10 30  0 57 30.0000000  0  7G 9G24G20G28G 5G 4G 7
 114395887.81048  89139669.46148  21768794.8084   21768793.7804   21768795.0724
       235.000         187.000
 132879997.13448  85750609.85148  23383315.1754   23383321.6184   23383315.5314
       216.000         156.000
 138576684.42348  90189635.02148  24467319.1764   24467321.7964   24467320.8974
       197.000         128.000
 114582447.12648  89285028.62948  21804311.0964   21804309.5484   21804311.5854
       236.000         188.000
 141337606.93458  92340989.93758  24992718.5625   24992719.1845   24992718.8215
       206.000         143.000
 108945953.36048  84892952.31748  20731723.8784   20731722.9374   20731723.7574
       243.000         204.000
 109649770.98148  85441379.46348  20865657.8214   20865657.7014   20865658.5624
       242.000         204.000
 03 10 30  0 58  0.0000000  0  7G 9G24G20G28G 5G 4G 7
 114368626.82348  89118427.16048  21763607.3104   21763606.3224   21763607.3704
       235.000         189.000
 132773843.09448  85667892.37048  23363115.0344   23363120.7444   23363115.2904
       217.000         154.000
 138564364.37948  90180034.82848  24464974.5904   24464977.9944   24464976.7304
       198.000         131.000
 114644205.43248  89333151.94848  21816063.4224   21816061.8494   21816063.8294
       237.000         188.000
 141238693.03848  92263914.29148  24973895.0464   24973896.5694   24973895.4004
       208.000         143.000
 108889776.69748  84849178.41748  20721033.8514   20721032.9004   20721033.7504
       242.000         204.000
 109683158.97648  85467396.10648  20872011.3184   20872011.1764   20872012.0304
       241.000         204.000
 03 10 30  0 58 30.0000000  0  7G 9G24G20G28G 5G 4G 7
 114341966.01348  89097652.50148  21758533.9564   21758533.3024   21758534.1374
       235.000         190.000
 132667872.92148  85585318.18348  23342949.2234   23342955.6024   23342949.9784
       216.000         154.000
 138552555.67648  90170833.23448  24462730.2474   24462726.8804   24462729.6204
       198.000         131.000
 114706279.04248  89381520.96148  21827875.6314   21827874.0334   21827876.1534
       236.000         189.000
 141139762.73448  92186825.81748  24955068.7584   24955070.6234   24955069.5414
       205.000         141.000
 108834138.38848  84805824.05448  20710446.1494   20710445.0234   20710446.0274
       243.000         203.000
 109716737.14448  85493560.90748  20878401.0184   20878400.8864   20878401.6284
       241.000         204.000
 03 10 30  0 59  0.0000000  0  7G 9G24G20G28G 5G 4G 7
 114315906.48348  89077346.37748  21753574.9434   21753574.4644   21753575.1474
       236.000         190.000
 132562089.26148  85502889.32548  23322819.5634   23322825.2164   23322819.9054
       216.000         154.000
 138541259.08048  90162030.68748  24460578.5654   24460581.0514   24460580.5744
       203.000         133.000
 114768667.34148  89430135.18348  21839747.9074   21839746.1454   21839748.3614
       237.000         188.000
 141040817.24748  92109725.47048  24936240.5304   24936242.3204   24936241.1744
       201.000         143.000
 108779039.75048  84762890.22048  20699961.0134   20699959.7794   20699960.8604
       243.000         204.000
 109750504.76148  85519873.32848  20884826.5764   20884826.7364   20884827.3424
       241.000         204.000
 03 10 30  0 59 30.0000000  0  7G 9G24G20G28G 5G 4G 7
 114290449.04648  89057509.40148  21748730.5154   21748730.2014   21748730.9334
       235.000         189.000
 132456494.78048  85420607.94448  23302725.6564   23302731.3664   23302726.1624
       215.000         155.000
 138530475.86048  90153627.96448  24458529.0264   24458528.6884   24458529.6624
       203.000         133.000
 114831370.41248  89478994.71448  21851679.8834   21851678.0994   21851680.4014
       237.000         187.000
 140941857.82148  92032614.31748  24917409.4494   24917410.7964   24917410.8694
       205.000         140.000
 108724482.56148  84720378.31948  20689578.9274   20689577.7234   20689578.7694
       243.000         203.000
 109784460.97448  85546332.72448  20891288.3984   20891288.3434   20891289.0384
       241.000         204.000
 03 10 30  1  0  0.0000000  0  7G 9G24G20G28G 5G 4G 7
 114265594.42248  89038142.18748  21744000.7724   21744000.3984   21744001.0374
       235.000         189.000
 132351091.92348  85338475.91148  23282667.9334   23282673.9914   23282668.5284
       219.000         157.000
 138520207.10548  90145626.03348  24456573.5164   24456574.5134   24456574.5874
       204.000         136.000
 114894388.15448  89528099.40448  21863671.7594   21863670.1254   21863672.2634
       236.000         188.000
 140842885.71348  91955493.27048  24898576.9684   24898576.8514   24898576.2764
       184.000         134.000
 108670468.03448  84678289.26748  20679300.1484   20679298.9134   20679300.0294
       243.000         204.000
 109818604.80148  85572938.25748  20897785.8544   20897785.7734   20897786.5554
       241.000         204.000
 03 10 30  1  0 30.0000000  0  7G 9G24G20G28G 5G 4G 7
 114241343.51348  89019245.42648  21739385.9614   21739385.4084   21739386.1654
       235.000         189.000
 132245883.03648  85256494.96848  23262647.2594   23262653.4624   23262647.9384
       218.000         156.000
 138510454.64948  90138026.72248  24454718.4504   24454718.2884   24454719.0484
       204.000         135.000
 114957720.06548  89577448.88148  21875723.4714   21875721.7934   21875724.0314
       237.000         188.000
 140743902.14948  91878363.27248  24879740.3514   24879740.7534   24879739.3014
       186.000         130.000
 108616998.02548  84636624.50648  20669125.0914   20669123.8344   20669125.0424
       243.000         204.000
 109852935.44548  85599689.30748  20904318.7844   20904318.7274   20904319.5574
       241.000         203.000
 03 10 30  1  1  0.0000000  0  7G 9G24G20G28G 5G 4G 7
 114217696.94248  89000819.56548  21734886.2404   21734885.4354   21734886.4184
       235.000         189.000
 132140870.10548  85174666.70148  23242663.8284   23242669.9144   23242664.2384
       217.000         156.000
 138501218.85848  90130830.10348  24452961.2134   24452961.9014   24452961.4044
       203.000         135.000
 115021366.15148  89627043.26648  21887834.8124   21887833.2394   21887835.3924
       237.000         188.000
 140644908.58248  91801225.51448  24860900.5944   24860901.5914   24860903.1934
       192.000         130.000
 108564073.87048  84595385.02148  20659053.7224   20659052.6804   20659053.6924
       243.000         204.000
 109887452.46548  85626585.67348  20910887.1554   20910887.1354   20910887.8804
       240.000         203.000
 03 10 30  1  1 30.0000000  0  7G 9G24G20G28G 5G 4G 7
 114194655.42948  88982865.18048  21730501.6004   21730500.5184   21730501.7754
       235.000         188.000
 132036055.94648  85092993.34448  23222717.8484   23222724.2964   23222718.4804
       216.000         157.000
 138492501.06448  90124037.16548  24451301.1894   24451301.9884   24451301.8644
       205.000         136.000
 115085325.72448  89676881.86548  21900006.1364   21900004.3404   21900006.5964
       237.000         187.000
 140545905.71448  91724080.51348  24842061.8484   24842063.4264   24842061.2124
       189.000         132.000
 108511696.97148  84554571.92748  20649086.6544   20649085.5384   20649086.5044
       243.000         204.000
 109922154.83648  85653626.42948  20917490.8104   20917490.8364   20917491.5204
       240.000         203.000
 03 10 30  1  2  0.0000000  0  7G 9G24G20G28G 5G 4G 7
 114172219.67248  88965382.80448  21726232.1994   21726230.8624   21726232.4184
       236.000         188.000
 131931443.27348  85011476.98948  23202810.9864   23202817.2534   23202811.2874
       216.000         156.000
 138484301.66148  90117647.81548  24449741.8174   24449745.1024   24449742.2994
       204.000         135.000
 115149598.71948  89726964.77448  21912236.8164   21912234.9264   21912237.2984
       237.000         187.000
 140446895.25648  91646929.62448  24823220.2224   24823222.4124   24823220.4984
       190.000         133.000
 108459868.79148  84514186.37148  20639224.1914   20639222.8314   20639224.0734
       243.000         204.000
 109957041.85048  85680811.11548  20924129.5184   20924129.5954   20924130.1854
       240.000         202.000
 03 10 30  1  2 30.0000000  0  7G 9G24G20G28G 5G 4G 7
 114150390.58848  88948373.16948  21722078.1254   21722076.9354   21722078.3304
       236.000         189.000
 131827034.14548  84930119.29848  23182942.4044   23182949.1344   23182942.6544
       215.000         156.000
 138476622.33148  90111663.75748  24448280.9894   24448280.3764   24448280.7544
       204.000         134.000
 115214184.67048  89777291.52148  21924527.0384   21924525.2504   21924527.5614
       237.000         187.000
 140347878.61848  91569773.97448  24804377.3004   24804380.3634   24804378.1304
       205.000         138.000
 108408591.03048  84474229.70548  20629466.3114   20629465.0174   20629466.1884
       243.000         204.000
 109992112.70448  85708139.03848  20930803.4294   20930803.3934   20930804.0274
       240.000         202.000
 03 10 30  1  3  0.0000000  0  7G 9G24G20G28G 5G 4G 7
 114129168.82948  88931836.73648  21718039.6304   21718038.7144   21718039.7874
       234.000         189.000
 131722831.36248  84848922.47248  23163113.1204   23163119.9024   23163113.8384
       216.000         159.000
 138469463.76348  90106085.65448  24446917.2644   24446917.6434   24446919.1894
       203.000         135.000
 115279083.51548  89827862.07748  21936876.7034   21936875.0324   21936877.2234
       236.000         186.000
 140248857.35448  91492614.74948  24785534.8494   24785535.6104   24785536.4094
       206.000         139.000
 108357864.88648  84434702.84448  20619813.4654   20619812.1864   20619813.3474
       243.000         204.000
 110027366.64348  85735609.65348  20937511.9894   20937511.9314   20937512.7794
       241.000         202.000
 03 10 30  1  3 30.0000000  0  7G 9G24G20G28G 5G 4G 7
 114108555.25848  88915774.24948  21714116.9234   21714116.3834   21714117.1894
       234.000         189.000
 131618836.69748  84767887.73748  23143324.0224   23143330.2794   23143324.4174
       215.000         160.000
 138462826.82948  90100913.92148  24445654.7554   24445657.2434   24445656.7454
       203.000         136.000
 115344294.53648  89878675.84848  21949285.8844   21949284.2274   21949286.3374
       236.000         186.000
 140149832.46248  91415452.71748  24766690.9964   24766693.0694   24766691.9344
       210.000         140.000
 108307692.01648  84395607.10848  20610265.7644   20610264.6664   20610265.6024
       242.000         204.000
 110062802.74448  85763222.16348  20944255.3074   20944255.2024   20944255.9774
       240.000         202.000
 03 10 30  1  4  0.0000000  0  7G 9G24G20G28G 5G 4G 7
 114088550.15448  88900185.84848  21710310.1254   21710309.6654   21710310.4204
       235.000         190.000
 131515052.96348  84687017.41348  23123574.1684   23123580.7554   23123574.6824
       216.000         159.000
 138456712.87748  90096149.69748  24444491.6854   24444491.7944   24444491.9814
       201.000         135.000
 115409817.67548  89929732.86848  21961754.5244   21961752.8874   21961755.0024
       235.000         185.000
 140050805.26648  91338288.90448  24747846.9824   24747847.6144   24747847.0324
       210.000         142.000
 108258073.51948  84356943.33848  20600823.8914   20600822.5504   20600823.6864
       243.000         205.000
 110098420.43648  85790976.24848  20951033.1424   20951032.9784   20951033.8504
       240.000         202.000
 03 10 30  1  4 30.0000000  0  7G 9G24G20G28G 5G 4G 7
 114069154.29548  88885072.21548  21706619.3564   21706618.8194   21706619.6144
       235.000         191.000
 131411482.70348  84606313.43348  23103865.4604   23103872.1604   23103865.8824
       214.000         157.000
 138451122.83048  90091793.93548  24443427.7974   24443427.8354   24443428.1884
       201.000         133.000
 115475652.50348  89981032.75748  21974282.6114   21974280.8644   21974283.0994
       236.000         185.000
 139951776.75548  91261123.97648  24729001.8544   24729003.2064   24729003.0084
       209.000         140.000
 108209011.02248  84318712.83148  20591487.4784   20591486.2814   20591487.4234
       242.000         205.000
 110134218.88048  85818871.20448  20957845.4234   20957845.1564   20957846.0914
       241.000         202.000
 03 10 30  1  5  0.0000000  0  7G 9G24G20G28G 5G 4G 7
 114050368.30548  88870433.75248  21703044.5504   21703044.1264   21703044.7424
       236.000         192.000
 131308128.18648  84525777.62348  23084197.4874   23084204.3614   23084197.7954
       214.000         158.000
 138446057.66048  90087847.44048  24442462.6314   24442463.6234   24442464.1054
       202.000         136.000
 115541798.75348  90032575.31348  21986869.8524   21986868.0664   21986870.3814
       235.000         183.000
 139852748.19948  91183958.93948  24710158.2194   24710158.2204   24710158.8214
       211.000         136.000
 108160505.57448  84280916.36348  20582257.2394   20582256.0554   20582257.0634
       243.000         206.000
 110170197.10048  85846906.16048  20964691.7324   20964691.6654   20964692.4534
       240.000         202.000
 03 10 30  1  5 30.0000000  0  7G 9G24G20G28G 5G 4G 7
 114032192.72248  88856270.97048  21699586.0074   21699585.3824   21699586.2844
       236.000         192.000
 131204991.86348  84445411.80448  23064570.9854   23064577.8354   23064571.1934
       212.000         158.000
 138441517.65048  90084310.03548  24441598.7904   24441600.9944   24441599.9534
       206.000         135.000
 115608256.27048  90084360.40248  21999516.1744   21999514.5164   21999516.8404
       234.000         184.000
 139753721.21648  91106795.11648  24691312.6814   24691313.5954   24691314.0384
       211.000         139.000
 108112558.67948  84243555.14248  20573133.2064   20573132.1454   20573133.0954
       243.000         205.000
 110206354.40548  85875080.60848  20971572.2954   20971572.3124   20971572.9114
       240.000         202.000
 03 10 30  1  6  0.0000000  0  7G 9G24G20G28G 5G 4G 7
 114014628.02148  88842584.22448  21696243.5164   21696242.8034   21696243.8694
       237.000         191.000
 131102076.47048  84365218.24448  23044986.9094   23044993.4434   23044986.9654
       215.000         159.000
 138437503.62148  90081182.45448  24440834.8114   24440836.4664   24440836.9154
       204.000         135.000
 115675024.37848  90136387.47848  22012221.7984   22012220.1384   22012222.3244
       234.000         183.000
 139654697.31448  91029633.72848  24672469.0804   24672469.9914   24672469.7964
       211.000         135.000
 108065171.70448  84206630.20948  20564115.9444   20564114.6764   20564115.8164
       243.000         205.000
 110242690.24548  85903394.22348  20978486.8464   20978486.7524   20978487.5644
       240.000         202.000
 03 10 30  1  6 30.0000000  0  7G 9G24G20G28G 5G 4G 7
 113997674.52648  88829373.73148  21693017.2324   21693016.6274   21693017.6344
       237.000         190.000
 130999384.08448  84285198.44548  23025444.7964   23025451.6084   23025445.2744
       216.000         159.000
 138434016.65848  90078465.42748  24440172.9154   24440172.2514   24440173.2744
       204.000         136.000
 115742102.71148  90188656.30848  22024986.2934   22024984.6364   22024986.8284
       233.000         182.000
 139555677.89648  90952475.80648  24653626.7714   24653627.1484   24653627.1734
       210.000         136.000
 108018345.83648  84170142.50348  20555205.1184   20555204.1734   20555205.0844
       243.000         206.000
 110279203.71748  85931846.22548  20985435.1084   20985435.0614   20985435.9094
       240.000         202.000
 03 10 30  1  7  0.0000000  0  7G 9G24G20G28G 5G 4G 7
 113981333.00248  88816640.08648  21689907.4004   21689906.8164   21689907.6114
       235.000         190.000
 130896916.68648  84205353.95248  23005946.0394   23005952.0994   23005946.1304
       219.000         162.000
 138431057.24948  90076159.42148  24439608.7524   24439608.7594   24439609.8424
       203.000         134.000
 115809490.90648  90241166.58248  22037809.7484   22037808.2264   22037810.2354
       234.000         182.000
 139456664.29948  90875322.41448  24634784.9104   24634784.9514   24634785.6884
       208.000         135.000
 107972082.16048  84134092.87248  20546401.4354   20546400.4894   20546401.2694
       243.000         206.000
 110315894.30448  85960436.30448  20992417.0044   20992417.0214   20992417.8644
       242.000         202.000
 03 10 30  1  7 30.0000000  0  7G 9G24G20G28G 5G 4G 7
 113965603.98248  88804383.72848  21686914.0674   21686913.4774   21686914.1414
       235.000         189.000
 130794676.67048  84125686.58348  22986490.3934   22986496.5504   22986490.5934
       218.000         163.000
 138428626.26348  90074265.08348  24439145.8484   24439147.6654   24439146.8824
       200.000         134.000
 115877188.54448  90293917.97848  22050692.4344   22050690.5524   22050692.9844
       233.000         182.000
 139357657.82448  90798174.63748  24615944.1274   24615944.8814   24615944.9034
       205.000         136.000
 107926382.13948  84098482.46748  20537705.1194   20537704.0024   20537705.0404
       243.000         206.000
 110352761.08048  85989163.63648  20999432.6234   20999432.5384   20999433.3574
       241.000         202.000
 03 10 30  1  8  0.0000000  0  7G 9G24G20G28G 5G 4G 7
 113950487.75848  88792604.88748  21684037.5004   21684036.8154   21684037.5964
       234.000         188.000
 130692667.10448  84046198.87448  22967078.3054   22967084.1544   22967078.5494
       218.000         162.000
 138426724.43348  90072783.05548  24438784.9424   24438785.2004   24438784.6354
       200.000         134.000
 115945195.36048  90346910.28948  22063633.7684   22063631.8854   22063634.0784
       233.000         181.000
 139258659.30948  90721033.02948  24597106.1354   24597105.9154   24597106.1694
       205.000         137.000
 107881246.87848  84063312.12548  20529116.1114   20529115.0364   20529116.0614
       243.000         206.000
 110389803.48148  86018027.84348  21006481.5804   21006481.4264   21006482.2834
       241.000         202.000
 03 10 30  1  8 30.0000000  0  7G 9G24G20G28G 5G 4G 7
 113935984.60148  88781303.74948  21681277.6224   21681276.9694   21681277.7824
       235.000         189.000
 130590889.74248  83966892.01248  22947710.9224   22947716.4144   22947711.2174
       216.000         161.000
 138425352.51848  90071713.94548  24438523.0524   24438524.5554   24438523.3814
       197.000         135.000
 116013511.12548  90400143.33848  22076633.9044   22076631.8824   22076634.4054
       234.000         180.000
 139159670.77548  90643899.17948  24578268.4064   24578268.5744   24578269.4634
       207.000         139.000
 107836677.56148  84028582.76648  20520634.8744   20520633.7004   20520634.8364
       243.000         206.000
 110427020.61748  86047028.21048  21013563.7804   21013563.6244   21013564.4424
       241.000         202.000
 03 10 30  1  9  0.0000000  0  7G 9G24G20G28G 5G 4G 7
 113922094.95548  88770480.66848  21678634.6694   21678633.8304   21678634.8354
       235.000         191.000
 130489347.37848  83887768.42048  22928387.7754   22928392.9954   22928388.0084
       219.000         163.000
 138424511.98348  90071059.08948  24438363.2544   24438363.9884   24438363.7614
       199.000         135.000
 116082135.34148  90453616.78348  22089692.5854   22089690.6074   22089693.1284
       232.000         180.000
 139060693.18648  90566773.81048  24559434.1454   24559434.0824   24559434.8734
       207.000         140.000
 107792675.44248  83994295.38248  20512261.4994   20512260.4084   20512261.4214
       242.000         206.000
 110464411.91048  86076164.30648  21020679.1334   21020678.9234   21020679.8284
       242.000         202.000
 03 10 30  1  9 30.0000000  0  7G 9G24G20G28G 5G 4G 7
 113908819.24348  88760135.95548  21676108.6324   21676107.6884   21676108.9344
       237.000         192.000
 130388041.91548  83808829.21048  22909110.1534   22909115.1784   22909110.1874
       219.000         163.000
 138424202.90648  90070818.44048  24438302.2544   24438306.7634   24438304.8034
       200.000         135.000
 116151067.23748  90507329.96848  22102809.9134   22102807.8814   22102810.2234
       232.000         180.000
 138961728.44448  90489658.47748  24540601.1504   24540601.8804   24540601.6734
       208.000         141.000
 107749241.34648  83960450.61348  20503996.3504   20503995.1734   20503996.2444
       242.000         206.000
 110501976.34048  86105435.26048  21027827.4304   21027827.2444   21027828.0824
       241.000         202.000
 03 10 30  1 10  0.0000000  0  7G 9G24G20G28G 5G 4G 7
 113896157.66248  88750269.76348  21673699.3544   21673698.3394   21673699.6884
       238.000         193.000
 130286975.93948  83730076.60048  22889877.9704   22889882.6884   22889878.2754
       221.000         163.000
 138424426.29148  90070992.88548  24438343.0804   24438349.1344   24438346.3654
       198.000         134.000
 116220306.59648  90561282.71948  22115985.4544   22115983.6294   22115985.9974
       232.000         180.000
 138862777.53048  90412553.86748  24521771.9204   24521772.0094   24521772.4334
       211.000         143.000
 107706376.75948  83927049.63948  20495839.3374   20495838.3044   20495839.3124
       242.000         206.000
 110539713.52248  86134840.91748  21035008.4534   21035008.2994   21035009.0824
       241.000         202.000
 03 10 30  1 10 30.0000000  0  7G 9G24G20G28G 5G 4G 7
 113884110.81948  88740882.61848  21671406.9194   21671405.8074   21671407.1834
       237.000         192.000
 130186152.17948  83651512.75248  22870691.6564   22870696.3794   22870691.9924
       220.000         162.000
 138425181.87248  90071581.81948  24438488.5584   24438493.7814   24438490.5484
       201.000         135.000
 116289852.65348  90615474.44548  22129219.7084   22129217.8454   22129220.1364
       232.000         179.000
 138763842.11148  90335461.32948  24502945.5304   24502944.7754   24502946.3434
       210.000         145.000
 107664082.54248  83894093.09348  20487790.9954   20487789.9504   20487790.8634
       243.000         206.000
 110577622.60348  86164380.47348  21042222.3274   21042222.2264   21042222.9624
       241.000         202.000
 03 10 30  1 11  0.0000000  0  7G 9G24G20G28G 5G 4G 7
 113872678.84148  88731974.56848  21669231.3994   21669230.4734   21669231.6514
       237.000         192.000
 130085572.59748  83573139.23848  22851551.5044   22851556.5024   22851551.9604
       220.000         163.000
 138426470.73048  90072586.16648  24438736.5504   24438737.1534   24438736.6394
       202.000         134.000
 116359705.44048  90669905.23448  22142512.1394   22142510.3754   22142512.7924
       232.000         178.000
 138664923.66248  90258381.99348  24484122.0764   24484121.6824   24484122.9894
       211.000         145.000
 107622359.98048  83861582.01548  20479851.5644   20479850.3254   20479851.4324
       243.000         206.000
 110615702.94748  86194053.46448  21049468.6824   21049468.5754   21049469.4164
       241.000         201.000
 03 10 30  1 11 30.0000000  0  7G 9G24G20G28G 5G 4G 7
 113861861.85948  88723545.71748  21667173.0804   21667172.1154   21667173.3444
       236.000         192.000
 129985239.68448  83494957.95048  22832458.5004   22832463.9924   22832458.8784
       219.000         162.000
 138428293.55048  90074006.67248  24439082.3114   24439081.6324   24439083.8024
       198.000         137.000
 116429864.51948  90724574.69448  22155862.9804   22155861.4114   22155863.6354
       232.000         179.000
 138566023.74348  90181317.14748  24465302.6684   24465301.5434   24465302.8354
       213.000         144.000
 107581209.72448  83829516.87148  20472020.9744   20472019.7374   20472020.9274
       243.000         207.000
 110653953.88048  86223859.44748  21056747.5424   21056747.4784   21056748.1954
       241.000         202.000
 03 10 30  1 12  0.0000000  0  7G 9G24G20G28G 5G 4G 7
 113851660.07648  88715596.27248  21665231.5524   21665230.8264   21665231.9284
       235.000         191.000
 129885155.88748  83416970.86648  22813412.8854   22813418.1494   22813413.2704
       220.000         161.000
 138430650.77948  90075843.56348  24439531.0554   24439531.7344   24439531.8664
       202.000         137.000
 116500329.23048  90779482.30448  22169272.0214   22169270.3824   22169272.5614
       231.000         177.000
 138467143.79048  90104267.78148  24446485.9234   24446486.1074   24446486.3664
       210.000         143.000
 107540633.11548  83797898.71848  20464299.4134   20464298.3114   20464299.3244
       243.000         207.000
 110692374.55548  86253797.65348  21064058.8654   21064058.7704   21064059.6984
       241.000         202.000
 03 10 30  1 12 30.0000000  0  7G 9G24G20G28G 5G 4G 7
 113842073.61648  88708126.29148  21663407.1444   21663406.5874   21663407.3944
       235.000         190.000
 129785323.27448  83339179.51248  22794415.1734   22794420.6474   22794415.3234
       219.000         163.000
 138433543.30848  90078097.54548  24440081.0544   24440079.8754   24440082.2244
       203.000         138.000
 116571098.89848  90834627.51948  22182738.8974   22182737.4904   22182739.5304
       230.000         177.000
 138368285.26748  90027235.13748  24427673.4874   24427673.7714   24427674.3014
       208.000         144.000
 107500630.90148  83766728.14148  20456687.1504   20456686.2644   20456687.0034
       243.000         207.000
 110730964.24048  86283867.42948  21071402.2954   21071402.2104   21071402.9774
       241.000         201.000
 03 10 30  1 13  0.0000000  0  7G 9G24G20G28G 5G 4G 7
 113833102.87948  88701136.14148  21661699.9574   21661699.4794   21661700.1304
       235.000         190.000
 129685744.26148  83261585.64548  22775465.8174   22775471.5394   22775465.9764
       222.000         163.000
 138436970.96348  90080768.59848  24440733.9734   24440732.6964   24440734.6874
       202.000         137.000
 116642172.99348  90890009.92848  22196263.8534   22196262.3074   22196264.3684
       229.000         177.000
 138269449.06848  89950219.83548  24408865.0704   24408866.3334   24408866.0194
       207.000         142.000
 107461204.24248  83736006.05948  20449184.6264   20449183.6464   20449184.5134
       243.000         207.000
 110769722.42448  86314068.51448  21078777.8514   21078777.6714   21078778.5394
       241.000         201.000
 03 10 30  1 13 30.0000000  0  7G 9G24G20G28G 5G 4G 7
 113824747.88548  88694625.76348  21660110.0374   21660109.4614   21660110.2804
       235.000         190.000
 129586421.34648  83184191.46448  22756565.0004   22756570.0844   22756565.2294
       221.000         165.000
 138440934.57348  90083857.07148  24441488.5214   24441487.6364   24441488.2674
       204.000         138.000
 116713551.08548  90945629.23348  22209846.7824   22209844.7714   22209847.1664
       229.000         177.000
 138170637.07048  89873223.41248  24390061.8794   24390063.4824   24390062.4014
       208.000         143.000
 107422353.94148  83705733.09048  20441791.7424   20441790.5274   20441791.5834
       244.000         207.000
 110808648.70948  86344400.77448  21086185.2594   21086185.1004   21086186.0054
       240.000         201.000
 03 10 30  1 14  0.0000000  0  7G 9G24G20G28G 5G 4G 7
 113817008.87248  88688595.39348  21658637.5264   21658636.7074   21658637.6654
       236.000         191.000
 129487356.90148  83106998.76048  22737713.3914   22737718.5354   22737713.4294
       222.000         163.000
 138445434.69148  90087363.71348  24442344.1434   24442343.2924   24442345.7074
       205.000         137.000
 116785232.90148  91001485.21048  22223487.3074   22223485.4384   22223487.7284
       229.000         177.000
 138071851.32448  89796247.45348  24371264.0574   24371264.9414   24371264.1884
       208.000         146.000
 107384081.09248  83675910.08048  20434508.6824   20434507.4814   20434508.6584
       244.000         208.000
 110847741.85148  86374862.90548  21093624.2954   21093624.3384   21093625.0414
       240.000         200.000
 03 10 30  1 14 30.0000000  0  7G 9G24G20G28G 5G 4G 7
 113809885.54148  88683044.74248  21657282.0744   21657281.2834   21657282.2894
       235.000         192.000
 129388553.13348  83030009.23348  22718911.1534   22718916.3644   22718911.3974
       223.000         165.000
 138450471.65748  90091288.64948  24443302.6504   24443302.7664   24443303.2124
       202.000         139.000
 116857217.78848  91057577.30148  22237185.5774   22237183.6064   22237186.0624
       229.000         176.000
 137973092.75748  89719292.70748  24352470.6314   24352472.0914   24352471.3944
       210.000         146.000
 107346386.46148  83646537.60948  20427335.6514   20427334.5094   20427335.5814
       244.000         208.000
 110887001.61448  86405454.92948  21101095.2544   21101095.2594   21101096.0154
       240.000         200.000
 03 10 30  1 15  0.0000000  0  7G 9G24G20G28G 5G 4G 7
 113803378.14648  88677974.08248  21656043.6474   21656043.0904   21656043.9254
       236.000         192.000
 129290012.37248  82953224.67848  22700158.8584   22700164.1014   22700159.3144
       221.000         164.000
 138456045.53348  90095631.82848  24444363.5464   24444365.1754   24444364.0104
       207.000         138.000
 116929505.10248  91113905.09048  22250941.1344   22250939.5764   22250941.6814
       229.000         176.000
 137874362.71248  89642360.18448  24333683.5954   24333684.2704   24333683.5804
       213.000         149.000
 107309270.86048  83617616.32448  20420272.9534   20420271.6574   20420272.8654
       244.000         208.000
 110926427.18048  86436176.17848  21108597.6064   21108597.6984   21108598.3134
       240.000         200.000
 03 10 30  1 15 30.0000000  0  7G 9G24G20G28G 5G 4G 7
 113797486.83648  88673383.47248  21654922.5774   21654921.9644   21654922.8744
       237.000         192.000
 129191736.43948  82876646.49548  22681457.0924   22681462.3284   22681457.5414
       221.000         166.000
 138462157.55848  90100394.36448  24445526.8354   24445526.8964   24445528.2224
       203.000         137.000
 117002094.10948  91170467.95148  22264754.3884   22264752.8714   22264754.8144
       228.000         176.000
 137775662.82748  89565451.05448  24314901.0794   24314903.0444   24314901.4144
       215.000         151.000
 107272735.13548  83589146.90448  20413320.3864   20413319.1424   20413320.4174
       244.000         208.000
 110966017.75248  86467025.89848  21116131.4274   21116131.5884   21116132.0514
       239.000         199.000
 03 10 30  1 16  0.0000000  0  7G 9G24G20G28G 5G 4G 7
 113792211.57848  88669272.88448  21653918.8544   21653918.1234   21653919.1284
       236.000         193.000
 129093728.02048  82800276.77948  22662806.3324   22662811.8154   22662806.7084
       222.000         166.000
 138468807.63548  90105576.24648  24446791.4894   24446792.5664   24446792.0804
       202.000         137.000
 117074984.73548  91227265.83148  22278625.2424   22278623.7164   22278625.6294
       229.000         175.000
 137676994.95448  89488566.91348  24296125.4174   24296126.5984   24296126.3104
       215.000         152.000
 107236780.24748  83561130.08948  20406478.2574   20406477.0794   20406478.0874
       244.000         208.000
 111005772.84448  86498003.76648  21123696.6714   21123696.8754   21123697.4164
       239.000         199.000
 03 10 30  1 16 30.0000000  0  7G 9G24G20G28G 5G 4G 7
 113787552.40248  88665642.36148  21653032.2404   21653031.4144   21653032.4964
       236.000         193.000
 128995989.00648  82724116.94148  22644207.0424   22644212.0944   22644207.2874
       221.000         167.000
 138475996.15948  90111177.69648  24448159.7104   24448159.7884   24448159.7284
       204.000         136.000
 117148176.51848  91284298.41048  22292553.2234   22292551.6534   22292553.7324
       229.000         176.000
 137578359.98548  89411708.41948  24277356.0464   24277357.1154   24277356.8674
       216.000         152.000
 107201406.88048  83533566.40148  20399746.9674   20399745.8424   20399746.8744
       244.000         208.000
 111045692.12348  86529109.79248  21131293.0134   21131293.1174   21131293.6564
       239.000         199.000
 03 10 30  1 17  0.0000000  0  7G 9G24G20G28G 5G 4G 7
 113783509.14448  88662491.80148  21652262.6254   21652262.0084   21652262.8184
       234.000         193.000
 128898521.52548  82648168.61448  22625659.4484   22625664.4214   22625659.5624
       223.000         167.000
 138483723.48848  90117199.00648  24449629.6754   24449630.2804   24449630.6574
       205.000         139.000
 117221668.61648  91341565.02648  22306538.2704   22306536.6984   22306538.7274
       228.000         175.000
 137479760.18148  89334877.33148  24258593.2394   24258594.3854   24258593.4414
       214.000         152.000
 107166615.90548  83506456.53648  20393126.5314   20393125.4034   20393126.4074
       245.000         209.000
 111085774.43148  86560342.72148  21138920.3024   21138920.4354   21138921.0074
       238.000         199.000
 03 10 30  1 17 30.0000000  0  7G 9G24G20G28G 5G 4G 7
 113780081.85348  88659821.21548  21651610.1644   21651609.9444   21651610.3924
       233.000         192.000
 128801328.19048  82572433.92948  22607164.1414   22607168.5924   22607164.2764
       223.000         168.000
 138491989.88148  90123640.33048  24451203.5704   24451202.9614   24451203.8734
       208.000         140.000
 117295460.19348  91399064.99348  22320580.2254   22320578.4244   22320580.8884
       229.000         175.000
 137381196.90048  89258074.75148  24239837.1124   24239838.2594   24239837.6884
       215.000         151.000
 107132407.83848  83479800.86848  20386617.0044   20386615.8524   20386616.9724
       244.000         209.000
 111126019.36548  86591702.36748  21146578.7684   21146578.9674   21146579.3744
       239.000         199.000
 03 10 30  1 18  0.0000000  0  7G 9G24G20G28G 5G 4G 7
 113777270.31848  88657630.42748  21651075.1434   21651074.8914   21651075.4044
       234.000         192.000
 128704411.67348  82496914.94248  22588721.4024   22588725.4044   22588721.5414
       223.000         167.000
 138500795.44648  90130501.87848  24452878.3754   24452878.8354   24452880.3334
       207.000         141.000
 117369551.05448  91456798.13948  22334679.1384   22334677.5384   22334679.8474
       228.000         175.000
 137282671.68948  89181301.88048  24221088.1424   24221089.0434   24221088.8304
       214.000         149.000
 107098783.71948  83453600.26048  20380218.5044   20380217.4004   20380218.3824
       245.000         209.000
 111166426.41248  86623188.40148  21154268.0114   21154268.1334   21154268.7454
       239.000         199.000
 03 10 30  1 18 30.0000000  0  7G 9G24G20G28G 5G 4G 7
 113775074.34648  88655919.30048  21650657.3024   21650656.9154   21650657.5144
       235.000         192.000
 128607773.49548  82421612.70748  22570331.5594   22570335.6904   22570331.8914
       225.000         168.000
 138510140.46648  90137783.61048  24454656.8214   24454657.7664   24454658.5154
       208.000         141.000
 117443940.36248  91514763.82248  22348834.9604   22348833.2554   22348835.5164
       228.000         175.000
 137184185.97548  89104559.80248  24202346.4964   24202347.6264   24202347.1154
       215.000         149.000
 107065744.09848  83427855.08448  20373931.4354   20373930.2134   20373931.3644
       245.000         210.000
 111206995.02848  86654800.43548  21161987.9244   21161987.9784   21161988.5964
       239.000         199.000
 03 10 30  1 19  0.0000000  0  7G 9G24G20G28G 5G 4G 7
 113773493.72948  88654687.65548  21650356.5614   21650356.1144   21650356.7804
       235.000         192.000
 128511416.64748  82346529.68548  22551995.3834   22551999.2134   22551995.7674
       227.000         171.000
 138520025.25148  90145485.98148  24456538.3624   24456538.8094   24456539.4784
       209.000         141.000
 117518627.41648  91572961.51548  22363047.5774   22363045.5084   22363047.9614
       227.000         175.000
 137085741.28548  89027849.59548  24183613.4914   24183614.8924   24183613.9774
       215.000         148.000
 107033289.46048  83402565.75348  20367755.4754   20367754.3304   20367755.3454
       245.000         209.000
 111247724.22048  86686537.51848  21169738.3474   21169738.4784   21169738.9554
       239.000         199.000
 03 10 30  1 19 30.0000000  0  7G 9G24G20G28G 5G 4G 7
 113772528.32748  88653935.39148  21650173.0034   21650172.2624   21650173.2254
       236.000         192.000
 128415342.89748  82271667.34348  22533712.7154   22533716.4854   22533713.0094
       226.000         170.000
 138530450.12248  90153609.20248  24458523.1104   24458522.7254   24458523.3814
       209.000         141.000
 117593611.84748  91631390.93748  22377316.8094   22377314.8834   22377317.2754
       228.000         174.000
 136987339.67148  88951173.06848  24164888.3284   24164889.3904   24164888.6504
       215.000         147.000
 107001420.88848  83377733.10148  20361691.0944   20361689.9104   20361690.9494
       245.000         209.000
 111288613.25248  86718399.00648  21177519.4344   21177519.5084   21177520.0274
       239.000         198.000
 03 10 30  1 20  0.0000000  0  7G 9G24G20G28G 5G 4G 7
 113772178.24948  88653662.63948  21650106.3974   21650105.6084   21650106.6314
       235.000         192.000
 128319554.28348  82197027.05048  22515484.6904   22515488.1854   22515484.8644
       226.000         171.000
 138541415.19848  90162153.44848  24460609.1324   24460608.8104   24460609.8274
       207.000         141.000
 117668893.09048  91690051.67148  22391642.3144   22391640.6924   22391642.9684
       228.000         175.000
 136888982.51448  88874531.19948  24146171.3824   24146172.4304   24146171.6874
       214.000         146.000
 106970138.71548  83353357.35548  20355738.3224   20355737.0304   20355738.2194
       245.000         209.000
 111329662.11348  86750385.13248  21185330.6524   21185330.7604   21185331.3834
       238.000         198.000
 03 10 30  1 20 30.0000000  0  7G 9G24G20G28G 5G 4G 7
 113772443.12448  88653869.06948  21650156.5864   21650155.9544   21650156.7794
       235.000         191.000
 128224053.40048  82122611.08448  22497311.0264   22497314.9234   22497311.3664
       226.000         170.000
 138552920.42248  90171118.46548  24462799.6124   24462798.7864   24462799.9424
       206.000         140.000
 117744470.22548  91748942.91148  22406024.2484   22406022.4224   22406024.7734
       227.000         174.000
 136790671.30248  88797925.17748  24127463.0624   24127463.8734   24127463.6284
       211.000         146.000
 106939443.64748  83329439.13448  20349897.2264   20349895.8584   20349897.1404
       245.000         209.000
 111370870.00148  86782495.29548  21193172.1594   21193172.2534   21193172.7854
       239.000         198.000
 03 10 30  1 21  0.0000000  0  7G 9G24G20G28G 5G 4G 7
 113773322.50948  88654554.30748  21650323.9474   21650323.3804   21650324.1134
       235.000         191.000
 128128842.36048  82048420.82948  22479192.7574   22479196.8814   22479193.0844
       227.000         173.000
 138564966.03748  90180504.59848  24465090.9984   24465089.7434   24465091.8124
       208.000         140.000
 117820342.76348  91808064.38348  22420462.1144   22420460.5574   22420462.4104
       226.000         173.000
 136692407.52848  88721356.16948  24108763.7094   24108765.0374   24108764.7644
       210.000         146.000
 106909335.99048  83305978.59248  20344167.8634   20344166.5764   20344167.7544
       245.000         209.000
 111412236.27748  86814728.82648  21201043.8014   21201043.7974   21201044.4694
       239.000         198.000
 03 10 30  1 21 30.0000000  0  7G 9G24G20G28G 5G 4G 7
 113774816.18548  88655718.21848  21650608.0764   21650607.7434   21650608.4574
       234.000         192.000
 128033923.47848  81974458.19648  22461130.2114   22461134.0394   22461130.6014
       226.000         171.000
 138577552.74748  90190312.58748  24467486.0974   24467484.9424   24467487.1004
       206.000         137.000
 117896509.80648  91867415.32548  22434956.0844   22434954.5894   22434956.4584
       226.000         172.000
 136594192.92148  88644825.27648  24090074.2204   24090075.2874   24090075.0084
       210.000         145.000
 106879816.61148  83282976.45548  20338550.5844   20338549.3744   20338550.5034
       245.000         210.000
 111453760.07248  86847084.99848  21208945.6634   21208945.5184   21208946.2404
       239.000         197.000
 03 10 30  1 22  0.0000000  0  7G 9G24G20G28G 5G 4G 7
 113776923.94048  88657360.61648  21651009.1004   21651008.8794   21651009.4234
       234.000         192.000
 127939298.75948  81900724.72348  22443123.7464   22443127.4104   22443124.0834
       228.000         173.000
 138590679.58548  90200541.23448  24469983.6474   24469985.5564   24469983.7114
       204.000         135.000
 117972970.85148  91926995.37748  22449506.0134   22449504.3704   22449506.3474
       225.000         171.000
 136496029.21248  88568334.07548  24071394.8914   24071395.2694   24071395.3374
       211.000         146.000
 106850885.89148  83260433.00448  20333045.3004   20333044.0174   20333045.2634
       245.000         210.000
 111495440.96248  86879563.61148  21216877.2414   21216877.0574   21216877.7914
       240.000         198.000
 03 10 30  1 22 30.0000000  0  7G 9G24G20G28G 5G 4G 7
 113779645.37648  88659481.22548  21651527.0964   21651526.7734   21651527.2454
       234.000         193.000
 127844970.35848  81827222.11848  22425173.5884   22425177.3354   22425173.7474
       229.000         173.000
 138604347.25748  90211191.21448  24472584.4514   24472584.7684   24472585.0814
       205.000         136.000
 118049725.37248  91986804.12048  22464111.7874   22464110.3704   22464112.3014
       224.000         171.000
 136397918.03048  88491883.92148  24052724.8654   24052725.9484   24052725.7534
       213.000         148.000
 106822544.35248  83238348.64948  20327652.1784   20327650.8194   20327652.1154
       245.000         210.000
 111537278.70048  86912164.51148  21224838.6344   21224838.5894   21224839.2634
       239.000         198.000
 03 10 30  1 23  0.0000000  0  7G 9G24G20G28G 5G 4G 7
 113782979.83448  88662079.49648  21652161.6234   21652161.3244   21652161.8184
       235.000         193.000
 127750940.79748  81753952.54648  22407280.1684   22407284.0214   22407280.4224
       227.000         172.000
 138618555.68848  90222262.80048  24475288.1884   24475287.4994   24475289.2744
       204.000         133.000
 118126772.48248  92046840.87548  22478773.4364   22478771.6274   22478773.8214
       224.000         169.000
 136299860.77148  88415475.60348  24034065.0404   24034066.3004   24034065.7644
       212.000         148.000
 106794792.54248  83216723.84748  20322371.0654   20322369.8724   20322371.0144
       245.000         210.000
 111579272.42748  86944886.93748  21232829.7594   21232829.7304   21232830.3414
       239.000         198.000
 03 10 30  1 23 30.0000000  0  7G 9G24G20G28G 5G 4G 7
 113786927.11148  88665155.27848  21652912.7614   21652912.3674   21652913.0124
       235.000         193.000
 127657212.16348  81680917.52848  22389444.1424   22389447.6074   22389444.3734
       228.000         173.000
 138633305.01048  90233755.70948  24478094.7504   24478094.8534   24478094.6174
       205.000         135.000
 118204111.67048  92107105.21648  22493490.6014   22493488.7464   22493491.1284
       225.000         169.000
 136201859.60048  88339111.23348  24015416.2754   24015417.0684   24015417.2234
       214.000         152.000
 106767630.94348  83195558.95648  20317202.3234   20317201.2974   20317202.1534
       245.000         210.000
 111621421.16248  86977729.89848  21240850.5984   21240850.6104   21240851.2344
       239.000         197.000
 03 10 30  1 24  0.0000000  0  7G 9G24G20G28G 5G 4G 7
 113791486.84948  88668708.31448  21653780.5814   21653780.0704   21653780.8474
       236.000         194.000
 127563786.20648  81608118.25548  22371665.6844   22371669.0414   22371665.9924
       227.000         174.000
 138648595.27048  90245670.30348  24481003.9284   24481004.8854   24481005.2294
       206.000         132.000
 118281742.06948  92167596.45648  22508263.3574   22508261.5794   22508263.8564
       224.000         169.000
 136103915.33548  88262791.00348  23996777.8454   23996779.4224   23996778.6154
       214.000         152.000
 106741059.81948  83174854.17748  20312146.1064   20312145.0134   20312145.9784
       245.000         210.000
 111663725.36748  87010694.28548  21248900.7554   21248900.8594   21248901.4094
       239.000         198.000
 03 10 30  1 24 30.0000000  0  7G 9G24G20G28G 5G 4G 7
 113796658.65248  88672738.27148  21654764.9394   21654764.2184   21654765.2594
       237.000         194.000
 127470665.61748  81535556.97648  22353945.3224   22353948.6714   22353945.6834
       228.000         175.000
 138664426.03248  90258006.19848  24484016.4814   24484015.5024   24484017.0794
       201.000         133.000
 118359663.17248  92228314.25248  22523091.1934   22523089.2734   22523091.9154
       225.000         168.000
 136006030.40948  88186516.97448  23978151.4864   23978151.9484   23978151.8734
       216.000         155.000
 106715079.50648  83154609.71748  20307202.3664   20307201.1724   20307202.3214
       246.000         210.000
 111706183.56448  87043778.51048  21256980.3484   21256980.4394   21256980.9504
       239.000         198.000
 03 10 30  1 25  0.0000000  0  7G 9G24G20G28G 5G 4G 7
 113802441.86248  88677244.67048  21655865.5504   21655864.6274   21655865.7334
       237.000         194.000
 127377852.06748  81463234.90048  22336283.2014   22336286.8834   22336283.7274
       227.000         175.000
 138680797.09748  90270762.81248  24487131.8164   24487132.5874   24487132.0964
       205.000         134.000
 118437874.05848  92289257.81048  22537974.3714   22537972.5034   22537975.0804
       224.000         167.000
 135908205.85548  88110289.89948  23959536.6194   23959537.1124   23959536.7814
       216.000         154.000
 106689690.63748  83134826.15548  20302371.0344   20302369.8114   20302370.9504
       246.000         211.000
 111748795.92048  87076983.03848  21265089.1744   21265089.1864   21265089.9914
       238.000         197.000
 03 10 30  1 25 30.0000000  0  7G 9G24G20G28G 5G 4G 7
 113808836.00548  88682227.13248  21657082.2154   21657081.4054   21657082.4364
       237.000         193.000
 127285347.72148  81391153.65248  22318680.3174   22318683.9994   22318680.5344
       228.000         176.000
 138697708.70548  90283940.59948  24490350.5844   24490352.3944   24490351.8834
       205.000         134.000
 118516374.23048  92350426.78248  22552912.7894   22552910.5184   22552913.2414
       225.000         168.000
 135810444.42848  88034112.19448  23940932.8464   23940933.3034   23940933.6224
       218.000         155.000
 106664893.46148  83115503.66148  20297652.2104   20297651.0954   20297652.0394
       245.000         211.000
 111791561.37748  87110306.81148  21273227.1394   21273227.0664   21273227.8284
       239.000         197.000
 03 10 30  1 26  0.0000000  0  7G 9G24G20G28G 5G 4G 7
 113815840.71748  88687685.35048  21658415.1584   21658414.2704   21658415.2944
       237.000         192.000
 127193155.08348  81319315.35148  22301136.4624   22301140.3194   22301136.8594
       228.000         178.000
 138715160.92148  90297539.66948  24493670.1174   24493671.6944   24493671.5914
       203.000         134.000
 118595162.65548  92411820.37348  22567905.9674   22567903.3524   22567906.5254
       225.000         167.000
 135712746.84348  87957984.21148  23922341.9604   23922341.7874   23922342.3524
       217.000         156.000
 106640688.33048  83096642.51648  20293046.1444   20293045.0554   20293046.0594
       246.000         211.000
 111834479.71648  87143749.76048  21281394.1624   21281394.0494   21281394.9034
       239.000         196.000
 03 10 30  1 26 30.0000000  0  7G 9G24G20G28G 5G 4G 7
 113823455.20548  88693618.73648  21659864.0854   21659863.1924   21659864.3344
       235.000         191.000
 127101275.95948  81247721.33548  22283652.3014   22283656.1344   22283652.7424
       231.000         180.000
 138733153.14348  90311559.45048  24497095.2874   24497094.0914   24497095.7184
       202.000         133.000
 118674238.56948  92473437.98148  22582952.9194   22582950.9854   22582953.8084
       224.000         167.000
 135615115.11348  87881907.44148  23903763.0544   23903763.3344   23903763.4904
       216.000         156.000
 106617075.55648  83078242.93248  20288552.8324   20288551.6694   20288552.7564
       245.000         211.000
 111877550.07548  87177311.06748  21289590.1454   21289590.0714   21289590.9484
       237.000         197.000
 03 10 30  1 27  0.0000000  0  7G 9G24G20G28G 5G 4G 7
 113831679.01148  88700026.89148  21661428.9684   21661428.1344   21661429.1364
       235.000         191.000
 127009712.29148  81176373.11548  22266228.3784   22266231.9834   22266228.6974
       231.000         179.000
 138751685.41148  90326000.03648  24500622.6204   24500622.2604   24500623.5204
       201.000         132.000
 118753601.31548  92535279.10548  22598055.1914   22598053.2364   22598055.5044
       223.000         166.000
 135517551.07648  87805883.37548  23885197.4944   23885197.9104   23885197.7904
       215.000         155.000
 106594055.44848  83060305.19448  20284172.3564   20284171.1174   20284172.2604
       246.000         211.000
 111920771.84148  87210990.22348  21297815.1944   21297815.0004   21297815.9074
       238.000         197.000
 03 10 30  1 27 30.0000000  0  7G 9G24G20G28G 5G 4G 7
 113840511.68848  88706909.49848  21663109.7354   21663108.9524   21663109.9734
       236.000         192.000
 126918466.69048  81105272.78248  22248864.8144   22248868.2644   22248865.1294
       232.000         181.000
 138770757.82848  90340861.49648  24504251.5964   24504251.8654   24504252.2004
       205.000         133.000
 118833250.24248  92597343.23348  22613211.5114   22613209.9084   22613211.7644
       222.000         166.000
 135420056.50748  87729913.66048  23866644.6544   23866645.0304   23866645.4184
       218.000         155.000
 106571628.02548  83042829.27348  20279904.6054   20279903.3744   20279904.5474
       246.000         211.000
 111964144.93148  87244787.38548  21306068.9804   21306068.6624   21306069.7494
       238.000         197.000
 03 10 30  1 28  0.0000000  0  7G 9G24G20G28G 5G 4G 7
 113849952.30948  88714265.82348  21664906.1374   21664905.4704   21664906.5054
       235.000         192.000
 126827541.52248  81034422.21148  22231562.1844   22231565.3954   22231562.5214
       232.000         182.000
 138790369.89148  90356143.57248  24507984.1584   24507984.5414   24507985.0574
       206.000         135.000
 118913184.32448  92659629.54148  22628422.6054   22628421.1094   22628422.8334
       222.000         165.000
 135322633.41748  87653999.81748  23848105.6234   23848105.8224   23848106.2214
       218.000         156.000
 106549793.64648  83025815.48348  20275749.5534   20275748.4554   20275749.4704
       246.000         211.000
 112007668.71748  87278702.04148  21314351.1624   21314351.0454   21314351.9894
       237.000         197.000
 03 10 30  1 28 30.0000000  0  7G 9G24G20G28G 5G 4G 7
 113860000.24148  88722095.38248  21666818.2644   21666817.6284   21666818.5024
       237.000         193.000
 126736938.24348  80963822.44448  22214320.7364   22214323.9344   22214320.9414
       231.000         182.000
 138810521.58748  90371846.05348  24511819.2214   24511820.6924   24511819.8874
       205.000         138.000
 118993402.85848  92722137.48148  22643687.7264   22643686.0054   22643688.4274
       221.000         163.000
 135225283.06248  87578142.43048  23829580.2484   23829580.6394   23829580.9484
       217.000         154.000
 106528552.68348  83009264.10648  20271707.5294   20271706.3494   20271707.3974
       246.000         211.000
 112051342.60948  87312733.72748  21322662.0034   21322661.8954   21322662.7794
       237.000         197.000
 03 10 30  1 29  0.0000000  0  7G 9G24G20G28G 5G 4G 7
 113870655.00448  88730397.78748  21668845.9414   21668845.2384   21668846.1694
       237.000         194.000
 126646658.85348  80893475.01248  22197140.9934   22197144.1604   22197141.2334
       232.000         181.000
 138831212.35148  90387968.61548  24515755.7464   24515756.8784   24515756.8604
       208.000         137.000
 119073905.15148  92784866.53848  22659006.9814   22659005.0704   22659007.5214
       221.000         162.000
 135128007.38548  87502343.36948  23811069.5644   23811069.7784   23811069.7484
       217.000         156.000
 106507904.95748  82993174.93648  20267778.3894   20267777.2244   20267778.3824
       246.000         211.000
 112095166.21348  87346882.05548  21331001.3414   21331001.2994   21331002.1064
       237.000         197.000
 03 10 30  1 29 30.0000000  0  7G 9G24G20G28G 5G 4G 7
 113881915.62948  88739172.30748  21670988.7794   21670988.1044   21670989.1394
       237.000         194.000
 126556705.77348  80823381.89148  22180023.3804   22180026.6924   22180023.6554
       231.000         181.000
 138852442.28948  90404511.33448  24519795.4524   24519795.2304   24519796.8784
       208.000         137.000
 119154690.37648  92847816.05248  22674380.0694   22674377.8764   22674380.3414
       220.000         161.000
 135030807.08248  87426602.74648  23792572.9204   23792573.0914   23792573.3534
       217.000         156.000
 106487850.68948  82977548.19448  20263962.2044   20263961.0574   20263962.1494
       246.000         211.000
 112139138.72848  87381146.34748  21339368.9124   21339368.9544   21339369.5134
       237.000         197.000
 03 10 30  1 30  0.0000000  0  7G 9G24G20G28G 5G 4G 7
 113893781.45948  88748418.38848  21673246.8764   21673246.1114   21673247.1354
       236.000         195.000
 126467080.86948  80753544.51648  22162968.0684   22162971.4164   22162968.3554
       231.000         180.000
 138874210.77048  90421473.70248  24523939.0404   24523938.5474   24523939.4984
       208.000         138.000
 119235757.81548  92910985.51148  22689806.3414   22689804.2534   22689807.0504
       222.000         161.000
 134933684.90948  87350923.12048  23774090.8294   23774091.5574   23774091.5754
       217.000         156.000
 106468390.07348  82962383.98648  20260259.0474   20260257.9554   20260258.9474
       246.000         211.000
 112183259.82348  87415526.41048  21347764.9664   21347764.9344   21347765.7364
       237.000         196.000
 03 10 30  1 30 30.0000000  0  7G 9G24G20G28G 5G 4G 7
 113906251.70548  88758135.47048  21675619.8744   21675619.0404   21675620.1114
       236.000         195.000
 126377786.51648  80683964.73148  22145975.8834   22145978.9034   22145976.0434
       230.000         180.000
 138896517.40948  90438855.15648  24528184.8534   24528186.1334   24528184.7334
       209.000         138.000
 119317106.47448  92974374.08348  22705286.7244   22705284.2754   22705287.2074
       222.000         162.000
 134836642.38448  87275305.37648  23755624.3714   23755625.2074   23755625.0484
       217.000         156.000
 106449523.68948  82947682.94348  20256668.9664   20256667.7654   20256668.9844
       246.000         211.000
 112227528.65948  87450021.36748  21356189.1774   21356189.2204   21356189.8284
       237.000         196.000
 03 10 30  1 31  0.0000000  0  7G 9G24G20G28G 5G 4G 7
 113919325.69048  88768322.98948  21678107.7814   21678106.8314   21678107.9494
       237.000         194.000
 126288824.40048  80614643.85948  22129046.5844   22129049.5874   22129047.0204
       231.000         181.000
 138919362.59148  90456656.48848  24532531.3294   24532530.9584   24532531.8724
       207.000         138.000
 119398735.58448  93037981.19148  22720820.0644   22720817.5784   22720820.6224
       222.000         162.000
 134739682.37248  87199752.36148  23737173.4644   23737173.9954   23737174.2454
       217.000         156.000
 106431250.94648  82933444.44948  20253191.7394   20253190.5654   20253191.6494
       246.000         211.000
 112271946.03948  87484632.59348  21364641.2674   21364641.2334   21364641.9984
       237.000         196.000
 03 10 30  1 31 30.0000000  0  7G 9G24G20G28G 5G 4G 7
 113933002.65248  88778980.34848  21680710.4064   21680709.5344   21680710.6884
       237.000         193.000
 126200196.74548  80545583.71848  22112181.0424   22112183.7714   22112181.3194
       230.000         180.000
 138942745.38448  90474876.79548  24536979.4854   24536980.8644   24536980.5864
       208.000         138.000
 119480644.06348  93101805.99348  22736406.7234   22736404.2934   22736407.4264
       221.000         161.000
 134642805.44148  87124263.81248  23718738.4974   23718738.9244   23718739.2874
       216.000         155.000
 106413572.18348  82919668.71248  20249827.5564   20249826.5054   20249827.4164
       247.000         211.000
 112316509.86148  87519357.58148  21373121.5774   21373121.5564   21373122.2674
       237.000         196.000
 03 10 30  1 32  0.0000000  0  7G 9G24G20G28G 5G 4G 7
 113947281.34648  88790106.59148  21683427.4224   21683426.8104   21683427.6264
       236.000         192.000
 126111905.35248  80476785.57348  22095379.4434   22095382.3084   22095379.7894
       231.000         182.000
 138966665.34548  90493515.64948  24541531.9434   24541533.2724   24541532.5564
       210.000         140.000
 119562831.36048  93165848.07148  22752046.2754   22752044.2394   22752046.6834
       220.000         161.000
 134546013.66348  87048841.67848  23700319.4524   23700320.0984   23700320.3064
       216.000         156.000
 106396487.42448  82906355.93048  20246576.4584   20246575.3124   20246576.3104
       246.000         211.000
 112361220.45148  87554196.94248  21381629.6824   21381629.6334   21381630.4664
       236.000         195.000
 03 10 30  1 32 30.0000000  0  7G 9G24G20G28G 5G 4G 7
 113962161.20348  88801701.28748  21686258.8244   21686258.3084   21686258.9884
       236.000         192.000
 126023952.44448  80408251.36448  22078642.1884   22078644.9734   22078642.4154
       232.000         183.000
 138991122.01448  90512572.57548  24546186.1884   24546187.7184   24546187.1114
       210.000         140.000
 119645296.53048  93230106.67848  22767738.6114   22767736.9154   22767738.8304
       220.000         159.000
 134449309.04848  86973487.56748  23681917.2764   23681918.0534   23681917.8354
       217.000         156.000
 106379996.69148  82893506.09548  20243438.2294   20243437.1894   20243438.1024
       246.000         211.000
 112406077.60948  87589150.69448  21390165.6164   21390165.5164   21390166.3134
       237.000         195.000
 03 10 30  1 33  0.0000000  0  7G 9G24G20G28G 5G 4G 7
 113977641.31148  88813763.73148  21689204.5994   21689203.9474   21689204.7144
       236.000         191.000
 125936340.08148  80339982.48748  22061969.9194   22061972.5614   22061970.0934
       233.000         184.000
 139016115.32948  90532047.74948  24550942.8164   24550942.0434   24550943.2574
       210.000         142.000
 119728038.71548  93294581.14248  22783483.7854   22783482.1864   22783484.1744
       220.000         159.000
 134352693.66648  86898203.04948  23663531.8924   23663532.5064   23663532.9364
       217.000         156.000
 106364099.54048  82881118.57848  20240413.1834   20240412.1384   20240413.0274
       246.000         211.000
 112451080.17748  87624217.54348  21398729.4554   21398729.3394   21398730.2024
       236.000         195.000
 03 10 30  1 33 30.0000000  0  7G 9G24G20G28G 5G 4G 7
 113993720.67248  88826293.10548  21692264.5964   21692263.5014   21692264.7364
       236.000         190.000
 125849070.12048  80271980.38548  22045362.5934   22045365.4174   22045362.8674
       232.000         184.000
 139041644.96248  90551941.08548  24555800.3234   24555800.2614   24555801.6524
       213.000         142.000
 119811057.05148  93359270.80148  22799281.3334   22799280.0924   22799281.9154
       219.000         159.000
 134256167.94648  86822988.07248  23645163.7784   23645164.1514   23645164.6254
       217.000         157.000
 106348796.70748  82869194.35048  20237501.1684   20237499.9904   20237501.0574
       246.000         211.000
 112496228.35748  87659398.03548  21407320.8104   21407320.6864   21407321.5354
       236.000         194.000
 03 10 30  1 34  0.0000000  0  7G 9G24G20G28G 5G 4G 7
 114010398.11048  88839288.49248  21695438.1254   21695436.9674   21695438.4364
       236.000         190.000
 125762144.49348  80204246.60948  22028820.8704   22028823.6774   22028821.1714
       233.000         185.000
 139067709.98148  90572251.59348  24560761.0634   24560760.5134   24560761.5994
       213.000         142.000
 119894350.72048  93424174.97948  22815131.9254   22815130.2764   22815132.2814
       219.000         160.000
 134159735.16948  86747845.66548  23626813.1374   23626814.0244   23626813.8104
       216.000         156.000
 106334087.77248  82857732.91148  20234702.1094   20234700.8664   20234701.9954
       246.000         211.000
 112541520.88148  87694690.82448  21415939.6484   21415939.6094   21415940.4414
       237.000         194.000
 03 10 30  1 34 30.0000000  0  7G 9G24G20G28G 5G 4G 7
 114027672.74648  88852749.24048  21698725.4244   21698724.4204   21698725.7564
       238.000         191.000
 125675564.78348  80136782.33848  22012344.9124   22012347.5864   22012345.2344
       234.000         186.000
 139094309.33248  90592978.18248  24565822.4704   24565823.3904   24565823.4724
       215.000         145.000
 119977918.67748  93489292.89248  22831034.8254   22831032.5864   22831035.0264
       220.000         161.000
 134063397.07948  86672777.08348  23608480.6724   23608481.3414   23608481.1914
       215.000         156.000
 106319972.38148  82846733.89748  20232015.9644   20232014.9104   20232015.8184
       247.000         212.000
 112586957.96548  87730096.30848  21424586.0554   21424585.9954   21424586.8594
       236.000         194.000
 03 10 30  1 35  0.0000000  0  7G 9G24G20G28G 5G 4G 7
 114045543.87548  88866674.80948  21702126.1924   21702125.3494   21702126.4574
       237.000         192.000
 125589333.50448  80069589.59748  21995935.2494   21995937.7224   21995935.5334
       233.000         186.000
 139121443.22248  90614121.39248  24570985.8984   24570986.9474   24570986.7104
       217.000         146.000
 120061759.79848  93554623.66848  22846988.9234   22846987.4234   22846989.4364
       220.000         162.000
 133967154.81848  86597783.04148  23590165.9284   23590166.7164   23590166.8894
       216.000         156.000
 106306450.68348  82836197.60148  20229442.9194   20229441.6994   20229442.8274
       247.000         212.000
 112632538.84848  87765613.80648  21433259.8604   21433259.8614   21433260.4754
       235.000         193.000
 03 10 30  1 35 30.0000000  0  7G 9G24G20G28G 5G 4G 7
 114064010.47348  88881064.37748  21705640.4274   21705639.5764   21705640.7404
       238.000         193.000
 125503452.21748  80002669.52448  21979592.3084   21979594.6794   21979592.5514
       234.000         187.000
 139149110.60748  90635679.99648  24576251.3264   24576253.3634   24576252.2974
       216.000         147.000
 120145873.38748  93620166.71948  22862995.4894   22862993.6944   22862996.0054
       221.000         162.000
 133871010.53748  86522865.33448  23571870.4034   23571871.4524   23571871.1054
       217.000         156.000
 106293522.08548  82826123.26448  20226982.8104   20226981.5784   20226982.7304
       247.000         212.000
 112678263.43648  87801243.39748  21441960.8304   21441960.8894   21441961.5874
       236.000         194.000
 03 10 30  1 36  0.0000000  0  7G 9G24G20G28G 5G 4G 7
 114083071.36448  88895917.02148  21709267.6944   21709266.8004   21709268.0424
       238.000         194.000
 125417922.94348  79936023.67748  21963316.4384   21963318.6594   21963316.6194
       234.000         187.000
 139177311.00248  90657653.85948  24581618.2064   24581618.3614   24581619.1074
       216.000         147.000
 120230258.91748  93685921.68048  22879053.6204   22879052.1274   22879053.9974
       222.000         164.000
 133774966.31148  86448025.56548  23553594.2224   23553594.8354   23553594.5344
       217.000         158.000
 106281186.80048  82816511.25048  20224635.4894   20224634.3624   20224635.4294
       247.000         212.000
 112724131.46148  87836984.91048  21450689.0924   21450689.2694   21450689.7504
       235.000         193.000
 03 10 30  1 36 30.0000000  0  7G 9G24G20G28G 5G 4G 7
 114102725.21648  88911231.69048  21713007.7434   21713006.8354   21713008.1254
       237.000         194.000
 125332747.60448  79869653.62948  21947107.9044   21947109.8534   21947108.1904
       235.000         188.000
 139206043.81848  90680042.45048  24587086.6774   24587087.2924   24587086.8484
       215.000         147.000
 120314914.70948  93751887.14748  22895163.1024   22895161.5304   22895163.5414
       221.000         163.000
 133679024.00948  86373265.22748  23535336.7134   23535337.7974   23535337.3904
       217.000         157.000
 106269444.87648  82807361.68348  20222401.0124   20222400.0174   20222400.8564
       247.000         212.000
 112770141.62248  87872836.90448  21459444.6514   21459444.7884   21459445.2764
       236.000         194.000
 03 10 30  1 37  0.0000000  0  7G 9G24G20G28G 5G 4G 7
 114122971.14648  88927007.71448  21716860.2394   21716859.5334   21716860.5734
       236.000         193.000
 125247928.18748  79803560.87248  21930967.1134   21930968.9344   21930967.2844
       235.000         187.000
 139235309.29748  90702846.40548  24592655.1564   24592655.1384   24592656.0554
       213.000         147.000
 120399840.21348  93818062.88248  22911323.9444   22911322.3224   22911324.4634
       222.000         163.000
 133583185.59348  86298586.05048  23517099.1274   23517100.1434   23517099.6434
       217.000         159.000
 106258295.44548  82798673.68148  20220279.5324   20220278.3894   20220279.4044
       247.000         212.000
 112816294.14948  87908799.96848  21468227.2314   21468227.2034   21468227.9654
       236.000         193.000
 03 10 30  1 37 30.0000000  0  7G 9G24G20G28G 5G 4G 7
 114143807.99448  88943244.21148  21720825.2414   21720824.7084   21720825.5324
       236.000         192.000
 125163466.53048  79737746.87948  21914894.3894   21914896.2784   21914894.6614
       235.000         188.000
 139265105.73048  90726063.87648  24598325.6694   24598327.4044   24598326.4024
       214.000         147.000
 120485034.44548  93884447.99648  22927535.9784   22927534.2734   22927536.3924
       222.000         163.000
 133487452.90748  86223989.38248  23498881.5944   23498882.9184   23498882.4374
       217.000         161.000
 106247738.98948  82790447.88648  20218270.6754   20218269.3934   20218270.5524
       247.000         212.000
 112862588.38548  87944873.34748  21477036.8564   21477036.7534   21477037.5764
       235.000         193.000
 03 10 30  1 38  0.0000000  0  7G 9G24G20G28G 5G 4G 7
 114165234.43348  88959940.12248  21724902.5704   21724901.9584   21724902.8604
       235.000         192.000
 125079364.87948  79672213.62348  21898889.8464   21898891.8844   21898890.0974
       233.000         187.000
 139295432.18348  90749693.91348  24604097.8384   24604099.4894   24604098.4394
       214.000         149.000
 120570496.58448  93951041.91048  22943798.7264   22943796.9474   22943799.3864
       222.000         162.000
 133391827.42848  86149475.99548  23480685.0924   23480685.9964   23480685.5884
       218.000         161.000
 106237774.78148  82782683.58248  20216374.5284   20216373.3034   20216374.4494
       247.000         212.000
 112909024.12048  87981057.06048  21485873.2144   21485873.1144   21485874.0584
       236.000         193.000
 03 10 30  1 38 30.0000000  0  7G 9G24G20G28G 5G 4G 7
 114187249.47748  88977094.68348  21729091.7034   21729091.1424   21729091.9324
       234.000         190.000
 124995624.35648  79606961.68848  21882954.1044   21882956.2364   21882954.3524
       234.000         188.000
 139326289.82548  90773738.40548  24609970.2314   24609971.6324   24609971.1774
       215.000         148.000
 120656225.28448  94017843.43148  22960112.3934   22960110.6264   22960112.9344
       221.000         162.000
 133296311.57848  86075048.09948  23462508.9524   23462509.8004   23462509.4794
       217.000         160.000
 106228402.93148  82775380.93448  20214591.0724   20214589.9164   20214591.0054
       247.000         213.000
 112955600.76248  88017350.53448  21494736.6754   21494736.3604   21494737.3244
       236.000         193.000
 03 10 30  1 39  0.0000000  0  7G 9G24G20G28G 5G 4G 7
 114209851.96448  88994706.99648  21733392.8624   21733392.2174   21733393.0144
       234.000         190.000
 124912246.82148  79541992.45048  21867087.5544   21867089.8464   21867087.8604
       235.000         189.000
 139357676.16148  90798194.55048  24615943.2284   24615945.5344   24615944.1284
       211.000         147.000
 120742219.86948  94084852.19348  22976476.3284   22976474.5474   22976476.7824
       220.000         160.000
 133200906.75848  86000706.74648  23444353.5614   23444354.6864   23444354.2634
       217.000         159.000
 106219622.60748  82768539.12348  20212920.2574   20212918.9704   20212920.1984
       247.000         213.000
 113002317.89648  88053753.43448  21503626.5824   21503626.1834   21503627.3334
       236.000         192.000
 03 10 30  1 39 30.0000000  0  7G 9G24G20G28G 5G 4G 7
 114233040.72148  89012776.14048  21737805.4804   21737804.7584   21737805.7324
       235.000         190.000
 124829234.73648  79477308.03448  21851290.7734   21851292.7224   21851290.9014
       234.000         189.000
 139389591.00348  90823062.48548  24622016.4624   24622019.2284   24622017.4574
       212.000         147.000
 120828479.40548  94152067.42048  22992891.0444   22992889.1514   22992891.3364
       220.000         159.000
 133105614.87048  85926453.27748  23426220.2254   23426221.0214   23426220.6414
       217.000         159.000
 106211433.49248  82762157.91748  20211361.9514   20211360.7134   20211361.8104
       247.000         213.000
 113049175.06548  88090265.36648  21512543.2684   21512542.9964   21512544.0604
       236.000         192.000
 03 10 30  1 40  0.0000000  0  7G 9G24G20G28G 5G 4G 7
 114256814.44948  89031301.12148  21742329.6814   21742328.6854   21742329.9444
       237.000         191.000
 124746589.98148  79412909.78448  21835563.8554   21835565.5694   21835564.0354
       235.000         190.000
 139422033.39848  90848341.22348  24628191.5324   24628193.3364   24628192.3144
       212.000         148.000
 120915002.75848  94219488.20148  23009356.2004   23009354.3264   23009356.3694
       220.000         160.000
 133010438.44648  85852289.95148  23408108.4424   23408109.4494   23408109.0384
       218.000         159.000
 106203835.27348  82756237.16048  20209916.1924   20209914.8674   20209916.1004
       247.000         213.000
 113096171.97548  88126886.16948  21521486.4954   21521486.3324   21521487.2504
       235.000         192.000
 03 10 30  1 40 30.0000000  0  7G 9G24G20G28G 5G 4G 7
 114281171.72148  89050280.79848  21746964.8524   21746963.6634   21746965.1514
       236.000         191.000
 124664314.14148  79348799.05048  21819907.2344   21819908.6624   21819907.3544
       236.000         191.000
 139455003.29048  90874031.33948  24634466.1884   24634467.5104   24634466.5194
       212.000         147.000
 121001788.81448  94287113.68148  23025871.0444   23025868.9424   23025871.6684
       222.000         159.000
 132915378.64548  85778217.32948  23390019.4484   23390020.1574   23390019.7514
       214.000         157.000
 106196827.71048  82750776.62148  20208582.7614   20208581.5774   20208582.6984
       247.000         213.000
 113143308.51348  88163615.83048  21530456.3204   21530456.4094   21530456.9464
       235.000         192.000
 03 10 30  1 41  0.0000000  0  7G 9G24G20G28G 5G 4G 7
 114306111.11648  89069714.07048  21751710.7434   21751709.6434   21751710.9774
       237.000         192.000
 124582409.08648  79284977.29948  21804320.9994   21804322.2324   21804321.2884
       237.000         191.000
 139488499.79948  90900131.99448  24640841.2244   24640841.7424   24640841.6914
       211.000         146.000
 121088836.61048  94354943.08048  23042435.6634   23042433.3644   23042436.3214
       221.000         158.000
 132820437.81748  85704237.43548  23371952.5584   23371953.4844   23371953.3314
       215.000         156.000
 106190410.35648  82745775.95948  20207361.5804   20207360.5344   20207361.4004
       247.000         213.000
 113190584.01748  88200453.72348  21539452.5614   21539452.8394   21539453.1704
       235.000         193.000
 03 10 30  1 41 30.0000000  0  7G 9G24G20G28G 5G 4G 7
 114331631.47448  89089600.04748  21756567.0944   21756566.1064   21756567.2994
       236.000         192.000
 124500876.35848  79221445.57648  21788805.6864   21788806.8314   21788805.9474
       238.000         192.000
 139522522.64548  90926643.26648  24647315.0974   24647317.0464   24647315.9484
       208.000         146.000
 121176145.19248  94422975.69148  23059049.7474   23059047.9584   23059050.3034
       219.000         157.000
 132725617.85748  85630351.62848  23353908.9354   23353910.1334   23353909.6294
       215.000         155.000
 106184582.92148  82741235.01348  20206252.6704   20206251.6454   20206252.5304
       246.000         212.000
 113237998.24448  88237399.74748  21548475.3024   21548475.5834   21548475.9144
       235.000         192.000
 03 10 30  1 42  0.0000000  0  7G 9G24G20G28G 5G 4G 7
 114357731.39248  89109937.63748  21761533.7444   21761532.8514   21761533.9194
       237.000         193.000
 124419717.67548  79158205.18948  21773361.6684   21773362.6724   21773362.0254
       237.000         193.000
 139557068.43448  90953561.15548  24653888.7674   24653893.2644   24653889.9794
       203.000         145.000
 121263713.37648  94491210.51548  23075713.0554   23075711.6744   23075713.6084
       218.000         157.000
 132630920.81248  85556561.53348  23335888.7274   23335889.6964   23335889.2304
       215.000         157.000
 106179344.74648  82737153.25848  20205255.9654   20205254.8824   20205255.8534
       247.000         213.000
 113285550.63248  88274453.37748  21557524.4964   21557524.7474   21557525.2084
       236.000         193.000
 03 10 30  1 42 30.0000000  0  7G 9G24G20G28G 5G 4G 7
 114384409.48448  89130725.73648  21766610.4494   21766609.6094   21766610.6954
       236.000         192.000
 124338934.98448  79095257.86748  21757988.9214   21757990.1564   21757989.2404
       237.000         193.000
 139592139.64348  90980889.19348  24660563.3304   24660565.7334   24660563.7644
       202.000         143.000
 121351540.11048  94559646.80548  23092425.9884   23092424.7604   23092426.5724
       218.000         156.000
 132536348.13748  85482868.30348  23317892.3644   23317893.2964   23317892.7624
       214.000         157.000
 106174695.41548  82733530.33548  20204371.2444   20204370.2754   20204371.1444
       246.000         212.000
 113333240.93248  88311614.40848  21566599.8504   21566600.1284   21566600.6434
       236.000         193.000
 03 10 30  1 43  0.0000000  0  7G 9G24G20G28G 5G 4G 7
 114411664.34248  89151963.24548  21771796.6804   21771795.8994   21771796.9094
       236.000         192.000
 124258530.19148  79032605.03748  21742688.1014   21742689.4604   21742688.3964
       237.000         193.000
 139627734.54548  91008625.87548  24667335.8094   24667339.3624   24667336.9754
       205.000         142.000
 121439624.53748  94628283.82848  23109187.9874   23109186.9254   23109188.4834
       216.000         155.000
 132441902.31148  85409273.85848  23299920.4174   23299921.3464   23299920.9114
       215.000         157.000
 106170634.42948  82730365.83848  20203598.4664   20203597.5704   20203598.3354
       246.000         212.000
 113381069.07248  88348883.05948  21575701.3624   21575701.4884   21575702.0824
       237.000         194.000
 03 10 30  1 43 30.0000000  0  7G 9G24G20G28G 5G 4G 7
 114439494.72848  89173649.23548  21777092.6134   21777092.0124   21777092.9434
       235.000         192.000
 124178504.93848  78970247.95448  21727459.5204   21727460.8794   21727459.8004
       237.000         194.000
 139663850.19048  91036767.67348  24674209.1554   24674212.8764   24674209.8854
       206.000         141.000
 121527965.65348  94697120.92648  23125998.7244   23125998.2784   23125999.0884
       214.000         154.000
 132347585.30848  85335779.75648  23281972.6794   23281973.8254   23281972.9884
       216.000         158.000
 106167161.24848  82727659.38148  20202937.6394   20202936.6954   20202937.5014
       246.000         212.000
 113429034.37548  88386258.54448  21584828.9314   21584829.2374   21584829.7294
       237.000         194.000
 03 10 30  1 44  0.0000000  0  7G 9G24G20G28G 5G 4G 7
 114467898.90648  89195782.33248  21782497.7604   21782497.1824   21782498.0114
       236.000         192.000
 124098860.95448  78908187.92648  21712303.6294   21712305.0494   21712303.8414
       236.000         194.000
 139700488.08848  91065316.89648  24681179.8794   24681181.6804   24681182.2824
       203.000         130.000
 121616562.31348  94766157.17748  23142858.2474   23142857.2274   23142858.3484
       214.000         154.000
 132253399.26148  85262387.68348  23264049.7954   23264050.9744   23264050.6274
       215.000         158.000
 106164275.44748  82725410.66648  20202388.5434   20202387.5064   20202388.4714
       246.000         212.000
 113477136.80548  88423740.95948  21593982.5154   21593982.7754   21593983.2274
       237.000         194.000
 03 10 30  1 44 30.0000000  0  7G 9G24G20G28G 5G 4G 7
 114496875.60448  89218361.56048  21788011.9434   21788011.4404   21788012.2684
       236.000         193.000
 124019600.52348  78846426.96248  21697220.6514   21697221.8234   21697220.8714
       237.000         194.000
 139737645.70248  91094271.27848  24688250.4554   24688255.3744   24688252.6454
       196.000         131.000
 121705413.22748  94835391.46148  23159766.0164   23159765.5294   23159766.7264
       216.000         155.000
 132159346.45448  85189099.60348  23246152.5714   23246153.5574   23246152.7024
       215.000         159.000
 106161976.35048  82723619.20548  20201950.9854   20201949.8794   20201950.9784
       246.000         212.000
 113525375.68448  88461329.64548  21603162.1214   21603162.3934   21603162.8514
       237.000         194.000
 03 10 30  1 45  0.0000000  0  7G 9G24G20G28G 5G 4G 7
 114526423.22148  89241385.65648  21793634.6194   21793634.2404   21793635.1254
       235.000         193.000
 123940724.46848  78784965.37648  21682210.9204   21682211.9064   21682211.2644
       238.000         196.000
 139775321.92748  91123629.35648  24695421.3404   24695422.4904   24695420.2174
       189.000         130.000
 121794517.58548  94904823.29048  23176722.7334   23176721.1324   23176723.3364
       216.000         155.000
 132065428.32248  85115916.52448  23228280.6744   23228281.7544   23228280.9854
       218.000         161.000
 106160263.19348  82722284.31648  20201624.9584   20201623.9604   20201624.8704
       246.000         212.000
 113573750.99048  88499024.75548  21612367.5454   21612367.9204   21612368.3614
       236.000         194.000
 03 10 30  1 45 30.0000000  0  7G 9G24G20G28G 5G 4G 7
 114556540.44648  89264853.60848  21799365.7604   21799365.3144   21799366.0164
       235.000         193.000
 123862235.04548  78723805.07948  21667274.8014   21667275.5024   21667275.0904
       238.000         195.000
 139813515.78248  91153390.56148  24702689.9044   24702694.6434   24702688.7864
       191.000         130.000
 121883874.25948  94974451.72248  23193727.4874   23193725.4624   23193728.0624
       218.000         155.000
 131971647.00148  85042840.25648  23210434.7174   23210435.8304   23210435.4684
       219.000         162.000
 106159135.47548  82721405.58148  20201410.4224   20201409.3604   20201410.3674
       246.000         212.000
 113622261.91948  88536825.42348  21621598.8844   21621599.1744   21621599.4044
       236.000         194.000
 03 10 30  1 46  0.0000000  0  7G 9G24G20G28G 5G 4G 7
 114587225.70148  89288764.19148  21805204.8684   21805204.5154   21805205.2074
       235.000         193.000
 123784133.47748  78662946.87548  21652412.2504   21652413.0954   21652412.5494
       238.000         195.000
 139852227.40448  91183555.48948  24710053.8884   24710056.6114   24710056.8634
       184.000         129.000
 121973482.04948  95044275.79848  23210779.8754   23210777.3974   23210780.1994
       216.000         154.000
 131878004.65948  84969872.12348  23192615.4894   23192616.3974   23192615.9304
       219.000         163.000
 106158592.49348  82720982.46048  20201306.9834   20201306.0264   20201306.8924
       246.000         212.000
 113670908.68548  88574732.12248  21630855.9584   21630856.2814   21630856.5724
       236.000         194.000
 03 10 30  1 46 30.0000000  0  7G 9G24G20G28G 5G 4G 7
 114618477.29448  89313116.07948  21811151.7724   21811151.5374   21811152.0184
       236.000         193.000
 123706421.89748  78602392.60948  21637624.0034   21637624.8924   21637624.2244
       238.000         196.000
 139891455.01948  91214122.83148  24717520.1084   24717523.3044   24717521.0934
       184.000         132.000
 122063339.83648  95114294.67448  23227879.2144   23227876.8914   23227879.7934
       215.000         153.000
 131784503.01548  84897013.76848  23174822.4264   23174823.3874   23174823.0254
       219.000         163.000
 106158633.67248  82721014.57948  20201314.9074   20201313.9244   20201314.7904
       246.000         213.000
 113719690.68448  88612744.19148  21640138.8284   21640139.0834   21640139.5254
       236.000         193.000
 03 10 30  1 47  0.0000000  0  7G 9G24G20G28G 5G 4G 7
 114650293.70348  89337908.10048  21817206.4904   21817205.8834   21817206.7364
       237.000         192.000
 123629101.79048  78542143.32048  21622910.3324   21622911.3074   21622910.5304
       238.000         196.000
 139931197.31348  91245090.81348  24725082.7434   24725087.7094   24725081.9574
       190.000         131.000
 122153446.29248  95184507.25248  23245025.8684   23245023.4624   23245026.4574
       218.000         153.000
 131691144.59248  84824267.13848  23157056.8984   23157057.6824   23157057.4594
       220.000         164.000
 106159258.01248  82721500.97748  20201433.7084   20201432.9034   20201433.6774
       246.000         213.000
 113768607.41548  88650861.15848  21649447.4744   21649447.3724   21649448.2334
       237.000         193.000
 03 10 30  1 47 30.0000000  0  7G 9G24G20G28G 5G 4G 7
 114682673.28848  89363138.95348  21823368.4114   21823367.3074   21823368.6034
       237.000         192.000
 123552174.47348  78482200.02548  21608271.6584   21608272.4894   21608271.8754
       238.000         195.000
 139971453.39748  91276458.97448  24732742.9684   24732747.4214   24732743.6884
       191.000         132.000
 122243800.70348  95254913.04948  23262220.0564   23262217.7624   23262220.6134
       216.000         152.000
 131597931.16048  84751633.35848  23139318.5574   23139319.7764   23139319.2654
       218.000         164.000
 106160465.47548  82722441.96848  20201663.3704   20201662.5614   20201663.1914
       246.000         213.000
 113817658.85348  88689083.13648  21658781.6204   21658781.4594   21658782.3874
       237.000         193.000
 03 10 30  1 48  0.0000000  0  7G 9G24G20G28G 5G 4G 7
 114715614.18148  89388807.19248  21829636.8254   21829635.5864   21829637.0624
       237.000         191.000
 123475642.19548  78422564.63248  21593707.9684   21593708.6954   21593708.3394
       238.000         196.000
 140012222.46948  91308227.09848  24740500.9384   24740500.6274   24740501.8674
       193.000         132.000
 122334401.66648  95325510.88848  23279460.7834   23279458.5974   23279461.2254
       216.000         152.000
 131504864.34948  84679113.80148  23121608.4164   23121609.8004   23121608.9374
       217.000         162.000
 106162254.50548  82723835.98948  20202003.9434   20202003.0024   20202003.8694
       247.000         213.000
 113866844.20048  88727409.29848  21668141.3154   21668141.2694   21668142.0644
       237.000         193.000
 03 10 30  1 48 30.0000000  0  7G 9G24G20G28G 5G 4G 7
 114749114.86748  89414911.64748  21836011.5114   21836010.4934   21836011.8204
       236.000         191.000
 123399505.97548  78363237.79248  21579219.7044   21579220.4064   21579220.0824
       239.000         196.000
 140053502.99648  91340393.84448  24748356.8744   24748358.6254   24748356.9124
       197.000         133.000
 122425248.01148  95396299.88448  23296748.4524   23296746.8954   23296749.2364
       215.000         152.000
 131411947.08848  84606710.93248  23103926.5974   23103928.1024   23103927.2064
       217.000         162.000
 106164624.67348  82725682.85848  20202455.0144   20202454.0864   20202455.0294
       247.000         213.000
 113916163.69248  88765840.08948  21677526.5164   21677526.4884   21677527.2124
       236.000         192.000
 03 10 30  1 49  0.0000000  0  7G 9G24G20G28G 5G 4G 7
 114783173.55548  89441450.89848  21842492.6954   21842491.8784   21842492.9774
       236.000         191.000
 123323767.56748  78304220.93048  21564807.1754   21564807.8104   21564807.3664
       239.000         197.000
 140095294.28348  91372958.60748  24756308.4104   24756311.6334   24756309.3704
       203.000         133.000
 122516338.77748  95467279.38448  23314082.9784   23314081.2174   23314083.2504
       215.000         152.000
 131319180.54048  84534425.40148  23086273.5354   23086275.0414   23086273.8714
       218.000         162.000
 106167575.16148  82727981.95848  20203016.4384   20203015.6394   20203016.3964
       246.000         213.000
 113965616.81948  88804374.99348  21686937.1264   21686937.1434   21686937.7394
       236.000         193.000
 03 10 30  1 49 30.0000000  0  7G 9G24G20G28G 5G 4G 7
 114817788.69748  89468423.71848  21849079.6784   21849079.0264   21849079.9474
       236.000         191.000
 123248429.04748  78245515.67948  21550470.6264   21550471.2444   21550470.8504
       238.000         197.000
 140137594.60848  91405919.90048  24764358.9094   24764361.8144   24764359.8384
       204.000         134.000
 122607672.69248  95538448.27948  23331463.1764   23331462.1144   23331463.6314
       213.000         151.000
 131226567.35748  84462259.54048  23068649.6054   23068651.2924   23068650.1384
       217.000         163.000
 106171105.49148  82730732.94748  20203688.0754   20203687.2524   20203687.9704
       246.000         213.000
 114015203.42548  88843013.96648  21696373.1384   21696373.1714   21696373.8414
       236.000         193.000
 03 10 30  1 50  0.0000000  0  7G 9G24G20G28G 5G 4G 7
 114852959.00148  89495829.20348  21855772.4694   21855771.6114   21855772.6304
       237.000         192.000
 123173491.69648  78187123.05648  21536210.4254   21536211.0424   21536210.6564
       239.000         198.000
 140180402.91248  91439276.95748  24772504.4114   24772508.7604   24772505.8614
       204.000         135.000
 122699248.70948  95609805.84948  23348889.0734   23348889.3934   23348889.8434
       211.000         150.000
 131134109.28848  84390214.44048  23051055.2654   23051056.8324   23051055.9104
       219.000         162.000
 106175214.24648  82733934.55748  20204470.0154   20204469.0914   20204469.8794
       246.000         213.000
 114064923.23348  88881756.72248  21705834.3424   21705834.5254   21705835.1444
       237.000         192.000
 03 10 30  1 50 30.0000000  0  7G 9G24G20G28G 5G 4G 7
 114888682.22748  89523665.56548  21862570.3054   21862569.4024   21862570.5594
       236.000         192.000
 123098957.04248  78129044.30048  21522026.9134   21522027.3384   21522027.1424
       239.000         198.000
 140223717.84048  91473028.59248  24780747.3874   24780752.4144   24780748.9364
       206.000         133.000
 122791065.60248  95681351.17148  23366362.1314   23366361.3924   23366362.5834
       212.000         148.000
 131041808.40648  84318291.89448  23033490.8784   23033492.1844   23033491.2574
       217.000         163.000
 106179900.98648  82737586.57648  20205361.8764   20205360.9834   20205361.7914
       246.000         213.000
 114114775.76048  88920602.90848  21715320.9194   21715320.9994   21715321.6274
       236.000         191.000
 03 10 30  1 51  0.0000000  0  7G 9G24G20G28G 5G 4G 7
 114924956.52548  89551931.34648  21869473.0824   21869472.1384   21869473.3634
       236.000         192.000
 123024826.35348  78071280.28248  21507920.1034   21507920.6034   21507920.3114
       239.000         198.000
 140267538.77248  91507174.62848  24789087.7874   24789090.2884   24789087.5974
       203.000         132.000
 122883122.35048  95753083.38548  23383879.6364   23383879.1204   23383880.3824
       212.000         149.000
 130949666.63848  84246493.24448  23015956.6044   23015958.2244   23015957.3424
       217.000         162.000
 106185164.70948  82741688.15948  20206363.5014   20206362.6344   20206363.4684
       246.000         213.000
 114164760.67748  88959552.17148  21724832.6584   21724832.8064   21724833.3864
       236.000         191.000
 03 10 30  1 51 30.0000000  0  7G 9G24G20G28G 5G 4G 7
 114961780.14348  89580625.22048  21876480.1784   21876479.3164   21876480.6104
       236.000         192.000
 122951101.64648  78013832.60648  21493890.6194   21493891.1534   21493890.8964
       239.000         198.000
 140311864.40948  91541714.16948  24797520.8464   24797521.8984   24797522.0804
       204.000         134.000
 122975417.16748  95825000.96848  23401443.1914   23401443.2524   23401443.8234
       209.000         143.000
 130857686.25848  84174820.39948  22998453.3084   22998454.6184   22998454.0284
       219.000         163.000
 106191004.47248  82746238.65648  20207474.7584   20207473.8274   20207474.5804
       247.000         213.000
 114214877.74648  88998604.35148  21734369.6264   21734369.8514   21734370.2974
       235.000         191.000
 03 10 30  1 52  0.0000000  0  7G 9G24G20G28G 5G 4G 7
 114999151.48848  89609745.95948  21883591.4054   21883590.6534   21883591.7414
       235.000         192.000
 122877784.40448  77956702.44348  21479938.6594   21479939.0004   21479938.9414
       239.000         198.000
 140356692.72548  91576645.30248  24806051.9224   24806055.1434   24806053.3944
       205.000         130.000
 123067949.59148  95897103.83148  23419051.4834   23419052.3404   23419052.0344
       211.000         145.000
 130765869.46748  84103274.90948  22980981.1484   22980982.4904   22980982.0204
       219.000         164.000
 106197419.24348  82751237.12348  20208695.5414   20208694.5714   20208695.3484
       247.000         213.000
 114265126.97448  89037759.57548  21743931.6604   21743932.0554   21743932.4034
       235.000         190.000
 03 10 30  1 52 30.0000000  0  7G 9G24G20G28G 5G 4G 7
 115037068.41048  89639291.70948  21890806.7624   21890805.8184   21890807.1794
       236.000         192.000
 122804875.88548  77899890.75648  21466064.4614   21466064.8234   21466064.7444
       238.000         198.000
 140402023.01348  91611967.23148  24814678.7224   24814683.7734   24814680.1044
       208.000         133.000
 123160717.90648  95969390.45148  23436705.5014   23436704.7404   23436706.0474
       209.000         145.000
 130674218.38948  84031858.55248  22963540.6644   22963541.8574   22963540.9794
       221.000         166.000
 106204408.46848  82756683.33448  20210025.4184   20210024.6064   20210025.3424
       247.000         213.000
 114315508.04248  89077017.62648  21753518.8274   21753519.1404   21753519.4624
       234.000         189.000
 03 10 30  1 53  0.0000000  0  7G 9G24G20G28G 5G 4G 7
 115075529.20248  89669261.22748  21898125.5584   21898124.6354   21898125.8794
       236.000         193.000
 122732377.72548  77843398.80248  21452268.4444   21452268.6354   21452268.6944
       238.000         198.000
 140447853.73848  91647679.25148  24823401.3154   24823402.6104   24823401.8554
       207.000         136.000
 123253721.28448  96041860.32648  23454403.0494   23454403.4674   23454403.6004
       211.000         145.000
 130582734.99748  83960572.90648  22946131.9634   22946132.9754   22946132.4784
       221.000         165.000
 106211971.12448  82762576.49148  20211464.4874   20211463.6054   20211464.3604
       247.000         213.000
 114366020.49448  89116378.03048  21763131.0254   21763131.2704   21763131.7094
       234.000         189.000
 03 10 30  1 53 30.0000000  0  7G 9G24G20G28G 5G 4G 7
 115114532.17048  89699653.22148  21905547.6334   21905546.7514   21905547.9464
       236.000         194.000
 122660291.23148  77787227.63848  21438550.8754   21438550.9704   21438551.1064
       238.000         197.000
 140494183.85148  91683780.41448  24832217.5514   24832218.6684   24832217.0324
       208.000         134.000
 123346958.18248  96114512.16948  23472146.0434   23472145.6454   23472146.4914
       210.000         146.000
 130491421.56548  83889419.67148  22928755.7924   22928756.4664   22928756.2654
       221.000         167.000
 106220105.73648  82768915.17048  20213012.5294   20213011.4864   20213012.4654
       247.000         213.000
 114416664.09848  89155840.55048  21772768.1824   21772768.4194   21772768.9774
       235.000         189.000
 03 10 30  1 54  0.0000000  0  7G 9G24G20G28G 5G 4G 7
 115154075.05248  89730465.86948  21913072.4734   21913071.4564   21913072.7154
       237.000         194.000
 122588618.04448  77731378.52348  21424911.7734   21424912.0424   21424912.0424
       238.000         197.000
 140541011.85048  91720269.53548  24841128.3214   24841131.5074   24841128.5664
       209.000         134.000
 123440427.38348  96187345.03448  23489933.2664   23489932.4184   23489933.6424
       211.000         145.000
 130400279.98548  83818400.31448  22911412.0794   22911412.5094   22911412.6064
       222.000         167.000
 106228811.40048  82775698.79448  20214669.0704   20214668.1564   20214669.0464
       246.000         213.000
 114467438.88248  89195405.39548  21782430.2414   21782430.4794   21782431.0164
       234.000         189.000
 03 10 30  1 54 30.0000000  0  7G 9G24G20G28G 5G 4G 7
 115194156.24448  89761697.95348  21920699.7304   21920698.8134   21920699.9634
       237.000         193.000
 122517359.32348  77675852.34048  21411351.7124   21411351.8344   21411352.0684
       238.000         196.000
 140588336.33948  91757145.34048  24850133.4404   24850137.1524   24850134.7304
       210.000         131.000
 123534127.66448  96260357.86248  23507764.0914   23507763.2164   23507764.5824
       209.000         147.000
 130309312.66348  83747516.85148  22894101.4564   22894101.8794   22894101.9234
       222.000         167.000
 106238087.39248  82782926.81948  20216434.1434   20216433.3224   20216433.9954
       246.000         213.000
 114518344.00848  89235071.60848  21792117.3664   21792117.4864   21792117.9614
       235.000         190.000
 03 10 30  1 55  0.0000000  0  7G 9G24G20G28G 5G 4G 7
 115234773.76248  89793347.98648  21928428.8274   21928427.9094   21928429.0374
       237.000         192.000
 122446516.70948  77620650.40248  21397870.5944   21397870.7474   21397870.9054
       238.000         196.000
 140636156.26748  91794407.56448  24859234.8464   24859233.9404   24859234.4694
       212.000         137.000
 123628057.41948  96333549.30348  23525638.5634   23525637.8204   23525639.1054
       211.000         146.000
 130218521.52448  83676770.70948  22876824.4954   22876824.7874   22876825.0214
       221.000         167.000
 106247932.43948  82790598.22248  20218307.6854   20218306.8514   20218307.5274
       247.000         213.000
 114569380.09248  89274840.11848  21801829.0464   21801829.1884   21801829.7804
       235.000         189.000
 03 10 30  1 55 30.0000000  0  7G 9G24G20G28G 5G 4G 7
 115275925.54548  89825414.34148  21936259.7794   21936258.6444   21936259.8994
       237.000         191.000
 122376091.82048  77565773.98048  21384469.0204   21384469.0964   21384469.3934
       237.000         195.000
 140684470.18848  91832054.77648  24868428.4584   24868429.2794   24868428.3204
       211.000         137.000
 123722215.87348  96406919.09948  23543556.6614   23543555.7484   23543557.3724
       208.000         147.000
 130127908.84248  83606163.53048  22859581.2554   22859581.6294   22859581.9124
       222.000         167.000
 106258345.71148  82798712.46748  20220289.2794   20220288.4744   20220289.2394
       247.000         213.000
 114620546.18848  89314709.83248  21811565.7184   21811565.7034   21811566.4614
       236.000         190.000
 03 10 30  1 56  0.0000000  0  7G 9G24G20G28G 5G 4G 7
 115317609.59348  89857895.45448  21944191.9954   21944190.6064   21944192.1864
       236.000         191.000
 122306086.01948  77511224.11348  21371147.2864   21371147.2624   21371147.5544
       237.000         196.000
 140733276.41148  91870085.58448  24877715.1314   24877715.9744   24877715.8114
       209.000         139.000
 123816601.45748  96480465.62248  23561518.1364   23561517.9384   23561518.5154
       211.000         149.000
 130037476.46348  83535696.88948  22842372.5664   22842372.6404   22842372.8744
       222.000         168.000
 106269325.91748  82807268.44048  20222378.7304   20222377.9144   20222378.6074
       247.000         213.000
 114671842.29448  89354680.83748  21821327.0834   21821327.0584   21821327.7994
       235.000         189.000
 03 10 30  1 56 30.0000000  0  7G 9G24G20G28G 5G 4G 7
 115359824.01848  89890789.83648  21952224.9364   21952223.7864   21952225.2484
       236.000         189.000
 122236500.77148  77457001.94748  21357905.5394   21357905.5324   21357905.8424
       237.000         196.000
 140782573.16748  91908498.42648  24887095.3214   24887099.8134   24887096.7254
       207.000         135.000
 123911213.48448  96554188.72148  23579523.3764   23579522.0424   23579523.4584
       212.000         150.000
 129947226.68848  83465372.49148  22825198.3524   22825198.6984   22825199.3994
       222.000         169.000
 106280872.13748  82816265.54748  20224575.8854   20224575.0384   20224575.6574
       247.000         213.000
 114723268.16348  89394752.94248  21831113.1064   21831112.9514   21831113.8134
       235.000         189.000
 03 10 30  1 57  0.0000000  0  7G 9G24G20G28G 5G 4G 7
 115402566.70848  89924095.86148  21960358.5454   21960357.4854   21960358.8354
       235.000         189.000
 122167337.00648  77403108.18748  21344744.0544   21344744.0904   21344744.2064
       237.000         196.000
 140832359.30748  91947292.56248  24896569.0194   24896573.8204   24896570.2314
       208.000         136.000
 124006050.57848  96628087.44048  23597570.6184   23597569.7574   23597570.9624
       213.000         150.000
 129857161.80248  83395192.12948  22808059.6434   22808059.8834   22808060.2924
       224.000         170.000
 106292983.05048  82825702.66048  20226880.5084   20226879.5654   20226880.4074
       247.000         213.000
 114774823.63548  89434926.08048  21840923.5894   21840923.7734   21840924.2864
       235.000         189.000
 03 10 30  1 57 30.0000000  0  7G 9G24G20G28G 5G 4G 7
 115445835.63048  89957811.91248  21968592.1844   21968591.4374   21968592.5114
       235.000         189.000
 122098596.42648  77349544.18248  21331662.9604   21331663.1844   21331663.2484
       237.000         196.000
 140882633.51648  91986467.01448  24906137.2784   24906140.5124   24906138.1044
       203.000         137.000
 124101110.71348  96702159.66148  23615660.4524   23615660.5724   23615660.9464
       213.000         152.000
 129767283.72148  83325157.21748  22790956.5604   22790956.6824   22790956.8274
       224.000         171.000
 106305657.41948  82835578.75948  20229292.3054   20229291.4664   20229292.2384
       247.000         213.000
 114826508.55348  89475200.10048  21850758.8004   21850759.2074   21850759.4444
       235.000         189.000
 03 10 30  1 58  0.0000000  0  7G 9G24G20G28G 5G 4G 7
 115489628.83448  89991936.48748  21976925.8564   21976924.9844   21976926.0904
       234.000         189.000
 122030280.57948  77296311.14548  21318662.8564   21318662.8824   21318663.1934
       236.000         195.000
 140933394.88648  92026021.47248  24915796.9724   24915796.3664   24915797.2254
       205.000         136.000
 124196393.25048  96776405.31748  23633792.1754   23633791.6274   23633792.9104
       215.000         153.000
 129677595.00148  83255269.94448  22773889.1964   22773889.3794   22773889.8134
       225.000         169.000
 106318894.33548  82845893.31248  20231811.1504   20231810.2384   20231810.9524
       246.000         213.000
 114878322.41148  89515574.55448  21860618.5104   21860619.1874   21860619.2604
       234.000         189.000
 03 10 30  1 58 30.0000000  0  7G 9G24G20G28G 5G 4G 7
 115533944.24648  90026467.97548  21985358.7744   21985357.8854   21985359.0304
       234.000         189.000
 121962390.39648  77243409.82148  21305743.6194   21305743.7694   21305743.9334
       236.000         195.000
 140984640.93448  92065953.36448  24925548.7904   24925551.3954   24925549.9404
       204.000         135.000
 124291896.75348  96850823.02248  23651966.3904   23651967.0084   23651966.5334
       215.000         153.000
 129588097.69948  83185531.87948  22756858.3164   22756858.7784   22756859.0174
       224.000         169.000
 106332692.37748  82856645.05548  20234436.8784   20234435.8804   20234436.7794
       247.000         213.000
 114930265.16248  89556049.40248  21870503.0044   21870503.5884   21870503.6904
       235.000         189.000
 03 10 30  1 59  0.0000000  0  7G 9G24G20G28G 5G 4G 7
 115578779.75148  90061404.75248  21993890.8664   21993889.8794   21993891.1454
       235.000         189.000
 121894927.23248  77190841.23548  21292905.8314   21292905.7344   21292906.0614
       236.000         195.000
 141036369.98748  92106261.62048  24935392.8704   24935394.9204   24935393.6174
       206.000         135.000
 124387620.33848  96925412.51748  23670181.7834   23670182.7964   23670182.5384
       216.000         154.000
 129498794.04948  83115944.74348  22739864.1664   22739864.6384   22739864.7434
       223.000         168.000
 106347050.47948  82867833.22848  20237169.1964   20237168.0944   20237169.1224
       247.000         213.000
 114982336.74848  89596624.67448  21880411.9824   21880412.3104   21880412.8234
       235.000         189.000
 03 10 30  1 59 30.0000000  0  7G 9G24G20G28G 5G 4G 7
 115624133.01648  90096744.96348  22002521.1844   22002520.2894   22002521.5474
       235.000         189.000
 121827892.40348  77138606.39448  21280149.4034   21280149.4514   21280149.6874
       237.000         195.000
 141088580.62448  92146944.77748  24945328.5734   24945334.9184   24945329.3014
       199.000         134.000
 124483561.63248  97000171.34448  23688439.1344   23688440.5974   23688439.5464
       214.000         151.000
 129409685.83748  83046509.80748  22722907.4414   22722907.7354   22722908.0614
       223.000         167.000
 106361967.18148  82879456.62148  20240007.7524   20240006.7004   20240007.6174
       247.000         213.000
 115034536.98848  89637300.29148  21890345.3424   21890345.5864   21890345.8584
       236.000         189.000
 03 10 30  2  0  0.0000000  0  7G 9G24G20G28G 5G 4G 7
 115670001.97548  90132487.00048  22011249.7664   22011248.8254   22011250.1374
       235.000         189.000
 121761287.14348  77086706.29148  21267474.8514   21267474.8474   21267475.1954
       237.000         196.000
 141141271.33748  92188001.83848  24955355.9834   24955359.8944   24955356.4964
       198.000         137.000
 124579719.92948  97075099.35448  23706737.8234   23706739.4004   23706738.1864
       213.000         150.000
 129320775.66648  82977229.29448  22705988.3634   22705988.6414   22705988.6544
       224.000         170.000
 106377441.31448  82891514.33448  20242952.4634   20242951.3324   20242952.3354
       247.000         213.000
 115086865.21648  89678075.50648  21900303.1124   21900303.2924   21900303.7814
       235.000         190.000
 03 10 30  2  0 30.0000000  0  7G 9G24G20G28G 5G 4G 7
 115716384.56848  90168629.27948  22020076.0944   22020074.9164   22020076.3134
       235.000         189.000
 121695112.90748  77035142.06348  21254882.1264   21254882.2084   21254882.4574
       238.000         195.000
 141194441.61048  92229433.04348  24965473.3184   24965473.7454   24965474.5524
       199.000         135.000
 124676093.45748  97150194.80248  23725077.1614   23725079.0474   23725077.8054
       213.000         149.000
 129232065.52348  82908104.58648  22689107.3024   22689107.5394   22689107.8354
       225.000         170.000
 106393471.73448  82904005.55548  20246003.0124   20246001.8514   20246002.9544
       247.000         213.000
 115139321.53948  89718950.46348  21910285.2914   21910285.5074   21910285.9664
       235.000         189.000
 03 10 30  2  1  0.0000000  0  7G 9G24G20G28G 5G 4G 7
 115763278.66248  90205170.12248  22028999.8114   22028998.6874   22029000.0544
       236.000         190.000
 121629371.10148  76983914.78648  21242371.8354   21242371.8204   21242371.9814
       238.000         195.000
 141248088.95348  92271236.06848  24975681.2864   24975686.0024   24975683.3674
       200.000         134.000
 124772681.04548  97225457.06348  23743457.5764   23743459.7894   23743458.5094
       210.000         146.000
 129143557.40048  82839137.23648  22672264.9544   22672265.1184   22672265.5014
       225.000         171.000
 106410057.12648  82916929.27648  20249159.0684   20249157.9344   20249159.0374
       247.000         213.000
 115191906.01448  89759925.44048  21920291.5564   21920292.0244   21920292.3024
       234.000         188.000
 03 10 30  2  1 30.0000000  0  7G 9G24G20G28G 5G 4G 7
 115810681.91348  90242107.72148  22038020.3584   22038019.4594   22038020.5714
       235.000         190.000
 121564062.42448  76933024.99648  21229943.9644   21229943.8474   21229944.1844
       238.000         196.000
 141302211.00448  92313408.52848  24985981.9924   24985987.1414   24985983.2624
       198.000         131.000
 124869481.52148  97300885.14848  23761879.3704   23761881.5114   23761879.7134
       210.000         144.000
 129055254.15448  82770329.54648  22655461.5244   22655461.6324   22655462.1294
       227.000         173.000
 106427196.01548  82930284.24848  20252420.5254   20252419.3644   20252420.4464
       247.000         213.000
 115244618.02748  89800999.68848  21930322.3574   21930322.7454   21930322.8984
       234.000         188.000
 03 10 30  2  2  0.0000000  0  6G 9G24G28G 5G 4G 7
 115858592.12148  90279440.36948  22047137.3234   22047136.5764   22047137.6544
       235.000         191.000
 121499188.43348  76882473.88348  21217598.8024   21217598.6034   21217599.1674
       238.000         196.000
 124966493.24548  97376477.64448  23780341.0354   23780342.8004   23780341.1114
       209.000         144.000
 128967157.31648  82701682.66448  22638697.2924   22638697.3034   22638697.9074
       228.000         173.000
 106444887.23848  82944069.61948  20255786.9994   20255785.8404   20255786.9334
       247.000         213.000
 115297457.86648  89842173.61648  21940377.2844   21940377.6694   21940378.0134
       234.000         187.000
 03 10 30  2  2 30.0000000  0  6G 9G24G28G 5G 4G 7
 115907007.12548  90317166.32548  22056350.3424   22056349.7004   22056350.6624
       234.000         190.000
 121434750.37948  76832262.46748  21205336.5334   21205336.3104   21205336.7704
       237.000         196.000
 125063714.45848  97452233.02648  23798842.2504   23798845.2654   23798843.4094
       206.000         143.000
 128879269.57348  82633198.80748  22621972.7144   22621972.6904   22621973.4514
       228.000         174.000
 106463129.21348  82958284.13348  20259258.2404   20259257.1524   20259258.1764
       247.000         213.000
 115350424.92848  89883446.61148  21950456.6294   21950456.9294   21950457.2604
       233.000         186.000
 03 10 30  2  3  0.0000000  0  6G 9G24G28G 5G 4G 7
 115955924.64748  90355283.85348  22065658.9694   22065658.2974   22065659.1994
       234.000         189.000
 121370749.25648  76782391.48448  21193157.3514   21193157.3854   21193157.5734
       237.000         196.000
 125161144.67848  97528151.45348  23817384.0494   23817386.5204   23817384.7174
       208.000         144.000
 128791593.14348  82564879.56148  22605288.3624   22605288.3494   22605289.1724
       227.000         175.000
 106481920.69648  82972926.85148  20262834.2284   20262833.0354   20262834.0324
       247.000         213.000
 115403519.20448  89924818.73948  21960560.2044   21960560.3514   21960560.9784
       234.000         186.000
 03 10 30  2  3 30.0000000  0  7G 9G24G20G28G 5G 4G 7
 116005342.47448  90393791.21548  22075062.9614   22075062.2184   22075063.2164
       234.000         189.000
 121307186.29048  76732861.93548  21181061.6384   21181061.7114   21181061.7814
       237.000         196.000
 121523184.34658 112485541.60358  25028077.0685   25028079.6535   25028078.1785
       190.000         128.000
 125258782.60448  97604231.70748  23835966.0094   23835968.1714   23835965.6384
       211.000         146.000
 128704129.85348  82496726.44248  22588644.5674   22588644.7194   22588644.9714
       226.000         173.000
 106501260.22748  82987996.62248  20266514.4244   20266513.1944   20266514.3084
       247.000         213.000
 115456740.68148  89966290.05248  21970688.0234   21970688.0204   21970688.5284
       233.000         186.000
 03 10 30  2  4  0.0000000  0  7G 9G24G20G28G 5G 4G 7
 116055258.13148  90432686.46348  22084561.6064   22084560.8224   22084561.8864
       234.000         188.000
 121244062.55448  76683674.62948  21169049.6604   21169049.6074   21169049.9534
       236.000         196.000
 121579660.13648 112529548.63348  25038824.5704   25038828.1204   25038825.3244
       189.000         130.000
 125356626.80148  97680472.86648  23854584.8964   23854588.9554   23854585.9534
       210.000         148.000
 128616882.11548  82428741.22848  22572041.8954   22572041.7254   22572042.3914
       227.000         174.000
 106521146.60748  83003492.52948  20270298.6034   20270297.4044   20270298.5024
       247.000         213.000
 115510088.84748  90007860.00848  21980839.8724   21980839.8184   21980840.6154
       233.000         185.000
 03 10 30  2  4 30.0000000  0  7G 9G24G20G28G 5G 4G 7
 116105669.35848  90471967.85548  22094154.4694   22094153.7264   22094154.7904
       233.000         186.000
 121181379.40848  76634830.63548  21157121.5464   21157121.3854   21157121.8044
       237.000         195.000
 121636600.64948 112573917.81348  25049660.7944   25049663.5444   25049660.4044
       192.000         133.000
 125454676.00248  97756873.84448  23873243.7714   23873247.4074   23873244.4164
       212.000         149.000
 128529852.08848  82360925.72348  22555480.5484   22555480.3954   22555480.8754
       228.000         174.000
 106541578.41448  83019413.46248  20274186.6554   20274185.4644   20274186.5884
       247.000         213.000
 115563564.03648  90049528.99448  21991015.8144   21991015.7804   21991016.5764
       233.000         185.000
 03 10 30  2  5  0.0000000  0  6G 9G24G28G 5G 4G 7
 116156573.94348  90511633.67148  22103841.3524   22103840.6064   22103841.5024
       233.000         186.000
 121119137.73548  76586330.61448  21145277.2244   21145277.2774   21145277.5884
       238.000         196.000
 125552928.48648  97833433.18048  23891941.1804   23891945.3584   23891941.9814
       212.000         151.000
 128443042.24648  82293281.80448  22538961.0564   22538960.8574   22538961.7624
       227.000         174.000
 106562553.93848  83035758.07148  20278178.1884   20278176.9484   20278178.1184
       247.000         213.000
 115617165.78748  90091296.62748  22001215.8904   22001215.8464   22001216.6164
       233.000         185.000
 03 10 30  2  5 30.0000000  0  6G 9G24G28G 5G 4G 7
 116207969.61348  90551682.13948  22113621.6934   22113620.9254   22113621.8524
       233.000         185.000
 121057339.14848  76538175.85748  21133517.5364   21133517.3454   21133517.7384
       238.000         196.000
 125651382.76448  97910149.71648  23910677.4934   23910681.6254   23910677.9924
       210.000         151.000
 128356454.61648  82225810.97548  22522483.8254   22522483.7054   22522484.3954
       229.000         173.000
 106584071.87548  83052525.29848  20282272.9304   20282271.6034   20282272.8884
       247.000         212.000
 115670893.93148  90133162.72248  22011440.0184   22011440.0804   22011440.8514
       233.000         185.000
 03 10 30  2  6  0.0000000  0  7G 9G17G24G28G 5G 4G 7
 116259854.07348  90592111.49648  22123495.0584   22123494.2784   22123495.2494
       232.000         185.000
 133032679.69158 103661759.61358  25315329.8815   25315344.6675   25315331.1615
       205.000         137.000
 120995984.34348  76490366.95048  21121842.0924   21121841.9784   21121842.3444
       238.000         197.000
 125750037.63748  97987022.64848  23929451.1674   23929455.5314   23929452.2304
       213.000         155.000
 128270091.40448  82158515.05148  22506049.4214   22506049.1084   22506050.0114
       227.000         174.000
 106606130.48648  83069713.75848  20286470.5584   20286469.3344   20286470.5584
       247.000         213.000
 115724748.41648  90175127.26848  22021688.2014   22021688.2544   22021688.8074
       233.000         185.000
 03 10 30  2  6 30.0000000  0  7G 9G17G24G28G 5G 4G 7
 116312225.02448  90632919.96248  22133460.9234   22133460.2534   22133461.2044
       232.000         185.000
 132930642.97348 103582252.85148  25295911.0904   25295924.8324   25295912.2314
       206.000         138.000
 120935074.55248  76442904.78548  21110251.3554   21110251.2314   21110251.5724
       239.000         197.000
 125848891.27148  98064050.30448  23948263.2894   23948268.4444   23948263.9264
       216.000         155.000
 128183954.61848  82091395.50148  22489658.0254   22489657.8844   22489658.4814
       227.000         174.000
 106628728.54248  83087322.62448  20290770.8804   20290769.6654   20290770.8384
       246.000         213.000
 115778729.27048  90217190.40148  22031960.3324   22031960.3494   22031961.0424
       232.000         185.000
 03 10 30  2  7  0.0000000  0  7G 9G17G24G28G 5G 4G 7
 116365079.70348  90674105.34148  22143518.9624   22143518.1364   22143519.2734
       232.000         184.000
 132828659.82348 103502787.80048  25276502.7934   25276515.5514   25276503.0964
       205.000         138.000
 120874610.76648  76395790.10048  21098745.5884   21098745.3184   21098745.9464
       238.000         197.000
 125947942.20548  98141231.54448  23967113.2454   23967118.5324   23967113.5974
       214.000         152.000
 128098047.13048  82024454.62448  22473310.1544   22473310.5904   22473310.8854
       225.000         175.000
 106651864.62148  83105350.79448  20295173.5294   20295172.2444   20295173.4344
       246.000         213.000
 115832835.68548  90259351.18548  22042256.3514   22042256.4634   22042257.0594
       232.000         184.000
 03 10 30  2  7 30.0000000  0  7G 9G17G24G28G 5G 4G 7
 116418415.94348  90715665.96148  22153668.5654   22153667.7664   22153668.8144
       233.000         184.000
 132726731.75348 103423365.56048  25257103.7104   25257117.5004   25257105.1384
       205.000         135.000
 120814594.05748  76349023.84148  21087324.7224   21087324.3754   21087324.9174
       239.000         197.000
 126047189.23948  98218565.51648  23986000.3034   23986005.7524   23986000.9774
       220.000         156.000
 128012371.19548  81957694.26648  22457006.5034   22457006.8294   22457007.1604
       226.000         176.000
 106675536.89548  83123796.73348  20299678.1264   20299676.9004   20299677.9944
       246.000         212.000
 115887067.98348  90301610.07648  22052576.4054   22052576.5414   22052577.0434
       231.000         183.000
 03 10 30  2  8  0.0000000  0  7G 9G17G24G28G 5G 4G 7
 116472231.43548  90757600.02848  22163909.3944   22163908.5314   22163909.6334
       233.000         184.000
 132624860.69948 103343987.65048  25237718.4954   25237730.0274   25237718.1044
       197.000         130.000
 120755025.20748  76302606.55548  21075989.0814   21075988.8274   21075989.4154
       239.000         198.000
 126146630.97048  98296051.10348  24004924.6004   24004930.2134   24004925.0934
       217.000         154.000
 127926928.74048  81891115.76348  22440747.4804   22440747.8414   22440748.2434
       227.000         177.000
 106699744.00048  83142659.41448  20304284.5284   20304283.3054   20304284.4174
       246.000         212.000
 115941426.14448  90343967.10048  22062920.3114   22062920.6114   22062920.9654
       231.000         183.000
 03 10 30  2  8 30.0000000  0  7G 9G17G24G28G 5G 4G 7
 116526523.52848  90799905.48348  22174241.1264   22174240.0634   22174241.1674
       232.000         184.000
 132523048.22148 103264655.30648  25218341.5344   25218353.1524   25218341.5644
       197.000         133.000
 120695905.43048  76256539.20648  21064738.9614   21064738.7964   21064739.2304
       239.000         199.000
 126246266.01848  98373687.41548  24023885.9244   24023891.9714   24023885.9684
       221.000         154.000
 127841722.07548  81824721.01548  22424533.1884   22424533.4214   22424533.9224
       228.000         178.000
 106724484.27048  83161937.54648  20308992.4494   20308991.2454   20308992.3294
       246.000         212.000
 115995910.05048  90386422.12648  22073288.4074   22073288.5644   22073289.2344
       230.000         183.000
 03 10 30  2  9  0.0000000  0  7G 9G17G24G28G 5G 4G 7
 116581289.86648  90842580.48948  22184662.8354   22184661.7074   22184662.9594
       234.000         184.000
 132421295.76548 103185369.70648  25198977.0404   25198986.7094   25198978.2054
       195.000         131.000
 120637235.79548  76210822.63448  21053574.5694   21053574.4804   21053574.8024
       240.000         199.000
 126346092.83648  98451473.13948  24042882.9794   24042889.5344   24042883.3954
       209.000         147.000
 127756753.71848  81758511.98348  22408364.4484   22408364.4334   22408365.0204
       229.000         179.000
 106749756.26048  83181630.03848  20313801.4254   20313800.3574   20313801.3264
       246.000         212.000
 116050519.24348  90428974.66348  22083680.2654   22083680.4504   22083681.0584
       231.000         183.000
 03 10 30  2  9 30.0000000  0  7G 9G17G24G28G 5G 4G 7
 116636528.06248  90885623.15248  22195174.2654   22195173.3794   22195174.4714
       233.000         185.000
 132319605.24748 103106132.29348  25179625.0694   25179636.2324   25179625.2634
       193.000         131.000
 120579017.20448  76165457.50348  21042496.1334   21042495.9104   21042496.4284
       240.000         200.000
 126446110.42348  98529407.64448  24061916.2914   24061923.1434   24061916.9364
       209.000         145.000
 127672025.54748  81692490.08448  22392241.2944   22392241.1074   22392241.7584
       230.000         180.000
 106775557.95548  83201735.20348  20318711.2384   20318710.2034   20318711.0844
       245.000         211.000
 116105254.18148  90471625.40648  22094096.1244   22094095.9484   22094096.7794
       231.000         183.000
 03 10 30  2 10  0.0000000  0  7G 9G17G24G28G 5G 4G 7
 116692235.36548  90929031.36048  22205775.1734   22205774.2784   22205775.3244
       232.000         185.000
 132217978.47748 103026944.46848  25160283.9824   25160294.7084   25160285.4104
       196.000         135.000
 120521250.52048  76120444.50948  21031503.3694   21031503.1904   21031503.5664
       240.000         200.000
 126546316.67948  98607489.05148  24080986.2114   24080993.3094   24080986.5234
       206.000         144.000
 127587540.18448  81626657.47648  22376164.0344   22376163.8754   22376164.6384
       230.000         180.000
 106801888.23848  83222252.30848  20323721.8664   20323720.7104   20323721.7444
       246.000         212.000
 116160114.28748  90514373.62848  22104535.4034   22104535.2984   22104536.2514
       230.000         182.000
 03 10 30  2 10 30.0000000  0  7G 9G17G24G28G 5G 4G 7
 116748409.44648  90972803.29448  22216464.9634   22216464.0024   22216465.0604
       233.000         185.000
 132116416.88948 102947807.35248  25140955.8744   25140966.4184   25140956.8044
       202.000         135.000
 120463936.47248  76075784.20148  21020596.8954   21020596.7124   21020597.0484
       241.000         200.000
 126646710.66848  98685716.80248  24100091.5834   24100098.6374   24100092.0524
       209.000         144.000
 127503299.99548  81561015.87948  22360133.4794   22360133.4244   22360134.0964
       229.000         180.000
 106828745.31548  83243179.95748  20328832.6764   20328831.4324   20328832.6634
       245.000         212.000
 116215099.04648  90557218.77148  22114998.7374   22114998.4664   22114999.4734
       230.000         181.000
 03 10 30  2 11  0.0000000  0  7G 9G17G24G28G 5G 4G 7
 116805047.79548  91016936.98548  22227242.7964   22227242.0014   22227243.0514
       233.000         185.000
 132014922.29748 102868722.30748  25121641.5454   25121650.3224   25121642.1044
       202.000         136.000
 120407076.45948  76031477.69348  21009776.8934   21009776.5414   21009777.1814
       241.000         201.000
 126747290.72048  98764089.56848  24119233.0004   24119240.6324   24119232.7244
       209.000         149.000
 127419306.78348  81495566.60348  22344149.8304   22344149.9134   22344150.5364
       229.000         180.000
 106856127.26048  83264516.45148  20334043.3894   20334042.0594   20334043.3614
       246.000         211.000
 116270209.08148  90600161.64648  22125485.8464   22125485.5294   22125486.5974
       230.000         181.000
 03 10 30  2 11 30.0000000  0  7G 9G17G24G28G 5G 4G 7
 116862147.97448  91061430.54548  22238108.6874   22238107.9014   22238109.0204
       231.000         183.000
 131913496.28048 102789690.67648  25102338.9324   25102348.6834   25102339.7394
       206.000         134.000
 120350671.04148  75987525.39148  20999043.3864   20999043.0234   20999043.7364
       242.000         201.000
 126848054.84948  98842605.58248  24138408.0794   24138417.7044   24138409.1214
       201.000         134.000
 127335563.05948  81430311.77648  22328213.7944   22328213.9354   22328214.4424
       229.000         180.000
 106884032.80148  83286261.09348  20339353.4694   20339352.2614   20339353.4454
       245.000         211.000
 116325443.74648  90643201.49248  22135996.7654   22135996.5124   22135997.4214
       230.000         180.000
 03 10 30  2 12  0.0000000  0  7G 9G17G24G28G 5G 4G 7
 116919707.38948  91106281.95248  22249061.6944   22249061.1924   22249061.9384
       231.000         183.000
 131812140.71848 102710713.78748  25083052.3634   25083059.6194   25083051.5174
       207.000         136.000
 120294721.47748  75943928.33248  20988396.4104   20988396.2334   20988396.6194
       241.000         201.000
 126949001.78148  98921263.93348  24157620.2704   24157627.7914   24157620.3114
       214.000         145.000
 127252071.56948  81365253.55848  22312325.8994   22312325.9384   22312326.2844
       229.000         180.000
 106912459.96248  83308412.15348  20344762.9724   20344761.8994   20344762.8534
       245.000         211.000
 116380803.64948  90686339.05548  22146531.2674   22146531.2084   22146532.0304
       230.000         180.000
 03 10 30  2 12 30.0000000  0  7G 9G17G24G28G 5G 4G 7
 116977723.29548  91151489.05948  22260101.8364   22260101.4004   22260101.7874
       230.000         183.000
 131710856.97048 102631792.81248  25063775.7714   25063784.9424   25063776.4754
       207.000         137.000
 120239228.61148  75900687.10248  20977836.5274   20977836.4014   20977836.7354
       240.000         201.000
 127050129.67548  99000063.05948  24176864.9464   24176874.0184   24176865.6354
       213.000         142.000
 127168833.43348  81300392.67648  22296486.2514   22296486.2304   22296486.6514
       230.000         181.000
 106941407.14548  83330968.40548  20350271.4394   20350270.3734   20350271.3154
       245.000         211.000
 116436288.53848  90729574.14948  22157089.3884   22157089.5674   22157090.1394
       229.000         179.000
 03 10 30  2 13  0.0000000  0  6G 9G17G24G 5G 4G 7
 117036193.37248  91197050.06148  22271228.4074   22271227.8664   22271228.6734
       230.000         182.000
 131609646.79848 102552929.06748  25044515.1684   25044525.4424   25044516.4834
       206.000         135.000
 120184193.23748  75857802.39848  20967363.7094   20967363.4524   20967363.9874
       241.000         202.000
 127085851.75648  81235731.57748  22280695.3394   22280695.3254   22280695.9304
       231.000         181.000
 106970872.40048  83353928.28248  20355878.4184   20355877.4754   20355878.3354
       245.000         211.000
 116491898.01848  90772906.31648  22167671.6834   22167671.7594   22167672.1924
       230.000         180.000
 03 10 30  2 13 30.0000000  0  7G 9G17G24G28G 5G 4G 7
 117095115.13248  91242963.01748  22282440.9504   22282440.3164   22282441.2574
       230.000         182.000
 131508511.95148 102474123.93048  25025269.0994   25025277.0134   25025269.4204
       208.000         135.000
 120129616.01648  75815274.67548  20956977.9484   20956977.8694   20956978.3094
       241.000         202.000
 127252923.93248  99158080.89448  24215457.8314   24215467.1414   24215458.7464
       208.000         140.000
 127003129.13148  81171272.46248  22264953.6664   22264953.6484   22264954.3574
       231.000         181.000
 107000854.44948  83377290.91248  20361583.9354   20361582.8824   20361583.8684
       245.000         211.000
 116547631.89748  90816335.34048  22178277.6794   22178277.6594   22178278.2864
       230.000         180.000
 03 10 30  2 14  0.0000000  0  7G 9G17G24G28G 5G 4G 7
 117154485.67248  91289225.65848  22293738.9704   22293738.3664   22293739.1044
       229.000         181.000
 131407453.98848 102395378.63748  25006038.5454   25006046.4564   25006038.9624
       212.000         136.000
 120075498.07548  75773104.83548  20946679.6184   20946679.5774   20946679.8714
       241.000         202.000
 127354587.43948  99237297.33048  24234805.4534   24234814.6654   24234805.9744
       220.000         151.000
 126920667.78448  81107017.07548  22249261.5924   22249261.5814   22249262.2264
       231.000         182.000
 107031351.27048  83401054.73548  20367387.2214   20367386.1254   20367387.1614
       245.000         211.000
 116603490.10648  90859861.16648  22188907.1894   22188907.2534   22188907.9684
       229.000         180.000
 03 10 30  2 14 30.0000000  0  7G 9G17G24G28G 5G 4G 7
 117214302.36748  91335835.93048  22305121.4004   22305121.5034   22305121.6604
       229.000         181.000
 131306474.60248 102316694.45348  24986821.2884   24986828.9904   24986822.2114
       212.000         140.000
 120021839.99148  75731293.30148  20936468.9074   20936468.7354   20936469.1314
       242.000         202.000
 127456426.11948  99316650.18448  24254186.9214   24254196.2894   24254186.8534
       218.000         148.000
 126838469.48748  81042966.46948  22233619.7994   22233619.7054   22233620.1874
       231.000         181.000
 107062361.00248  83425218.07948  20373288.1864   20373287.1564   20373288.1154
       245.000         211.000
 116659472.73348  90903483.95148  22199560.4964   22199560.4414   22199561.3044
       229.000         180.000
 03 10 30  2 15  0.0000000  0  6G 9G17G24G 5G 4G 7
 117274562.68648  91382791.86848  22316588.7434   22316588.7564   22316589.0724
       228.000         180.000
 131205575.46748 102238072.76648  24967619.2704   24967626.8054   24967620.9114
       214.000         140.000
 119968642.12848  75689840.30748  20926345.8594   20926345.6414   20926346.1834
       241.000         202.000
 126756536.47748  80979122.54248  22218028.5024   22218028.5874   22218029.0094
       232.000         182.000
 107093882.20248  83449780.05948  20379286.4444   20379285.3744   20379286.3774
       245.000         211.000
 116715579.63148  90947203.54448  22210237.1174   22210237.1604   22210237.9664
       229.000         179.000
 03 10 30  2 15 30.0000000  0  7G 9G17G24G28G 5G 4G 7
 117335264.10848  91430091.49848  22328139.9614   22328139.8754   22328140.2864
       227.000         180.000
 131104758.03348 102159514.67748  24948434.9524   24948442.4644   24948435.7254
       213.000         144.000
 119915905.91448  75648747.13648  20916310.4464   20916310.2614   20916310.7354
       241.000         202.000
 137660628.83458  89475767.39758  24293045.9905   24293056.2615   24293046.8685
       209.000         141.000
 126674870.92548  80915486.98748  22202488.1614   22202488.1154   22202488.7084
       232.000         182.000
 107125912.72348  83474738.92648  20385381.7394   20385380.5654   20385381.6494
       245.000         210.000
 116771810.89148  90991020.13248  22220937.4134   22220937.4374   22220938.2104
       229.000         179.000
 03 10 30  2 16  0.0000000  0  7G 9G17G24G28G 5G 4G 7
 117396403.76848  91477732.60848  22339774.5844   22339774.5424   22339774.7264
       228.000         180.000
 131004024.23748 102081021.70548  24929264.7434   24929271.4924   24929265.8394
       213.000         144.000
 119863632.00348  75608014.18148  20906362.9784   20906362.9584   20906363.2484
       241.000         201.000
 137762984.66948  89555523.17948  24312525.3694   24312537.5394   24312525.8264
       216.000         149.000
 126593475.81048  80852062.27648  22186999.2554   22186999.1604   22186999.8014
       232.000         182.000
 107158450.96548  83500093.41448  20391573.5344   20391572.3274   20391573.4524
       245.000         210.000
 116828166.32948  91034933.54448  22231661.3354   22231661.3894   22231661.9884
       228.000         178.000
 03 10 30  2 16 30.0000000  0  7G 9G17G24G28G 5G 4G 7
 117457979.12948  91525713.30448  22351492.2554   22351492.0034   22351492.5984
       229.000         180.000
 130903375.54048 102002594.94848  24910112.2124   24910118.6254   24910112.2874
       210.000         143.000
 119811820.90948  75567641.87948  20896503.6284   20896503.6884   20896503.8584
       241.000         201.000
 137865509.74248  89635410.86948  24332035.9554   24332049.4854   24332036.6744
       215.000         151.000
 126512353.52348  80788850.09748  22171562.0514   22171562.0424   22171562.6584
       232.000         182.000
 107191495.27948  83525842.39348  20397861.6204   20397860.3384   20397861.5474
       246.000         210.000
 116884645.66548  91078943.40448  22242408.9894   22242409.0834   22242409.5604
       228.000         178.000
 03 10 30  2 17  0.0000000  0  7G 9G17G24G28G 5G 4G 7
 117519987.49648  91574031.41948  22363292.1624   22363291.8514   22363292.4944
       229.000         180.000
 130802813.59348 101924235.72548  24890974.9184   24890979.9624   24890975.7204
       207.000         138.000
 119760473.40848  75527630.81848  20886732.5984   20886732.5644   20886732.8764
       241.000         201.000
 137968202.53648  89715429.23748  24351579.9724   24351592.3214   24351580.3574
       213.000         146.000
 126431506.16948  80725852.20948  22156177.2234   22156177.1534   22156177.9004
       231.000         183.000
 107225042.95148  83551983.22748  20404245.6914   20404244.5834   20404245.6484
       245.000         210.000
 116941249.25848  91123050.16348  22253180.3014   22253180.4154   22253181.2364
       229.000         177.000
 03 10 30  2 17 30.0000000  0  7G 9G17G24G28G 5G 4G 7
 117582426.20548  91622684.87748  22375173.9424   22375173.4624   22375174.2054
       229.000         180.000
 130702340.03648 101845945.27848  24871854.7924   24871860.4344   24871855.4884
       205.000         139.000
 119709590.03048  75487981.36348  20877049.9114   20877049.7524   20877050.1724
       241.000         202.000
 138071061.57048  89795577.05748  24371155.2904   24371168.4384   24371155.6024
       206.000         136.000
 126350935.95448  80663070.31748  22140845.0444   22140845.2324   22140845.6264
       230.000         182.000
 107259093.17548  83578515.95248  20410724.8924   20410724.0634   20410724.8004
       244.000         210.000
 116997976.50848  91167253.17748  22263975.1334   22263975.4614   22263975.9464
       228.000         177.000
 03 10 30  2 18  0.0000000  0  7G 9G17G24G28G 5G 4G 7
 117645292.53848  91671671.49748  22387136.9244   22387136.6604   22387137.1004
       228.000         179.000
 130601956.37648 101767724.83248  24852750.6894   24852755.9734   24852752.2184
       207.000         138.000
 119659171.95048  75448694.50348  20867455.5904   20867455.5244   20867455.8804
       242.000         202.000
 138174085.79648  89875853.86748  24390760.5854   24390775.5794   24390761.5584
       209.000         147.000
 126270644.97548  80600505.93048  22125565.9884   22125566.3114   22125566.5084
       231.000         182.000
 107293643.80448  83605438.58648  20417299.5154   20417298.7914   20417299.2854
       245.000         210.000
 117054827.75748  91211552.88148  22274793.5654   22274793.6864   22274794.2384
       228.000         178.000
 03 10 30  2 18 30.0000000  0  7G 9G17G24G28G 5G 4G 7
 117708583.76648  91720989.22048  22399181.0404   22399180.8024   22399181.2814
       229.000         179.000
 130501664.42448 101689575.75148  24833665.8884   24833670.6824   24833666.6534
       205.000         138.000
 119609219.47048  75409770.41348  20857949.9724   20857949.9034   20857950.2164
       241.000         202.000
 138277272.77348  89956257.30948  24410398.4314   24410412.6454   24410398.6414
       212.000         149.000
 126190635.92248  80538161.25848  22110340.5454   22110340.9684   22110341.1624
       229.000         181.000
 107328692.86448  83632749.59448  20423969.2764   20423968.2594   20423969.1284
       245.000         210.000
 117111802.94348  91255949.15048  22285635.5464   22285635.6424   22285636.2474
       228.000         177.000
 03 10 30  2 19  0.0000000  0  7G 9G17G24G28G 5G 4G 7
 117772297.32048  91770636.01648  22411305.3084   22411305.2264   22411305.6164
       228.000         178.000
 130401465.92048 101611499.41248  24814597.9964   24814602.7624   24814598.5204
       206.000         139.000
 119559733.65448  75371210.03948  20848533.2154   20848533.0204   20848533.4764
       242.000         202.000
 138380621.06548  90036786.52848  24430066.6594   24430080.5954   24430067.1244
       205.000         133.000
 126110911.14048  80476038.08248  22095169.4614   22095169.7624   22095169.9074
       230.000         182.000
 107364238.08348  83660447.14048  20430733.4064   20430732.3674   20430733.3564
       245.000         210.000
 117168901.95048  91300441.96548  22296501.0654   22296501.2674   22296501.8284
       227.000         175.000
 03 10 30  2 19 30.0000000  0  7G 9G17G24G28G 5G 4G 7
 117836430.48948  91820609.76448  22423509.7244   22423509.4924   22423509.9184
       229.000         180.000
 130301362.33948 101533496.98748  24795548.2254   24795554.9074   24795548.6534
       204.000         140.000
 119510715.01348  75333013.65048  20839205.3614   20839205.1004   20839205.6504
       242.000         202.000
 138484130.02148  90117441.18648  24449763.9854   24449780.7454   24449765.4874
       203.000         132.000
 126031473.03148  80414138.25748  22080052.9284   22080053.0454   22080053.4964
       232.000         183.000
 107400277.98748  83688530.13148  20437591.6134   20437590.6264   20437591.5804
       245.000         210.000
 117226124.60748  91345031.10648  22307390.0574   22307390.4034   22307390.7164
       227.000         176.000
 03 10 30  2 20  0.0000000  0  7G 9G17G24G28G 5G 4G 7
 117900980.22048  91870908.09648  22435793.3274   22435792.9474   22435793.7454
       229.000         179.000
 130201355.12148 101455569.54148  24776516.5264   24776523.5114   24776516.8434
       205.000         141.000
 119462164.12148  75295181.77148  20829966.4644   20829966.2114   20829966.8024
       242.000         202.000
 138587797.39848  90198219.34748  24469496.0214   24469510.5794   24469493.9894
       209.000         140.000
 125952323.44548  80352463.30148  22064991.3124   22064991.2424   22064991.9714
       232.000         183.000
 107436810.61048  83716997.08948  20444543.4574   20444542.5234   20444543.3654
       244.000         209.000
 117283470.58448  91389716.20048  22318302.5724   22318302.8964   22318303.2214
       227.000         175.000
 03 10 30  2 20 30.0000000  0  7G 9G17G24G28G 5G 4G 7
 117965943.91348  91921528.98248  22448155.6904   22448155.3084   22448155.9904
       229.000         179.000
 130101446.03148 101377718.50648  24757504.9854   24757510.3614   24757505.4304
       205.000         141.000
 119414081.48548  75257714.75948  20820816.6654   20820816.4994   20820817.0094
       242.000         202.000
 138691621.58248  90279119.73248  24489251.3994   24489268.1184   24489252.5194
       196.000         135.000
 125873465.00448  80291015.22948  22049985.1454   22049984.9834   22049985.6864
       233.000         184.000
 107473834.02548  83745846.52148  20451588.7804   20451587.7484   20451588.6324
       244.000         209.000
 117340940.41348  91434497.87048  22329238.8654   22329239.1334   22329239.4794
       228.000         175.000
 03 10 30  2 21  0.0000000  0  8G 9G17G24G28G 5G 4G 7G30
 118031318.63548  91972470.17448  22460596.4144   22460596.1404   22460596.4874
       229.000         180.000
 130001636.53548 101299944.96048  24738512.4344   24738518.6284   24738512.5394
       208.000         144.000
 119366467.35848  75220612.77048  20811756.1344   20811755.8614   20811756.3274
       242.000         203.000
 138795601.21348  90360141.35748  24509041.3344   24509056.3944   24509040.6624
       212.000         136.000
 125794899.87648  80229795.65548  22035034.8704   22035034.5834   22035035.4314
       234.000         185.000
 107511346.34848  83775076.88948  20458727.1154   20458726.0974   20458726.9544
       244.000         209.000
 117398533.96248  91479375.99848  22340198.6154   22340198.9654   22340199.3284
       227.000         175.000
 139879856.00558  91205079.76458  24715317.8105   24715318.8785   24715317.2695
       209.000         142.000
 03 10 30  2 21 30.0000000  0  8G 9G17G24G28G 5G 4G 7G30
 118097101.69748  92023729.57148  22473114.4454   22473114.5324   22473114.6034
       229.000         180.000
 129901928.46148 101222250.35048  24719537.8264   24719543.6354   24719539.0714
       209.000         143.000
 119319322.63548  75183876.62348  20802784.7924   20802784.4384   20802785.0274
       242.000         203.000
 138899734.51148  90441282.89648  24528856.5504   24528872.6074   24528857.4744
       212.000         144.000
 125716630.63248  80168806.66548  22020140.7494   22020140.6984   22020141.4464
       234.000         186.000
 107549345.55648  83804686.72248  20465958.0124   20465957.0594   20465957.9554
       244.000         208.000
 117456250.93648  91524350.26948  22351181.7074   22351182.0734   22351182.3134
       227.000         175.000
 139772934.74248  91121764.65148  24694970.6064   24694971.9644   24694970.4194
       209.000         140.000
 03 10 30  2 22  0.0000000  0  8G 9G17G24G28G 5G 4G 7G30
 118163290.27248  92075304.92048  22485709.7104   22485710.2534   22485709.9004
       229.000         180.000
 129802323.10348 101144635.66648  24700584.6554   24700590.7694   24700585.3614
       210.000         146.000
 119272647.93348  75147506.68448  20793902.9064   20793902.6594   20793903.1694
       242.000         203.000
 139004020.31448  90522543.43848  24548702.8744   24548717.5014   24548703.1394
       220.000         144.000
 125638659.42748  80108049.93148  22005303.4164   22005303.2194   22005303.9904
       235.000         187.000
 107587829.52048  83834674.26148  20473281.2614   20473280.2934   20473281.1054
       245.000         208.000
 117514091.32948  91569420.68348  22362188.2514   22362188.6164   22362188.8064
       226.000         174.000
 139666054.32148  91038481.46048  24674631.1574   24674632.0564   24674631.4444
       208.000         138.000
 03 10 30  2 22 30.0000000  0  8G 9G17G24G28G 5G 4G 7G30
 118229881.67348  92127194.18148  22498381.6254   22498382.1994   22498381.9864
       229.000         180.000
 129702822.22648 101067102.27348  24681650.4574   24681656.0194   24681651.2874
       209.000         144.000
 119226443.93948  75111503.67548  20785110.4704   20785110.3404   20785110.6844
       242.000         204.000
 139108456.60548  90603921.27348  24568575.5864   24568593.3024   24568577.2524
       217.000         143.000
 125560988.51748  80047527.18648  21990523.0914   21990522.9574   21990523.6554
       235.000         188.000
 107626796.41248  83865038.03648  20480696.4694   20480695.4664   20480696.3874
       244.000         208.000
 117572055.25548  91614587.39448  22373218.5924   22373218.7654   22373219.3694
       227.000         173.000
 139559216.63348  90955231.45448  24654301.7104   24654302.3754   24654301.0784
       206.000         140.000
 03 10 30  2 23  0.0000000  0  8G 9G17G24G28G 5G 4G 7G30
 118296873.15248  92179395.25048  22511129.8424   22511130.3244   22511130.2464
       229.000         180.000
 129603427.55848 100989651.57448  24662736.9684   24662743.3334   24662737.7894
       212.000         146.000
 119180710.56848  75075867.23148  20776407.7674   20776407.7614   20776408.0144
       242.000         204.000
 139213042.07448  90685415.71548  24588479.0834   24588496.4064   24588479.2944
       212.000         140.000
 125483620.44248  79987240.38248  21975800.3504   21975800.3854   21975800.9254
       235.000         188.000
 107666244.20648  83895776.54248  20488203.0634   20488202.2594   20488202.9374
       244.000         208.000
 117630142.59148  91659850.30148  22384272.4794   22384272.2894   22384273.2184
       226.000         173.000
 139452423.73848  90872016.33548  24633979.9314   24633979.1494   24633979.0154
       206.000         139.000
 03 10 30  2 23 30.0000000  0  8G 9G17G24G28G 5G 4G 7G30
 118364261.75948  92231905.74348  22523953.7134   22523953.9074   22523953.8934
       229.000         180.000
 129504140.52548 100912284.61748  24643843.4634   24643850.0384   24643844.4024
       213.000         146.000
 119135448.45148  75040597.98848  20767794.7284   20767794.6734   20767794.9064
       243.000         204.000
 139317774.60948  90767024.65648  24608409.4714   24608427.3874   24608410.1654
       207.000         130.000
 125406557.52348  79927191.37048  21961135.6134   21961135.6874   21961136.1654
       234.000         187.000
 107706170.74448  83926888.08748  20495800.8394   20495800.1274   20495800.6644
       243.000         208.000
 117688353.21848  91705209.21348  22395349.6204   22395349.4024   22395350.0944
       226.000         173.000
 139345677.84948  90788837.92748  24613665.9714   24613665.8354   24613665.7584
       209.000         139.000
 03 10 30  2 24  0.0000000  0  8G 9G17G24G28G 5G 4G 7G30
 118432044.60348  92284723.42048  22536852.3964   22536852.6974   22536852.6074
       229.000         180.000
 129404962.46048 100835002.49848  24624970.8534   24624976.9734   24624971.6634
       212.000         146.000
 119090658.66048  75005696.84248  20759271.4224   20759271.2884   20759271.7784
       242.000         203.000
 139422653.06848  90848747.53948  24628368.5674   24628386.2154   24628368.2204
       209.000         131.000
 125329802.15948  79867382.08048  21946529.2924   21946529.4864   21946529.8954
       234.000         188.000
 107746574.33948  83958371.40548  20503489.4554   20503488.7444   20503489.2964
       244.000         208.000
 117746687.15048  91750664.17248  22406450.1324   22406450.0454   22406450.7854
       226.000         174.000
 139238980.67448  90705697.35448  24593362.5274   24593362.4374   24593362.0984
       207.000         139.000
 03 10 30  2 24 30.0000000  0  8G 9G17G24G28G 5G 4G 7G30
 118500218.81548  92337845.99948  22549825.9414   22549825.9884   22549826.3324
       230.000         181.000
 129305895.45248 100757806.87748  24606119.3834   24606126.5534   24606120.0434
       210.000         144.000
 119046341.56948  74971164.10948  20750837.9984   20750837.9244   20750838.2094
       242.000         203.000
 139527675.61148  90930582.77048  24648352.6684   24648371.4394   24648353.6234
       213.000         143.000
 125253356.20648  79807813.70948  21931982.2044   21931982.3084   21931982.7394
       235.000         188.000
 107787452.85348  83990224.81848  20511268.2814   20511267.6004   20511268.2044
       244.000         208.000
 117805144.69948  91796215.52348  22417574.4084   22417574.2704   22417574.9904
       226.000         173.000
 139132334.20348  90622596.32348  24573067.8524   24573067.2544   24573067.8424
       210.000         139.000
 03 10 30  2 25  0.0000000  0  8G 9G17G24G28G 5G 4G 7G30
 118568781.54548  92391271.28048  22562873.3594   22562873.2214   22562873.5874
       230.000         180.000
 129206940.80148 100680698.71248  24587288.9934   24587295.7104   24587289.8104
       211.000         143.000
 119002496.87848  74936999.39148  20742494.6854   20742494.5854   20742494.8984
       242.000         204.000
 139632840.79248  91012529.49048  24668365.3374   24668383.9894   24668365.7384
       206.000         135.000
 125177222.35048  79748488.63548  21917494.4064   21917494.4254   21917494.9134
       235.000         188.000
 107828804.11548  84022446.57948  20519137.1504   20519136.4594   20519137.0664
       243.000         208.000
 117863725.56748  91841863.00548  22428721.7504   22428721.9864   22428722.4034
       226.000         174.000
 139025740.58648  90539536.39748  24552783.9974   24552783.8384   24552784.1574
       208.000         139.000
 03 10 30  2 25 30.0000000  0  8G 9G17G24G28G 5G 4G 7G30
 118637730.04148  92444997.21748  22575993.6184   22575993.8614   22575993.9584
       230.000         180.000
 129108100.18048 100603679.37448  24568481.5014   24568488.5484   24568481.3334
       208.000         142.000
 118959125.62548  74903203.62748  20734241.5094   20734241.3514   20734241.8584
       242.000         204.000
 139738146.85948  91094586.12648  24688404.6514   24688422.5234   24688404.6614
       206.000         138.000
 125101402.64348  79689408.35048  21903066.4534   21903066.4064   21903066.9684
       235.000         189.000
 107870626.07148  84055035.14748  20527095.7504   20527094.8584   20527095.6324
       244.000         208.000
 117922429.62148  91887606.40548  22439892.8744   22439893.1284   22439893.6174
       226.000         174.000
 138919202.13948  90456519.59148  24532509.8294   24532509.8604   24532509.9234
       212.000         140.000
 03 10 30  2 26  0.0000000  0  8G 9G17G24G28G 5G 4G 7G30
 118707061.42948  92499021.52748  22589186.7764   22589187.5094   22589187.0064
       229.000         178.000
 129009375.10348 100526750.03048  24549694.7274   24549701.3644   24549695.3004
       210.000         140.000
 118916228.38348  74869777.24448  20726078.3424   20726078.3214   20726078.5874
       243.000         205.000
 139843592.22348  91176751.42248  24708469.8274   24708488.7154   24708469.9364
       204.000         138.000
 125025899.61848  79630574.80848  21888698.8734   21888698.6494   21888699.2794
       236.000         189.000
 107912916.86548  84087988.99448  20535143.4864   20535142.5074   20535143.4144
       244.000         208.000
 117981256.93448  91933445.84748  22451087.5784   22451087.7144   22451088.2634
       226.000         175.000
 138812720.67948  90373547.22248  24512247.3254   24512247.2784   24512246.8094
       206.000         139.000
 03 10 30  2 26 30.0000000  0  8G 9G17G24G28G 5G 4G 7G30
 118776772.69848  92553341.83148  22602452.2584   22602453.3424   22602452.4834
       228.000         178.000
 128910767.28648 100449912.05348  24530929.8554   24530937.9204   24530930.9184
       208.000         138.000
 118873805.03948  74836720.19248  20718005.3484   20718005.2394   20718005.5224
       242.000         205.000
 139949175.08848  91259024.02648  24728560.6284   24728581.2554   24728561.0234
       197.000         133.000
 124950715.71648  79571990.00048  21874391.7644   21874391.4284   21874392.3584
       237.000         190.000
 107955674.20248  84121306.39148  20543279.7954   20543278.9764   20543279.6874
       244.000         207.000
 118040207.55848  91979381.40948  22462305.4824   22462305.3464   22462306.1384
       226.000         175.000
 138706297.91548  90290620.44948  24491995.7394   24491997.1294   24491995.3944
       207.000         137.000
 03 10 30  2 27  0.0000000  0  8G 9G17G24G28G 5G 4G 7G30
 118846860.88048  92607955.76548  22615789.8864   22615790.9174   22615790.0664
       228.000         178.000
 128812278.40648 100373166.76748  24512189.2554   24512197.1574   24512189.8174
       205.000         138.000
 118831855.76248  74804032.39148  20710022.7474   20710022.6164   20710022.9704
       243.000         205.000
 140054893.53948  91341402.18048  24748677.3344   24748695.3344   24748678.8164
       191.000         130.000
 124875853.39048  79513655.71948  21860146.0784   21860145.7424   21860146.5944
       237.000         190.000
 107998896.20148  84154985.86848  20551504.6704   20551503.7854   20551504.6064
       244.000         207.000
 118099281.36048  92025412.92248  22473546.8194   22473546.8544   22473547.3364
       226.000         174.000
 138599936.54048  90207741.58248  24471755.3204   24471756.2474   24471755.7174
       208.000         140.000
 03 10 30  2 27 30.0000000  0  8G 9G17G24G28G 5G 4G 7G30
 118917323.28648  92662861.31848  22629198.8454   22629199.4124   22629199.1014
       229.000         177.000
 128713909.82148 100296515.19548  24493470.7994   24493477.4574   24493471.4724
       207.000         140.000
 118790381.38848  74771714.66648  20702130.4524   20702130.4274   20702130.7754
       242.000         205.000
 120160706.45558 111423845.36058  24768822.1085   24768839.8725   24768822.7355
       198.000         132.000
 124801314.88348  79455573.90248  21845961.7214   21845961.4564   21845962.2514
       236.000         191.000
 108042580.69048  84189025.72848  20559817.6244   20559816.5884   20559817.5054
       244.000         207.000
 118158478.62748  92071540.76148  22484811.6734   22484811.4384   22484812.4224
       225.000         173.000
 138493638.11348  90124911.75548  24451527.6194   24451527.3284   24451527.5604
       204.000         140.000
 03 10 30  2 28  0.0000000  0  8G 9G17G24G28G 5G 4G 7G30
 118988157.08248  92718056.33748  22642678.4894   22642678.8764   22642678.6674
       229.000         177.000
 128615663.07648 100219958.56448  24474775.7854   24474783.2314   24474776.4784
       208.000         140.000
 118749381.94748  74739767.02848  20694328.5314   20694328.5144   20694328.8524
       242.000         205.000
 120266691.84048 111506431.84048  24788990.1844   24789009.3684   24788990.6134
       202.000         135.000
 124727102.74248  79397746.37748  21831839.5594   21831839.2934   21831840.0504
       236.000         191.000
 108086725.55148  84223424.30648  20568218.0534   20568217.1414   20568217.9744
       244.000         207.000
 118217799.11248  92117764.52448  22496099.9804   22496099.7854   22496100.6584
       225.000         172.000
 138387404.94248  90042132.71348  24431311.3454   24431312.1974   24431311.6314
       207.000         139.000
 03 10 30  2 28 30.0000000  0  8G 9G17G24G28G 5G 4G 7G30
 119059359.11748  92773538.24648  22656228.0154   22656228.2904   22656228.4124
       229.000         178.000
 128517539.81148 100143498.14848  24456105.1584   24456111.0304   24456105.2164
       209.000         141.000
 118708858.01348  74708189.96848  20686617.0504   20686617.0864   20686617.3584
       242.000         206.000
 120372807.68348 111589120.01848  24809184.3014   24809200.7644   24809184.1434
       206.000         139.000
 124653218.88948  79340174.56148  21817779.9214   21817779.6994   21817780.5204
       236.000         191.000
 108131328.68548  84258179.97948  20576705.8034   20576704.9174   20576705.6704
       245.000         207.000
 118277242.62548  92164084.12448  22507411.3614   22507411.5004   22507411.9244
       224.000         172.000
 138281239.21448  89959406.31648  24411108.8934   24411110.0194   24411108.5064
       205.000         139.000
 03 10 30  2 29  0.0000000  0  8G 9G17G24G28G 5G 4G 7G30
 119130926.59548  92829304.93548  22669846.9324   22669847.1514   22669847.2564
       228.000         176.000
 128419541.50448 100067135.13348  24437456.8044   24437463.8884   24437457.5454
       207.000         141.000
 118668809.96348  74676983.73648  20678996.0604   20678996.1244   20678996.3384
       242.000         206.000
 120479052.50748 111671908.66948  24829400.5924   24829418.3814   24829401.7104
       207.000         140.000
 124579665.69048  79282860.37448  21803783.0404   21803783.2424   21803783.6544
       236.000         192.000
 108176387.93448  84293291.05048  20585280.5544   20585279.4054   20585280.5544
       245.000         208.000
 118336809.33948  92210499.72248  22518746.5134   22518746.7034   22518747.1764
       224.000         172.000
 138175142.98148  89876734.05848  24390919.9204   24390919.9054   24390919.5494
       207.000         139.000
 03 10 30  2 29 30.0000000  0  8G 9G17G24G28G 5G 4G 7G30
 119202856.68748  92885354.27448  22683534.4854   22683535.1844   22683534.8454
       227.000         175.000
 128321669.83448  99990870.80148  24418832.2414   24418839.1044   24418833.1884
       209.000         142.000
 118629237.93048  74646148.41148  20671465.6754   20671465.7844   20671465.9674
       242.000         205.000
 120585424.83448 111754796.85948  24849641.5694   24849659.1784   24849643.1104
       210.000         142.000
 124506445.17248  79225805.34648  21789849.7844   21789849.9644   21789850.2194
       237.000         193.000
 108221901.21248  84328755.91448  20593941.4324   20593940.3084   20593941.3384
       244.000         207.000
 118396499.20448  92257011.25948  22530105.4234   22530105.3234   22530106.1434
       225.000         173.000
 138069118.25348  89794117.58948  24370743.1304   24370743.7124   24370743.5644
       209.000         141.000
 03 10 30  2 30  0.0000000  0  8G 9G17G24G28G 5G 4G 7G30
 119275146.12848  92941683.57948  22697290.4864   22697291.4514   22697290.6344
       226.000         172.000
 128223926.16448  99914706.23548  24400233.1964   24400240.2294   24400233.6934
       208.000         142.000
 118590142.05948  74615684.10748  20664025.9614   20664026.1434   20664026.1984
       242.000         206.000
 120691922.82548 111837782.94248  24869907.7504   24869924.1364   24869908.4524
       210.000         141.000
 124433560.19448  79169011.81148  21775980.3934   21775980.2934   21775980.8874
       237.000         194.000
 108267866.45748  84364572.98148  20602688.3074   20602687.2394   20602688.1894
       245.000         207.000
 118456312.45848  92303618.95048  22541487.4564   22541487.7094   22541488.2444
       224.000         172.000
 137963167.05248  89711558.31648  24350581.9754   24350582.6204   24350581.5934
       208.000         140.000
 03 10 30  2 30 30.0000000  0  8G 9G17G24G28G 5G 4G 7G30
 119347791.88848  92998290.40448  22711114.4964   22711115.5974   22711114.6344
       226.000         173.000
 128126312.07048  99838642.62748  24381658.0614   24381665.2254   24381658.6564
       208.000         143.000
 118551522.55848  74585591.00648  20656676.9974   20656676.9844   20656677.2814
       243.000         206.000
 120798544.97248 111920865.96948  24890196.5194   24890212.6704   24890196.7774
       207.000         140.000
 124361013.39048  79112482.07948  21762175.1054   21762174.8204   21762175.7694
       238.000         193.000
 108314281.35948  84400740.42648  20611520.6214   20611519.8454   20611520.5034
       244.000         207.000
 118516248.88748  92350322.63048  22552893.0694   22552893.2684   22552893.6094
       225.000         172.000
 137857291.53148  89629057.92948  24330433.8434   24330434.7264   24330434.3214
       207.000         140.000
 03 10 30  2 31  0.0000000  0  8G 9G17G24G28G 5G 4G 7G30
 119420791.15148  93055172.67648  22725006.1304   22725007.2054   22725006.4404
       225.000         172.000
 128028829.17748  99762681.31748  24363107.9674   24363116.6664   24363108.4004
       211.000         144.000
 118513379.98548  74555869.52148  20649418.8224   20649418.6774   20649419.0974
       243.000         206.000
 120905289.51748 112004044.39548  24910508.6974   24910524.2094   24910509.2244
       210.000         138.000
 124288806.19748  79056216.83348  21748434.4944   21748434.0734   21748435.1064
       237.000         193.000
 108361143.80648  84437256.59248  20620438.2514   20620437.5284   20620438.1934
       244.000         207.000
 118576308.51048  92397122.27348  22564322.2174   22564322.2094   22564322.7194
       226.000         172.000
 137751494.03048  89546618.43048  24310301.3834   24310301.8134   24310301.5104
       208.000         140.000
 03 10 30  2 31 30.0000000  0  8G 9G17G24G28G 5G 4G 7G30
 119494141.03748  93112328.23448  22738964.3894   22738965.5124   22738964.6444
       225.000         171.000
 127931478.92148  99686823.35148  24344582.4624   24344592.0274   24344583.7934
       206.000         143.000
 118475713.95348  74526519.20948  20642251.3684   20642251.2024   20642251.6134
       242.000         206.000
 121012154.55448 112087316.70448  24930844.0004   24930859.7984   24930844.8134
       209.000         137.000
 124216941.30248  79000218.24648  21734758.9934   21734758.5304   21734759.5554
       237.000         192.000
 108408451.76948  84474119.97248  20629440.6944   20629439.8944   20629440.5914
       244.000         207.000
 118636491.62748  92444018.26648  22575774.4544   22575774.3704   22575775.4754
       225.000         170.000
 137645776.59148  89464241.37948  24290183.6174   24290184.4364   24290183.6364
       207.000         140.000
 03 10 30  2 32  0.0000000  0  8G 9G17G24G28G 5G 4G 7G30
 119567838.54048  93169754.65648  22752989.0314   22752989.9424   22752989.2414
       225.000         173.000
 127834262.81748  99611069.95748  24326083.9594   24326093.1694   24326084.2134
       208.000         144.000
 118438525.65848  74497541.44748  20635174.4884   20635174.3604   20635174.7974
       242.000         206.000
 121119138.88948 112170682.19248  24951201.4194   24951216.4104   24951202.9294
       208.000         135.000
 124145420.78648  78944487.94148  21721148.9194   21721148.5054   21721149.4644
       236.000         191.000
 108456202.87248  84511328.62648  20638527.5204   20638526.5234   20638527.4644
       245.000         207.000
 118696797.89548  92491010.19348  22587250.2124   22587250.3404   22587251.1074
       224.000         170.000
 137540141.18248  89381928.10748  24270081.5264   24270083.3834   24270081.9494
       211.000         140.000
 03 10 30  2 32 30.0000000  0  8G 9G17G24G28G 5G 4G 7G30
 119641880.84648  93227449.76148  22767079.0514   22767080.1974   22767079.2644
       225.000         172.000
 127737182.41048  99535422.34448  24307610.6794   24307619.7614   24307611.5324
       208.000         146.000
 118401814.37948  74468935.19348  20628188.5154   20628188.5174   20628188.7754
       243.000         206.000
 121226240.36748 112254139.00248  24971581.3974   24971597.6614   24971582.2484
       205.000         135.000
 124074247.32448  78889028.11048  21707604.9334   21707604.5924   21707605.5944
       236.000         191.000
 108504395.09948  84548881.03248  20647698.1194   20647697.2114   20647698.0374
       244.000         207.000
 118757227.40648  92538098.14348  22598749.3544   22598749.5574   22598750.1344
       224.000         169.000
 137434590.22748  89299680.75848  24249996.3974   24249996.8694   24249995.9054
       208.000         138.000
 03 10 30  2 33  0.0000000  0  8G 9G17G24G28G 5G 4G 7G30
 119716264.86748  93285411.12848  22781233.8824   22781235.1914   22781234.2204
       223.000         170.000
 127640239.07048  99459881.56948  24289163.1564   24289172.1964   24289164.1054
       211.000         147.000
 118365580.61148  74440700.97948  20621293.4774   20621293.5444   20621293.7564
       243.000         207.000
 121333457.35948 112337685.70248  24991983.3694   24991998.7714   24991983.6784
       207.000         132.000
 124003423.30848  78833840.56948  21694127.5484   21694127.2174   21694128.2204
       236.000         191.000
 108553026.24348  84586775.46248  20656952.3854   20656951.4164   20656952.3084
       244.000         206.000
 118817780.18448  92585282.13548  22610272.3174   22610272.2104   22610272.9444
       224.000         169.000
 137329125.90548  89217500.92748  24229927.6824   24229927.3054   24229926.9864
       209.000         139.000
 03 10 30  2 33 30.0000000  0  8G 9G17G24G28G 5G 4G 7G30
 119790987.49648  93343636.30548  22795452.7734   22795454.3864   22795453.1784
       221.000         169.000
 127543434.53948  99384449.03948  24270742.1484   24270751.8984   24270743.1404
       212.000         148.000
 118329824.51848  74412839.01648  20614489.5224   20614489.4984   20614489.6994
       244.000         207.000
 121440788.21448 112421321.42548  25012407.6674   25012421.1554   25012407.5144
       208.000         132.000
 123932950.75748  78778926.92648  21680717.0854   21680716.7714   21680717.5854
       237.000         193.000
 108602093.91748  84625010.02748  20666289.5334   20666288.6194   20666289.3974
       244.000         206.000
 118878456.29648  92632562.25948  22621818.6704   22621818.6354   22621819.4494
       224.000         170.000
 137223750.31148  89135390.28648  24209873.1764   24209874.9894   24209874.3754
       209.000         138.000
 03 10 30  2 34  0.0000000  0  8G 9G17G24G28G 5G 4G 7G30
 119866045.92248  93402123.22948  22809735.8014   22809737.5814   22809736.1264
       220.000         169.000
 127446770.16448  99309125.72848  24252348.4434   24252357.8094   24252348.7734
       212.000         148.000
 118294546.21148  74385349.46448  20607776.4664   20607776.2334   20607776.7954
       244.000         208.000
 121548230.93348 112505044.23948  25032851.4594   25032865.9464   25032851.3524
       204.000         127.000
 123862832.10348  78724289.04048  21667374.1454   21667373.6854   21667374.4894
       238.000         194.000
 108651596.00348  84663583.05448  20675709.4114   20675708.5454   20675709.3404
       243.000         206.000
 118939255.67048  92679938.37248  22633388.4384   22633388.6694   22633389.2084
       225.000         171.000
 137118465.48848  89053350.31748  24189839.0924   24189839.6024   24189838.9234
       209.000         139.000
 03 10 30  2 34 30.0000000  0  8G 9G17G24G28G 5G 4G 7G30
 119941437.11048  93460869.43448  22824082.8984   22824084.6284   22824083.0034
       223.000         170.000
 127350247.54148  99233912.95248  24233980.6894   24233990.2764   24233981.7144
       211.000         147.000
 118259745.66748  74358232.13848  20601154.0264   20601153.9434   20601154.3154
       243.000         207.000
 121655783.99948 112588852.88048  25053315.1604   25053334.3164   25053316.1954
       203.000         126.000
 123793069.31148  78669928.41948  21654098.8754   21654098.4204   21654099.5144
       238.000         195.000
 108701530.26248  84702492.82748  20685211.6464   20685210.7074   20685211.5464
       244.000         206.000
 119000178.33548  92727410.61848  22644981.3234   22644981.8804   22644982.1284
       224.000         170.000
 137013273.67648  88971382.72348  24169822.6194   24169823.9944   24169821.9484
       211.000         139.000
 03 10 30  2 35  0.0000000  0  8G 9G17G24G28G 5G 4G 7G30
 120017157.90248  93519872.49748  22838492.4634   22838493.8914   22838492.7974
       224.000         171.000
 127253868.07848  99158811.80748  24215640.8724   24215650.1734   24215641.0624
       213.000         148.000
 118225423.16948  74331487.38348  20594622.5644   20594622.6014   20594622.7674
       243.000         208.000
 121763445.42048 112672746.00748  25073802.7884   25073821.7244   25073803.9954
       202.000         124.000
 123723665.03948  78615847.23448  21640891.6414   21640891.2304   21640892.3724
       238.000         195.000
 108751894.65148  84741737.81448  20694795.6144   20694794.7264   20694795.6204
       244.000         205.000
 119061224.31548  92774978.88148  22656598.2964   22656598.6184   22656599.0244
       226.000         170.000
 136908177.09548  88889489.34148  24149823.0434   24149823.6894   24149823.0044
       211.000         141.000
 03 10 30  2 35 30.0000000  0  8G 9G17G24G28G 5G 4G 7G30
 120093205.08948  93579129.79848  22852964.2474   22852965.1944   22852964.5444
       225.000         172.000
 127157633.23048  99083823.35348  24197327.3604   24197337.3794   24197328.6254
       212.000         148.000
 118191578.46248  74305114.92148  20588182.2034   20588182.2074   20588182.5044
       243.000         208.000
 121871214.07948 112756722.75248  25094309.2394   25094326.3984   25094310.0144
       197.000         125.000
 123654621.64448  78562047.19748  21627752.9654   21627752.6924   21627753.5354
       238.000         195.000
 108802686.88848  84781316.18548  20704461.0674   20704460.2314   20704460.9494
       244.000         206.000
 119122393.52648  92822643.13348  22668238.8804   22668238.6504   22668239.5944
       226.000         170.000
 136803177.82148  88807671.76348  24129841.9874   24129842.3244   24129842.1834
       213.000         142.000
 03 10 30  2 36  0.0000000  0  8G 9G17G10G24G 5G 4G 7G30
 120169575.77648  93638639.16648  22867497.3724   22867498.2544   22867497.5854
       226.000         172.000
 127061544.34148  99008948.70148  24179042.1824   24179052.1164   24179042.8724
       210.000         148.000
 140179399.79058  91438469.31158  24772334.3335   24772339.6275   24772333.6385
       198.000         137.000
 118158211.66548  74279114.69248  20581832.8314   20581832.8554   20581833.1594
       244.000         208.000
 123585941.15748  78508529.88848  21614683.4854   21614683.1654   21614684.0364
       239.000         195.000
 108853904.62348  84821226.08848  20714207.6254   20714206.7264   20714207.5724
       245.000         206.000
 119183686.13348  92870403.58548  22679902.5034   22679902.0324   22679903.2434
       225.000         170.000
 136698278.40348  88725931.99648  24109880.5814   24109881.2394   24109880.7174
       216.000         143.000
 03 10 30  2 36 30.0000000  0  8G 9G17G10G24G 5G 4G 7G30
 120246266.81748  93698398.13748  22882091.2574   22882092.2674   22882091.3084
       224.000         172.000
 126965603.09148  98934189.14348  24160784.9974   24160795.4184   24160785.5254
       208.000         145.000
 140067850.46948  91351547.60148  24751105.7994   24751111.3454   24751106.6584
       202.000         140.000
 118125323.47948  74253487.57748  20575574.3474   20575574.3514   20575574.6604
       243.000         208.000
 123517626.22048  78455297.51848  21601683.4974   21601683.0774   21601684.2494
       239.000         195.000
 108905545.75948  84861465.92648  20724034.7144   20724033.6744   20724034.5844
       244.000         206.000
 119245102.10848  92918260.10848  22691589.3494   22691589.1244   22691589.9804
       224.000         170.000
 136593481.08748  88644271.95748  24089938.1004   24089938.1274   24089938.1874
       214.000         144.000
 03 10 30  2 37  0.0000000  0  8G 9G17G10G24G 5G 4G 7G30
 120323275.37648  93758404.55148  22896745.6394   22896746.8964   22896745.7594
       224.000         171.000
 126869810.84048  98859545.70348  24142556.2614   24142566.4794   24142557.6324
       212.000         148.000
 139956230.15548  91264570.51948  24729865.4824   24729872.7544   24729866.6704
       208.000         144.000
 118092912.93248  74228232.51748  20569406.9944   20569406.7844   20569407.2584
       244.000         208.000
 123449679.12748  78402351.73448  21588753.6604   21588753.0954   21588754.0694
       239.000         194.000
 108957608.08148  84902033.96048  20733941.8934   20733940.7634   20733941.8914
       244.000         206.000
 119306641.59648  92966212.96448  22703299.6844   22703299.9104   22703300.5114
       223.000         169.000
 136488787.75848  88562692.86048  24070015.5784   24070015.6224   24070015.4284
       215.000         146.000
 03 10 30  2 37 30.0000000  0  8G 9G17G10G24G 5G 4G 7G30
 120400598.62748  93818656.26348  22911460.0064   22911461.3984   22911460.1004
       225.000         172.000
 126774169.14948  98785019.69748  24124357.5684   24124366.2424   24124357.6114
       214.000         150.000
 139844541.64548  91177540.17148  24708611.8414   24708619.1624   24708613.0654
       210.000         144.000
 118060980.65948  74203350.16948  20563330.4884   20563330.3264   20563330.8114
       245.000         209.000
 123382101.60048  78349693.86348  21575894.1314   21575893.4674   21575894.5864
       238.000         195.000
 109010089.08648  84942928.25948  20743928.5074   20743927.5494   20743928.4094
       243.000         206.000
 119368304.66248  93014262.12848  22715033.7684   22715034.2084   22715034.2204
       223.000         168.000
 136384200.78648  88481196.57048  24050112.6304   24050113.4014   24050112.7344
       214.000         146.000
 03 10 30  2 38  0.0000000  0  8G 9G17G10G24G 5G 4G 7G30
 120478233.30948  93879150.65148  22926233.3684   22926235.0564   22926233.7254
       225.000         172.000
 126678679.49548  98710612.22448  24106186.3064   24106195.7824   24106187.0804
       213.000         149.000
 139732787.56648  91090458.69048  24687346.1834   24687353.4304   24687347.4154
       205.000         141.000
 118029526.55048  74178840.43448  20557344.9784   20557344.8964   20557345.2504
       244.000         208.000
 123314896.64748  78297326.46848  21563105.4444   21563104.6204   21563106.1064
       239.000         195.000
 109062986.55448  84984147.04248  20753994.5174   20753993.5914   20753994.4454
       243.000         205.000
 119430091.14448  93062407.44648  22726791.2074   22726791.9044   22726791.9124
       224.000         168.000
 136279722.55248  88399785.05448  24030231.5284   24030231.5624   24030231.2244
       211.000         145.000
 03 10 30  2 38 30.0000000  0  8G 9G17G10G24G 5G 4G 7G30
 120556176.50048  93939885.48548  22941065.6694   22941067.1584   22941065.9144
       225.000         173.000
 126583343.14448  98636324.27948  24088044.3914   24088053.5604   24088044.9614
       214.000         152.000
 139620970.68148  91003328.13148  24666068.4374   24666075.4504   24666069.5214
       201.000         136.000
 117998550.36948  74154703.15448  20551450.2514   20551450.2554   20551450.4314
       244.000         208.000
 123248066.24748  78245250.82948  21550388.2144   21550387.3134   21550388.8834
       240.000         196.000
 109116298.41748  85025688.76648  20764139.4544   20764138.5144   20764139.3574
       243.000         205.000
 119492001.07848  93110648.91448  22738572.3404   22738572.9844   22738573.1124
       223.000         168.000
 136175355.12148  88318459.86448  24010370.6544   24010370.8424   24010370.1214
       212.000         144.000
 03 10 30  2 39  0.0000000  0  8G 9G17G10G24G 5G 4G 7G30
 120634425.03248  94000858.25348  22955956.1354   22955957.2714   22955956.4154
       225.000         172.000
 126488161.35148  98562156.75448  24069932.1264   24069941.0774   24069932.8744
       216.000         152.000
 139509094.69048  90916151.71648  24644779.4934   24644785.6204   24644780.0634
       204.000         135.000
 117968052.33748  74130938.51448  20545646.6964   20545646.5534   20545646.9354
       243.000         208.000
 123181612.77448  78193468.96448  21537742.6124   21537741.6234   21537743.1774
       241.000         198.000
 109170022.18048  85067551.42248  20774362.7574   20774361.8144   20774362.6954
       243.000         205.000
 119554034.65848  93158986.78048  22750376.8594   22750377.4944   22750377.6764
       224.000         168.000
 136071100.82148  88237222.82348  23990531.3644   23990531.9764   23990531.0494
       210.000         143.000
 03 10 30  2 39 30.0000000  0  8G 9G17G10G24G 5G 4G 7G30
 120712975.73648  94062066.46748  22970903.9914   22970905.3314   22970904.1654
       226.000         172.000
 126393135.91548  98488111.17748  24051849.1104   24051858.4304   24051849.7784
       217.000         154.000
 139397161.55548  90828930.60048  24623479.1534   24623487.9974   24623480.1304
       207.000         136.000
 117938032.17248  74107546.16348  20539934.0654   20539933.9664   20539934.3724
       244.000         208.000
 123115538.01848  78141982.14348  21525169.0364   21525168.1104   21525169.6414
       240.000         198.000
 109224155.57548  85109733.23348  20784664.0694   20784663.2044   20784663.9824
       243.000         205.000
 119616191.73448  93207420.85748  22762204.9864   22762205.3804   22762205.8314
       223.000         167.000
 135966961.92048  88156075.66748  23970715.0444   23970714.5234   23970714.2074
       207.000         143.000
 03 10 30  2 40  0.0000000  0  8G 9G17G10G24G 5G 4G 7G30
 120791825.59348  94123507.76648  22985908.7864   22985910.1504   22985908.9734
       225.000         173.000
 126298268.03348  98414188.32348  24033796.4804   24033806.1024   24033797.0584
       217.000         155.000
 139285174.07848  90741666.94948  24602169.2534   24602177.0384   24602170.0704
       202.000         140.000
 117908489.80848  74084526.10548  20534312.4944   20534312.1754   20534312.7254
       244.000         208.000
 123049844.40948  78090792.32748  21512667.9734   21512667.1614   21512668.7454
       241.000         198.000
 109278696.51248  85152232.64948  20795042.9114   20795042.0644   20795042.8344
       244.000         205.000
 119678472.52148  93255951.33648  22774056.6904   22774056.7934   22774057.4554
       223.000         165.000
 135862940.87548  88075020.42248  23950920.1024   23950920.1064   23950919.3564
       207.000         141.000
 03 10 30  2 40 30.0000000  0  8G 9G17G10G24G 5G 4G 7G30
 120870971.55248  94185179.77348  23000970.0084   23000971.3444   23000970.0844
       224.000         171.000
 126203559.08648  98340389.29248  24015773.6314   24015783.1804   24015774.3094
       217.000         155.000
 139173135.67848  90654363.49948  24580848.9474   24580857.6414   24580850.6784
       204.000         140.000
 117879425.32248  74061878.51848  20528781.6584   20528781.3984   20528782.0484
       244.000         208.000
 122984534.40748  78039901.41748  21500239.7494   21500239.1174   21500240.4244
       240.000         198.000
 109333642.65648  85195047.81048  20805498.9004   20805498.0204   20805498.8254
       244.000         205.000
 119740876.95448  93304578.19548  22785931.8964   22785931.9174   22785932.8284
       222.000         165.000
 135759039.51448  87994058.36748  23931148.3284   23931148.2494   23931147.4374
       209.000         142.000
 03 10 30  2 41  0.0000000  0  8G 9G17G10G24G 5G 4G 7G30
 120950410.61748  94247080.19248  23016086.7114   23016088.0464   23016087.0174
       223.000         170.000
 126109010.57048  98266715.31248  23997781.7364   23997790.7264   23997782.1574
       216.000         155.000
 139061048.55948  90567022.10648  24559520.6344   24559528.5394   24559521.3594
       203.000         140.000
 117850838.22848  74039602.89548  20523341.6034   20523341.5034   20523341.8534
       244.000         208.000
 122919610.40948  77989311.36048  21487884.9464   21487884.4724   21487885.5664
       239.000         198.000
 109388991.63348  85238176.88348  20816031.4074   20816030.5464   20816031.3284
       243.000         205.000
 119803404.88748  93353301.24748  22797830.8884   22797830.5854   22797831.4304
       220.000         165.000
 135655260.61848  87913191.75448  23911399.6394   23911400.0164   23911399.5704
       210.000         144.000
 03 10 30  2 41 30.0000000  0  8G 9G17G10G24G 5G 4G 7G30
 121030139.53348  94309206.41748  23031258.4454   23031260.1304   23031258.7794
       222.000         169.000
 126014623.86548  98193167.46048  23979819.9984   23979829.3544   23979820.7654
       215.000         154.000
 138948916.62448  90479645.98648  24538183.2994   24538190.4554   24538183.5984
       199.000         139.000
 117822728.45848  74017699.14248  20517992.4434   20517992.4254   20517992.7084
       244.000         208.000
 122855074.62048  77939023.71948  21475604.1134   21475603.6524   21475604.6744
       239.000         197.000
 109444741.18748  85281618.10148  20826640.0814   20826639.2264   20826640.0224
       243.000         205.000
 119866056.54448  93402120.68048  22809752.5564   22809752.6694   22809753.1734
       221.000         164.000
 135551606.40148  87832422.44048  23891675.0094   23891674.5634   23891675.3624
       212.000         144.000
 03 10 30  2 42  0.0000000  0  8G 9G17G10G24G 5G 4G 7G30
 121110154.92148  94371555.81248  23046484.7164   23046486.8214   23046485.1804
       221.000         168.000
 125920400.37248  98119746.79648  23961889.4154   23961898.8004   23961890.1264
       215.000         152.000
 138836742.14048  90392236.76548  24516837.1514   24516845.1444   24516837.9904
       200.000         140.000
 117795095.98348  73996167.31748  20512734.1974   20512734.1874   20512734.4514
       244.000         208.000
 122790928.85048  77889040.02648  21463397.4614   21463397.0014   21463398.1104
       238.000         197.000
 109500889.12548  85325369.75948  20837324.6934   20837323.8084   20837324.5444
       243.000         205.000
 119928832.00348  93451036.60348  22821698.3824   22821698.5044   22821698.7234
       221.000         163.000
 135448078.85148  87751751.65748  23871974.0644   23871974.8204   23871974.1244
       212.000         147.000
 03 10 30  2 42 30.0000000  0  8G 9G17G10G24G 5G 4G 7G30
 121190453.84448  94434126.07148  23061765.6744   23061767.6554   23061765.9044
       221.000         168.000
 125826341.54448  98046454.43848  23943990.4814   23943999.9244   23943990.7914
       214.000         153.000
 138724527.45248  90304796.07748  24495484.2914   24495493.0524   24495485.0144
       204.000         140.000
 117767940.57548  73975007.12648  20507566.7384   20507566.7184   20507567.0144
       243.000         208.000
 122727175.78948  77839362.31948  21451265.8404   21451265.1984   21451266.3734
       239.000         198.000
 109557432.95748  85369429.87348  20848084.6184   20848083.8424   20848084.5534
       243.000         204.000
 119991731.27648  93500049.01748  22833667.6794   22833667.8494   22833668.5224
       222.000         163.000
 135344680.75548  87671181.86348  23852297.6554   23852297.9074   23852298.1284
       213.000         148.000
 03 10 30  2 43  0.0000000  0  8G 9G17G10G24G 5G 4G 7G30
 121271033.57348  94496915.23648  23077099.7504   23077101.6274   23077100.1914
       221.000         167.000
 125732448.97248  97973291.75848  23926122.3944   23926132.0684   23926123.3564
       214.000         152.000
 138612275.74448  90217326.44748  24474123.6114   24474132.8144   24474124.8304
       203.000         142.000
 117741262.46648  73954218.99748  20502489.9624   20502490.1004   20502490.1454
       243.000         208.000
 122663817.55448  77789992.28248  21439209.1524   21439208.6194   21439209.7284
       240.000         199.000
 109614370.49348  85413796.80048  20858919.4514   20858918.6664   20858919.2974
       243.000         204.000
 120054754.30548  93549157.88148  22845661.0304   22845661.0334   22845661.6634
       221.000         164.000
 135241414.01748  87590714.31148  23832647.2764   23832647.4434   23832647.3794
       213.000         148.000
 03 10 30  2 43 30.0000000  0  8G 9G17G10G24G 5G 4G 7G30
 121351890.71748  94559920.66348  23092486.5114   23092488.2494   23092486.7404
       220.000         167.000
 125638723.73448  97900259.41648  23908287.4134   23908296.2614   23908288.0584
       215.000         153.000
 138499990.62348  90129830.88148  24452757.4384   24452766.1844   24452758.1594
       204.000         144.000
 117715061.33948  73933802.63248  20497504.0744   20497504.0564   20497504.3534
       243.000         208.000
 122600856.46648  77740931.72148  21427227.9434   21427227.5424   21427228.5914
       239.000         199.000
 109671699.20048  85458468.45048  20869828.8414   20869827.9054   20869828.7164
       242.000         203.000
 120117901.24248  93598363.26548  22857677.5344   22857677.3754   22857678.2384
       221.000         165.000
 135138281.18448  87510351.14848  23813021.5364   23813021.1794   23813021.9094
       214.000         148.000
 03 10 30  2 44  0.0000000  0  8G 9G17G10G24G 5G 4G 7G30
 121433022.03348  94623139.58248  23107925.5634   23107927.4794   23107925.9074
       221.000         167.000
 125545167.21348  97827358.57848  23890484.1874   23890492.6844   23890484.6864
       216.000         153.000
 138387674.21948  90042311.03148  24431385.1354   24431393.5984   24431385.8814
       207.000         144.000
 117689336.73448  73913757.56248  20492608.8534   20492608.6774   20492609.1264
       243.000         208.000
 122538294.90648  77692182.43348  21415322.7894   21415322.6134   21415323.4474
       240.000         200.000
 109729417.05748  85503443.41348  20880812.3024   20880811.2474   20880812.2824
       243.000         204.000
 120181172.14248  93647665.27348  22869717.5434   22869717.6124   22869718.1064
       220.000         163.000
 135035284.48448  87430094.01748  23793421.9914   23793421.6724   23793422.0864
       213.000         147.000
 03 10 30  2 44 30.0000000  0  8G 9G17G10G24G 5G 4G 7G30
 121514424.71048  94686569.95648  23123416.3034   23123417.9824   23123416.3564
       221.000         167.000
 125451781.08448  97754590.62248  23872713.1314   23872721.3374   23872713.9964
       217.000         155.000
 138275329.39548  89954768.60748  24410006.9954   24410018.1084   24410008.0644
       209.000         145.000
 117664088.43548  73894083.57948  20487804.2344   20487804.0504   20487804.4634
       244.000         208.000
 122476134.50448  77643745.76048  21403494.0124   21403493.9314   21403494.6344
       239.000         199.000
 109787521.49548  85548719.58148  20891869.1934   20891868.2144   20891869.2204
       242.000         204.000
 120244566.87148  93697063.75548  22881780.8654   22881781.0474   22881781.7734
       221.000         163.000
 134932426.24248  87349944.72948  23773848.8814   23773848.3584   23773848.9724
       213.000         146.000
 03 10 30  2 45  0.0000000  0  8G 9G17G10G24G 5G 4G 7G30
 121596095.49448  94750209.24848  23138957.6894   23138959.3854   23138958.0764
       221.000         165.000
 125358566.27248  97681956.11848  23854974.8424   23854982.3554   23854975.4904
       216.000         155.000
 138162960.51448  89867208.21048  24388624.1004   24388628.4414   24388625.1014
       205.000         142.000
 117639316.19448  73874780.56448  20483090.2694   20483090.0044   20483090.5404
       244.000         208.000
 122414377.87648  77595623.76048  21391742.0394   21391741.9744   21391742.6164
       239.000         200.000
 109846010.36348  85594295.30348  20902999.1694   20902998.3194   20902999.0604
       242.000         203.000
 120308085.58448  93746558.82448  22893868.2764   22893868.2024   22893868.8864
       221.000         164.000
 134829709.12248  87269905.59248  23754302.6264   23754301.5454   23754302.2764
       214.000         146.000
 03 10 30  2 45 30.0000000  0  8G 9G17G10G24G 5G 4G 7G30
 121678031.51248  94814055.26348  23154549.6384   23154551.3314   23154549.8214
       221.000         166.000
 125265524.25048  97609456.18748  23837269.2324   23837276.9474   23837270.0874
       219.000         157.000
 138050569.76548  89779630.88948  24367237.0584   24367247.0104   24367237.7174
       205.000         142.000
 117615019.99448  73855848.55748  20478466.7654   20478466.4864   20478467.0144
       244.000         208.000
 122353026.80148  77547817.75548  21380067.3484   21380067.1584   21380068.0114
       239.000         200.000
 109904881.28248  85640168.81448  20914201.8284   20914201.0194   20914201.7394
       242.000         203.000
 120371728.36848  93796150.62648  22905979.0724   22905979.5094   22905979.6294
       221.000         162.000
 134727135.36448  87189978.17348  23734783.4174   23734782.8754   23734782.9124
       214.000         147.000
 03 10 30  2 46  0.0000000  0  8G 9G17G10G24G 5G 4G 7G30
 121760229.40948  94878105.32448  23170191.4044   23170193.2664   23170191.8854
       219.000         164.000
 125172656.46848  97537092.08648  23819596.9714   23819604.6384   23819597.5644
       215.000         158.000
 137938159.51248  89692038.45948  24345845.6434   24345855.6594   24345846.3734
       204.000         142.000
 117591199.13148  73837286.86048  20473933.7434   20473933.5494   20473933.9824
       244.000         208.000
 122292084.05348  77500329.91148  21368470.3594   21368470.1174   21368470.9644
       240.000         201.000
 109964131.80348  85686338.04648  20925476.7974   20925476.0644   20925476.7244
       242.000         203.000
 120435495.23448  93845839.07548  22918113.3544   22918113.5774   22918114.1334
       221.000         163.000
 134624707.09148  87110164.03648  23715291.2294   23715290.4094   23715291.4084
       216.000         148.000
 03 10 30  2 46 30.0000000  0  8G 9G17G10G24G 5G 4G 7G30
 121842686.20448  94942357.10348  23185882.5464   23185884.9284   23185882.8464
       218.000         164.000
 125079964.37448  97464865.01048  23801957.3534   23801965.4544   23801958.0454
       215.000         158.000
 137825732.58248  89604432.95048  24324452.3834   24324461.4094   24324452.5804
       206.000         146.000
 117567853.32648  73819095.28648  20469491.0644   20469491.0874   20469491.2994
       244.000         209.000
 122231551.55448  77453161.75548  21356951.5284   21356951.1764   21356951.9554
       241.000         201.000
 110023759.47548  85732801.09848  20936823.5514   20936822.8734   20936823.3964
       241.000         202.000
 120499386.08048  93895624.09448  22930271.4304   22930271.5674   22930272.0004
       221.000         162.000
 134522426.89848  87030465.34548  23695827.9984   23695826.9584   23695828.6854
       217.000         148.000
 03 10 30  2 47  0.0000000  0  8G 9G17G10G24G 5G 4G 7G30
 121925398.71148  95006808.16148  23201622.7204   23201625.1434   23201622.8974
       219.000         164.000
 124987449.34948  97392775.88148  23784351.9204   23784360.2264   23784352.4314
       218.000         160.000
 137713290.96148  89516815.57048  24303055.9094   24303066.3624   24303056.7014
       208.000         145.000
 117544982.19448  73801273.61948  20465138.8914   20465138.9094   20465139.1964
       244.000         209.000
 122171431.52248  77406314.98048  21345511.1454   21345510.7134   21345511.6794
       241.000         201.000
 110083762.42248  85779556.65748  20948241.7954   20948240.9434   20948241.6574
       241.000         202.000
 120563401.01948  93945505.79248  22942453.1994   22942453.3104   22942453.7514
       221.000         162.000
 134420296.71148  86950883.37748  23676394.0644   23676392.2524   23676393.3704
       217.000         149.000
