     2              OBSERVATION DATA    GPS                 RINEX VERSION / TYPE
GEOTRACER GPS Decoder Ver. 2.2           29-Oct-1903, 00:20 PGM / RUN BY / DATE
ANKR                                                        MARKER NAME
20805M002                                                   MARKER NUMBER
AUTOMATIC           BKG-WETTZELL                            OBSERVER / AGENCY
T-313U              AOA SNR-8000 ACT     3.3.32.4           REC # / TYPE / VERS
391-U               AOAD/M_T        NONE                    ANT # / TYPE
  4121951.1983  2652186.8505  4069023.7496                  APPROX POSITION XYZ
        0.0600        0.0000        0.0000                  ANTENNA: DELTA H/E/N
     1     1     0                                          WAVELENGTH FACT L1/2
     5    C1    P1    P2    L1    L2                        # / TYPES OF OBSERV
    30                                                      INTERVAL
  2003    10    28     0     0    0.000000                  TIME OF FIRST OBS
  2003    10    28    23    59   30.000000                  TIME OF LAST OBS
    28                                                      # OF SATELLITES
   G01   854   854   854   854   854                        PRN / # OF OBS
   G02  1058  1058  1058  1058  1058                        PRN / # OF OBS
   G03   860   860   860   860   860                        PRN / # OF OBS
   G04  1020  1020  1020  1020  1020                        PRN / # OF OBS
   G05   809   809   809   809   809                        PRN / # OF OBS
   G06   867   867   867   867   867                        PRN / # OF OBS
   G07   987   987   987   987   987                        PRN / # OF OBS
   G08   818   818   818   818   818                        PRN / # OF OBS
   G09   741   741   741   741   741                        PRN / # OF OBS
   G10  1016  1016  1016  1016  1016                        PRN / # OF OBS
   G11   753   753   753   753   753                        PRN / # OF OBS
   G13   850   850   850   850   850                        PRN / # OF OBS
   G14   968   968   968   968   968                        PRN / # OF OBS
   G15   871   871   871   871   871                        PRN / # OF OBS
   G16   996   996   996   996   996                        PRN / # OF OBS
   G17   911   911   911   911   911                        PRN / # OF OBS
   G18   791   791   791   791   791                        PRN / # OF OBS
   G20   848   848   848   848   848                        PRN / # OF OBS
   G21   804   804   804   804   804                        PRN / # OF OBS
   G23   802   802   802   802   802                        PRN / # OF OBS
   G24  1018  1018  1018  1018  1018                        PRN / # OF OBS
   G25  1030  1030  1030  1030  1030                        PRN / # OF OBS
   G26   941   941   941   941   941                        PRN / # OF OBS
   G27   841   841   841   841   841                        PRN / # OF OBS
   G28   765   765   765   765   765                        PRN / # OF OBS
   G29   879   879   879   879   879                        PRN / # OF OBS
   G30   787   787   787   787   787                        PRN / # OF OBS
   G31   997   997   997   997   997                        PRN / # OF OBS
                                                            END OF HEADER
  3 10 28  0  0  0.0000000  0  8G03G11G14G15G20G23G25G31
  22686455.28309  22686455.00209  22686455.72609 -11677975.37409  -9099717.82409
  21936159.33509  21936159.39909  21936158.36609 -16906422.60209 -13173830.26509
  20823689.72809  20823689.53309  20823688.34809 -19697132.33709 -15348407.12609
  23307798.77208  23307798.22008  23307800.33308 -10687478.18508  -8327885.59208
  24054006.91607  24054006.29107  24054006.61807  -5061123.13807  -3943731.89407
  22424349.75509  22424349.21409  22424349.61309 -10479123.71809  -8165541.61609
  24561310.04306  24561309.86706  24561312.09706  -1939946.47706  -1511646.32306
  21212830.26409  21212829.86809  21212829.78209 -18646836.18409 -14529999.54509
  3 10 28  0  0 30.0000000  0  8G03G11G14G15G20G23G25G31
  22704760.30209  22704760.04409  22704760.86409 -11581781.71209  -9024761.75009
  21921941.35409  21921941.35209  21921940.25409 -16981139.04409 -13232050.86309
  20828176.38509  20828176.15509  20828175.10309 -19673554.61209 -15330034.86609
  23324830.11007  23324829.58107  23324831.67207 -10597976.66707  -8258144.17907
  24038105.56307  24038104.95507  24038105.13807  -5144683.79407  -4008844.06207
  22436584.65209  22436584.19009  22436584.63709 -10414828.68209  -8115441.60109
  24545195.56207  24545195.54107  24545196.52607  -2024632.90007  -1577635.72807
  21222657.43209  21222657.05509  21222656.78509 -18595194.40009 -14489759.20209
  3 10 28  0  1  0.0000000  0  8G03G11G14G15G20G23G25G31
  22723107.36909  22723107.03509  22723107.50009 -11485368.65309  -8949634.71109
  21907763.32809  21907763.34909  21907762.22509 -17055645.00709 -13290107.44909
  20832771.78109  20832771.61209  20832770.56209 -19649404.97909 -15311216.96709
  23341900.33107  23341899.78207  23341901.94207 -10508271.55607  -8188244.12007
  24022229.78007  24022229.32307  24022229.59807  -5228110.73907  -4073852.03707
  22448835.68109  22448835.12409  22448835.75909 -10350448.82109  -8065275.48709
  24529079.39707  24529079.14407  24529080.05707  -2109324.64907  -1643629.32107
  21232581.49109  21232581.06109  21232580.89409 -18543042.98809 -14449121.75109
  3 10 28  0  1 30.0000000  0  8G03G11G14G15G20G23G25G31
  22741496.33109  22741495.90909  22741496.62209 -11388733.73609  -8874334.79409
  21893626.58609  21893626.69309  21893625.54109 -17129933.23409 -13347994.36209
  20837477.04609  20837476.84909  20837475.83109 -19624679.20409 -15291950.12609
  23359010.23407  23359009.88507  23359011.85707 -10418358.35007  -8118181.90207
  24006380.91607  24006380.62007  24006380.66007  -5311398.30007  -4138751.39307
  22461103.80909  22461103.20809  22461103.85109 -10285979.60009  -8015039.73609
  24512963.28407  24512963.61807  24512963.96007  -2194013.94907  -1709620.96307
  21242603.17809  21242602.73509  21242602.59509 -18490378.71209 -14408084.66409
  3 10 28  0  2  0.0000000  0  8G03G11G14G15G20G23G25G31
  22759924.98109  22759924.65009  22759925.37609 -11291890.25709  -8798872.35909
  21879529.82109  21879529.84009  21879528.76909 -17204012.51709 -13405718.46309
  20842289.43009  20842289.25609  20842288.43409 -19599389.24009 -15272243.65709
  23376157.84707  23376157.24707  23376158.98407 -10328248.25607  -8047966.26307
  23990556.14407  23990555.82807  23990556.11007  -5394556.87307  -4203550.24207
  22473386.57309  22473386.04309  22473386.74209 -10221432.60509  -7964743.38109
  24496846.08407  24496845.95707  24496847.19807  -2278708.56907  -1775616.75907
  21252719.97209  21252719.56509  21252719.63309 -18437214.07709 -14366657.68809
  3 10 28  0  2 30.0000000  0  8G03G11G14G15G20G23G25G31
  22778392.57709  22778392.28809  22778393.15209 -11194841.63409  -8723250.07409
  21865473.07409  21865473.10009  21865471.85009 -17277881.82509 -13463278.95309
  20847208.92409  20847208.72809  20847207.88509 -19573537.07909 -15252099.11009
  23393342.38707  23393341.60007  23393343.83207 -10237942.79807  -7977598.39607
  23974756.10307  23974755.68107  23974755.51007  -5477586.87007  -4268248.91407
  22485683.96609  22485683.46509  22485684.12609 -10156809.41509  -7914387.65309
  24480728.87807  24480728.52507  24480730.47407  -2363406.30407  -1841614.97607
  21262931.61209  21262931.24209  21262931.18909 -18383551.82509 -14324842.95709
  3 10 28  0  3  0.0000000  0  8G03G11G14G15G20G23G25G31
  22796899.57109  22796899.26009  22796900.11309 -11097586.91709  -8647467.20209
  21851457.20809  21851457.17409  21851455.85109 -17351535.78809 -13520671.63709
  20852235.76109  20852235.57009  20852234.81009 -19547120.48209 -15231514.74509
  23410564.62307  23410564.19107  23410566.01607 -10147439.23407  -7907076.16607
  23958981.14407  23958980.55607  23958981.00107  -5560484.16607  -4332844.17407
  22497996.51209  22497995.99609  22497996.62709 -10092107.16609  -7863970.32509
  24464612.14407  24464612.21107  24464613.28607  -2448100.86307  -1907610.73707
  21273238.25709  21273237.84809  21273237.73709 -18329390.35309 -14282639.22709
  3 10 28  0  3 30.0000000  0  8G03G11G14G15G20G23G25G31
  22815445.20209  22815444.89109  22815445.72409 -11000129.08709  -8571526.05609
  21837482.63009  21837482.63609  21837481.28509 -17424972.51309 -13577895.05009
  20857369.85509  20857369.61609  20857368.80009 -19520140.80509 -15210491.61709
  23427824.37207  23427823.96007  23427825.87507 -10056738.31807  -7836400.14907
  23943231.98507  23943231.44407  23943231.04307  -5643248.43707  -4397335.78107
  22510323.80009  22510323.27509  22510323.92809 -10027326.74209  -7813492.08109
  24448496.16607  24448496.35107  24448497.27607  -2532789.44607  -1973601.84007
  21283639.63709  21283639.24609  21283638.98009 -18274731.70009 -14240048.08309
  3 10 28  0  4  0.0000000  0  8G03G11G14G15G20G23G25G31
  22834030.64609  22834030.38609  22834031.07909 -10902462.22809  -8495422.02809
  21823551.52709  21823551.54609  21823550.15909 -17498181.51609 -13634941.01609
  20862612.45109  20862612.25209  20862611.39509 -19492590.76809 -15189024.05009
  23445123.67708  23445123.23708  23445124.71408  -9965832.19708  -7765564.23408
  23927509.36207  23927508.88907  23927508.65707  -5725870.67207  -4461716.71307
  22522667.31609  22522666.94909  22522667.63509  -9962460.39309  -7762946.88409
  24432383.08306  24432383.11906  24432384.03706  -2617460.77206  -2039579.46306
  21294136.59009  21294136.14609  21294135.81609 -18219569.48609 -14197064.55309
  3 10 28  0  4 30.0000000  0  8G03G11G14G15G20G23G25G31
  22852654.53309  22852654.23209  22852654.85709 -10804593.15109  -8419160.42109
  21809663.22009  21809663.25709  21809661.86509 -17571165.12009 -13691811.34909
  20867962.67409  20867962.44209  20867961.53909 -19464475.71409 -15167116.21109
  23462460.32908  23462459.85608  23462461.68308  -9874725.66908  -7694572.14808
  23911812.84207  23911812.37007  23911812.41107  -5808354.82507  -4525990.04907
  22535026.36709  22535025.97709  22535026.73209  -9897513.13909  -7712338.64509
  24416273.30906  24416273.33206  24416275.33306  -2702115.95306  -2105544.52306
  21304728.12309  21304727.77209  21304727.48509 -18163909.73809 -14153693.33709
  3 10 28  0  5  0.0000000  0  8G03G11G14G15G20G23G25G31
  22871316.70509  22871316.52709  22871317.23209 -10706522.56009  -8342741.79809
  21795818.49409  21795818.48709  21795817.10209 -17643919.54409 -13748503.09909
  20873420.30909  20873420.18409  20873419.25009 -19435795.19109 -15144767.74809
  23479835.74608  23479835.19508  23479837.21308  -9783417.84708  -7623423.22308
  23896143.42807  23896143.03907  23896143.15107  -5890698.53007  -4590153.94107
  22547401.15809  22547400.61209  22547401.30309  -9832483.96709  -7661666.57109
  24400168.68706  24400168.83606  24400170.16706  -2786750.27106  -2171493.29106
  21315414.59909  21315414.18809  21315413.85409 -18107752.69309 -14109934.61609
  3 10 28  0  5 30.0000000  0  8G03G11G14G15G20G23G25G31
  22890016.36609  22890016.26709  22890016.77609 -10608255.23909  -8266169.87509
  21782017.24209  21782017.31109  21782015.87109 -17716445.08209 -13805016.49909
  20878985.16909  20878984.93009  20878983.93209 -19406552.62809 -15121981.33009
  23497248.81508  23497248.28608  23497249.83908  -9691911.58608  -7552119.66908
  23880500.21707  23880499.62907  23880499.70807  -5972903.58807  -4654209.79907
  22559790.73009  22559790.12009  22559790.97509  -9767375.80109  -7610932.94609
  24384067.82106  24384067.63006  24384069.17006  -2871363.35206  -2237425.54406
  21326194.88609  21326194.45709  21326194.09709 -18051102.60809 -14065791.70509
  3 10 28  0  6  0.0000000  0  8G03G11G14G15G20G23G25G31
  22908752.14909  22908751.89509  22908752.41409 -10509799.10609  -8189450.82609
  21768259.11309  21768259.19609  21768257.63609 -17788745.22109 -13861354.26309
  20884655.41409  20884655.24709  20884654.13409 -19376754.87609 -15098762.29709
  23514698.22507  23514697.72707  23514699.44407  -9600212.73307  -7480666.03707
  23864882.17007  23864882.15407  23864882.08007  -6054974.88807  -4718161.41607
  22572194.26109  22572193.67609  22572194.60009  -9702194.63909  -7560142.44409
  24367969.64006  24367969.36006  24367971.44706  -2955957.33206  -2303342.89506
  21337067.37709  21337066.98909  21337066.70509 -17993966.80909 -14021270.31809
  3 10 28  0  6 30.0000000  0  8G03G11G14G15G20G23G25G31
  22927521.92409  22927521.60709  22927522.29809 -10411163.37409  -8112591.83709
  21754543.09809  21754543.07409  21754541.38009 -17860824.50609 -13917519.94009
  20890429.93309  20890429.71609  20890428.66409 -19346409.87909 -15075116.84009
  23532183.57107  23532183.06107  23532184.69807  -9508328.52407  -7409067.98507
  23849289.27207  23849288.49107  23849288.98307  -6136918.46607  -4782013.52507
  22584610.24909  22584609.66809  22584610.66409  -9636947.70009  -7509300.68609
  24351875.15806  24351875.17006  24351875.90906  -3040535.74106  -2369248.13206
  21348030.86309  21348030.47609  21348030.07609 -17936353.93609 -13976377.18309
  3 10 28  0  7  0.0000000  0  8G03G11G14G15G20G23G25G31
  22946327.70809  22946327.52509  22946328.21709 -10312338.20809  -8035585.22909
  21740871.58309  21740871.57509  21740869.90509 -17932668.57409 -13973502.33409
  20896310.53609  20896310.34509  20896309.36109 -19315506.56609 -15051036.33209
  23549706.47307  23549705.84507  23549707.10007  -9416247.36407  -7337316.45507
  23833722.58907  23833721.95307  23833722.24007  -6218721.41007  -4845756.04107
  22597040.90709  22597040.48709  22597041.42709  -9571623.29909  -7458398.56409
  24335786.42206  24335786.52606  24335787.51106  -3125083.29306  -2435129.31206
  21359087.06009  21359086.62109  21359086.27909 -17878253.67609 -13931104.26209
  3 10 28  0  7 30.0000000  0  8G03G11G14G15G20G23G25G31
  22965167.60409  22965167.37709  22965168.36709 -10213332.66109  -7958438.07209
  21727243.97009  21727244.03209  21727242.47109 -18004281.48709 -14029304.60209
  20902296.19309  20902295.95509  20902294.92909 -19284052.36409 -15026526.56009
  23567264.40907  23567264.01707  23567265.72607  -9323976.19107  -7265416.86607
  23818181.64407  23818181.12407  23818181.14407  -6300389.70107  -4909393.62607
  22609485.33309  22609484.86009  22609485.70309  -9506228.42509  -7407441.52509
  24319702.75906  24319702.30406  24319703.70506  -3209603.48106  -2500989.17306
  21370234.00909  21370233.65909  21370233.62709 -17819674.31609 -13885458.02309
  3 10 28  0  8  0.0000000  0  8G03G11G14G15G20G23G25G31
  22984042.18009  22984041.70009  22984042.75609 -10114146.71509  -7881150.34609
  21713661.36709  21713661.34209  21713659.65109 -18075659.11309 -14084923.53009
  20908386.57509  20908386.43609  20908385.49509 -19252046.22609 -15001586.70809
  23584859.82307  23584859.35907  23584860.85307  -9231513.16907  -7193367.78907
  23802666.79807  23802666.72207  23802666.11007  -6381920.39007  -4972924.01307
  22621943.55309  22621942.98209  22621943.67009  -9440761.30309  -7356428.19809
  24303625.44306  24303625.13406  24303626.54906  -3294090.79906  -2566823.41206
  21381472.81509  21381472.44309  21381472.09009 -17760615.51709 -13839438.19409
  3 10 28  0  8 30.0000000  0  8G03G11G14G15G20G23G25G31
  23002951.79809  23002951.49209  23002952.30809 -10014775.78409  -7803718.47109
  21700125.18709  21700125.18509  21700123.46409 -18146792.25409 -14140351.95009
  20914583.35209  20914583.07009  20914582.07809 -19219482.64609 -14976212.48609
  23602492.83907  23602492.33507  23602493.71707  -9138852.05407  -7121164.35107
  23787179.63407  23787179.15207  23787179.06907  -6463305.68107  -5036341.08807
  22634416.52209  22634415.90309  22634416.59009  -9375215.51809  -7305353.57409
  24287555.41806  24287555.41306  24287557.09606  -3378535.49306  -2632624.46306
  21392803.49009  21392803.14209  21392802.76609 -17701072.18809 -13793040.80109
  3 10 28  0  9  0.0000000  0  8G03G11G14G15G20G23G25G31
  23021895.11809  23021894.96209  23021895.76909  -9915227.62909  -7726148.50009
  21686634.89809  21686634.88909  21686633.24409 -18217683.89509 -14195592.19209
  20920884.62609  20920884.46909  20920883.73409 -19186367.91909 -14950408.80009
  23620162.01707  23620161.47107  23620162.87707  -9045998.46507  -7048810.93407
  23771719.31307  23771718.99007  23771718.88507  -6544550.14007  -5099648.41507
  22646903.31509  22646902.72309  22646903.50309  -9309596.72309  -7254222.05709
  24271494.01807  24271494.08007  24271495.29107  -3462939.33307  -2698393.65107
  21404224.93509  21404224.60009  21404224.45309 -17641051.45809 -13746271.41909
  3 10 28  0  9 30.0000000  0  8G03G11G14G15G20G23G25G31
  23040869.51009  23040869.21309  23040870.18109  -9815516.40109  -7648451.45609
  21673188.72309  21673188.75209  21673187.34509 -18288343.35409 -14250651.50709
  20927288.72109  20927288.50109  20927287.63909 -19152715.07009 -14924185.79909
  23637865.89307  23637865.26307  23637866.74707  -8952964.55907  -6976317.00407
  23756283.89007  23756283.44907  23756283.34107  -6625665.18407  -5162854.91407
  22659401.89709  22659401.25809  22659401.94709  -9243917.01109  -7203043.07209
  24255439.47307  24255439.53607  24255440.27907  -3547310.50507  -2764137.41607
  21415734.89609  21415734.49109  21415734.22609 -17580566.89209 -13699140.60209
  3 10 28  0 10  0.0000000  0  8G03G11G14G15G20G23G25G31
  23059876.89109  23059876.60709  23059877.71509  -9715631.44809  -7570619.04509
  21659789.55109  21659789.53709  21659788.20909 -18358755.94009 -14305518.45109
  20933797.13909  20933796.99809  20933796.09309 -19118512.48109 -14897534.42809
  23655606.33307  23655605.50507  23655607.10207  -8859738.07807  -6903673.02507
  23740875.10907  23740874.35907  23740874.82807  -6706637.13907  -5225949.90907
  22671914.17309  22671913.75209  22671914.31809  -9178164.09909  -7151807.04909
  24239393.24407  24239393.24007  24239393.55407  -3631633.59007  -2829843.69707
  21427334.95909  21427334.58009  21427334.52609 -17519607.73509 -13651639.96609
  3 10 28  0 10 30.0000000  0  8G03G11G14G15G20G23G25G31
  23078917.17309  23078916.92609  23078917.77209  -9615576.15109  -7492653.89909
  21646437.62409  21646437.63009  21646436.43509 -18428920.12209 -14360191.82909
  20940410.04209  20940409.84309  20940408.91809 -19083762.41809 -14870456.45109
  23673383.39807  23673382.74107  23673383.82307  -8766320.17907  -6830879.90007
  23725493.57807  23725493.25107  23725493.50607  -6787466.14607  -5288933.50807
  22684440.16209  22684439.76209  22684440.30709  -9112339.15309  -7100514.89309
  24223356.33807  24223356.44507  24223357.19007  -3715906.00907  -2895510.50807
  21439024.87509  21439024.37809  21439024.62409 -17458176.71709 -13603771.65209
  3 10 28  0 11  0.0000000  0  8G03G11G14G15G20G23G25G31
  23097987.83609  23097987.54909  23097988.29109  -9515360.49909  -7414563.79609
  21633132.10209  21633132.14709  21633130.88409 -18498841.22109 -14414675.79409
  20947125.23209  20947125.08909  20947124.19509 -19048473.47709 -14842958.57209
  23691194.97707  23691194.55507  23691195.60207  -8672718.99907  -6757943.93907
  23710137.92207  23710137.64407  23710138.10407  -6868159.07207  -5351811.08007
  22696978.66009  22696978.21709  22696978.62709  -9046449.97409  -7049172.68609
  24207328.51807  24207328.54207  24207329.22407  -3800132.18807  -2961141.28407
  21450802.58109  21450802.20609  21450802.63709 -17396283.33609 -13555543.05709
  3 10 28  0 11 30.0000000  0  8G03G11G14G15G20G23G25G31
  23117088.46909  23117088.31809  23117089.03609  -9414985.54909  -7336349.57109
  21619873.55909  21619873.57509  21619872.12509 -18568515.88609 -14468967.73609
  20953943.04509  20953942.79709  20953941.95809 -19012645.81009 -14815040.90109
  23709042.08207  23709041.39307  23709042.31807  -8578934.00807  -6684864.74107
  23694809.29607  23694808.68807  23694808.79007  -6948714.31007  -5414581.36407
  22709529.46709  22709528.98009  22709529.24609  -8980495.92209  -6997779.92809
  24191311.07607  24191311.16007  24191311.08507  -3884307.54007  -3026732.44207
  21462668.22009  21462667.78609  21462668.25409 -17333928.32009 -13506954.74709
  3 10 28  0 12  0.0000000  0  8G03G11G14G15G20G23G25G31
  23136217.93609  23136217.64009  23136218.58809  -9314459.44709  -7258017.57209
  21606661.17209  21606661.16609  21606659.69809 -18637947.73909 -14523070.47509
  20960861.83609  20960861.65409  20960860.91609 -18976286.50009 -14786708.96809
  23726922.33107  23726921.91507  23726922.96207  -8484971.46807  -6611647.20907
  23679505.19907  23679504.80707  23679504.85907  -7029136.76407  -5477248.18407
  22722091.30409  22722090.79109  22722091.08709  -8914483.20509  -6946341.46009
  24175302.27307  24175302.26207  24175302.51107  -3968434.54807  -3092285.93807
  21474620.35909  21474619.90909  21474620.23409 -17271119.48909 -13458012.81409
  3 10 28  0 12 30.0000000  0  8G03G11G14G15G20G23G25G31
  23155377.56408  23155377.29308  23155378.22908  -9213773.73908  -7179561.20408
  21593497.44909  21593497.49709  21593496.03609 -18707123.48009 -14576973.64709
  20967883.86909  20967883.66809  20967882.75909 -18939385.94609 -14757955.28409
  23744838.67007  23744838.33307  23744838.96007  -8390820.98307  -6538283.22207
  23664228.70107  23664228.32907  23664228.65907  -7109414.67107  -5539802.35207
  22734666.29709  22734665.74509  22734666.01309  -8848401.16009  -6894848.96909
  24159304.55607  24159304.72607  24159304.97007  -4052499.21307  -3157790.85307
  21486660.57509  21486660.15709  21486660.55009 -17207847.85809 -13408710.25309
  3 10 28  0 13  0.0000000  0  8G03G11G14G15G20G23G25G31
  23174566.84208  23174566.62608  23174567.36508  -9112933.70708  -7100984.58708
  21580382.32909  21580382.30709  21580380.83809 -18776044.08909 -14630678.01309
  20975007.96709  20975007.77909  20975006.95409 -18901948.52009 -14728783.25909
  23762790.04607  23762789.29807  23762790.60407  -8296486.14907  -6464775.57407
  23648979.37207  23648978.88007  23648978.78607  -7189550.75507  -5602246.01507
  22747253.61509  22747253.15809  22747253.55809  -8782253.28809  -6843305.18109
  24143319.82807  24143320.08607  24143319.10507  -4136501.44607  -3223247.11807
  21498787.68409  21498787.30509  21498787.85209 -17144118.50509 -13359051.02909
  3 10 28  0 13 30.0000000  0  8G03G11G14G15G20G23G25G31
  23193785.88008  23193785.82508  23193786.62908  -9011936.27108  -7022285.30508
  21567317.19009  21567317.19009  21567315.66909 -18844701.75409 -14684177.48909
  20982234.96709  20982234.78409  20982233.97809 -18863970.32909 -14699189.85709
  23780777.33307  23780776.78307  23780778.01807  -8201962.01107  -6391120.42907
  23633758.21207  23633757.99807  23633757.51607  -7269538.87207  -5664574.39207
  22759854.63709  22759854.17409  22759854.59209  -8716034.49809  -6791706.13409
  24127347.84107  24127347.76907  24127347.52907  -4220432.68507  -3288648.06607
  21511002.91409  21511002.41809  21511002.83509 -17079927.99309 -13309032.46409
  3 10 28  0 14  0.0000000  0  8G03G11G14G15G20G23G25G31
  23213033.97408  23213033.81408  23213034.90908  -8910785.94508  -6943466.89008
  21554302.15009  21554302.22309  21554300.74809 -18913095.85209 -14737471.58809
  20989564.25909  20989564.09209  20989563.13809 -18825454.62909 -14669177.61909
  23798800.43307  23798799.80007  23798800.95307  -8107250.91407  -6317319.60107
  23618564.64807  23618564.17407  23618564.30807  -7349380.17707  -5726788.36707
  22772468.65509  22772468.18509  22772468.68809  -8649747.15409  -6740053.66709
  24111390.12307  24111390.02307  24111389.62107  -4304291.54807  -3353992.61807
  21523304.92309  21523304.50609  21523304.98809 -17015280.30309 -13258657.64509
  3 10 28  0 14 30.0000000  0  8G03G11G14G15G20G23G25G31
  23232309.35508  23232309.08008  23232310.11208  -8809493.65008  -6864537.84808
  21541336.18809  21541336.17209  21541334.63409 -18981233.22509 -14790565.64209
  20996993.93109  20996993.75709  20996992.83009 -18786411.47309 -14638754.37509
  23816857.21407  23816856.68107  23816858.23807  -8012362.37407  -6243380.49607
  23603397.83708  23603397.38708  23603397.49708  -7429082.84208  -5788894.30908
  22785093.99409  22785093.55809  22785093.94809  -8583400.39809  -6688354.90509
  24095445.57207  24095445.37307  24095444.55407  -4388083.55807  -3419285.08907
  21535691.79009  21535691.31809  21535692.06109 -16950186.38009 -13207935.12109
  3 10 28  0 15  0.0000000  0  8G03G11G14G15G20G23G25G31
  23251609.18708  23251609.09808  23251610.26708  -8708071.50908  -6785507.62208
  21528417.46809  21528417.56109  21528415.97009 -19049121.14809 -14843465.32109
  21004521.80809  21004521.68009  21004520.70509 -18746851.83409 -14607928.67909
  23834945.72107  23834945.01907  23834946.97807  -7917306.26407  -6169310.82307
  23588255.80308  23588255.46208  23588255.09908  -7508655.69508  -5850899.10708
  22797729.01509  22797728.45309  22797728.86409  -8517003.93509  -6636617.40609
  24079511.36507  24079511.24607  24079511.05507  -4471814.99807  -3484530.36407
  21548161.56209  21548161.18709  21548161.66109 -16884657.66209 -13156873.79709
  3 10 28  0 15 30.0000000  0  8G03G11G14G15G20G23G25G31
  23270936.24108  23270935.94408  23270937.31608  -8606507.58008  -6706366.92008
  21515549.35309  21515549.43809  21515547.84509 -19116743.24909 -14896157.86409
  21012150.55609  21012150.41909  21012149.38109 -18706762.65509 -14576690.35209
  23853068.25207  23853068.00507  23853070.43507  -7822068.73707  -6095099.78707
  23573140.93908  23573140.47108  23573140.25208  -7588083.95908  -5912791.24608
  22810375.95209  22810375.51309  22810375.76709  -8450543.80309  -6584830.29909
  24063592.45307  24063592.30307  24063591.53607  -4555468.25007  -3549714.71307
  21560716.54809  21560716.04009  21560716.49609 -16818681.92109 -13105464.14509
  3 10 28  0 16  0.0000000  0  8G03G11G14G15G20G23G25G31
  23290290.90408  23290290.72008  23290291.99008  -8504797.66608  -6627112.46708
  21502733.69209  21502733.76909  21502732.11909 -19184090.27809 -14948636.07009
  21019880.99309  21019880.86009  21019879.82009 -18666139.04309 -14545035.58509
  23871226.99707  23871226.38907  23871228.87407  -7726643.83807  -6020742.74907
  23558055.38508  23558054.76608  23558054.48108  -7667360.08808  -5974564.83308
  22823036.28709  22823035.86409  22823036.09609  -8384013.72809  -6532988.68609
  24047691.18307  24047690.94207  24047689.12907  -4639033.46307  -3614830.46907
  21573357.15209  21573356.77009  21573357.26409 -16752254.62309 -13053702.63309
  3 10 28  0 16 30.0000000  0  8G03G11G14G15G20G23G25G31
  23309669.72908  23309669.58008  23309670.66408  -8402962.22208  -6547760.19708
  21489967.22809  21489967.27209  21489965.68509 -19251178.42009 -15000912.54109
  21027709.39409  21027709.29209  21027708.19609 -18625000.35309 -14512979.46009
  23889418.43307  23889418.19707  23889419.65607  -7631050.28107  -5946254.27007
  23542995.41208  23542994.76908  23542994.49808  -7746501.79808  -6036233.65308
  22835706.38109  22835705.91909  22835706.09609  -8317432.06109  -6481106.87509
  24031803.06107  24031802.88607  24031802.20707  -4722525.92207  -3679889.50907
  21586080.06009  21586079.57509  21586079.86009 -16685395.96809 -13001604.99509
  3 10 28  0 17  0.0000000  0  8G03G11G14G15G20G23G25G31
  23329073.26408  23329072.93408  23329074.03408  -8300997.01008  -6468306.81108
  21477251.72509  21477251.80909  21477250.10609 -19317998.81009 -15052980.37709
  21035636.72809  21035636.59509  21035635.57709 -18583341.91809 -14480518.33909
  23907642.13707  23907641.62207  23907643.66907  -7535282.41807  -5871629.97907
  23527962.06908  23527961.43508  23527960.91108  -7825502.18008  -6097792.37008
  22848387.51109  22848386.93809  22848387.17609  -8250792.97209  -6429180.32009
  24015930.73007  24015930.35407  24015930.60807  -4805935.68607  -3744884.10507
  21598885.77209  21598885.42609  21598885.52809 -16618101.74509 -12949167.94909
  3 10 28  0 17 30.0000000  0  8G03G11G14G15G20G23G25G31
  23348502.02508  23348501.65708  23348502.50308  -8198899.25108  -6388750.13408
  21464588.70009  21464588.71609  21464586.99009 -19384543.95009 -15104833.73509
  21043663.79509  21043663.59009  21043662.51709 -18541159.79109 -14447649.14609
  23925900.25907  23925899.92207  23925901.36907  -7439335.48007  -5796866.14407
  23512956.34508  23512955.70108  23512955.84108  -7904354.93708  -6159236.04608
  22861080.29809  22861079.79509  22861080.10009  -8184091.38009  -6377205.06909
  24000075.16107  24000074.97507  24000075.16207  -4889254.34007  -3809807.70907
  21611774.99909  21611774.56209  21611774.82309 -16550368.77609 -12896389.02309
  3 10 28  0 18  0.0000000  0  8G03G11G14G15G20G23G25G31
  23367954.98608  23367954.80108  23367955.45108  -8096673.02908  -6309093.35908
  21451978.19309  21451978.18709  21451976.34709 -19450813.36909 -15156472.25009
  21051789.73309  21051789.63309  21051788.51909 -18498457.36309 -14414374.52709
  23944191.82807  23944191.39607  23944193.63007  -7343211.71307  -5721964.52507
  23497979.04208  23497978.41808  23497978.27608  -7983061.46808  -6220565.77908
  22873784.55909  22873784.11809  22873784.50109  -8117329.42209  -6325182.77109
  23984237.86107  23984237.54807  23984237.29807  -4972480.54207  -3874659.28407
  21624746.91609  21624746.48309  21624746.77109 -16482201.05809 -12843271.33509
  3 10 28  0 18 30.0000000  0  8G03G11G14G15G20G23G25G31
  23387432.61308  23387432.23608  23387433.26808  -7994316.85308  -6229335.30908
  21439421.08209  21439421.16909  21439419.30009 -19516800.93609 -15207891.13809
  21060015.30209  21060015.11309  21060014.03009 -18455232.10209 -14380692.50109
  23962517.94707  23962517.46807  23962519.76207  -7246907.69707  -5646922.46207
  23483030.18008  23483029.74308  23483029.45708  -8061617.05708  -6281777.90108
  22886501.02809  22886500.69309  22886501.14409  -8050503.22909  -6273110.41309
  23968419.50107  23968419.47207  23968419.03007  -5055606.81107  -3939432.99107
  21637801.95409  21637801.51709  21637801.57309 -16413596.61809 -12789813.34309
  3 10 28  0 19  0.0000000  0  8G03G11G14G15G20G23G25G31
  23406931.86808  23406931.49208  23406932.71708  -7891847.06108  -6149488.74008
  21426915.48409  21426915.47709  21426913.63209 -19582518.32609 -15259099.49809
  21068337.31209  21068337.12709  21068335.95309 -18411499.65109 -14346615.26709
  23980875.59107  23980874.85607  23980877.21107  -7150438.11707  -5571751.39707
  23468107.79508  23468107.21708  23468107.28908  -8140035.29208  -6342882.98808
  22899227.10409  22899226.78809  22899227.09509  -7983627.36709  -6220999.36109
  23952617.87707  23952617.68107  23952617.97007  -5138643.87707  -4004137.19007
  21650936.98409  21650936.58109  21650936.74109 -16344571.84709 -12736027.82209
  3 10 28  0 19 30.0000000  0  8G03G11G14G15G20G23G25G31
  23426453.33908  23426452.94608  23426454.16008  -7789260.96808  -6069551.53308
  21414462.54209  21414462.67209  21414460.78409 -19647958.48709 -15310091.83409
  21076756.49609  21076756.32309  21076755.15209 -18367256.64209 -14312140.19209
  23999265.38207  23999265.19507  23999266.89507  -7053798.69407  -5496447.96807
  23453212.72008  23453212.27108  23453212.45908  -8218310.49708  -6403876.62808
  22911963.67409  22911963.25109  22911963.46709  -7916696.99909  -6168845.83709
  23936835.57407  23936835.32407  23936836.01507  -5221583.63507  -4068765.56507
  21664152.62109  21664152.17309  21664152.48309 -16275123.77309 -12681912.45809
  3 10 28  0 20  0.0000000  0  8G03G11G14G15G20G23G25G31
  23445997.75308  23445997.53908  23445998.56408  -7686554.33908  -5989520.42608
  21402064.19309  21402064.27709  21402062.38609 -19713112.29609 -15360861.03909
  21085273.90109  21085273.64709  21085272.56809 -18322497.71309 -14277263.10209
  24017688.56307  24017688.36607  24017690.04807  -6956983.30007  -5421007.42707
  23438346.03808  23438345.57808  23438345.51908  -8296435.11908  -6464752.92608
  22924711.66409  22924711.35609  22924711.38209  -7849705.83909  -6116644.94409
  23921072.49007  23921072.26107  23921073.26807  -5304416.02607  -4133310.28607
  21677449.50409  21677449.21009  21677449.28209 -16205247.87609 -12627463.72509
  3 10 28  0 20 30.0000000  0  8G03G11G14G15G20G23G25G31
  23465562.81808  23465562.52208  23465563.67108  -7583738.66308  -5909404.33008
  21389719.17609  21389719.19909  21389717.30909 -19777986.38509 -15411412.27609
  21093887.12309  21093887.01809  21093885.84009 -18277233.79709 -14241992.51809
  24036143.84207  24036143.23507  24036145.15307  -6860001.53207  -5345437.24007
  23423506.43708  23423506.02508  23423505.52808  -8374417.87508  -6525518.67508
  22937469.52709  22937469.11109  22937469.06309  -7782663.05009  -6064403.81709
  23905328.87907  23905329.01307  23905329.91007  -5387146.97307  -4197775.94007
  21690825.81209  21690825.38509  21690825.29309 -16134955.62109 -12572690.55109
  3 10 28  0 21  0.0000000  0  8G03G11G14G15G20G23G25G31
  23485147.51808  23485147.39708  23485148.41608  -7480820.59808  -5829208.45708
  21377426.82709  21377426.92109  21377425.09109 -19842582.86209 -15461747.19509
  21102595.78009  21102595.59509  21102594.32509 -18231470.71609 -14206332.97209
  24054630.22007  24054629.60107  24054631.76707  -6762858.35307  -5269741.26607
  23408693.33508  23408692.79808  23408692.47208  -8452262.23908  -6586176.59108
  22950236.34809  22950235.88809  22950236.04609  -7715573.07909  -6012125.92509
  23889605.64607  23889605.50807  23889605.99707  -5469777.66307  -4262163.49007
  21704280.09109  21704279.62909  21704279.60109 -16064253.27009 -12517597.82409
  3 10 28  0 21 30.0000000  0  8G03G11G14G15G20G23G25G31
  23504752.71408  23504752.49308  23504753.35208  -7377796.52808  -5748929.98308
  21365188.90909  21365188.91209  21365187.12609 -19906893.85509 -15511859.65909
  21111399.90509  21111399.81809  21111398.53909 -18185204.03909 -14170281.01309
  24073147.53307  24073146.95107  24073148.89007  -6665548.36907  -5193915.31907
  23393907.13108  23393906.75008  23393906.45308  -8529962.03808  -6646721.85108
  22963013.13709  22963012.75809  22963012.91109  -7648430.46209  -5959807.01609
  23873901.80807  23873901.79007  23873903.13707  -5552298.77707  -4326465.65307
  21717812.99809  21717812.60509  21717812.61309 -15993137.28709 -12462182.78509
  3 10 28  0 22  0.0000000  0  8G03G11G14G15G20G23G25G31
  23524378.71908  23524378.45908  23524379.04708  -7274661.99308  -5668565.42208
  21353006.89109  21353006.92909  21353005.22409 -19970909.89409 -15561742.28909
  21120301.17709  21120300.90609  21120299.56209 -18138428.68709 -14133832.68509
  24091697.60307  24091697.43707  24091698.80907  -6568065.63107  -5117954.75407
  23379150.46708  23379150.09308  23379149.89508  -8607509.54108  -6707148.45108
  22975801.29209  22975800.94609  22975801.08209  -7581228.57809  -5907441.92109
  23858220.81907  23858220.94107  23858222.54307  -5634700.32607  -4390674.61907
  21731425.38909  21731425.02509  21731425.08909 -15921603.11309 -12406441.88809
  3 10 28  0 22 30.0000000  0  8G03G11G14G15G20G23G25G31
  23544023.12908  23544022.78808  23544023.26908  -7171429.55608  -5588124.57608
  21340879.83709  21340879.82009  21340877.98809 -20034638.86109 -15611401.22509
  21129296.65409  21129296.53109  21129295.28109 -18091156.29709 -14096997.05409
  24110278.63107  24110278.13707  24110279.92007  -6470420.69207  -5041867.80807
  23364420.84308  23364420.23108  23364420.21208  -8684914.12808  -6767463.68908
  22988598.82609  22988598.42709  22988598.49509  -7513977.68709  -5855038.63909
  23842562.27507  23842562.21407  23842563.52507  -5716989.23807  -4454795.82907
  21745115.22309  21745114.80809  21745114.88209 -15849663.00709 -12350384.68009
  3 10 28  0 23  0.0000000  0  8G03G11G14G15G20G23G25G31
  23563686.30208  23563685.82208  23563686.68108  -7068098.82308  -5507607.14508
  21328808.11209  21328808.15609  21328806.34009 -20098075.92809 -15660832.71109
  21138387.09909  21138386.92909  21138385.73809 -18043385.77609 -14059773.26809
  24128891.12407  24128890.64107  24128892.49507  -6372611.50507  -4965652.87607
  23349719.14708  23349718.61008  23349718.61008  -8762172.63608  -6827665.09408
  23001406.13509  23001405.70809  23001405.63709  -7446675.29409  -5802595.22209
  23826925.62207  23826925.48107  23826926.79807  -5799159.48607  -4518824.58207
  21758882.17009  21758881.80409  21758881.93409 -15777316.60909 -12294010.87909
  3 10 28  0 23 30.0000000  0  8G03G11G14G15G20G23G25G31
  23583366.51608  23583366.29708  23583366.94308  -6964677.73508  -5427019.30108
  21316791.21709  21316791.22909  21316789.67609 -20161224.61509 -15710039.48409
  21147570.87909  21147570.69709  21147569.50409 -17995124.57009 -14022167.13409
  24147533.80506  24147533.25006  24147535.53406  -6274644.32506  -4889314.82906
  23335044.33808  23335043.61508  23335043.35108  -8839290.14208  -6887756.63408
  23014222.16309  23014221.56709  23014221.56109  -7379327.25309  -5750116.24009
  23811311.10107  23811311.20807  23811312.64907  -5881213.22407  -4582762.53607
  21772725.02709  21772724.58409  21772724.79509 -15704571.75909 -12237326.59009
  3 10 28  0 24  0.0000000  0  8G03G11G14G15G20G23G25G31
  23603068.13208  23603067.77308  23603068.54808  -6861147.32708  -5346346.25708
  21304833.75609  21304833.71609  21304832.21509 -20224061.40709 -15759003.21509
  21156851.87709  21156851.67309  21156850.53909 -17946353.19609 -13984163.46309
  24166210.12506  24166209.84906  24166212.19406  -6176498.43106  -4812837.53506
  23320400.35908  23320399.86208  23320399.63608  -8916244.64608  -6947721.16208
  23027050.58409  23027050.12809  23027050.18809  -7311912.51809  -5697585.28909
  23795724.05007  23795723.98907  23795725.06407  -5963125.91007  -4646590.59607
  21786647.38309  21786646.95909  21786647.19609 -15631409.51809 -12180317.06509
  3 10 28  0 24 30.0000000  0  8G03G11G14G15G20G23G25G31
  23622784.68208  23622784.27008  23622785.12508  -6757536.18208  -5265610.31808
  21292931.19009  21292931.21709  21292929.60509 -20286610.00009 -15807742.38209
  21166224.56409  21166224.35909  21166223.19309 -17897099.44109 -13945783.91209
  24184916.40607  24184916.12507  24184917.75707  -6078200.63907  -4736241.88107
  23305782.52308  23305782.03608  23305781.63208  -8993061.88908  -7007578.72608
  23039886.71009  23039886.27309  23039886.48909  -7244457.65109  -5645023.07009
  23780158.87507  23780158.38007  23780159.88707  -6044920.89207  -4710326.93507
  21800643.58209  21800643.27209  21800643.44809 -15557858.43509 -12123004.55009
  3 10 28  0 25  0.0000000  0  8G03G11G14G15G20G23G25G31
  23642517.25308  23642517.06608  23642517.83608  -6653840.52808  -5184808.52908
  21281085.17709  21281085.11409  21281083.45509 -20348861.82709 -15856250.30309
  21175689.82709  21175689.55709  21175688.43209 -17847358.75109 -13907024.93209
  24203651.02906  24203650.47406  24203653.03706  -5979745.57606  -4659523.67606
  23291192.01909  23291191.73309  23291191.20009  -9069734.95509  -7067323.94209
  23052731.91109  23052731.37709  23052731.58909  -7176956.58909  -5592424.85109
  23764617.92707  23764617.85707  23764619.01207  -6126588.59607  -4773964.09707
  21814714.76709  21814714.37509  21814714.36009 -15483914.56609 -12065385.96009
  3 10 28  0 25 30.0000000  0  8G03G11G14G15G20G23G25G31
  23662266.19208  23662266.00108  23662266.79308  -6550059.49108  -5103940.19608
  21269296.56409  21269296.59509  21269294.88109 -20410811.58009 -15904522.84409
  21185248.03709  21185247.80909  21185246.77109 -17797129.63909 -13867885.36309
  24222416.70106  24222416.22906  24222418.26006  -5881130.79206  -4582681.00906
  23276629.78709  23276629.41509  23276629.32009  -9146260.00309  -7126953.82309
  23065586.24709  23065585.80109  23065585.82409  -7109406.36209  -5539788.32009
  23749102.19107  23749101.96107  23749103.30607  -6208122.34407  -4837496.87707
  21828860.68409  21828860.28309  21828860.49609 -15409576.92309 -12007460.54409
  3 10 28  0 26  0.0000000  0  8G03G11G14G15G20G23G25G31
  23682030.99308  23682030.66708  23682031.88708  -6446193.43208  -5023005.62608
  21257566.26209  21257566.26209  21257564.58209 -20472455.19509 -15952556.83409
  21194899.08009  21194898.88909  21194897.96109 -17746412.02809 -13828365.14809
  24241213.57106  24241212.92306  24241214.55806  -5782354.97806  -4505712.84706
  23262096.27009  23262095.92909  23262095.42709  -9222634.78409  -7186466.60909
  23078450.36509  23078449.78809  23078449.91409  -7041805.33809  -5487112.20609
  23733613.36507  23733613.24107  23733614.86107  -6289516.94307  -4900921.24707
  21843081.52209  21843081.10409  21843081.21909 -15334846.08009 -11949228.73309
  3 10 28  0 26 30.0000000  0  8G03G11G14G15G20G23G25G31
  23701810.45207  23701810.26107  23701811.28307  -6342251.60807  -4942012.01907
  21245893.30209  21245893.27609  21245891.65509 -20533796.90609 -16000355.57409
  21204641.71309  21204641.53409  21204640.47509 -17695214.52609 -13788470.99109
  24260039.72507  24260039.52207  24260040.48007  -5683425.53407  -4428624.98407
  23247590.09609  23247589.64509  23247589.37509  -9298865.41909  -7245867.07609
  23091322.80509  23091322.24709  23091322.33009  -6974160.25909  -5434401.76709
  23718150.44207  23718150.47107  23718151.73107  -6370776.29707  -4964240.21307
  21857375.37809  21857375.03809  21857375.09609 -15259731.08409 -11890697.58009
  3 10 28  0 27  0.0000000  0  8G03G11G14G15G20G23G25G31
  23721605.90008  23721605.75108  23721606.61508  -6238226.52308  -4860953.54208
  21234279.93709  21234279.99209  21234278.37209 -20594824.88409 -16047909.84609
  21214477.15709  21214477.00609  21214475.89609 -17643528.98809 -13748196.54509
  24278895.53106  24278895.03706  24278897.61706  -5584333.55406  -4351410.47806
  23233113.24709  23233112.86809  23233112.61309  -9374941.37909  -7305147.01309
  23104205.50009  23104204.96309  23104204.98809  -6906461.61009  -5381649.58409
  23702715.38607  23702715.42807  23702716.32207  -6451887.20607  -5027443.50007
  21871743.67109  21871743.31709  21871743.52909 -15184224.54109 -11831861.33009
  3 10 28  0 27 30.0000000  0  8G03G11G14G15G20G23G25G31
  23741415.53808  23741415.38108  23741416.23308  -6134125.93208  -4779836.21608
  21222725.70109  21222725.73209  21222724.21309 -20655542.15009 -16095222.00709
  21224404.17609  21224403.92209  21224402.66509 -17591362.90009 -13707547.64509
  24297781.94006  24297781.57906  24297784.06006  -5485085.03106  -4274073.98806
  23218665.31909  23218664.75909  23218664.35409  -9450867.56909  -7364310.24209
  23117097.27609  23117096.77009  23117096.80609  -6838715.00509  -5328860.03209
  23687308.40107  23687308.33007  23687309.09407  -6532852.25807  -5090533.14607
  21886185.09609  21886184.60809  21886185.05509 -15108334.21709 -11772726.02809
  3 10 28  0 28  0.0000000  0  8G03G11G14G15G20G23G25G31
  23761236.54108  23761236.10308  23761236.73008  -6029967.19508  -4698673.58708
  21211228.10109  21211228.20009  21211226.76209 -20715961.69409 -16142302.17309
  21234419.06109  21234418.92109  21234417.88609 -17538732.94609 -13666537.28909
  24316695.68207  24316695.35007  24316696.57507  -5385695.71707  -4196627.78207
  23204242.66209  23204242.25609  23204241.77209  -9526658.50609  -7423368.09309
  23129995.17409  23129994.78109  23129994.76909  -6770935.75809  -5276045.05109
  23671926.95807  23671927.00507  23671928.08907  -6613682.90007  -5153518.05307
  21900696.24909  21900695.82609  21900696.24509 -15032077.59709 -11713305.29909
  3 10 28  0 28 30.0000000  0  8G03G11G14G15G20G23G25G31
  23781071.99708  23781071.51908  23781071.96708  -5925732.05208  -4617451.40808
  21199791.60809  21199791.71209  21199790.42209 -20776060.40809 -16189132.34109
  21244526.06709  21244525.96109  21244524.90509 -17485620.19109 -13625150.72609
  24335639.33607  24335639.23207  24335640.01007  -5286145.58207  -4119056.25707
  23189849.80509  23189849.53109  23189848.82409  -9602292.93209  -7482303.98709
  23142903.14409  23142902.71709  23142903.06609  -6703103.27809  -5223188.59209
  23656575.59107  23656575.51907  23656576.40907  -6694355.01407  -5216379.41707
  21915280.65109  21915280.19409  21915280.59009 -14955436.36309 -11653584.87209
  3 10 28  0 29  0.0000000  0  8G03G11G14G15G20G23G25G31
  23800919.54108  23800918.90508  23800919.99308  -5821431.75008  -4536178.46008
  21188415.15809  21188415.20709  21188413.83409 -20835844.98609 -16235717.72309
  21254722.98409  21254722.86709  21254721.70409 -17432035.33709 -13583396.29309
  24354610.84106  24354610.53106  24354612.29406  -5186444.32706  -4041366.98106
  23175485.48509  23175485.02409  23175484.35209  -9677778.88809  -7541124.18009
  23155819.54809  23155819.14509  23155819.55609  -6635226.62809  -5170297.71209
  23641253.03507  23641252.98107  23641254.19807  -6774874.14207  -5279121.58207
  21929936.08309  21929935.58509  21929935.90709 -14878421.79409 -11593573.54109
  3 10 28  0 29 30.0000000  0  8G03G11G14G15G20G23G25G31
  23820777.57408  23820777.33108  23820777.72608  -5717076.28408  -4454862.53008
  21177097.26909  21177097.28209  21177096.00209 -20895320.87509 -16282062.57009
  21265007.83209  21265007.67809  21265006.56309 -17377987.95109 -13541281.44909
  24373611.03707  24373610.71407  24373612.14307  -5086600.20907  -3963566.37907
  23161147.76009  23161147.41609  23161146.76809  -9753123.64209  -7599834.34809
  23168743.08209  23168742.46409  23168743.01609  -6567313.61409  -5117378.49609
  23625958.45307  23625958.73207  23625959.90907  -6855245.06907  -5341748.27207
  21944660.57609  21944660.10709  21944660.31509 -14801043.91309 -11533279.10509
  3 10 28  0 30  0.0000000  0  8G03G11G14G15G20G23G25G31
  23840647.71507  23840647.57007  23840648.39207  -5612657.38907  -4373497.16607
  21165840.60409  21165840.60509  21165839.29409 -20954475.19509 -16328156.84509
  21275382.54709  21275382.27209  21275381.10909 -17323469.30909 -13498799.39309
  24392640.19207  24392639.74307  24392641.78507  -4986603.50307  -3885646.87007
  23146839.07009  23146838.69109  23146838.08209  -9828316.26709  -7658425.97709
  23181675.54009  23181674.99909  23181675.36709  -6499353.84109  -5064422.84909
  23610695.46207  23610695.48107  23610696.43207  -6935454.08207  -5404248.77607
  21959455.58609  21959455.20609  21959455.58709 -14723294.56309 -11472695.21209
  3 10 28  0 30 30.0000000  0  8G03G11G14G15G20G23G25G31
  23860530.41107  23860530.35507  23860530.88807  -5508172.33507  -4292080.26607
  21154646.50909  21154646.53009  21154645.18409 -21013300.76209 -16373994.94909
  21285847.29609  21285847.06909  21285845.94209 -17268476.24509 -13455947.65409
  24411698.75107  24411698.26907  24411699.30407  -4886449.94007  -3807605.13707
  23132560.40709  23132560.05309  23132559.53109  -9903350.99509  -7716894.56909
  23194617.56809  23194617.03109  23194617.63809  -6431342.54409  -5011427.04609
  23595465.34907  23595465.11007  23595465.90407  -7015492.85307  -5466616.63807
  21974322.06209  21974321.60709  21974322.03009 -14645171.20009 -11411819.88509
  3 10 28  0 31  0.0000000  0  8G03G11G14G15G20G23G25G31
  23880421.53807  23880421.42207  23880422.28907  -5403643.15907  -4210628.97707
  21143511.55509  21143511.55009  21143510.35309 -21071814.89009 -16419590.37409
  21296398.31509  21296398.06609  21296396.98509 -17213030.27909 -13412743.00809
  24430783.32807  24430782.88207  24430783.84607  -4786159.77307  -3729456.96207
  23118308.26409  23118307.94909  23118307.19709  -9978246.81709  -7775254.93009
  23207565.78309  23207565.33909  23207565.83209  -6363299.35409  -4958406.39909
  23580263.36907  23580263.02007  23580264.63107  -7095377.67807  -5528864.54607
  21989255.44309  21989255.02709  21989255.43309 -14566695.87809 -11350670.29909
  3 10 28  0 31 30.0000000  0  8G03G11G14G15G20G23G25G31
  23900324.48707  23900324.25907  23900325.23507  -5299052.73207  -4129129.96707
  21132440.01109  21132440.02009  21132438.88909 -21129995.98209 -16464926.29309
  21307038.89309  21307038.62609  21307037.68809 -17157113.63009 -13369171.59709
  24449897.11407  24449897.07607  24449898.67207  -4685714.30007  -3651187.77707
  23104086.29509  23104085.87609  23104085.37909 -10052983.78409  -7833491.50909
  23220523.83909  23220523.34609  23220523.86409  -6295204.87109  -4905345.78609
  23565095.48207  23565095.25807  23565096.40007  -7175085.85007  -5590974.78707
  22004259.13509  22004258.71109  22004259.07809 -14487851.51609 -11289233.15009
  3 10 28  0 32  0.0000000  0  8G03G11G14G15G20G23G25G31
  23920235.75807  23920235.90407  23920236.48507  -5194418.22407  -4047596.59207
  21121429.54009  21121429.60009  21121428.25309 -21187856.66909 -16510012.54509
  21317765.83309  21317765.57109  21317764.57709 -17100743.29909 -13325246.66709
  24469038.19407  24469037.87607  24469039.35807  -4585129.18807  -3572809.76607
  23089891.65509  23089891.28709  23089890.97209 -10127576.25009  -7891615.47809
  23233488.64709  23233488.29109  23233488.68009  -6227074.34809  -4852257.09109
  23549958.77907  23549958.61007  23549959.67907  -7254629.28807  -5652956.67107
  22019329.69309  22019329.27709  22019329.55409 -14408655.59909 -11227522.06809
  3 10 28  0 32 30.0000000  0  8G03G11G14G15G20G23G25G31
  23940156.53107  23940156.36607  23940157.47607  -5089734.62107  -3966024.98507
  21110481.82509  21110481.84109  21110480.48209 -21245387.46409 -16554841.73309
  21328580.12909  21328579.91309  21328578.92209 -17043913.94209 -13280964.05409
  24488206.99107  24488206.80907  24488208.12007  -4484397.96807  -3494317.91607
  23075726.17109  23075725.76009  23075725.46809 -10202016.35009  -7949620.72609
  23246461.90009  23246461.32209  23246461.86609  -6158900.33409  -4799134.50509
  23534855.44007  23534855.30907  23534856.11207  -7333997.08407  -5714801.69507
  22034468.22209  22034467.76709  22034467.77009 -14329103.19709 -11165533.20109
  3 10 28  0 33  0.0000000  0  8G03G11G14G15G20G23G25G31
  23960087.22507  23960086.94607  23960087.70507  -4984998.85907  -3884412.70907
  21099598.45709  21099598.50509  21099596.96309 -21302580.30809 -16599407.58609
  21339482.48509  21339482.24509  21339481.41909 -16986621.71709 -13236320.76909
  24507404.28807  24507404.00407  24507405.42107  -4383515.84907  -3415708.48907
  23061590.59909  23061590.42509  23061590.09209 -10276297.82209  -8007502.36809
  23259444.18509  23259443.70109  23259444.25709  -6090677.48409  -4745973.86609
  23519787.40507  23519787.34707  23519788.11607  -7413180.40707  -5776502.96207
  22049674.96409  22049674.51709  22049674.44209 -14249191.25009 -11103264.16409
  3 10 28  0 33 30.0000000  0  8G03G11G14G15G20G23G25G31
  23980027.36507  23980027.02107  23980027.73907  -4880213.86807  -3802762.08807
  21088779.57409  21088779.65109  21088778.07209 -21359433.50909 -16643708.78509
  21350472.29109  21350472.14509  21350471.22109 -16928869.27409 -13191318.87009
  24526629.47706  24526629.12606  24526630.78106  -4282484.10006  -3336982.44406
  23047485.64009  23047485.24009  23047485.22809 -10350420.72809  -8065260.44509
  23272435.66409  23272435.03409  23272435.88109  -6022406.56209  -4692775.77009
  23504755.11107  23504754.97807  23504755.47707  -7492176.74907  -5838058.53507
  22064949.51009  22064949.08209  22064948.98109 -14168922.68309 -11040717.24309
  3 10 28  0 34  0.0000000  0  8G03G11G14G15G20G23G25G31
  23999973.35207  23999973.23007  23999973.75807  -4775397.90707  -3721087.31807
  21078022.71009  21078022.79209  21078021.31509 -21415961.12309 -16687756.27609
  21361546.45709  21361546.30709  21361545.28009 -16870674.46309 -13145972.26509
  24545881.07006  24545880.32806  24545881.26706  -4181319.50606  -3258152.91206
  23033407.62909  23033407.38409  23033407.43109 -10424400.64409  -8122907.10609
  23285433.24609  23285432.64109  23285433.62609  -5954103.45909  -4639552.59909
  23489755.41007  23489755.26807  23489755.91107  -7570999.13607  -5899478.55907
  22080288.53609  22080288.04109  22080288.01809 -14088316.06209 -10977906.90109
  3 10 28  0 34 30.0000000  0  8G03G11G14G15G20G23G25G31
  24019925.70007  24019925.43707  24019925.83507  -4670548.05307  -3639386.15307
  21067329.39709  21067329.37909  21067327.94409 -21472155.51909 -16731544.11909
  21372705.49109  21372705.35209  21372704.21009 -16812034.12309 -13100278.49509
  24565158.33506  24565157.82606  24565159.47106  -4080017.67806  -3179216.43606
  23019358.05609  23019357.70409  23019357.87509 -10498231.80309  -8180437.85109
  23298437.75709  23298437.27409  23298438.22609  -5885763.27809  -4586300.53109
  23474790.86408  23474791.02808  23474791.29008  -7649639.15308  -5960756.48408
  22095692.31509  22095691.79809  22095691.88309 -14007368.79909 -10914831.12609
  3 10 28  0 35  0.0000000  0  8G03G11G14G15G20G23G25G31
  24039885.19707  24039885.09007  24039885.59707  -4565660.15707  -3557655.34507
  21056701.03709  21056701.08109  21056699.57809 -21528008.07309 -16775065.58509
  21383950.04409  21383949.84909  21383948.84309 -16752943.74109 -13054234.04209
  24584461.52305  24584461.53905  24584463.30305  -3978572.88805  -3100168.56205
  23005338.06109  23005337.68709  23005337.73809 -10571907.13809  -8237847.17009
  23311450.61009  23311450.33409  23311451.31609  -5817379.60209  -4533014.56809
  23459862.87008  23459862.47608  23459862.99508  -7728086.68008  -6021884.42008
  22111161.65009  22111161.25209  22111161.28409 -13926076.83409 -10851486.74709
  3 10 28  0 35 30.0000000  0  8G03G11G14G15G20G23G25G31
  24059848.25007  24059848.00207  24059848.33307  -4460753.42207  -3475909.84107
  21046134.91109  21046134.93309  21046133.41009 -21583533.47409 -16818332.12909
  21395276.56409  21395276.32009  21395275.34109 -16693422.35109 -13007853.73909
  24603789.14205  24603789.24505  24603791.49605  -3877002.86905  -3021023.10805
  22991344.31809  22991343.98509  22991344.38909 -10645443.02409  -8295147.83209
  23324468.80009  23324468.28209  23324469.43909  -5748969.48109  -4479708.00409
  23444968.61807  23444968.62207  23444969.24607  -7806355.37507  -6082872.99607
  22126692.99509  22126692.49109  22126692.54209 -13844459.57809 -10787888.90109
  3 10 28  0 36  0.0000000  0  8G03G11G14G15G20G23G25G31
  24079817.73707  24079817.37207  24079818.84407  -4355811.70207  -3394137.08007
  21035634.91409  21035634.90909  21035633.49709 -21638711.10809 -16861327.68809
  21406688.18509  21406688.07509  21406687.13109 -16633453.04809 -12961124.41209
  24623145.32605  24623144.46805  24623146.36805  -3775289.85305  -2941766.21105
  22977381.19009  22977380.73809  22977381.12409 -10718820.33309  -8352324.92809
  23337495.40109  23337494.80709  23337496.04509  -5680514.49209  -4426366.47809
  23430112.61507  23430112.63007  23430113.42007  -7884424.05507  -6143705.71207
  22142289.05709  22142288.68509  22142288.71809 -13762501.01709 -10724025.10309
  3 10 28  0 36 30.0000000  0  8G03G11G14G15G20G23G25G31
  24099793.57907  24099793.45507  24099794.23607  -4250839.02707  -3312340.21207
  21025201.12209  21025201.19009  21025199.86909 -21693540.53209 -16904051.91109
  21418184.30909  21418184.21509  21418183.44809 -16573040.02509 -12914049.33009
  24642527.51805  24642527.24705  24642528.24905  -3673436.53105  -2862400.01005
  22963447.55409  22963447.27409  22963447.75409 -10792040.39809  -8409379.49809
  23350530.14609  23350529.72909  23350530.70509  -5612016.57709  -4372991.50709
  23415295.21308  23415295.26108  23415295.51508  -7962291.27508  -6204381.44308
  22157949.35609  22157948.92509  22157949.31809 -13680205.69309 -10659898.89409
  3 10 28  0 37  0.0000000  0  8G03G11G14G15G20G23G25G31
  24119773.58307  24119773.40907  24119774.75107  -4145843.16107  -3230525.26507
  21014833.25009  21014833.28209  21014831.75309 -21748024.90309 -16946507.26309
  21429763.61809  21429763.47109  21429762.68709 -16512190.53709 -12866634.14509
  24661933.91305  24661933.81205  24661935.92805  -3571449.42105  -2782929.52805
  22949543.36509  22949543.01209  22949543.43809 -10865108.04009  -8466315.29209
  23363572.13109  23363571.68709  23363572.75509  -5543481.16809  -4319587.31509
  23400515.47408  23400515.45008  23400515.88308  -8039958.96408  -6264901.71008
  22173672.15209  22173671.74409  22173672.13909 -13597581.43809 -10595516.37809
  3 10 28  0 37 30.0000000  0  8G03G11G14G15G20G23G25G31
  24139757.74207  24139757.76407  24139758.82107  -4040826.11707  -3148693.81407
  21004531.38209  21004531.43209  21004529.84809 -21802161.63509 -16988691.73209
  21441425.74109  21441425.51609  21441424.64509 -16450906.25509 -12818880.16009
  24681367.20205  24681366.86505  24681369.78805  -3469328.86605  -2703355.09705
  22935668.11109  22935667.77509  22935668.25809 -10938022.40809  -8523131.65709
  23376621.02509  23376620.52309  23376621.72409  -5474907.89709  -4266153.62209
  23385774.69408  23385774.65008  23385774.88708  -8117423.44108  -6325263.62808
  22189457.13609  22189456.66809  22189457.13609 -13514630.37709 -10530879.20709
  3 10 28  0 38  0.0000000  0  8G03G11G14G15G20G23G25G31
  24159744.10907  24159743.75507  24159744.94607  -3935798.11907  -3066853.83707
  20994294.48609  20994294.50509  20994293.03909 -21855956.47409 -17030609.78809
  21453168.51509  21453168.33509  21453167.51509 -16389197.12409 -12770795.12509
  24700824.09805  24700823.38705  24700824.93905  -3367083.52605  -2623683.42605
  22921820.70009  22921820.37609  22921820.86409 -11010791.00309  -8579834.43209
  23389675.76409  23389675.25909  23389676.50609  -5406304.89009  -4212696.75609
  23371071.12508  23371070.91408  23371071.55608  -8194689.79308  -6385471.15708
  22205302.56809  22205302.10309  22205302.43909 -13431363.08909 -10465995.62109
  3 10 28  0 38 30.0000000  0  8G03G11G14G15G20G23G25G31
  24179732.62307  24179732.33707  24179733.88307  -3830756.32907  -2985003.09907
  20984124.02509  20984124.04509  20984122.61509 -21909402.53209 -17072256.06709
  21464992.87509  21464992.70909  21464991.74209 -16327060.40209 -12722376.90309
  24720305.91405  24720304.92405  24720307.40705  -3264709.03505  -2543911.11905
  22908002.29909  22908001.84209  22908002.20909 -11083407.99409  -8636419.07309
  23402737.28809  23402736.83409  23402737.91709  -5337667.10009  -4159212.78309
  23356407.18008  23356407.15208  23356407.64708  -8271749.85408  -6445517.94408
  22221208.38709  22221207.92309  22221208.53909 -13347777.03209 -10400863.64509
  3 10 28  0 39  0.0000000  0  8G03G11G14G15G20G23G25G31
  24199726.64907  24199726.49307  24199727.91707  -3725687.45207  -2903131.27307
  20974023.36709  20974023.44909  20974022.03409 -21962481.31509 -17113616.15909
  21476901.20609  21476901.02609  21476899.99709 -16264481.79009 -12673614.35109
  24739813.97705  24739813.21905  24739815.47805  -3162190.38405  -2464026.46405
  22894215.60009  22894215.08509  22894215.76009 -11155857.07809  -8692872.88209
  23415808.39409  23415807.79809  23415808.95509  -5268978.63709  -4105689.33109
  23341785.72708  23341785.85208  23341786.71608  -8348584.40908  -6505389.02408
  22237177.24709  22237176.84709  22237177.79309 -13263858.86809 -10335472.88509
  3 10 28  0 39 30.0000000  0  8G03G11G14G15G20G23G25G31
  24219720.79007  24219720.70807  24219721.90907  -3620617.05307  -2821258.25707
  20963988.59009  20963988.68409  20963987.24509 -22015214.44209 -17154706.90709
  21488888.67809  21488888.50009  21488887.55909 -16201487.10809 -12624527.59109
  24759345.27105  24759344.53705  24759347.32905  -3059552.11005  -2384048.64305
  22880456.40409  22880456.18109  22880456.60309 -11228161.44609  -8749213.92009
  23428884.59709  23428883.94409  23428885.04409  -5200263.28109  -4052144.92009
  23327203.76008  23327203.81708  23327204.11808  -8425214.02408  -6565100.38908
  22253204.72609  22253204.33509  22253205.21109 -13179634.90509 -10269843.84709
  3 10 28  0 40  0.0000000  0  8G03G11G14G15G20G23G25G31
  24239716.67407  24239716.56107  24239717.49707  -3515539.63607  -2739379.75507
  20954021.51309  20954021.52209  20954020.05309 -22067591.91209 -17195520.52009
  21500956.42909  21500956.28109  21500955.28309 -16138070.54109 -12575112.08709
  24778900.94105  24778900.69705  24778902.88005  -2956787.44905  -2303972.29005
  22866726.49509  22866726.16209  22866726.69609 -11300312.58109  -8805435.56609
  23441967.62809  23441966.85509  23441967.77609  -5131513.14709  -3998573.41609
  23312663.17008  23312663.13308  23312663.54508  -8501627.40908  -6624643.27608
  22269291.30809  22269290.93409  22269291.76209 -13095099.71109 -10203972.28509
  3 10 28  0 40 30.0000000  0  8G03G11G14G15G20G23G25G31
  24259713.28507  24259712.95307  24259714.21607  -3410457.43607  -2657497.52807
  20944122.64209  20944122.75609  20944121.17109 -22119610.99209 -17236054.86909
  21513104.30709  21513104.00409  21513102.84709 -16074234.03809 -12525369.35909
  24798480.57106  24798480.41106  24798482.24606  -2853896.69506  -2223797.69106
  22853025.78109  22853025.37509  22853025.92709 -11372309.95009  -8861537.39009
  23455057.32809  23455056.57209  23455057.11509  -5062728.18809  -3944974.77109
  23298163.65308  23298163.73008  23298164.32708  -8577821.30008  -6684015.11308
  22285436.69409  22285436.21009  22285437.13209 -13010255.88709 -10137860.23409
  3 10 28  0 41  0.0000000  0  8G03G11G14G15G20G23G25G31
  24279711.36807  24279711.26807  24279712.02307  -3305366.63707  -2575608.63107
  20934293.47309  20934293.54809  20934291.99009 -22171263.78809 -17276303.80309
  21525332.54809  21525332.34109  21525331.15909 -16009973.70709 -12475296.37309
  24818084.32006  24818084.67706  24818086.52306  -2750874.91506  -2143520.97706
  22839355.53209  22839355.24509  22839355.78909 -11444146.82109  -8917514.14909
  23468154.26209  23468153.64809  23468154.26109  -4993902.23209  -3891344.17809
  23283708.43508  23283708.34708  23283708.24908  -8653786.63408  -6743208.86608
  22301641.35209  22301641.01209  22301641.63109 -12925099.86109 -10071504.90709
  3 10 28  0 41 30.0000000  0  8G03G11G14G15G20G23G25G31
  24299709.55807  24299709.31307  24299710.20907  -3200274.07307  -2493718.30207
  20924533.44309  20924533.50709  20924532.05609 -22222552.66209 -17316269.16009
  21537640.24809  21537640.09009  21537639.03309 -15945296.06309 -12424898.21109
  24837713.14207  24837712.73507  24837715.01907  -2647727.48007  -2063146.33207
  22825715.47609  22825715.08409  22825715.25409 -11515827.39709  -8973369.12809
  23481258.17509  23481257.68509  23481258.48409  -4925040.03109  -3837685.34209
  23269295.87308  23269295.85108  23269295.68608  -8729524.79308  -6802225.61208
  22317903.94509  22317903.54009  22317904.34209 -12839638.84909 -10004911.93009
  3 10 28  0 42  0.0000000  0  8G03G11G14G15G20G23G25G31
  24319709.52507  24319709.10707  24319710.80007  -3095174.00807  -2411822.17007
  20914844.77809  20914844.79909  20914843.30009 -22273467.43709 -17355943.01109
  21550028.49309  21550028.30009  21550027.24309 -15880195.52909 -12374170.52409
  24857366.44207  24857366.10607  24857368.86207  -2544447.20607  -1982668.21807
  22812106.29909  22812105.87409  22812106.23009 -11587343.02309  -9029095.57609
  23494370.38809  23494369.95109  23494370.91809  -4856133.74209  -3783992.14909
  23254928.72209  23254928.80709  23254928.95509  -8805024.33509  -6861056.41109
  22334225.67209  22334225.24309  22334226.05909 -12753867.54109  -9938077.16509
  3 10 28  0 42 30.0000000  0  8G03G11G14G15G20G23G25G31
  24339705.24807  24339704.98307  24339705.88607  -2990094.50407  -2329942.02307
  20905222.81209  20905222.77509  20905221.29809 -22324031.56709 -17395343.63109
  21562491.89409  21562491.76409  21562490.66209 -15814699.63709 -12323134.76609
  24877040.48807  24877039.90007  24877042.16207  -2441060.91307  -1902107.46907
  22798523.90709  22798523.55309  22798523.95409 -11658718.77009  -9084713.02209
  23507486.03309  23507485.56909  23507486.74509  -4787208.97609  -3730284.56109
  23240602.69009  23240602.53809  23240602.63309  -8880307.87809  -6919718.90109
  22350601.30909  22350600.80909  22350601.63609 -12667814.14309  -9871022.58609
  3 10 28  0 43  0.0000000  0  8G03G11G14G15G20G23G25G31
  24359696.71107  24359696.60407  24359697.42107  -2885040.03107  -2248081.40107
  20895667.39809  20895667.42209  20895665.96009 -22374245.14609 -17434471.09409
  21575030.03509  21575029.75409  21575028.51509 -15748812.67509 -12271794.28009
  24896734.14707  24896734.07507  24896735.85407  -2337571.54607  -1821466.38607
  22784967.84009  22784967.41909  22784967.83309 -11729956.54409  -9140222.96409
  23520605.14709  23520604.53209  23520605.69909  -4718267.90109  -3676564.26109
  23226317.89808  23226317.70408  23226318.11308  -8955374.78208  -6978212.57408
  22367029.15309  22367028.81709  22367029.83909 -12581483.51009  -9803751.98209
  3 10 28  0 43 30.0000000  0  8G03G11G14G15G20G23G25G31
  24379687.07107  24379686.55307  24379687.82307  -2779988.55607  -2166223.11607
  20886183.72009  20886183.75709  20886182.42109 -22424081.82309 -17473304.86709
  21587646.51809  21587646.30009  21587645.10809 -15682512.33509 -12220131.67809
  24916451.53507  24916451.00407  24916453.43307  -2233955.51807  -1740726.66007
  22771442.74909  22771442.31009  22771442.59009 -11801031.47309  -9195606.00709
  23533731.59908  23533731.24208  23533732.62308  -4649286.19808  -3622812.31008
  23212079.72909  23212079.35709  23212079.74809  -9030197.47509  -7036515.95509
  22383514.21809  22383513.87509  22383514.81409 -12494853.89709  -9736248.40709
  3 10 28  0 44  0.0000000  0  8G03G11G14G15G20G23G25G31
  24399676.12407  24399675.94907  24399677.02207  -2674946.08907  -2084371.83007
  20876771.52009  20876771.62109  20876770.22409 -22473543.19909 -17511846.20109
  21600340.54809  21600340.37609  21600339.18809 -15615804.44509 -12168151.50609
  24936193.05907  24936192.40107  24936193.70407  -2130217.34707  -1659891.72207
  22757948.09109  22757947.72609  22757947.99409 -11871946.50609  -9250864.45809
  23546865.44308  23546865.02308  23546866.42608  -4580267.48808  -3569031.51908
  23197887.56608  23197887.51808  23197887.90108  -9104776.45208  -7094629.42708
  22400055.32709  22400054.91709  22400055.47409 -12407931.59009  -9668516.75409
  3 10 28  0 44 30.0000000  0  8G03G11G14G15G20G23G25G31
  24419662.14507  24419661.82207  24419663.57307  -2569916.57007  -2002530.69407
  20867430.96309  20867431.01209  20867429.54409 -22522628.65909 -17550094.61309
  21613111.48109  21613111.32209  21613110.05709 -15548693.12909 -12115856.97609
  24955956.86107  24955956.54307  24955956.60107  -2026359.92507  -1578963.80507
  22744483.59109  22744483.10909  22744483.44009 -11942702.99109  -9305999.35909
  23560005.87908  23560005.44608  23560007.22808  -4511213.57208  -3515223.28508
  23183742.11808  23183742.14008  23183742.53408  -9179110.39408  -7152551.96708
  22416650.87709  22416650.48909  22416651.13009 -12320720.99209  -9600560.45809
  3 10 28  0 45  0.0000000  0  8G03G11G14G15G20G23G25G31
  24439645.17307  24439645.17007  24439646.38607  -2464905.57407  -1920703.92407
  20858161.55309  20858161.61309  20858160.06809 -22571339.79209 -17588051.34109
  21625958.06009  21625957.84809  21625956.66109 -15481183.94809 -12063252.42209
  24975741.38707  24975740.74507  24975741.76107  -1922387.64007  -1497946.41207
  22731048.58409  22731048.24509  22731048.30209 -12013303.88109  -9361013.02309
  23573152.65508  23573152.22808  23573153.64908  -4442127.97808  -3461390.38008
  23169643.55608  23169643.51408  23169644.14108  -9253199.49408  -7210283.70908
  22433300.31809  22433299.75409  22433300.51109 -12233228.30409  -9532384.35409
  3 10 28  0 45 30.0000000  0  7G03G11G14G20G23G25G31
  24459624.47307  24459624.33907  24459625.76607  -2359913.35907  -1838891.84307
  20848964.21609  20848964.23609  20848962.72309 -22619672.02409 -17625712.82309
  21638880.17009  21638879.99509  21638878.88209 -15413276.82409 -12010337.78509
  22717643.85309  22717643.41809  22717643.55009 -12083746.62509  -9415903.46109
  23586305.67508  23586305.36208  23586306.60708  -4373008.50608  -3407531.07108
  23155592.37408  23155592.42008  23155592.89808  -9327038.66408  -7267820.70708
  22450003.11009  22450002.72009  22450003.39009 -12145453.93709  -9463988.76009
  3 10 28  0 46  0.0000000  0  8G03G11G14G15G20G23G25G31
  24479598.02107  24479597.78107  24479599.16307  -2254952.24307  -1757103.96807
  20839837.45309  20839837.46309  20839835.91609 -22667633.50809 -17663085.41009
  21651875.86509  21651875.70309  21651874.58009 -15344984.10309 -11957122.67609
  25015375.76705  25015374.94105  25015376.29505         -.91515         -.91915
  22704267.43509  22704267.01609  22704266.89009 -12154040.88309  -9470678.19009
  23599463.44608  23599463.07408  23599464.35108  -4303865.28308  -3353653.25708
  23141587.62608  23141587.33308  23141587.77008  -9400635.36808  -7325168.76508
  22466757.15109  22466756.73909  22466757.41609 -12057410.85909  -9395383.78309
  3 10 28  0 46 30.0000000  0  7G03G11G14G20G23G25G31
  24499564.75007  24499564.43107  24499565.61707  -2150028.13807  -1675344.92807
  20830780.81909  20830780.91209  20830779.29109 -22715226.00409 -17700170.47709
  21664943.93809  21664943.76109  21664942.54109 -15276311.54709 -11903611.60009
  22690918.62109  22690918.22409  22690917.74609 -12224189.55309  -9525339.47509
  23612624.85108  23612624.25608  23612625.50208  -4234701.99708  -3299759.80608
  23127628.73008  23127628.46808  23127628.90408  -9473989.88108  -7382328.10708
  22483561.06909  22483560.63709  22483561.26509 -11969105.24709  -9326574.23809
  3 10 28  0 47  0.0000000  0  8G03G11G14G15G20G23G25G31
  24519526.25107  24519525.74407  24519527.81107  -2045128.54807  -1593605.02307
  20821797.84709  20821797.85509  20821796.24509 -22762432.37509 -17736954.66809
  21678086.53809  21678086.36909  21678085.14309 -15207246.47909 -11849794.66609
  25055090.40204  25055090.39404  25055092.23804         -.57204          .27304
  22677600.17809  22677599.82209  22677599.44909 -12294177.62309  -9579875.62609
  23625792.71708  23625792.40508  23625793.56808  -4165503.92108  -3245839.25308
  23113719.18008  23113718.98408  23113719.55008  -9547084.06708  -7439284.59508
  22500417.29409  22500417.02409  22500417.46409 -11880524.96609  -9257550.65509
  3 10 28  0 47 30.0000000  0  7G03G11G14G20G23G25G31
  24539485.08706  24539484.73206  24539486.06306  -1940243.29506  -1511876.28806
  20812891.01909  20812891.03309  20812889.29909 -22809238.25409 -17773426.78309
  21691305.91109  21691305.74309  21691304.53909 -15137778.81309 -11795664.01609
  22664315.17609  22664314.74109  22664314.39209 -12363992.04609  -9634276.45409
  23638969.77108  23638969.07808  23638970.68508  -4096258.58308  -3191881.86308
  23099861.94408  23099862.02108  23099862.80708  -9619902.14608  -7496025.93708
  22517327.87709  22517327.37109  22517327.96709 -11791660.40709  -9188305.55909
  3 10 28  0 48  0.0000000  0  7G03G11G14G20G23G25G31
  24559437.62607  24559437.60107  24559438.66007  -1835392.01707  -1430173.97907
  20804057.35809  20804057.41309  20804055.64209 -22855659.00109 -17809598.79509
  21704597.95909  21704597.85909  21704596.67909 -15067928.07309 -11741234.87309
  22651059.87109  22651059.37109  22651058.81209 -12433649.74509  -9688555.16209
  23652152.26908  23652151.78508  23652153.12808  -4026983.33008  -3137901.16608
  23086055.12908  23086055.06008  23086055.59808  -9692459.16308  -7552563.85308
  22534288.63109  22534288.01809  22534288.61809 -11702531.65809  -9118854.60709
  3 10 28  0 48 30.0000000  0  7G03G11G14G20G23G25G31
  24579383.76806  24579383.29706  24579385.40206  -1730572.38006  -1348496.37506
  20795298.41809  20795298.40909  20795296.74009 -22901687.72709 -17845465.33509
  21717963.38909  21717963.42009  21717962.24509 -14997691.68109 -11686505.21709
  22637835.00009  22637834.67609  22637833.96209 -12503145.52509  -9742707.70009
  23665341.44708  23665340.93408  23665342.50608  -3957673.47508  -3083893.50808
  23072299.11908  23072299.06508  23072299.60208  -9764746.98308  -7608892.01008
  22551300.07409  22551299.52709  22551299.89509 -11613136.63409  -9049196.17209
  3 10 28  0 49  0.0000000  0  7G03G11G14G20G23G25G31
  24599320.84306  24599320.54406  24599322.95006  -1625802.72006  -1266857.68606
  20786611.33809  20786611.36009  20786609.74409 -22947338.46109 -17881037.33709
  21731399.08809  21731398.87609  21731397.68309 -14927088.03109 -11631489.38709
  22624638.33309  22624637.91009  22624637.27909 -12572495.10109  -9796746.30809
  23678534.42208  23678533.84208  23678534.98108  -3888345.12208  -3029871.43808
  23058591.90108  23058591.88808  23058592.89408  -9836778.33008  -7665020.31108
  22568358.48809  22568358.13809  22568358.18009 -11523494.12509  -8979344.88209
  3 10 28  0 49 30.0000000  0  8G01G03G11G14G20G23G25G31
  24931102.26105  24931101.97305  24931102.84805          .20415         -.46515
  24619250.82006  24619250.19006  24619252.50506  -1521073.90706  -1185250.83106
  20777998.73809  20777998.77509  20777997.20309 -22992597.98109 -17916304.49309
  21744906.17409  21744905.97809  21744904.70509 -14856108.02609 -11576180.29809
  22611471.46609  22611471.04309  22611470.37909 -12641686.43209  -9850661.60909
  23691732.95908  23691732.32108  23691733.55408  -3818986.96008  -2975826.13908
  23044936.68009  23044936.45109  23044937.04409  -9908539.40209  -7720938.00109
  22585465.60409  22585465.18609  22585465.39409 -11433595.54609  -8909294.05809
  3 10 28  0 50  0.0000000  0  7G03G11G14G20G23G25G31
  24639172.90206  24639173.45106  24639174.29206  -1416381.27006  -1103672.22506
  20769462.20509  20769462.25209  20769460.77709 -23037457.23809 -17951259.75809
  21758485.58009  21758485.51409  21758484.21709 -14784747.02409 -11520574.32509
  22598336.27709  22598335.87709  22598335.26309 -12710712.35609  -9904448.01509
  23704938.27808  23704937.64108  23704938.95308  -3749592.04608  -2921752.20908
  23031334.42209  23031334.32809  23031334.46309  -9980019.98509  -7776637.14009
  22602622.19609  22602621.59709  22602622.05809 -11343436.62709  -8839040.37209
  3 10 28  0 50 30.0000000  0  8G01G03G11G14G20G23G25G31
  24889421.57305  24889420.75905  24889423.12105         -.55415         -.72315
  24659086.32106  24659086.02406  24659087.63906  -1311735.04306  -1022129.69106
  20761000.78709  20761000.82209  20760999.34809 -23081922.36009 -17985907.90209
  21772135.76909  21772135.52709  21772134.31809 -14713015.15309 -11464679.36809
  22585231.25309  22585230.77209  22585230.01809 -12779580.23909  -9958111.27509
  23718149.23808  23718148.84508  23718149.71208  -3680168.45908  -2867655.93208
  23017784.33109  23017784.31109  23017784.73509 -10051225.22509  -7832121.72109
  22619826.32109  22619825.97709  22619826.21509 -11253028.20309  -8768592.26909
  3 10 28  0 51  0.0000000  0  8G01G03G11G14G20G23G25G31
  24868605.21906  24868605.02006  24868605.42506   -109392.98006    -85241.52906
  24678989.76206  24678989.45006  24678991.59406  -1207139.62606   -940626.78606
  20752614.50409  20752614.49809  20752612.95009 -23125993.29409 -18020248.88909
  21785855.50909  21785855.43109  21785854.28509 -14640916.73809 -11408498.78909
  22572155.83609  22572155.45809  22572154.63709 -12848291.90609 -10011652.80809
  23731364.96808  23731364.62208  23731365.58908  -3610718.25408  -2813538.91608
  23004287.13509  23004287.04709  23004287.36109 -10122154.23809  -7887391.05909
  22637077.19709  22637076.81409  22637076.95309 -11162375.08109  -8697953.49009
  3 10 28  0 51 30.0000000  0  7G03G11G14G20G23G25G31
  24698884.15706  24698883.50006  24698885.54406  -1102594.72706   -859163.24506
  20744304.00309  20744304.04809  20744302.40809 -23169665.65809 -18054279.30509
  21799645.17909  21799645.04509  21799643.88209 -14568451.57009 -11352032.42809
  22559110.76709  22559110.24409  22559109.43609 -12916844.47209 -10065070.36309
  23744586.73008  23744586.20208  23744587.27208  -3541238.82408  -2759399.12308
  22990843.52109  22990843.38009  22990843.61909 -10192801.18109  -7942440.60509
  22654374.54209  22654374.05009  22654374.18609 -11071477.49809  -8627124.22209
  3 10 28  0 52  0.0000000  0  7G03G11G14G20G23G25G31
  24718770.27605  24718769.78905  24718771.93905   -998090.62605   -777731.49405
  20736072.00609  20736071.97209  20736070.35209 -23212925.21809 -18087988.05709
  21813506.41309  21813506.29809  21813505.10609 -14495610.13209 -11295272.86809
  22546098.16809  22546097.78209  22546096.76409 -12985225.27609 -10118354.08409
  23757816.10808  23757815.49008  23757816.47508  -3471718.23608  -2705227.26608
  22977456.00309  22977456.09109  22977456.24809 -10263151.52909  -7997259.03809
  22671719.99109  22671719.49309  22671719.63109 -10980326.31109  -8556097.34509
  3 10 28  0 52 30.0000000  0  8G01G03G11G14G20G23G25G31
  24806258.34006  24806257.95406  24806259.00706         -.47116          .04216
  24738644.16806  24738644.26306  24738645.61306   -893652.11306   -696350.84106
  20727914.53109  20727914.52509  20727912.89609 -23255792.78209 -18121391.35109
  21827434.87009  21827434.63509  21827433.43809 -14422416.97109 -11238239.24109
  22533114.04009  22533113.66209  22533112.84409 -13053456.39909 -10171521.16109
  23771049.04108  23771048.53508  23771049.21708  -3402179.01908  -2651040.88908
  22964121.82909  22964121.71709  22964121.41909 -10333224.53609  -8051861.36309
  22689108.92909  22689108.59509  22689108.57609 -10888946.66309  -8484892.44109
  3 10 28  0 53  0.0000000  0  8G01G03G11G14G20G23G25G31
  24785509.13506  24785509.37906  24785510.80406   -109034.75506    -84961.76006
  24758507.32407  24758507.14907  24758508.68407   -789273.54707   -615016.89307
  20719833.67609  20719833.71309  20719831.91409 -23298258.40209 -18154481.44609
  21841430.83809  21841430.77609  21841429.73509 -14348866.41609 -11180927.12609
  22520160.28309  22520159.94909  22520159.00209 -13121529.43609 -10224565.05809
  23784287.06708  23784286.56508  23784287.33308  -3332613.08008  -2596833.69508
  22950842.02909  22950842.13409  22950841.86409 -10403009.54309  -8106239.27709
  22706542.53209  22706541.95109  22706542.19209 -10797333.38609  -8413505.49009
  3 10 28  0 53 30.0000000  0  8G01G03G11G14G20G23G25G31
  24764778.56007  24764778.21607  24764779.55607   -217975.80407   -169850.89507
  24778358.01206  24778358.11106  24778359.49706   -684956.55806   -533730.98006
  20711829.78609  20711829.81209  20711828.03609 -23340319.33109 -18187256.19809
  21855494.71809  21855494.56509  21855493.65709 -14274960.34209 -11123337.98109
  22507236.55809  22507236.08509  22507235.44009 -13189443.41709 -10277485.01509
  23797530.32108  23797529.67308  23797530.47208  -3263019.85808  -2542605.24008
  22937617.94909  22937617.85709  22937617.77709 -10472503.10909  -8160390.09109
  22724020.01309  22724019.43309  22724019.52209 -10705488.68609  -8341938.21609
  3 10 28  0 54  0.0000000  0  8G01G03G11G14G20G23G25G31
  24744066.81907  24744066.44707  24744067.49107   -326818.25907   -254663.24207
  24798197.55607  24798197.59207  24798198.50807   -580699.99807   -452492.10107
  20703903.78609  20703903.80209  20703902.14709 -23381970.51509 -18219711.66409
  21869626.46209  21869626.25909  21869625.30409 -14200697.48709 -11065470.82809
  22494343.94409  22494343.58609  22494342.70009 -13257194.51009 -10330278.04009
  23810779.28708  23810778.48208  23810779.41508  -3193396.03408  -2488352.93808
  22924450.41909  22924450.31809  22924450.33309 -10541698.60909  -8214308.64109
  22741541.23309  22741540.90309  22741541.08509 -10613411.96909  -8270190.14509
  3 10 28  0 54 30.0000000  0  8G01G03G11G14G20G23G25G31
  24723372.10507  24723371.74007  24723372.31707   -435569.59207   -339404.52307
  24818022.89607  24818022.80707  24818023.63407   -476515.86507   -371309.63507
  20696054.41109  20696054.39209  20696052.68209 -23423219.69509 -18251853.88309
  21883823.60509  21883823.52109  21883822.62609 -14126089.97709 -11007335.11209
  22481480.51809  22481480.19009  22481479.15809 -13324792.09509 -10382951.45909
  23824032.27708  23824031.53608  23824032.27308  -3123751.30708  -2434084.34408
  22911338.22709  22911338.16509  22911338.17609 -10610603.11709  -8268000.44209
  22759104.75409  22759104.32009  22759104.50509 -10521115.77509  -8198271.05109
  3 10 28  0 55  0.0000000  0  8G01G03G11G14G20G23G25G31
  24702696.94607  24702696.47507  24702697.83307   -544218.82607   -424066.31007
  24837835.32706  24837835.34506  24837836.36006   -372397.68206   -290178.63206
  20688283.41809  20688283.43209  20688281.75109 -23464056.28209 -18283674.60409
  21898087.92909  21898087.78909  21898086.94609 -14051131.37809 -10948925.81809
  22468648.02409  22468647.64009  22468646.96609 -13392226.81709 -10435497.96909
  23837290.81308  23837290.46208  23837290.99208  -3054076.86408  -2379792.59908
  22898284.14709  22898283.85309  22898283.80909 -10679204.52509  -8321456.06509
  22776710.91109  22776710.51009  22776710.90609 -10428594.21809  -8126176.35109
  3 10 28  0 55 30.0000000  0  8G01G03G11G14G20G23G25G31
  24682039.73007  24682039.53107  24682040.49407   -652774.57907   -508655.21807
  24857633.73506  24857633.39806  24857634.69506   -268358.07906   -209108.85406
  20680589.31709  20680589.36509  20680587.72609 -23504488.94209 -18315180.57709
  21912416.56709  21912416.24009  21912415.53509 -13975834.62009 -10890253.02409
  22455844.71709  22455844.39809  22455843.58109 -13459509.06209 -10487925.66109
  23850553.01308  23850552.59808  23850553.05108  -2984383.43708  -2325486.06608
  22885285.21609  22885285.12309  22885285.58009 -10747510.84809  -8374681.75009
  22794357.46009  22794357.06309  22794357.72209 -10335860.59909  -8053916.40509
  3 10 28  0 56  0.0000000  0  7G01G11G14G20G23G25G31
  24661404.41207  24661403.93407  24661405.38107   -761212.19307   -593152.06607
  20672976.76809  20672976.79409  20672975.15009 -23544493.28809 -18346352.79909
  21926813.15409  21926812.94009  21926812.06009 -13900179.54409 -10831301.02409
  22443074.47809  22443074.07909  22443073.27609 -13526615.89409 -10540216.68009
  23863823.34808  23863822.87208  23863823.03208  -2914648.52208  -2271147.20508
  22872347.88209  22872347.92409  22872348.35609 -10815496.65509  -8427657.68009
  22812048.28109  22812047.76409  22812048.19209 -10242895.27009  -7981475.90909
  3 10 28  0 56 30.0000000  0  8G01G03G11G14G20G23G25G31
  24640788.79807  24640788.38707  24640789.64007   -869548.37307   -677569.88407
  24897192.34605  24897192.51405  24897192.91505          .04315          .33615
  20665442.50309  20665442.52909  20665440.87509 -23584086.19009 -18377204.41109
  21941273.97309  21941273.81209  21941272.83809 -13824187.33509 -10772086.31809
  22430334.39509  22430334.05209  22430333.25609 -13593565.78709 -10592385.40309
  23877097.75708  23877097.14008  23877097.47408  -2844890.86208  -2216790.62208
  22859468.76609  22859468.62209  22859468.91409 -10883177.84409  -8480396.25709
  22829778.87409  22829778.36609  22829779.16209 -10149719.84609  -7908871.69809
  3 10 28  0 57  0.0000000  0  8G01G03G11G14G20G23G25G31
  24620192.37007  24620192.05507  24620193.16607   -977783.50707   -761908.98507
  24916948.72807  24916948.40707  24916948.94907    103817.00807     80896.62907
  20657986.38709  20657986.39309  20657984.76009 -23623268.21109 -18407735.85309
  21955797.97409  21955797.85809  21955796.95409 -13747862.75009 -10712612.61809
  22417623.74909  22417623.45109  22417622.59109 -13660360.75709 -10644433.41209
  23890375.98108  23890375.53508  23890375.86708  -2775112.86708  -2162418.19608
  22846647.46609  22846647.28909  22846647.80709 -10950554.23209  -8532897.32209
  22847548.54609  22847548.08009  22847549.03009 -10056339.64209  -7836107.92709
  3 10 28  0 57 30.0000000  0  8G01G03G11G14G20G23G25G31
  24599617.12707  24599616.76707  24599618.16707  -1085905.54607   -846159.96007
  24936690.18407  24936690.00907  24936690.84807    207557.29007    161733.21107
  20650610.63609  20650610.64509  20650609.05009 -23662027.63909 -18437938.00409
  21970386.98309  21970386.77609  21970385.74609 -13671198.15909 -10652873.98209
  22404944.37409  22404943.97809  22404943.15509 -13726990.31909 -10696352.52509
  23903659.93108  23903659.25008  23903660.23808  -2705304.61908  -2108022.19108
  22833886.57009  22833886.38309  22833886.84909 -11017612.96809  -8585150.86409
  22865358.41609  22865358.18109  22865358.84309  -9962747.57309  -7763179.05809
  3 10 28  0 58  0.0000000  0  8G01G03G11G14G20G23G25G31
  24579063.04607  24579062.71307  24579064.04307  -1193918.92807   -930326.22407
  24956415.10106  24956414.68606  24956415.61906    311212.40506    242503.43206
  20643314.42609  20643314.42109  20643312.88109 -23700369.28109 -18467814.60809
  21985038.77209  21985038.51409  21985037.54909 -13594202.38409 -10592877.27809
  22392295.61409  22392295.24209  22392294.19509 -13793460.43109 -10748147.40909
  23916948.72008  23916948.27308  23916948.61508  -2635472.55008  -2053607.63108
  22821185.36609  22821185.35909  22821185.47809 -11084357.63909  -8637159.68309
  22883207.17109  22883206.77809  22883207.51809  -9868952.71709  -7690092.17609
  3 10 28  0 58 30.0000000  0  8G01G03G11G14G20G23G25G31
  24558530.83206  24558530.26406  24558531.78206  -1301815.82906  -1014401.75006
  24976124.98405  24976124.60305  24976125.89805    414785.75805    323209.96405
  20636099.21009  20636099.26509  20636097.75509 -23738285.27909 -18497359.53809
  21999754.25709  21999754.00409  21999753.02309 -13516871.83509 -10532619.71209
  22379678.20509  22379677.84709  22379677.19609 -13859765.16909 -10799813.41909
  23930243.49008  23930242.85208  23930242.77308  -2565610.96408  -1999170.07308
  22808546.10409  22808545.97909  22808545.79309 -11150779.90709  -8688917.28009
  22901095.06309  22901094.62609  22901095.20909  -9774952.29509  -7616845.11009
  3 10 28  0 59  0.0000000  0  8G01G03G11G14G20G23G25G31
  24538019.75006  24538019.59006  24538020.98706  -1409601.39206  -1098390.51106
  24995816.48705  24995816.45505  24995817.21905    518267.96905    403845.34705
  20628964.02709  20628964.05509  20628962.51709 -23775781.32809 -18526577.23709
  22014531.54809  22014531.25909  22014530.31109 -13439216.38709 -10472108.98109
  22367090.79309  22367090.44409  22367089.96109 -13925911.45809 -10851355.95409
  23943542.10208  23943541.58108  23943541.38308  -2495727.06408  -1944715.12708
  22795966.01509  22795965.90309  22795966.52409 -11216884.15109  -8740427.06509
  22919019.82709  22919019.42509  22919020.20209  -9680756.44209  -7543445.76309
  3 10 28  0 59 30.0000000  0  8G01G03G11G14G20G23G25G31
  24517529.80306  24517529.98206  24517531.95806  -1517274.39706  -1182291.58006
  25015490.29505  25015490.60005  25015491.21405    621655.66405    484407.17505
  20621908.91709  20621908.87709  20621907.32009 -23812856.23309 -18555466.77209
  22029369.85709  22029369.82809  22029368.85809 -13361239.07109 -10411347.44109
  22354533.97309  22354533.51409  22354532.51809 -13991899.40309 -10902775.12309
  23956844.73708  23956843.96108  23956844.11308  -2425821.51508  -1890243.30908
  22783447.58509  22783447.69009  22783448.40209 -11282668.23209  -8791687.36309
  22936981.29909  22936980.84109  22936981.63409  -9586368.73609  -7469896.92209
  3 10 28  1  0  0.0000000  0  8G01G03G11G14G20G23G25G31
  24497065.11705  24497064.89505  24497067.19905  -1624816.96905  -1266090.97905
  25035148.12905  25035147.77505  25035149.05105    724962.64505    564906.12505
  20614937.16009  20614937.20209  20614935.62709 -23849492.30309 -18584014.35909
  22044272.30809  22044272.17409  22044271.20809 -13282926.53709 -10350324.68909
  22342009.77009  22342009.26609  22342008.76509 -14057713.00409 -10954058.43609
  23970154.18908  23970153.77708  23970154.03108  -2355878.38308  -1835742.20808
  22770994.20909  22770993.94409  22770994.65109 -11348113.28109  -8842683.48909
  22954981.62609  22954981.21409  22954981.96809  -9491776.11509  -7396188.41409
  3 10 28  1  0 30.0000000  0  8G01G03G11G14G20G23G25G31
  24476622.98706  24476622.84906  24476624.87806  -1732242.71506  -1349799.36406
  25054789.03605  25054788.11605  25054789.49705    828171.17005    645328.36405
  20608046.47209  20608046.50309  20608044.88109 -23885703.37109 -18612230.77809
  22059234.98209  22059234.80709  22059233.96909 -13204296.70509 -10289054.69509
  22329516.25709  22329515.94409  22329515.27509 -14123367.34409 -11005217.64009
  23983467.99808  23983467.52008  23983467.98008  -2285913.47808  -1781224.13208
  22758601.77409  22758601.88709  22758602.93909 -11413232.29909  -8893425.55909
  22973017.57709  22973017.16109  22973017.86109  -9396997.09909  -7322334.66009
  3 10 28  1  1  0.0000000  0  8G01G03G11G14G20G23G25G31
  24456204.35405  24456203.79305  24456206.43705  -1839542.31405  -1433409.42605
  25074410.58105  25074410.68205  25074411.86105    931285.96405    725677.51005
  20601238.23809  20601238.28409  20601236.72509 -23921480.60509 -18640109.14909
  22074259.09709  22074258.92309  22074258.06809 -13125344.65309 -10227533.62309
  22317054.53009  22317054.07009  22317053.10109 -14188854.90209 -11056246.89509
  23996787.43408  23996787.04408  23996787.44708  -2215919.51908  -1726683.43008
  22746274.47209  22746274.43509  22746275.11209 -11478015.39809  -8943905.87509
  22991089.92509  22991089.43009  22991089.89309  -9302027.29909  -7248332.23709
  3 10 28  1  1 30.0000000  0  8G01G03G11G14G20G23G25G31
  24435811.93805  24435811.80605  24435813.54605  -1946707.35005  -1516914.65805
  25094016.98205  25094017.20505  25094017.91705   1034311.54805    805957.17405
  20594514.23909  20594514.27809  20594512.75909 -23956815.60109 -18667642.91609
  22089345.23109  22089345.09409  22089344.18309 -13046066.35709 -10165758.33209
  22304625.34809  22304625.00009  22304624.54609 -14254168.71809 -11107140.76009
  24010113.59308  24010112.99008  24010113.87008  -2145889.95908  -1672114.97808
  22734012.66709  22734012.36409  22734012.97009 -11542453.23809  -8994117.16909
  23009198.82009  23009198.61509  23009198.98009  -9206863.06809  -7174178.30809
  3 10 28  1  2  0.0000000  0  8G01G03G11G14G20G23G25G31
  24415439.64005  24415439.82105  24415441.91205  -2053760.29105  -1600332.52605
  25113598.64603  25113597.51803  25113597.61503   1137221.31103    886146.50203
  20587870.09709  20587870.13109  20587868.52009 -23991731.27409 -18694849.93509
  22104488.43409  22104488.16809  22104487.28909 -12966488.50409 -10103749.62109
  22292225.38409  22292224.98909  22292224.53109 -14319332.81109 -11157917.95609
  24023441.76508  24023441.39808  24023442.40008  -2075849.29808  -1617537.88308
  22721811.94109  22721811.73609  22721812.43909 -11606567.78909  -9044076.53809
  23027339.62509  23027339.33309  23027339.88109  -9111531.75609  -7099894.18609
  3 10 28  1  2 30.0000000  0  8G01G03G11G14G20G23G25G31
  24395094.54806  24395093.64206  24395096.09406  -2160680.30406  -1683646.82206
  25133163.53205  25133163.18105  25133164.42705   1240031.49005    966258.29205
  20581309.47209  20581309.52809  20581307.87709 -24026207.31209 -18721714.38509
  22119691.55709  22119691.36509  22119690.52009 -12886594.86909 -10041494.84909
  22279856.78309  22279856.35409  22279855.93809 -14384328.34409 -11208563.80309
  24036775.67808  24036775.41208  24036776.39308  -2005778.78508  -1562937.53408
  22709677.15709  22709677.00509  22709677.42309 -11670337.54509  -9093767.24209
  23045515.47009  23045515.13809  23045515.64309  -9016017.49209  -7025467.51009
  3 10 28  1  3  0.0000000  0  8G01G03G11G14G20G23G25G31
  24374771.53806  24374770.76006  24374772.96806  -2267479.23706  -1766866.77306
  25152705.32306  25152705.06606  25152706.53406   1342726.11106   1046280.09506
  20574830.35309  20574830.34309  20574828.68709 -24060255.63009 -18748245.54509
  22134951.80809  22134951.70209  22134950.94309 -12806401.63809  -9979006.61909
  22267518.41809  22267518.01309  22267517.33109 -14449168.48309 -11259088.56109
  24050112.81707  24050112.27007  24050113.24807  -1935692.05207  -1508324.53407
  22697605.69009  22697605.59109  22697605.90409 -11733773.45609  -9143197.80609
  23063723.10909  23063722.65809  23063723.07209  -8920336.82809  -6950911.17509
  3 10 28  1  3 30.0000000  0  8G01G03G11G14G20G23G25G31
  24354475.24906  24354474.63706  24354476.54206  -2374135.76306  -1849975.75906
  25172228.74306  25172228.73706  25172231.19906   1445322.52106   1126225.41606
  20568436.44209  20568436.49209  20568434.99109 -24093855.11509 -18774426.96409
  22150272.55609  22150272.27509  22150271.48309 -12725892.03809  -9916271.87109
  22255212.98709  22255212.53309  22255212.30609 -14513833.65409 -11309476.99009
  24063456.60607  24063455.97507  24063456.85307  -1865569.99407  -1453683.99707
  22685601.93809  22685601.72409  22685602.14409 -11796853.50909  -9192351.07909
  23081965.33309  23081964.92109  23081965.41509  -8824473.48809  -6876212.49009
  3 10 28  1  4  0.0000000  0  8G01G03G11G14G20G23G25G31
  24334206.02006  24334206.29206  24334208.05006  -2480650.84506  -1932974.52906
  25191732.48405  25191733.15905  25191726.28505   1547815.62505   1206090.20105
  20562127.93909  20562127.97209  20562126.46509 -24127006.91609 -18800259.54109
  22165652.32309  22165652.01209  22165651.12609 -12645071.09909  -9853294.52309
  22242940.22809  22242939.92809  22242939.55909 -14578326.49309 -11359731.12509
  24076806.66007  24076806.01007  24076806.93707  -1795415.18807  -1399017.94907
  22673665.83209  22673665.80009  22673665.93609 -11859577.98709  -9241227.28409
  23100241.35509  23100240.91009  23100241.27909  -8728433.16809  -6801375.89909
  3 10 28  1  4 30.0000000  0  8G01G03G11G14G20G23G25G31
  24313961.73307  24313961.96407  24313963.64507  -2587036.14907  -2015872.19407
  25211213.23003  25211213.86503  25211219.57203   1650189.65013   1285862.92013
  20555902.35709  20555902.34409  20555900.73709 -24159723.12909 -18825752.70109
  22181087.97109  22181087.77309  22181087.07409 -12563954.98209  -9790087.16609
  22230697.97909  22230697.51209  22230697.10509 -14642660.09909 -11409861.18309
  24090160.54707  24090159.76507  24090160.52007  -1725241.34607  -1344337.06607
  22661795.30709  22661795.12509  22661795.47709 -11921957.87309  -9289834.97409
  23118547.60009  23118547.35009  23118547.72309  -8632232.32309  -6726414.21709
  3 10 28  1  5  0.0000000  0  8G01G03G11G14G20G23G25G31
  24293742.46907  24293742.34707  24293744.02107  -2693288.42907  -2098666.18707
  25230673.80405  25230672.74305  25230668.29105   1752443.59605   1365541.28105
  20549760.08109  20549760.06009  20549758.54609 -24192000.73409 -18850904.08409
  22196579.81209  22196579.70909  22196578.90709 -12482544.70509  -9726650.59009
  22218486.24509  22218485.88609  22218485.65709 -14706832.70309 -11459865.79009
  24103517.97707  24103517.33707  24103518.15807  -1655047.10407  -1289640.28807
  22649991.16609  22649991.01609  22649991.19209 -11983989.15909  -9338171.02509
  23136884.16109  23136883.88609  23136884.43209  -8535872.43809  -6651328.61709
  3 10 28  1  5 30.0000000  0  8G01G03G11G14G20G23G25G31
  24273549.04107  24273548.90407  24273550.68107  -2799406.03207  -2181355.25007
  25250107.94307  25250107.64907  25250108.56507   1854574.76207   1445123.97107
  20543701.49309  20543701.50609  20543700.11509 -24223838.34409 -18875712.61009
  22212127.20409  22212127.01509  22212126.33309 -12400842.97309  -9662986.90509
  22206305.24409  22206304.78309  22206304.68809 -14770844.45009 -11509745.04709
  24116879.20007  24116878.68907  24116879.75507  -1584832.84307  -1234927.92107
  22638253.52609  22638253.61009  22638253.84509 -12045669.69609  -9386233.76009
  23155250.48709  23155250.08009  23155250.61609  -8439356.86709  -6576121.70209
  3 10 28  1  6  0.0000000  0  8G01G03G11G14G20G23G25G31
  24253382.12007  24253382.15507  24253383.68807  -2905383.70307  -2263935.25007
  25269519.35508  25269519.03008  25269520.53008   1956584.22808   1524611.82108
  20537727.65209  20537727.69609  20537726.27109 -24255231.24609 -18900174.61409
  22227730.09509  22227729.92609  22227729.27009 -12318848.93109  -9599095.45009
  22194155.43209  22194155.03809  22194154.82509 -14834691.48409 -11559495.95909
  24130244.98807  24130244.43907  24130245.10407  -1514595.28607  -1180197.39307
  22626584.02409  22626583.94009  22626584.33209 -12106993.49009  -9434018.51409
  23173646.41509  23173646.06009  23173646.50809  -8342685.16509  -6500793.13009
  3 10 28  1  6 30.0000000  0  9G01G03G07G11G14G20G23G25G31
  24233242.55507  24233242.16707  24233244.10407  -3011218.75507  -2346404.15107
  25288907.43708  25288907.07408  25288909.02108   2058470.55908   1604003.70108
  25377328.60305  25377328.63505  25377328.09105         -.63715          .24015
  20531838.82209  20531838.84209  20531837.47009 -24286177.22609 -18924288.36709
  22243388.34909  22243388.18909  22243387.46309 -12236564.49409  -9534977.71309
  22182037.40209  22182036.93809  22182036.59809 -14898373.03209 -11609117.92909
  24143615.38307  24143614.76607  24143615.68707  -1444333.68607  -1125448.12607
  22614983.28109  22614983.10209  22614983.31109 -12167956.98009  -9481522.51009
  23192071.80609  23192071.31609  23192071.72509  -8245859.59209  -6425344.64609
  3 10 28  1  7  0.0000000  0  9G01G03G07G11G14G20G23G25G31
  24213131.36607  24213131.00507  24213132.62407  -3116903.45207  -2428755.84907
  25308272.89308  25308272.45308  25308273.36908   2160237.40008   1683302.50608
  25363509.08505  25363508.90505  25363509.60405    -72621.60505    -56587.55005
  20526036.44909  20526036.48609  20526035.09309 -24316669.08209 -18948048.26009
  22259102.42909  22259102.40409  22259101.57509 -12153986.24909  -9470631.03009
  22169951.67809  22169951.23509  22169951.15209 -14961882.84309 -11658606.07709
  24156991.37507  24156990.79407  24156991.81607  -1374042.10907  -1070675.49907
  22603452.07309  22603452.04509  22603452.36709 -12228551.93109  -9528739.34009
  23210527.24909  23210526.58409  23210526.97309  -8148877.19109  -6349773.96109
  3 10 28  1  7 30.0000000  0  8G01G07G11G14G20G23G25G31
  24193049.56207  24193049.27407  24193050.38407  -3222435.78107  -2510988.84507
  25349754.32605  25349753.57705  25349753.46705   -144907.27205   -112914.09605
  20520320.94309  20520320.96109  20520319.55709 -24346704.72909 -18971452.66409
  22274872.08709  22274871.93909  22274871.05209 -12071116.37009  -9406057.10509
  22157899.15609  22157898.77409  22157898.35309 -15025220.48709 -11707960.07109
  24170373.22807  24170372.53107  24170373.50207  -1303720.68807  -1015879.63207
  22591991.73409  22591991.72009  22591992.25809 -12288775.85409  -9575667.05309
  23229011.60309  23229011.24109  23229011.46409  -8051740.76309  -6274083.25509
  3 10 28  1  8  0.0000000  0  9G01G03G07G11G14G20G23G25G31
  24172993.42907  24172992.76307  24172994.49707  -3327831.06207  -2593115.03007
  25346931.11607  25346930.52507  25346932.51407         -.48817          .04017
  25336059.53105  25336058.81305  25336059.05005   -216872.59905   -168990.96805
  20514689.22809  20514689.25809  20514687.87709 -24376299.71709 -18994513.69709
  22290693.61809  22290693.33709  22290692.34309 -11987974.68909  -9341271.38809
  22145875.91709  22145875.54709  22145875.16109 -15088402.64009 -11757192.91509
  24183757.21807  24183756.50907  24183757.60507  -1233386.37207   -961073.70807
  22580599.29509  22580599.27209  22580599.86109 -12348643.47109  -9622317.13009
  23247521.52409  23247521.07809  23247521.46309  -7954470.34109  -6198288.14209
  3 10 28  1  8 30.0000000  0  8G01G07G11G14G20G23G25G31
  24152965.61907  24152965.37207  24152966.44207  -3433076.81607  -2675124.69107
  25322428.25205  25322427.27005  25322428.13205   -288505.14905   -224808.53805
  20509143.51609  20509143.54409  20509142.25209 -24405442.22809 -19017222.14509
  22306568.30209  22306568.08009  22306566.99809 -11904552.94209  -9276267.43509
  22133884.21009  22133883.86909  22133883.52509 -15151418.65509 -11806296.28409
  24197145.74407  24197145.01107  24197146.23107  -1163028.82907   -906249.69307
  22569277.51809  22569277.38709  22569277.62809 -12408141.67209  -9668679.34109
  23266058.33108  23266057.93308  23266058.51608  -7857058.40408  -6122382.75908
  3 10 28  1  9  0.0000000  0  8G01G07G11G14G20G23G25G31
  24132967.46407  24132967.41007  24132968.88707  -3538167.34407  -2757013.41907
  25308861.73805  25308860.91505  25308861.60205   -359798.84305   -280362.11005
  20503685.06009  20503685.06809  20503683.75109 -24434126.57309 -19039573.58709
  22322496.58309  22322496.36409  22322495.22409 -11820849.62809  -9211044.08009
  22121925.53309  22121925.16209  22121924.48409 -15214264.17009 -11855266.79909
  24210539.54207  24210539.10207  24210540.01307  -1092644.01107   -851404.41607
  22558026.82209  22558026.79009  22558027.00609 -12467263.88709  -9714748.58209
  23284622.27408  23284621.72808  23284622.47208  -7759503.91808  -6046366.30208
  3 10 28  1  9 30.0000000  0  8G01G07G11G14G20G23G25G31
  24113001.33607  24113000.83907  24113002.04507  -3643093.22107  -2838773.82507
  25295361.28605  25295360.92605  25295361.07805   -430744.19005   -335644.24805
  20498315.43509  20498315.46409  20498314.18109 -24462343.84109 -19061561.07109
  22338479.44209  22338479.11409  22338477.89109 -11736859.72409  -9145597.41109
  22110000.11709  22109999.69709  22109999.41509 -15276931.24509 -11904098.27609
  24223939.69007  24223939.10407  24223940.36907  -1022224.48607   -796532.09807
  22546849.75709  22546849.75009  22546849.87809 -12525999.95709  -9760516.92609
  23303214.29808  23303213.79808  23303214.54708  -7661802.29108  -5970235.18808
  3 10 28  1 10  0.0000000  0  8G01G07G11G14G20G23G25G31
  24093063.43807  24093063.18307  24093064.59507  -3747866.91807  -2920415.67207
  25281924.84605  25281923.96305  25281924.49805   -501353.18805   -390664.24805
  20493032.25109  20493032.23009  20493031.03209 -24490107.21209 -19083194.87009
  22354513.47709  22354513.26209  22354512.04409 -11652599.84509  -9079940.37109
  22098106.26009  22098105.93209  22098105.14309 -15339433.99509 -11952801.69609
  24237343.76907  24237343.40307  24237344.46307   -951784.45307   -741643.79907
  22535743.91109  22535743.80609  22535743.88509 -12584362.05809  -9805993.87209
  23321831.18608  23321830.64108  23321831.11108  -7563970.71008  -5894002.80708
  3 10 28  1 10 30.0000000  0  8G01G07G11G14G20G23G25G31
  24073153.99808  24073153.81708  24073154.70108  -3852491.61008  -3001941.40908
  25268552.30605  25268551.66305  25268551.58005   -571629.15105   -445424.75905
  20487834.89009  20487834.86209  20487833.53909 -24517419.99509 -19104477.55909
  22370597.58909  22370597.28909  22370596.13109 -11568077.72009  -9014078.98309
  22086242.86609  22086242.43409  22086241.62409 -15401777.17209 -12001380.78309
  24250751.22307  24250750.94207  24250751.88407   -881329.00407   -686743.48707
  22524708.33709  22524708.30609  22524708.55909 -12642352.78409  -9851181.43509
  23340471.32608  23340470.78708  23340471.18008  -7466017.10308  -5817675.34208
  3 10 28  1 11  0.0000000  0  8G01G07G11G14G20G23G25G31
  24053275.98808  24053275.76308  24053276.64708  -3956952.44408  -3083339.47708
  25255245.55605  25255245.19905  25255244.30405   -641556.65505   -499913.74505
  20482725.97809  20482725.93609  20482724.55709 -24544267.64809 -19125397.81109
  22386733.41209  22386733.22209  22386732.21609 -11483282.52809  -8948004.81809
  22074412.34009  22074411.87609  22074411.27709 -15463947.28209 -12049825.00609
  24264164.20707  24264163.97907  24264164.40807   -810845.04007   -631820.95607
  22513746.94609  22513746.87409  22513746.97809 -12699956.17109  -9896067.17609
  23359136.17008  23359135.76208  23359136.22908  -7367931.34208  -5741244.89908
  3 10 28  1 11 30.0000000  0  8G01G07G11G14G20G23G25G31
  24033429.49308  24033428.96908  24033429.86408  -4061247.14108  -3164608.07708
  25242005.31705  25242004.94505  25242005.12905   -711133.39405   -554129.42005
  20477705.74609  20477705.81609  20477704.47809 -24570648.11309 -19145954.02009
  22402920.93309  22402920.78609  22402919.63209 -11398216.44509  -8881719.57309
  22062614.75709  22062614.37509  22062613.65709 -15525943.58309 -12098133.79409
  24277582.57807  24277582.02307  24277582.71107   -740332.05107   -576875.80807
  22502859.52109  22502859.44609  22502859.75409 -12757169.66509  -9940649.10109
  23377825.91508  23377825.58208  23377825.93208  -7269715.88608  -5664713.39408
  3 10 28  1 12  0.0000000  0  8G01G07G11G14G20G23G25G31
  24013613.61308  24013613.23808  24013614.07708  -4165380.86108  -3245751.25308
  25228831.15605  25228830.18905  25228830.96805   -780364.27405   -608075.58905
  20472773.59209  20472773.56909  20472772.24409 -24596567.29909 -19166150.79209
  22419158.39309  22419158.15509  22419157.09009 -11312888.83909  -8815230.53809
  22050849.17509  22050848.73509  22050847.93609 -15587772.81109 -12146312.39409
  24291004.96907  24291004.71307  24291005.01707   -669797.13507   -521913.57607
  22492045.36309  22492045.38409  22492045.70609 -12813997.89409  -9984930.81709
  23396538.29808  23396538.02108  23396538.78208  -7171380.73708  -5588088.62308
  3 10 28  1 12 30.0000000  0  8G01G07G11G14G20G23G25G31
  23993828.40108  23993828.29008  23993829.47808  -4269350.24808  -3326766.36308
  25215722.44805  25215722.23305  25215722.83505   -849245.95205   -661749.63005
  20467929.62609  20467929.65709  20467928.37209 -24622022.05709 -19185985.67109
  22435445.30309  22435445.10809  22435443.99309 -11227300.54409  -8748538.36909
  22039115.30109  22039114.94409  22039114.40309 -15649433.25309 -12194359.47709
  24304431.80307  24304431.24807  24304432.13307   -599238.69807   -466933.02807
  22481305.61909  22481305.46609  22481305.76209 -12870436.75609 -10028909.13809
  23415273.32208  23415273.10708  23415273.74608  -7072927.39508  -5511371.75408
  3 10 28  1 13  0.0000000  0  8G01G07G11G14G20G23G25G31
  23974074.56907  23974074.17307  23974075.96107  -4373156.16607  -3407654.09507
  25202681.16005  25202680.18505  25202681.41505   -917779.10705   -715152.11805
  20463173.86809  20463173.92709  20463172.58509 -24647013.82409 -19205459.78309
  22451780.82409  22451780.55409  22451779.51209 -11141456.95109  -8681647.26909
  22027413.64809  22027413.16709  22027412.53509 -15710927.06609 -12242276.71909
  24317862.49907  24317862.13407  24317863.18807   -528659.57407   -411936.35407
  22470639.45109  22470639.42109  22470639.75809 -12926487.01809 -10072584.65109
  23434029.93508  23434029.48408  23434030.26208  -6974361.32708  -5434567.04408
  3 10 28  1 13 30.0000000  0  8G01G07G11G14G20G23G25G31
  23954351.92907  23954351.79007  23954353.23407  -4476798.05907  -3488414.00207
  25189706.04305  25189705.97305  25189706.23405   -985963.00705   -768282.45805
  20458506.37509  20458506.36409  20458504.87109 -24671542.54909 -19224573.07809
  22468164.13609  22468163.91709  22468162.74709 -11055361.82409  -8614560.16709
  22015743.32009  22015742.84909  22015742.34509 -15772255.27709 -12290064.91709
  24331297.13407  24331296.48707  24331297.64307   -458060.97207   -356924.49507
  22460047.89209  22460047.84209  22460047.86309 -12982147.18509 -10115956.19009
  23452807.09108  23452806.61208  23452807.48908  -6875686.79808  -5357677.82708
  3 10 28  1 14  0.0000000  0  8G01G07G11G14G20G23G25G31
  23934662.46007  23934662.16807  23934663.98807  -4580266.64007  -3569038.84907
  25176799.45905  25176798.51005  25176799.64405  -1053788.19305   -821133.28905
  20453928.48309  20453928.48709  20453926.93109 -24695599.20809 -19243318.52609
  22484596.37009  22484596.12009  22484595.06209 -10969009.98909  -8547273.03209
  22004106.00309  22004105.58409  22004104.72209 -15833409.96409 -12337717.90409
  24344736.62707  24344736.09507  24344737.25307   -387435.22007   -301891.48307
  22449532.43009  22449532.23709  22449532.12509 -13037407.19409 -10159015.92409
  23471605.60008  23471605.25808  23471606.08508  -6776899.17308  -5280700.47908
  3 10 28  1 14 30.0000000  0  8G01G07G11G14G20G23G25G31
  23915004.15407  23915003.96407  23915005.75007  -4683570.56507  -3649535.39807
  25163959.77505  25163959.85005  25163960.38005  -1121262.90805   -873711.01405
  20449438.73509  20449438.72409  20449437.19809 -24719192.84409 -19261703.17909
  22501074.88609  22501074.77809  22501073.62009 -10882414.15909  -8479795.77209
  21992499.61009  21992499.13709  21992498.54109 -15894401.30009 -12385243.60509
  24358179.90107  24358179.16607  24358180.19907   -316792.70607   -246845.40107
  22439091.22109  22439091.10009  22439091.08909 -13092275.49709 -10201770.42709
  23490423.68108  23490423.26108  23490423.71108  -6678011.65808  -5203645.29408
  3 10 28  1 15  0.0000000  0  8G01G07G11G14G20G23G25G31
  23895380.85707  23895380.61907  23895382.53507  -4786691.04307  -3729888.99407
  25151189.70105  25151189.69305  25151190.16505  -1188368.19305   -926000.84405
  20445040.70609  20445040.71509  20445039.11609 -24742305.08409 -19279712.72009
  22517602.93309  22517602.65409  22517601.62509 -10795559.66609  -8412116.95609
  21980927.73009  21980927.35809  21980926.72809 -15955211.66609 -12432628.28909
  24371629.44407  24371628.55407  24371629.64807   -246116.52507   -191773.08407
  22428728.32509  22428728.17609  22428728.22909 -13146732.53509 -10244204.46609
  23509262.94308  23509262.64908  23509263.36508  -6579010.17508  -5126501.30308
  3 10 28  1 15 30.0000000  0  8G01G07G11G14G20G23G25G31
  23875793.50207  23875792.68207  23875794.37307  -4889625.44507  -3810097.59007
  25138490.94405  25138490.38105  25138491.75605  -1255101.46905   -978000.83905
  20440734.65509  20440734.66609  20440733.02209 -24764933.75309 -19297345.45109
  22534179.65409  22534179.55309  22534178.41809 -10708448.23009  -8344237.92609
  21969390.49109  21969390.05209  21969389.44609 -16015840.37209 -12479871.42209
  24385085.38707  24385084.60407  24385085.35207   -175405.70207   -136673.77107
  22418444.31509  22418444.16209  22418444.20609 -13200775.16909 -10286315.59709
  23528123.66308  23528123.28308  23528123.79708  -6479896.87808  -5049270.18008
  3 10 28  1 16  0.0000000  0  8G01G07G11G14G20G23G25G31
  23856238.10707  23856237.77307  23856239.48207  -4992387.82507  -3890172.14707
  25125860.19805  25125860.12205  25125860.13605  -1321476.62105  -1029721.74805
  20436517.75309  20436517.79809  20436516.20209 -24787093.22909 -19314612.57309
  22550801.94409  22550801.73309  22550800.71809 -10621098.18809  -8276172.96809
  21957884.58209  21957884.19309  21957883.77609 -16076302.55709 -12526984.79509
  24398544.50307  24398543.76707  24398545.03507   -104676.08507    -81559.82507
  22408236.37609  22408236.37809  22408236.54009 -13254417.03509 -10328114.43409
  23547002.37708  23547001.79808  23547002.53008  -6380690.55208  -4971966.57408
  3 10 28  1 16 30.0000000  0  8G01G07G11G14G20G23G25G31
  23836717.70307  23836717.53207  23836719.05407  -5094968.32207  -3970105.00407
  25113299.60905  25113299.80205  25113299.58705  -1387483.55005  -1081155.74205
  20432392.01409  20432391.97509  20432390.43409 -24808774.47309 -19331507.04709
  22567470.58409  22567470.42909  22567469.33009 -10533503.88309  -8207917.67309
  21946412.31309  21946411.84009  21946411.54109 -16136589.96709 -12573961.97709
  24412008.88307  24412008.21207  24412009.25007    -33919.53507    -26424.88107
  22398106.88709  22398106.87909  22398106.96809 -13307647.54609 -10369592.73609
  23565899.44108  23565898.86908  23565899.30508  -6281385.93908  -4894586.38608
  3 10 28  1 17  0.0000000  0  8G01G07G11G14G20G23G25G31
  23817231.54507  23817231.44507  23817232.91707  -5197368.75607  -4049897.53507
  25100809.15105  25100808.71605  25100809.62805  -1453124.04705  -1132304.21505
  20428356.64009  20428356.66809  20428355.17209 -24829980.01309 -19348030.84509
  22584184.58509  22584184.40809  22584183.32609 -10445671.27909  -8139476.69509
  21934972.31509  21934971.98509  21934971.93509 -16196705.84709 -12620805.50609
  24425477.54407  24425477.25107  24425478.57307     36860.55107     28728.40907
  22388055.58809  22388055.47709  22388055.55609 -13360468.24909 -10410751.70609
  23584813.75808  23584813.24708  23584813.67308  -6181989.56408  -4817134.68408
  3 10 28  1 17 30.0000000  0  8G01G07G11G14G20G23G25G31
  23797777.65507  23797777.39307  23797778.75107  -5299600.23007  -4129558.42207
  25088386.54805  25088385.99305  25088386.17005  -1518409.08305  -1183175.67205
  20424409.89209  20424409.91709  20424408.40909 -24850720.74409 -19364192.46009
  22600940.97009  22600940.68909  22600939.71109 -10357615.82809  -8070862.07009
  21923563.09609  21923562.62209  21923562.45109 -16256662.75209 -12667525.15509
  24438948.55507  24438948.03507  24438949.60007    107651.04707     83889.80807
  22378079.97509  22378079.94209  22378080.07709 -13412889.98109 -10451599.78409
  23603742.58608  23603742.02908  23603742.67508  -6082517.20008  -4739623.75408
  3 10 28  1 18  0.0000000  0  8G01G07G11G14G20G23G25G31
  23778357.38607  23778357.35207  23778359.32007  -5401651.45307  -4209078.84407
  25076031.62005  25076030.91405  25076032.42405  -1583327.25105  -1233761.27905
  20420553.52309  20420553.53609  20420552.07109 -24870986.08109 -19379983.63309
  22617741.07509  22617740.92309  22617739.84909 -10269330.26209  -8002068.12909
  21912185.63309  21912185.19809  21912185.07409 -16316450.63609 -12714113.10509
  24452423.32107  24452422.99607  24452424.35707    178461.70807    139066.90207
  22368182.96109  22368182.73509  22368182.78109 -13464900.49509 -10492127.43509
  23622687.37108  23622686.92408  23622687.14308  -5982962.22908  -4662048.46908
  3 10 28  1 18 30.0000000  0  8G01G07G11G14G20G23G25G31
  23758976.12307  23758975.83607  23758978.54307  -5503500.72207  -4288441.90707
  25063753.02405  25063752.63905  25063752.36005  -1647856.57805  -1284043.89105
  20416791.50609  20416791.55009  20416790.12009 -24890755.18209 -19395388.13009
  22634588.45609  22634588.30809  22634587.11509 -10180797.02009  -7933081.19609
  21900844.41109  21900843.96009  21900843.73109 -16376049.37509 -12760553.65609
  24465906.21807  24465905.46107  24465907.04207    249312.43707    194275.21907
  22358367.87609  22358367.78309  22358368.01809 -13516477.78109 -10532317.51109
  23641650.97608  23641650.68708  23641651.14008  -5883307.48008  -4584395.43008
  3 10 28  1 19  0.0000000  0  8G01G07G11G14G20G23G25G31
  23739628.89507  23739628.67707  23739631.08807  -5605171.60907  -4367665.94007
  25051542.98405  25051541.84405  25051543.17805  -1712020.56305  -1334041.81905
  20413119.62909  20413119.60409  20413118.05809 -24910051.85009 -19410424.49609
  22651477.94909  22651477.62809  22651476.32909 -10092043.81009  -7863922.86009
  21889534.55709  21889534.06609  21889533.61909 -16435484.06009 -12806866.38909
  24479391.39007  24479391.06707  24479392.19607    320177.87007    249495.00807
  22348631.10109  22348630.99009  22348631.21709 -13567644.71109 -10572187.82109
  23660628.19608  23660627.79208  23660628.13608  -5783581.33608  -4506686.75508
  3 10 28  1 19 30.0000000  0  8G01G07G11G14G20G23G25G31
  23720316.76107  23720316.57407  23720319.00607  -5706657.69107  -4446745.96407
  25039403.70806  25039403.37506  25039403.83506  -1775812.58906  -1383749.89606
  20409538.67409  20409538.67809  20409537.02509 -24928870.34309 -19425088.25809
  22668409.33309  22668409.01009  22668407.75909 -10003068.46109  -7794591.43109
  21878256.58809  21878256.09709  21878255.99009 -16494749.45609 -12853047.20409
  24492880.26607  24492879.95607  24492881.23507    391062.92007    304730.08607
  22338973.96209  22338973.82109  22338973.69609 -13618394.49109 -10611733.08309
  23679619.49508  23679618.95408  23679619.60608  -5683781.78508  -4428920.88708
  3 10 28  1 20  0.0000000  0  8G01G07G11G14G20G23G25G31
  23701041.57107  23701041.26907  23701043.34607  -5807951.77807  -4525676.41007
  25027336.73306  25027336.52406  25027336.55006  -1839225.53706  -1433162.58406
  20406049.86009  20406049.88209  20406048.32509 -24947203.55109 -19439373.87909
  22685383.56709  22685383.30309  22685382.08509  -9913867.77809  -7725084.41109
  21867012.23709  21867011.78609  21867011.38009 -16553839.72009 -12899091.55509
  24506373.85407  24506373.33607  24506374.84007    461973.18607    359984.82007
  22329397.20809  22329397.10909  22329397.21109 -13668719.58309 -10650947.41909
  23698625.34908  23698624.92808  23698625.29308  -5583906.33208  -4351095.87708
  3 10 28  1 20 30.0000000  0  8G01G07G11G14G20G23G25G31
  23681805.30107  23681804.93107  23681806.96107  -5909039.00007  -4604445.66307
  25015344.00606  25015343.37106  25015344.50006  -1902244.29806  -1482268.13106
  20402656.13909  20402656.12609  20402654.59009 -24965037.70709 -19453270.62809
  22702402.73509  22702402.47409  22702401.41609  -9824431.10209  -7655393.50209
  21855803.46009  21855803.00509  21855802.85409 -16612741.48209 -12944989.02309
  24519875.01207  24519874.57607  24519876.11707    532921.66107    415269.32307
  22319904.50409  22319904.40309  22319904.46209 -13718604.78109 -10689818.98009
  23717647.48208  23717647.04208  23717647.31808  -5483944.71608  -4273203.71808
  3 10 28  1 21  0.0000000  0  8G01G07G11G14G20G23G25G31
  23662604.01008  23662603.88508  23662605.56608  -6009942.56608  -4683071.79408
  25003422.77506  25003422.33606  25003422.69106  -1964892.08506  -1531084.62606
  20399352.81609  20399352.89509  20399351.33409 -24982396.20109 -19466796.73009
  22719461.60309  22719461.28409  22719460.34609  -9734785.77409  -7585540.00909
  21844626.29209  21844625.79109  21844625.48909 -16671479.14609 -12990758.62709
  24533378.96607  24533378.28007  24533379.89207    603883.45507    470564.20907
  22310491.02909  22310490.96009  22310490.90209 -13768072.85909 -10728365.51809
  23736680.62308  23736680.11808  23736680.68908  -5383924.84208  -4195266.16708
  3 10 28  1 21 30.0000000  0  8G01G07G11G14G20G23G25G31
  23643439.06408  23643438.69708  23643440.59308  -6110654.88308  -4761548.91608
  24991573.12206  24991573.07306  24991573.26206  -2027161.26706  -1579606.10506
  20396141.58209  20396141.58409  20396139.94809 -24999271.97609 -19479946.69109
  22736560.84509  22736560.61409  22736559.68409  -9644928.29109  -7515521.19909
  21833481.16609  21833480.79009  21833480.45309 -16730046.62709 -13036395.61909
  24546885.90507  24546885.39907  24546887.05007    674864.57907    525874.16407
  22301158.36409  22301158.23409  22301158.45009 -13817115.56309 -10766580.59509
  23755725.42408  23755725.08508  23755725.41508  -5283843.51508  -4117280.73308
  3 10 28  1 22  0.0000000  0  8G01G07G11G14G20G23G25G31
  23624313.35407  23624313.09807  23624314.99507  -6211160.01407  -4839864.58007
  24979798.75105  24979798.14605  24979799.38705  -2089035.67105  -1627819.97705
  20393024.98609  20393024.98709  20393023.43709 -25015649.72809 -19492708.58209
  22753702.94809  22753702.71609  22753701.65909  -9554846.62409  -7445327.70509
  21822371.42609  21822370.94609  21822370.63709 -16788429.19909 -13081888.52809
  24560399.66707  24560399.22607  24560400.17107    745879.38307    581210.37507
  22291909.74109  22291909.73609  22291909.94209 -13865716.65209 -10804451.55709
  23774784.20308  23774783.76408  23774783.94208  -5183689.41408  -4039238.59008
  3 10 28  1 22 30.0000000  0  8G01G07G11G14G20G23G25G31
  23605226.05507  23605225.73707  23605227.59107  -6311465.26207  -4918024.49807
  24968098.59006  24968098.10806  24968098.70806  -2150522.35806  -1675731.68906
  20390001.58009  20390001.61709  20390000.16609 -25031537.39209 -19505088.58209
  22770885.40809  22770885.18609  22770884.29009  -9464552.08609  -7374968.33509
  21811295.30209  21811294.86409  21811294.42709 -16846635.25909 -13127243.89309
  24573917.67806  24573917.29506  24573918.44806    816919.06706    636565.97506
  22282743.99509  22282743.95909  22282744.26909 -13913882.88109 -10841983.66709
  23793854.45608  23793853.97708  23793854.15808  -5083474.30208  -3961148.90108
  3 10 28  1 23  0.0000000  0  8G01G07G11G14G20G23G25G31
  23586177.18407  23586176.70707  23586178.58107  -6411567.35507  -4996026.10907
  24956472.39806  24956471.41906  24956472.42206  -2211618.24506  -1723338.89506
  20387072.07709  20387072.13709  20387070.60709 -25046932.30109 -19517084.61609
  22788108.21809  22788107.91809  22788107.17509  -9374045.87009  -7304444.02209
  21800253.08409  21800252.60709  21800252.09409 -16904663.18409 -13172460.45109
  24587441.25506  24587440.43506  24587441.94906    887985.06106    691942.07706
  22273661.68109  22273661.61209  22273661.79509 -13961610.99209 -10879174.38909
  23812935.94107  23812935.61907  23812935.89507  -4983199.60407  -3883012.78707
  3 10 28  1 23 30.0000000  0  8G01G07G11G14G20G23G25G31
  23567166.28307  23567166.05207  23567167.76307  -6511471.00007  -5073873.07807
  24944919.95306  24944919.27006  24944920.64706  -2272327.96606  -1770645.21206
  20384235.34909  20384235.39009  20384233.79909 -25061839.63509 -19528700.72209
  22805369.60809  22805369.27209  22805368.52109  -9283336.62609  -7233761.50809
  21789243.37409  21789242.97909  21789242.53209 -16962519.19309 -13217543.04509
  24600968.55006  24600968.26006  24600969.61506    959070.84306    747333.57506
  22264661.75609  22264661.69009  22264662.17309 -14008905.16909 -10916026.97609
  23832027.09707  23832026.59107  23832026.76807  -4882874.61007  -3804837.48207
  3 10 28  1 24  0.0000000  0  8G01G07G11G14G20G23G25G31
  23548193.74908  23548193.47808  23548195.07608  -6611173.19108  -5151563.07108
  24933441.52706  24933441.21506  24933441.56806  -2332648.35606  -1817648.14606
  20381491.78509  20381491.79409  20381490.22309 -25076257.11309 -19539935.12609
  22822669.28609  22822669.04309  22822668.39409  -9192425.30109  -7162921.52509
  21778266.95009  21778266.51909  21778265.94109 -17020201.51509 -13262490.29309
  24614499.71306  24614499.43706  24614500.06806   1030178.03806    802741.76506
  22255745.32509  22255745.28009  22255745.34109 -14055762.05409 -10952538.81709
  23851127.75908  23851127.35108  23851127.21108  -4782500.79508  -3726624.12608
  3 10 28  1 24 30.0000000  0  8G01G07G11G14G20G23G25G31
  23529259.77708  23529259.37308  23529260.67308  -6710672.00008  -5229094.58908
  24922036.73306  24922036.83206  24922037.54306  -2392577.36806  -1864346.07406
  20378841.64609  20378841.66809  20378840.15909 -25090183.40509 -19550786.78609
  22840006.89009  22840006.82609  22840006.18409  -9101314.09809  -7091925.79009
  21767323.63409  21767323.15409  21767322.49909 -17077709.28309 -13307301.52609
  24628035.10806  24628034.54506  24628035.79006   1101307.12706    858167.00906
  22246912.07709  22246911.97909  22246912.57309 -14102179.30109 -10988708.08509
  23870237.08108  23870236.69308  23870236.38808  -4682080.71808  -3648374.71508
  3 10 28  1 25  0.0000000  0  8G01G07G11G14G20G23G25G31
  23510365.61108  23510365.61908  23510366.95508  -6809960.05108  -5306461.88708
  24910709.23506  24910708.03206  24910709.21706  -2452107.73706  -1910733.40306
  20376286.25409  20376286.30709  20376284.87109 -25103611.85609 -19561250.51809
  22857383.28909  22857383.57309  22857382.85109  -9009999.50709  -7020771.56809
  21756414.57909  21756414.07809  21756413.46809 -17135036.56409 -13351972.11709
  24641576.16207  24641575.62607  24641576.04507   1172463.74807    913613.72107
  22238164.01209  22238164.10209  22238164.89509 -14148148.98609 -11024528.59509
  23889355.42708  23889355.03308  23889355.76008  -4581611.54308  -3570087.05308
  3 10 28  1 25 30.0000000  0  8G01G07G11G14G20G23G25G31
  23491512.00308  23491511.64008  23491513.33108  -6909036.04908  -5383663.94308
  24899456.82306  24899455.92506  24899457.67406  -2511238.09806  -1956809.04406
  20373825.81609  20373825.84209  20373824.45609 -25116541.61509 -19571325.66009
  22874798.20909  22874798.22209  22874797.52609  -8918484.31709  -6949461.03109
  21745539.76209  21745539.36609  21745538.90409 -17192183.34009 -13396502.05209
  24655121.71107  24655121.61107  24655122.38107   1243647.65307    969081.69007
  22229502.03009  22229501.93009  22229502.50109 -14193669.23009 -11059998.89909
  23908482.93908  23908482.55808  23908482.86308  -4481096.50208  -3491763.65708
  3 10 28  1 26  0.0000000  0  8G01G07G11G14G20G23G25G31
  23472698.07807  23472697.54407  23472698.90607  -7007903.91207  -5460703.81007
  24888280.55106  24888280.68506  24888280.56006  -2569972.05006  -2002575.79406
  20371459.52809  20371459.52709  20371458.10509 -25128976.92509 -19581015.51509
  22892249.92309  22892249.68209  22892249.10309  -8826776.52109  -6878000.41409
  21734698.63309  21734698.16809  21734697.72009 -17249154.61009 -13440895.22409
  24668671.87007  24668671.43207  24668672.37107   1314853.53607   1024566.78007
  22220924.45209  22220924.33909  22220925.18409 -14238743.84309 -11095121.95109
  23927617.43407  23927616.93507  23927617.62807  -4380543.81907  -3413410.92907
  3 10 28  1 26 30.0000000  0  8G01G07G11G14G20G23G25G31
  23453924.32707  23453924.11007  23453925.60907  -7106558.71207  -5537577.63507
  24877179.98106  24877179.32906  24877180.34906  -2628304.73506  -2048029.85906
  20369188.06509  20369188.01509  20369186.58509 -25140913.69109 -19590316.89309
  22909738.70109  22909738.08309  22909737.31909  -8734874.92309  -6806388.79009
  21723891.22709  21723890.82509  21723890.37409 -17305946.79909 -13485148.85609
  24682227.26907  24682226.35607  24682227.32307   1386084.67907   1080071.54807
  22212433.20109  22212433.08209  22212433.60609 -14283367.29209 -11129893.45009
  23946759.13007  23946758.47707  23946759.24407  -4279953.05307  -3335028.53307
  3 10 28  1 27  0.0000000  0  8G01G07G11G14G20G23G25G31
  23435191.70607  23435191.45607  23435192.76007  -7205000.84607  -5614285.76407
  24866155.95206  24866155.61706  24866156.33306  -2686236.64106  -2093171.64706
  20367011.04209  20367011.07509  20367009.69909 -25152353.44909 -19599230.99509
  22927262.86509  22927262.54809  22927261.44909  -8642784.07509  -6734629.69409
  21713117.72609  21713117.34109  21713116.83909 -17362561.53209 -13529264.21509
  24695786.65607  24695785.70907  24695786.47707   1457339.03807   1135594.41107
  22204027.43409  22204027.31509  22204027.64209 -14327539.92109 -11164313.66409
  23965907.17007  23965906.85907  23965907.61907  -4179329.17507  -3256620.33907
  3 10 28  1 27 30.0000000  0  8G01G07G11G14G20G23G25G31
  23416500.77108  23416500.55908  23416501.54008  -7303222.14308  -5690821.81308
  24855209.80606  24855209.16806  24855210.12906  -2743759.64306  -2137994.82206
  20364930.23309  20364930.26109  20364928.91009 -25163288.25809 -19607751.62909
  22944823.51809  22944823.56409  22944822.62909  -8550499.89109  -6662719.94109
  21702379.28909  21702378.85709  21702378.47109 -17418992.22409 -13573236.16609
  24709351.13407  24709350.64107  24709351.11007   1528623.08307   1191140.39107
  22195709.41809  22195709.24009  22195709.22909 -14371253.33909 -11198376.04509
  23985062.51307  23985061.84407  23985062.45807  -4078668.52607  -3178183.48907
  3 10 28  1 28  0.0000000  0  8G01G07G11G14G20G23G25G31
  23397852.12108  23397851.90208  23397852.93808  -7401221.28808  -5767184.77308
  24844341.51206  24844341.26806  24844341.93906  -2800872.28306  -2182498.21006
  20362945.61009  20362945.65509  20362944.32509 -25173717.52809 -19615878.33709
  22962421.00409  22962420.98209  22962420.23109  -8458024.78909  -6590661.42509
  21691675.93609  21691675.51709  21691675.23409 -17475238.47909 -13617064.39609
  24722921.94407  24722921.68007  24722921.59507   1599936.72507   1246709.44207
  22187478.57609  22187478.47509  22187478.61309 -14414505.79709 -11232079.24409
  24004223.89307  24004223.52407  24004224.32107  -3977974.18107  -3099720.37607
  3 10 28  1 28 30.0000000  0  8G01G07G11G14G20G23G25G31
  23379243.34108  23379243.11008  23379244.32608  -7499010.90508  -5843384.46508
  24833549.03306  24833547.96606  24833549.18606  -2857587.17606  -2226691.67706
  20361054.59909  20361054.62109  20361053.31309 -25183654.73509 -19623621.61909
  22980051.57609  22980051.56209  22980050.91809  -8365375.41009  -6518467.10909
  21681005.06009  21681004.64009  21681004.31409 -17531314.10109 -13660759.66709
  24736495.59107  24736495.39607  24736495.16507   1671265.75507   1302290.48507
  22179333.16509  22179333.10109  22179333.28109 -14457309.72609 -11265432.93609
  24023389.07407  24023388.39507  24023388.77907  -3877263.12607  -3021244.26207
  3 10 28  1 29  0.0000000  0  8G01G07G11G14G20G23G25G31
  23360676.19808  23360675.87108  23360676.89208  -7596582.17308  -5919414.01808
  24822834.07606  24822833.18806  24822834.55806  -2913895.43906  -2270568.30306
  20359259.06509  20359259.05009  20359257.53309 -25193091.40509 -19630974.87109
  22997716.20009  22997716.04909  22997715.59009  -8272546.89409  -6446133.20609
  21670368.32109  21670367.81809  21670367.37009 -17587211.64709 -13704316.18209
  24750073.61707  24750073.11607  24750073.28907   1742617.70107   1357889.38007
  22171274.91109  22171274.87809  22171275.02509 -14499655.95709 -11298429.98609
  24042557.47907  24042557.12507  24042557.05007  -3776530.86107  -2942751.59507
  3 10 28  1 29 30.0000000  0  8G01G07G11G14G20G23G25G31
  23342152.96008  23342152.49108  23342153.37808  -7693923.35308  -5995264.25208
  24812198.15406  24812197.39306  24812198.52506  -2969785.26706  -2314118.86806
  20357560.68409  20357560.67409  20357559.11709 -25202016.51809 -19637929.50609
  23015416.54209  23015416.35809  23015415.80609  -8179531.22809  -6373653.47209
  21659767.22009  21659766.84509  21659766.44909 -17642920.31609 -13747725.52509
  24763657.51207  24763657.05407  24763656.91107   1814002.69007   1413514.02807
  22163306.25509  22163306.03109  22163305.96109 -14541532.67509 -11331061.17909
  24061731.52707  24061731.28707  24061731.53507  -3675770.14307  -2864236.76107
  3 10 28  1 30  0.0000000  0  8G01G07G11G14G20G23G25G31
  23323672.87908  23323672.50308  23323673.35808  -7791037.54208  -6070937.60208
  24801642.22706  24801641.95306  24801642.35906  -3025259.80506  -2357345.84206
  20355958.83109  20355958.83709  20355957.35609 -25210433.85009 -19644488.47209
  23033151.00009  23033150.96009  23033150.54909  -8086335.40409  -6301033.35309
  21649201.14209  21649200.77809  21649200.50909 -17698444.49809 -13790991.10909
  24777247.43807  24777246.75207  24777246.95207   1885416.40907   1469161.05907
  22155425.98309  22155425.93009  22155425.98109 -14582942.31709 -11363328.42009
  24080909.83407  24080909.12207  24080909.60207  -3574988.30707  -2785705.46307
  3 10 28  1 30 30.0000000  0  8G01G07G11G14G20G23G25G31
  23305235.80408  23305235.55208  23305236.40608  -7887923.87008  -6146433.42008
  24791164.87706  24791164.99806  24791165.47306  -3080318.13506  -2400248.51306
  20354453.67909  20354453.70209  20354452.15509 -25218343.29209 -19650651.68209
  23050919.60909  23050919.44709  23050918.66709  -7992962.53709  -6228275.28509
  21638670.35309  21638669.92909  21638669.74409 -17753784.45409 -13834113.13009
  24790842.16707  24790841.52807  24790841.85607   1956858.02707   1524829.83507
  22147635.17409  22147634.95109  22147635.00509 -14623884.00809 -11395231.02009
  24100090.83107  24100090.58207  24100091.32307  -3474188.98907  -2707160.54407
  3 10 28  1 31  0.0000000  0  8G01G07G11G14G20G23G25G31
  23286840.72108  23286840.65008  23286841.36908  -7984589.41408  -6221757.20808
  24780765.65306  24780765.13106  24780766.04706  -3134967.36106  -2442832.37206
  20353043.81109  20353043.79809  20353042.27709 -25225752.41009 -19656425.02409
  23068719.26308  23068719.04108  23068718.46708  -7899423.57108  -6155387.78408
  21628173.12109  21628172.62309  21628172.33509 -17808948.58109 -13877098.14509
  24804440.48107  24804440.32207  24804440.16107   2028319.05607   1580513.74207
  22139931.93509  22139931.84509  22139931.73109 -14664364.26909 -11426774.06809
  24119273.64807  24119273.23607  24119273.79207  -3373383.55007  -2628610.84907
  3 10 28  1 31 30.0000000  0  8G01G07G11G14G20G23G25G31
  23268488.07409  23268487.83609  23268488.61809  -8081034.73509  -6296909.40009
  24770444.06006  24770443.18606  24770444.28206  -3189208.06206  -2485097.89106
  20351728.87009  20351728.86109  20351727.19709 -25232662.88209 -19661809.81109
  23086549.62308  23086549.63208  23086549.33108  -7805722.82508  -6082374.21708
  21617708.76809  21617708.30209  21617707.99709 -17863938.45709 -13919947.38909
  24818042.46606  24818042.18806  24818042.48806   2099797.40106   1636211.13006
  22132316.60309  22132316.42409  22132316.33409 -14704383.67609 -11457958.00309
  24138456.53207  24138455.76707  24138456.66207  -3272576.89407  -2550060.19507
  3 10 28  1 32  0.0000000  0  8G01G07G11G14G20G23G25G31
  23250179.16308  23250178.84208  23250179.40208  -8177249.35608  -6371881.81808
  24760201.91006  24760201.50206  24760201.91706  -3243029.82006  -2527036.94506
  20350510.46809  20350510.42509  20350508.86109 -25239065.24809 -19666798.67109
  23104412.22408  23104412.25908  23104411.90908  -7711853.70108  -6009229.44608
  21607279.44209  21607279.12909  21607278.55109 -17918744.83709 -13962653.64809
  24831649.58006  24831649.34806  24831649.51306   2171302.01706   1691928.98306
  22124790.64009  22124790.59209  22124790.62009 -14743931.44909 -11488774.43809
  24157640.67907  24157640.37007  24157640.90807  -3171763.02507  -2471503.92707
  3 10 28  1 32 30.0000000  0  8G01G07G11G14G20G23G25G31
  23231914.96808  23231914.76008  23231915.31408  -8273227.70008  -6446670.12508
  24750040.78906  24750040.01606  24750041.02606  -3296427.19606  -2568645.29906
  20349389.85609  20349389.84409  20349388.27409 -25244954.22209 -19671387.48409
  23122307.39308  23122307.36608  23122306.94408  -7617814.47108  -5935952.12808
  21596885.98609  21596885.49909  21596885.04709 -17973363.12209 -14005213.34109
  24845261.94206  24845260.94906  24845262.32606   2242837.06506   1747670.54906
  22117355.88709  22117355.76709  22117355.70809 -14783001.77709 -11519218.83509
  24176826.74007  24176826.21207  24176826.84707  -3070940.68007  -2392941.05607
  3 10 28  1 33  0.0000000  0  8G01G07G11G14G20G23G25G31
  23213695.82708  23213695.42008  23213696.08608  -8368970.66308  -6521275.00308
  24739960.36606  24739959.24906  24739960.96606  -3349401.06706  -2609923.69006
  20348366.56809  20348366.58809  20348365.09409 -25250331.33609 -19675577.45009
  23140234.07108  23140234.09208  23140233.59908  -7523609.86408  -5862545.94408
  21586527.85809  21586527.41309  21586526.82109 -18027795.41309 -14047628.10009
  24858879.38606  24858878.77506  24858880.46206   2314400.23506   1803434.03906
  22110011.39309  22110011.39809  22110011.55209 -14821595.56709 -11549291.90609
  24196012.99707  24196012.59707  24196013.73507  -2970114.87307  -2314375.50007
  3 10 28  1 33 30.0000000  0  8G01G07G11G14G20G23G25G31
  23195522.66609  23195522.22909  23195522.54109  -8464471.73709  -6595691.38609
  24729961.16505  24729960.24105  24729961.59605  -3401944.83305  -2650866.95005
  20347441.81509  20347441.80509  20347440.35609 -25255190.90609 -19679364.13309
  23158192.78808  23158192.50008  23158192.06308  -7429236.98808  -5789008.64208
  21576206.08309  21576205.71009  21576205.08509 -18082036.36209 -14089893.76709
  24872504.55406  24872503.78206  24872504.58806   2385996.71606   1859223.50006
  22102759.48409  22102759.37709  22102759.49009 -14859705.63909 -11578988.05209
  24215200.49707  24215200.02007  24215201.03207  -2869283.31807  -2235805.46807
  3 10 28  1 34  0.0000000  0  8G01G07G11G14G20G23G25G31
  23177392.70109  23177392.24609  23177392.59009  -8559745.82309  -6669930.90909
  24720041.49506  24720041.14606  24720042.07506  -3454073.55906  -2691486.76006
  20346612.58509  20346612.59009  20346611.04209 -25259548.75909 -19682759.86509
  23176179.70508  23176179.63308  23176179.17708  -7334714.80008  -5715354.98908
  21565917.87709  21565917.36609  21565916.68109 -18136102.08809 -14132022.88909
  24886131.92706  24886131.90506  24886132.49906   2457609.89906   1915025.95806
  22095596.71309  22095596.50009  22095596.35509 -14897347.38709 -11608319.26909
  24234385.55807  24234385.08207  24234386.31907  -2768465.47807  -2157246.11007
  3 10 28  1 34 30.0000000  0  8G01G07G11G14G20G23G25G31
  23159309.05309  23159308.88709  23159309.29709  -8654773.38509  -6743978.34109
  24710204.77706  24710204.19906  24710204.94006  -3505767.95806  -2731768.14806
  20345882.33409  20345882.30909  20345880.73009 -25263386.36509 -19685750.21409
  23194198.14908  23194198.16308  23194197.60108  -7240027.45708  -5641572.64308
  21555666.33209  21555665.93909  21555665.09709 -18189974.07609 -14174001.06109
  24899765.95705  24899765.86205  24899766.33905   2529257.88005   1970855.50905
  22088526.50209  22088526.37109  22088526.30409 -14934500.83909 -11637269.99709
  24253570.96307  24253570.77207  24253571.65407  -2667646.13307  -2078685.59907
  3 10 28  1 35  0.0000000  0  8G01G07G11G14G20G23G25G31
  23141269.77608  23141269.69108  23141270.36808  -8749568.09208  -6817844.33508
  24700448.02506  24700447.62806  24700447.83306  -3557041.57506  -2771721.65006
  20345248.30409  20345248.29509  20345246.83009 -25266717.98709 -19688346.29009
  23212244.82008  23212244.73508  23212244.19508  -7145192.39908  -5567675.19408
  21545448.68709  21545448.30309  21545447.54209 -18243667.02209 -14215839.71109
  24913403.50805  24913403.76105  24913404.84505   2600925.73605   2026700.52605
  22081546.90209  22081546.79309  22081546.63509 -14971179.61909 -11665850.85509
  24272753.08207  24272752.74807  24272754.12107  -2566843.03907  -2000137.74107
  3 10 28  1 35 30.0000000  0  8G01G07G11G14G20G23G25G31
  23123274.20208  23123274.01908  23123275.04208  -8844134.70008  -6891532.57108
  24690769.93306  24690769.44206  24690770.13606  -3607899.15106  -2811350.96906
  20344709.51309  20344709.55009  20344708.09009 -25269549.10509 -19690552.35909
  23230317.56908  23230317.60008  23230317.24908  -7050218.05408  -5493669.21308
  21535264.32909  21535263.88409  21535262.98109 -18297186.67909 -14257543.33609
  24927043.86205  24927043.49205  24927046.32405   2672607.35305   2082556.24705
  22074656.65209  22074656.47509  22074656.41609 -15007388.14909 -11694065.27909
  24291930.22807  24291930.37207  24291931.38607  -2466065.20807  -1921609.56807
  3 10 28  1 36  0.0000000  0  8G01G07G11G14G20G23G25G31
  23105325.82708  23105325.49608  23105326.81008  -8938453.91208  -6965028.03008
  24681174.74506  24681174.06806  24681174.64506  -3658321.58906  -2850641.21306
  20344269.59509  20344269.61609  20344268.07509 -25271861.21109 -19692354.00109
  23248420.28908  23248420.14208  23248419.85108  -6955088.71408  -5419542.45608
  21525116.40209  21525115.90709  21525115.01409 -18350514.90509 -14299097.79709
  24940689.92605  24940689.07905  24940692.14705   2744320.61205   2138436.63505
  22067859.67709  22067859.50709  22067859.22209 -15043106.84109 -11721898.01609
  24311106.11707  24311105.62707  24311107.10907  -2365297.58807  -1843089.35907
  3 10 28  1 36 30.0000000  0  8G01G07G11G14G20G23G25G31
  23087425.11308  23087424.77108  23087425.96908  -9032523.61308  -7038329.07108
  24671663.07506  24671662.60506  24671662.56506  -3708306.78506  -2889590.75606
  20343928.63409  20343928.62209  20343927.05209 -25273653.10709 -19693750.28509
  23266551.87808  23266551.78408  23266551.57108  -6859805.95308  -5345296.15308
  21515004.95609  21515004.48309  21515003.71409 -18403650.36909 -14340502.05009
  24954342.31905  24954340.92605  24954344.93805   2816066.46905   2194342.41905
  22061156.16209  22061156.09809  22061155.85109 -15078333.65709 -11749347.46609
  24330279.32807  24330278.85107  24330280.00707  -2264542.13807  -1764578.62707
  3 10 28  1 37  0.0000000  0  8G01G07G11G14G20G23G25G31
  23069571.28308  23069571.16608  23069572.37508  -9126345.92508  -7111437.35408
  24662234.14806  24662233.52406  24662233.18706  -3757857.02406  -2928201.36906
  20343686.15709  20343686.12209  20343684.61709 -25274927.68909 -19694743.46809
  23284711.71708  23284711.66108  23284711.16008  -6764375.88808  -5270935.06108
  21504929.52609  21504929.05709  21504928.44309 -18456596.49409 -14381758.76809
  24968000.42405  24967999.66705  24968003.76905   2887841.28705   2250270.76005
  22054545.87109  22054545.86609  22054545.64309 -15113070.51509 -11776415.13109
  24349449.14507  24349448.48007  24349449.54507  -2163805.32707  -1686082.42207
  3 10 28  1 37 30.0000000  0  8G01G07G11G14G20G23G25G31
  23051765.68308  23051765.49108  23051766.61008  -9219914.81708  -7184348.15308
  24652889.20706  24652888.50206  24652888.50206  -3806966.22406  -2966468.33506
  20343543.01809  20343543.00409  20343541.60209 -25275679.60609 -19695329.37809
  23302900.21908  23302899.90308  23302899.45108  -6668795.80008  -5196457.06708
  21494891.17409  21494890.74409  21494890.09809 -18509348.32209 -14422864.08509
  24981665.37105  24981663.57405  24981669.00505   2959649.79705   2306225.36705
  22048030.14409  22048030.03509  22048029.83809 -15147311.28609 -11803096.23609
  24368615.05607  24368614.79007  24368615.93707  -2063085.14207  -1607599.17007
  3 10 28  1 38  0.0000000  0  8G01G07G11G14G20G23G25G31
  23034006.18608  23034005.92708  23034006.99708  -9313242.15508  -7257070.72108
  24643625.89207  24643624.97907  24643624.70607  -3855646.64407  -3004401.15107
  20343496.94809  20343496.92909  20343495.49209 -25275921.69509 -19695518.02109
  23321113.78308  23321113.80308  23321113.31708  -6573081.53908  -5121874.52108
  21484887.23709  21484886.94209  21484886.24109 -18561918.57609 -14463827.91409
  24995333.96705  24995333.75605  24995336.10805   3031478.70805   2362195.84805
  22041606.42409  22041606.45709  22041606.20809 -15181067.79509 -11829399.99309
  24387775.21407  24387775.00107  24387776.16907  -1962397.75107  -1529141.47907
  3 10 28  1 38 30.0000000  0  8G01G07G11G14G20G23G25G31
  23016291.41409  23016291.14809  23016291.93009  -9406335.62009  -7329611.05309
  24634442.03006  24634441.46606  24634441.57306  -3903905.77706  -3042005.69306
  20343546.06309  20343546.09009  20343544.71009 -25275662.76709 -19695316.25909
  23339350.99608  23339351.01408  23339350.49908  -6477244.37008  -5047196.21108
  21474916.49709  21474916.03809  21474915.35109 -18614315.96309 -14504657.04209
  25009005.26205  25009004.53505  25009008.23505   3103319.04105   2418175.23805
  22035273.62609  22035273.48009  22035273.40909 -15214347.46009 -11855332.18309
  24406927.12807  24406926.45307  24406927.75907  -1861754.93807  -1450718.50907
  3 10 28  1 39  0.0000000  0  8G01G07G11G14G20G23G25G31
  22998626.39709  22998626.10709  22998626.67909  -9499166.97209  -7401947.15609
  24625343.68106  24625343.32906  24625344.20906  -3951715.62206  -3079260.14006
  20343695.98909  20343695.98609  20343694.59909 -25274875.22009 -19694702.58809
  23357616.46308  23357616.23408  23357615.78008  -6381259.56808  -4972402.86208
  21464983.60309  21464983.15109  21464982.62309 -18666513.27009 -14545330.25709
  25022683.82805  25022683.61205  25022686.19005   3175197.62805   2474184.42105
  22029036.63309  22029036.53909  22029036.57309 -15247122.24909 -11880870.96109
  24426074.91007  24426074.39607  24426075.67607  -1761132.67007  -1372311.54707
  3 10 28  1 39 30.0000000  0  8G01G07G11G14G20G23G25G31
  22981008.43509  22981008.19809  22981009.10509  -9591748.41909  -7474088.53309
  24616329.93307  24616329.09807  24616328.70007  -3999088.67707  -3116174.23007
  20343944.04009  20343944.04409  20343942.54409 -25273572.19209 -19693687.24209
  23375906.84508  23375906.65208  23375906.15808  -6285143.07408  -4897506.89208
  21455086.38109  21455085.84309  21455085.42609 -18718523.67609 -14585857.83509
  25036366.96506  25036366.35806  25036369.20706   3247101.02906   2530212.96606
  22022893.44909  22022893.37809  22022893.31209 -15279404.22709 -11906025.73509
  24445215.48707  24445215.06407  24445216.26207  -1660547.36107  -1293933.37807
  3 10 28  1 40  0.0000000  0  8G01G07G11G14G20G23G25G31
  22963437.54909  22963437.35909  22963438.38509  -9684083.13509  -7546037.63909
  24607396.99707  24607396.74207  24607396.84707  -4046028.14507  -3152750.46807
  20344289.25509  20344289.27209  20344287.80309 -25271757.75209 -19692273.39409
  23394221.12508  23394220.82908  23394220.48208  -6188901.52208  -4822513.47708
  21445223.87109  21445223.41009  21445222.86309 -18770351.19709 -14626242.90709
  25050053.76906  25050053.04406  25050055.85006   3319024.78506   2586257.37606
  22016843.79209  22016843.66809  22016843.63109 -15311196.49009 -11930798.91209
  24464347.60007  24464347.35007  24464348.37307  -1560006.15807  -1215589.58707
  3 10 28  1 40 30.0000000  0  8G01G07G11G14G20G23G25G31
  22945913.54009  22945913.31409  22945914.51909  -9776172.33209  -7617795.41809
  24598546.81606  24598546.62106  24598546.77006  -4092535.37006  -3188989.86906
  20344731.50909  20344731.51409  20344730.00609 -25269433.89609 -19690462.59709
  23412558.36608  23412557.91108  23412557.52508  -6092539.69408  -4747426.34308
  21435395.81609  21435395.40109  21435394.69109 -18821998.01009 -14666487.17609
  25063743.87206  25063743.79806  25063745.90806   3390966.37906   2642315.67606
  22010886.88409  22010886.76909  22010886.66109 -15342500.26509 -11955191.44509
  24483471.09107  24483470.60007  24483471.46007  -1459514.36107  -1137284.28407
  3 10 28  1 41  0.0000000  0  8G01G07G11G14G20G23G25G31
  22928443.00109  22928442.70209  22928443.58209  -9867981.69009  -7689335.15309
  24589785.73706  24589785.28306  24589785.42206  -4138576.20506  -3224865.88306
  20345277.05809  20345277.01909  20345275.55309 -25266567.34409 -19688228.92009
  23430924.07908  23430923.74808  23430923.22608  -5996026.84108  -4672221.53508
  21425608.41309  21425607.98009  21425607.42809 -18873430.97909 -14706564.81009
  25077443.81006  25077443.56706  25077445.55806   3462958.87406   2698413.63506
  22005029.37609  22005029.24509  22005029.17409 -15373281.10109 -11979176.49609
  24502590.51707  24502590.15007  24502590.55907  -1359041.78007  -1058993.94107
  3 10 28  1 41 30.0000000  0  8G01G07G11G14G20G23G25G31
  22911020.99209  22911020.73709  22911021.56109  -9959535.60909  -7760675.85409
  24581108.85806  24581108.00606  24581108.38406  -4184175.24706  -3260397.64406
  20345920.84709  20345920.88009  20345919.43209 -25263183.56309 -19685592.20709
  23449313.10008  23449312.86308  23449312.39908  -5899391.09508  -4596920.96308
  21415856.84409  21415856.49209  21415856.00909 -18924675.42509 -14746495.53509
  25091148.46307  25091148.07307  25091149.97607   3534976.54507   2754531.20807
  21999266.79309  21999266.62909  21999266.76309 -15403563.33309 -12002773.02409
  24521700.57507  24521700.39607  24521700.30707  -1258616.90607   -980740.80507
  3 10 28  1 42  0.0000000  0  8G01G07G11G14G20G23G25G31
  22893646.84109  22893646.67509  22893647.37509 -10050837.21209  -7831819.95109
  24572514.24506  24572514.17206  24572514.31706  -4229335.78906  -3295587.71506
  20346662.44809  20346662.45509  20346660.93809 -25259286.46909 -19682555.51309
  23467724.48308  23467724.10208  23467723.63608  -5802639.10208  -4521529.80808
  21406140.57309  21406140.16909  21406139.71009 -18975735.19009 -14786282.36109
  25104857.22507  25104856.77707  25104858.79107   3607014.98207   2810664.98307
  21993598.37209  21993598.21909  21993598.40609 -15433350.28709 -12025983.62309
  24540800.24407  24540800.19007  24540800.48107  -1158246.89707   -902530.38707
  3 10 28  1 42 30.0000000  0  8G01G07G11G14G20G23G25G31
  22876322.56209  22876322.34009  22876322.94409 -10141876.89409  -7902759.95209
  24564006.46607  24564005.74407  24564005.55607  -4274048.49607  -3330428.83407
  20347503.40909  20347503.38209  20347501.86009 -25254867.39209 -19679112.07909
  23486158.90308  23486158.81108  23486158.20908  -5705764.72008  -4446043.28708
  21396460.96609  21396460.63509  21396460.03609 -19026601.67309 -14825918.57409
  25118571.18607  25118570.39107  25118572.17107   3679082.41007   2866821.34907
  21988026.03009  21988026.04909  21988026.30209 -15462632.20609 -12048800.69009
  24559890.43306  24559890.19806  24559891.19206  -1057926.21706   -824358.45506
  3 10 28  1 43  0.0000000  0  8G01G07G11G14G20G23G25G31
  22859048.16609  22859047.91509  22859048.81109 -10232654.63209  -7973495.81909
  24555582.82607  24555582.89807  24555582.96707  -4318313.48607  -3364921.07107
  20348443.57909  20348443.53709  20348441.99809 -25249927.23809 -19675262.60909
  23504615.97908  23504615.99408  23504615.26408  -5608771.42008  -4370464.10408
  21386818.02909  21386817.58009  21386817.11809 -19077275.72209 -14865404.84309
  25132290.56807  25132289.92207  25132291.57107   3751177.76407   2922999.49807
  21982550.20809  21982550.00109  21982550.22009 -15491409.37609 -12071224.44509
  24578970.69006  24578970.49206  24578970.86706   -957658.91406   -746228.09306
  3 10 28  1 43 30.0000000  0  8G01G07G11G14G20G23G25G31
  22841825.00709  22841824.81809  22841825.74009 -10323163.25009  -8044021.97709
  24547246.01706  24547245.70106  24547246.24306  -4362123.46406  -3399058.75706
  20349483.90309  20349483.92709  20349482.48209 -25244459.62209 -19671002.13109
  23523096.35507  23523096.18407  23523095.91107  -5511655.40907  -4294789.30307
  21377212.92509  21377212.56809  21377211.92909 -19127750.99209 -14904736.21409
  25146016.47607  25146015.85907  25146017.58207   3823306.98207   2979204.02307
  21977171.41209  21977171.45309  21977171.44009 -15519674.44709 -12093249.16209
  24598041.42406  24598041.16906  24598041.37806   -857441.68506   -668136.73706
  3 10 28  1 44  0.0000000  0  8G01G07G11G14G20G23G25G31
  22824655.99509  22824655.81209  22824656.64609 -10413387.07709  -8114326.23709
  24538999.29807  24538999.09407  24538998.70907  -4405463.30507  -3432830.07707
  20350627.56209  20350627.56509  20350626.05409 -25238450.08409 -19666319.37909
  23541602.65807  23541602.56707  23541602.13807  -5414404.55107  -4219009.42307
  21367648.57309  21367648.15409  21367647.62709 -19178012.64009 -14943901.12509
  25159751.35707  25159750.90107  25159752.14607   3895484.50407   3035446.20007
  21971893.38609  21971893.22709  21971893.26609 -15547411.80809 -12114862.67509
  24617104.87406  24617104.32106  24617105.18406   -757262.78706   -590075.27106
  3 10 28  1 44 30.0000000  0  8G01G07G11G14G20G23G25G31
  22807535.62809  22807535.45309  22807536.24709 -10503354.04309  -8184430.36209
  24530835.70906  24530835.04306  24530836.21506  -4448361.05206  -3466256.92106
  20351868.77909  20351868.76109  20351867.23409 -25231927.58509 -19661236.91509
  23560128.57107  23560128.06707  23560128.05707  -5317050.12807  -4143148.84607
  21358119.33709  21358118.90309  21358118.31609 -19228089.52809 -14982922.06609
  25173489.55907  25173489.09307  25173490.41207   3967681.14007   3091703.27507
  21966710.13309  21966710.01009  21966709.96609 -15574649.47509 -12136086.81409
  24636154.48106  24636154.15506  24636155.38306   -657154.28206   -512068.63006
  3 10 28  1 45  0.0000000  0  8G01G07G11G14G20G23G25G31
  22790464.25809  22790464.01709  22790465.16109 -10593063.95009  -8254334.17109
  24522756.70306  24522756.12606  24522757.22506  -4490816.64706  -3499339.23706
  20353207.21709  20353207.31909  20353205.91209 -25224892.70509 -19655755.19709
  23578673.27007  23578673.40807  23578673.16307  -5219595.53107  -4067210.21607
  21348625.10309  21348624.70109  21348623.94409 -19277982.32509 -15021799.56809
  25187232.11007  25187231.24107  25187232.09107   4039895.92107   3147974.49107
  21961622.07409  21961621.93809  21961621.87409 -15601387.20609 -12156921.39609
  24655190.71006  24655190.31906  24655191.74206   -557119.87706   -434119.75606
  3 10 28  1 45 30.0000000  0  8G01G07G11G14G20G23G25G31
  22773442.80109  22773442.52509  22773443.80209 -10682512.89709  -8324034.62209
  24514762.80906  24514762.24206  24514762.67206  -4532826.39906  -3532074.14206
  20354644.17809  20354644.13009  20354642.67509 -25217342.68409 -19649872.07009
  23597237.74907  23597237.48707  23597237.41107  -5122039.94807  -3991192.89207
  21339166.35809  21339165.91009  21339165.21809 -19327687.89609 -15060531.17909
  25200977.98707  25200977.48407  25200978.02407   4112131.57807   3204261.95907
  21956629.83209  21956629.74709  21956629.58409 -15627621.33009 -12177363.55809
  24674212.48306  24674212.40106  24674213.26006   -457159.57206   -356228.59306
  3 10 28  1 46  0.0000000  0  7G01G07G11G14G20G25G31
  22756474.08509  22756473.97609  22756475.07709 -10771684.25609  -8393518.77409
  24506856.08406  24506855.49606  24506856.83606  -4574373.95706  -3564448.90206
  20356181.94309  20356181.93109  20356180.50909 -25209261.78809 -19643575.27309
  23615823.83007  23615823.35807  23615823.36107  -5024370.54207  -3915086.87207
  21329746.39809  21329745.94809  21329745.22809 -19377190.40309 -15099104.55409
  21951736.78909  21951736.64309  21951736.50209 -15653334.99409 -12197400.16209
  24693222.22606  24693221.60206  24693222.97606   -357260.59706   -278385.24506
  3 10 28  1 46 30.0000000  0  8G01G07G11G14G20G23G25G31
  22739557.06109  22739556.78609  22739557.82709 -10860584.24409  -8462791.46809
  24499036.13406  24499035.67206  24499037.11306  -4615465.76206  -3596468.51206
  20357819.29309  20357819.28809  20357817.93609 -25200657.28609 -19636870.47209
  23634429.45407  23634429.24607  23634429.10507  -4926596.71007  -3838899.49107
  21320363.66209  21320363.11409  21320362.52709 -19426496.79409 -15137525.10809
  25228488.95906  25228488.58806  25228489.39606         -.50516          .13116
  21946941.49809  21946941.31109  21946941.04609 -15678534.82909 -12217036.38509
  24712219.05706  24712219.39806  24712219.88406   -257433.13706   -200597.62406
  3 10 28  1 47  0.0000000  0  7G01G07G11G14G20G25G31
  22722692.55409  22722692.22209  22722693.06109 -10949208.57709  -8531849.36609
  24491304.56506  24491304.07106  24491305.24006  -4656097.77806  -3628129.85206
  20359556.89409  20359556.90309  20359555.56809 -25191525.90409 -19629755.11609
  23653055.23707  23653055.14907  23653055.09207  -4828717.62707  -3762630.09907
  21311018.96409  21311018.40809  21311017.79109 -19475603.66109 -15175790.19009
  21942244.60309  21942244.45809  21942244.27509 -15703216.56309 -12236268.88909
  24731202.05106  24731202.13806  24731203.02706   -157676.75106   -122865.36406
  3 10 28  1 47 30.0000000  0  7G01G07G11G14G20G25G31
  22705880.06709  22705879.94009  22705880.81709 -11037557.43009  -8600692.60109
  24483659.69006  24483659.25006  24483660.87806  -4696270.48206  -3659433.27006
  20361394.59809  20361394.59909  20361393.30409 -25181868.87509 -19622230.16109
  23671700.84207  23671700.43307  23671700.28007  -4730736.65307  -3686281.31207
  21301711.99709  21301711.48309  21301710.93909 -19524511.68109 -15213900.32709
  21937646.49309  21937646.35509  21937645.99509 -15727380.53309 -12255097.94109
  24750170.35906  24750169.76106  24750171.05706    -57995.56606    -45191.72906
  3 10 28  1 48  0.0000000  0  8G01G07G11G14G20G23G25G31
  22689120.35009  22689120.12409  22689121.11609 -11125630.47009  -8669320.92609
  24476102.81106  24476102.35906  24476103.39806  -4735983.82906  -3690378.75506
  20363332.13409  20363332.12409  20363330.93609 -25171686.99509 -19614296.23109
  23690364.62507  23690364.39607  23690364.26007  -4632656.97807  -3609855.60607
  21292442.75409  21292442.29309  21292441.77109 -19573221.72009 -15251856.19109
  25269799.98205  25269798.57505  25269800.61205         -.36015         -.81215
  21933146.45909  21933146.48809  21933146.16509 -15751026.53009 -12273523.38109
  24769124.81206  24769124.35506  24769124.85206     41606.79206     32420.49706
  3 10 28  1 48 30.0000000  0  7G01G07G11G14G20G25G31
  22672410.91209  22672410.76909  22672411.91209 -11213438.94909  -8737743.09709
  24468631.20906  24468630.69306  24468631.73806  -4775249.40906  -3720975.33006
  20365367.28209  20365367.25209  20365365.92309 -25160992.76509 -19605963.07009
  23709044.33607  23709044.39407  23709044.18407  -4534493.17907  -3533364.34907
  21283208.80909  21283208.47309  21283208.01609 -19621745.60709 -15289667.00509
  21928743.29609  21928743.27809  21928742.89909 -15774165.75109 -12291553.92909
  24788060.64406  24788060.49706  24788061.09606    141115.28006    109959.57506
  3 10 28  1 49  0.0000000  0  7G01G07G11G14G20G25G31
  22655753.80109  22655753.49809  22655754.86009 -11300972.08409  -8805950.70809
  24461245.76706  24461245.23906  24461246.86006  -4814056.44906  -3751214.59806
  20367501.77809  20367501.78509  20367500.38809 -25149776.11709 -19597222.82809
  23727742.00107  23727742.03107  23727741.64907  -4436237.56107  -3456801.54807
  21274012.44509  21274012.05609  21274011.53109 -19670073.18209 -15327324.85409
  21924438.47009  21924438.35909  21924438.13809 -15796787.83309 -12309181.50709
  24806980.12707  24806979.75307  24806980.32407    240536.97507    187430.99907
  3 10 28  1 49 30.0000000  0  8G01G07G11G14G20G23G25G31
  22639152.61309  22639152.35309  22639153.56409 -11388211.43009  -8873929.38709
  24453951.86106  24453951.28506  24453953.11806  -4852387.01306  -3781082.57306
  20369738.91309  20369738.89309  20369737.61409 -25138019.50509 -19588061.83609
  23746459.75907  23746459.73707  23746459.26007  -4337875.13107  -3380155.52307
  21264856.78709  21264856.28209  21264855.83309 -19718186.74209 -15364815.93209
  25311156.64705  25311155.57105  25311158.73405         -.79515         -.71315
  21920235.50909  21920235.39609  21920235.10909 -15818874.64909 -12326392.00109
  24825885.75807  24825885.21207  24825885.77707    339886.43807    264846.16607
  3 10 28  1 50  0.0000000  0  7G01G07G11G14G20G25G31
  22622604.32209  22622604.14209  22622604.92809 -11475173.44609  -8941691.97709
  24446745.53306  24446745.43406  24446746.44006  -4890257.76106  -3810592.25006
  20372075.54109  20372075.59109  20372074.14309 -25125740.87809 -19578494.07909
  23765194.22907  23765193.97407  23765193.61407  -4239425.42007  -3303441.48507
  21255738.49809  21255738.04509  21255737.47809 -19766103.72509 -15402153.83509
  21916131.35009  21916131.27709  21916130.94709 -15840442.33309 -12343197.97409
  24844773.92507  24844773.66007  24844773.97207    439143.51107    342189.32907
  3 10 28  1 50 30.0000000  0  7G01G07G11G14G20G25G31
  22606108.67109  22606108.34809  22606109.42309 -11561858.78209  -9009238.98809
  24439626.03906  24439625.72006  24439627.11106  -4927669.73506  -3839744.45106
  20374511.15709  20374511.16709  20374509.69809 -25112942.05409 -19568520.97109
  23783944.47707  23783944.29907  23783944.12507  -4140892.65307  -3226662.72307
  21246657.32109  21246656.97009  21246656.28209 -19813825.24709 -15439339.43209
  21912125.83009  21912125.68009  21912125.50009 -15861492.13509 -12359600.40509
  24863643.27007  24863643.12807  24863643.67707    538303.64007    419456.93707
  3 10 28  1 51  0.0000000  0  7G01G07G11G14G20G25G31
  22589665.65209  22589665.39209  22589666.63409 -11648266.92309  -9076569.97909
  24432594.40606  24432593.97506  24432595.80806  -4964622.68606  -3868538.95906
  20377045.65509  20377045.66009  20377043.97909 -25099623.41009 -19558142.81409
  23802709.79707  23802710.18407  23802709.28907  -4042279.28307  -3149821.15907
  21237613.57609  21237613.02109  21237612.34109 -19861351.59809 -15476372.95009
  21908218.61709  21908218.50809  21908218.36009 -15882023.82709 -12375599.11409
  24882493.73307  24882493.39207  24882494.28107    637363.50307    496646.43507
  3 10 28  1 51 30.0000000  0  7G01G07G11G14G20G25G31
  22573278.84109  22573278.55209  22573279.80709 -11734380.47909  -9143671.41509
  24425652.81306  24425651.75406  24425654.23606  -5001099.77006  -3896962.68506
  20379682.00009  20379682.01909  20379680.46209 -25085768.70409 -19547346.94209
  23821493.70807  23821493.81507  23821492.95807  -3943571.22807  -3072905.81207
  21228609.80409  21228609.25109  21228608.78609 -19908665.97309 -15513241.28909
  21904413.32109  21904413.23209  21904413.21009 -15902020.24209 -12391180.72609
  24901327.67107  24901327.48607  24901328.29007    736336.76207    573768.43107
  3 10 28  1 52  0.0000000  0  7G01G07G11G14G20G25G31
  22556946.59109  22556946.35309  22556947.34609 -11820206.78309  -9210549.02709
  24418800.46806  24418799.94806  24418801.85706  -5037108.41906  -3925021.37606
  20382418.87609  20382418.89709  20382417.42309 -25071386.47109 -19536140.01509
  23840293.43607  23840293.22707  23840292.70507  -3844778.84007  -2995924.75907
  21219644.95409  21219644.56109  21219644.00309 -19955776.40909 -15549950.71709
  21900708.51709  21900708.44309  21900708.52909 -15921489.01109 -12406351.18409
  24920142.69606  24920142.15106  24920142.86306    835212.48306    650814.44906
  3 10 28  1 52 30.0000000  0  7G01G07G11G14G20G25G31
  22540669.47809  22540669.28809  22540670.27109 -11905742.55309  -9277200.26009
  24412038.51307  24412037.94107  24412039.37007  -5072645.78407  -3952712.81507
  20385256.60109  20385256.56709  20385255.01709 -25056474.34509 -19524520.18209
  23859109.23107  23859108.49007  23859108.19507  -3745902.26907  -2918878.11207
  21210719.43809  21210719.04309  21210718.48009 -20002680.25009 -15586499.15909
  21897104.55109  21897104.55709  21897104.67809 -15940426.78609 -12421107.87809
  24938939.78807  24938939.17907  24938940.07307    933990.23907    727784.11707
  3 10 28  1 53  0.0000000  0  7G01G07G11G14G20G25G31
  22524445.41009  22524445.13809  22524446.24409 -11991001.13609  -9343635.50809
  24405363.33107  24405362.61507  24405363.76007  -5107725.53707  -3980047.69107
  20388192.02309  20388192.10609  20388190.61909 -25041047.34909 -19512499.14909
  23877937.39607  23877936.81507  23877936.60107  -3646957.78107  -2841778.53607
  21201830.53609  21201830.09409  21201829.69809 -20049391.60109 -15622897.60809
  21893599.43809  21893599.34309  21893599.37409 -15958847.51209 -12435461.67609
  24957714.89607  24957714.49307  24957715.09407   1032652.79907    804664.04007
  3 10 28  1 53 30.0000000  0  7G01G07G11G14G20G25G31
  22508275.93009  22508275.63709  22508276.61309 -12075973.16709  -9409847.45609
  24398776.15207  24398775.70307  24398777.22107  -5142338.76407  -4007019.03907
  20391227.44109  20391227.38709  20391225.89909 -25025097.00209 -19500070.31309
  23896779.71207  23896779.56707  23896779.23107  -3547939.34507  -2764621.34207
  21192979.99509  21192979.56009  21192979.12209 -20095901.66509 -15659139.21109
  21890194.19409  21890194.12809  21890194.14009 -15976741.95009 -12449405.38109
  24976468.83107  24976468.26007  24976469.37407   1131205.88507    881458.64607
  3 10 28  1 54  0.0000000  0  7G01G07G11G14G20G25G31
  22492162.29309  22492162.02509  22492163.16609 -12160650.18809  -9475829.52009
  24392280.24407  24392279.43307  24392281.00307  -5176477.35107  -4033620.54107
  20394363.58709  20394363.58309  20394362.15009 -25008616.25009 -19487228.17409
  23915637.14407  23915637.34407  23915636.87907  -3448841.66207  -2687402.39407
  21184169.12109  21184168.75009  21184168.36709 -20142202.49109 -15695217.76809
  21886890.85909  21886890.71609  21886890.49109 -15994102.12509 -12462932.78009
  24995202.89707  24995202.51907  24995203.36407   1229654.31007    958171.68007
  3 10 28  1 54 30.0000000  0  7G01G07G11G14G20G25G31
  22476104.03209  22476103.79709  22476104.92609 -12245036.92309  -9541585.39109
  24385873.21707  24385872.86407  24385873.93007  -5210146.48807  -4059856.23707
  20397599.66609  20397599.65609  20397598.27009 -24991610.47509 -19473976.92209
  23934508.36407  23934508.49007  23934507.84807  -3349672.45507  -2610127.70907
  21175397.07609  21175396.68609  21175396.41209 -20188299.54909 -15731137.54609
  21883687.93909  21883687.84709  21883687.79109 -16010932.87909 -12476047.64209
  25013915.37607  25013914.89607  25013915.63307   1327989.66407   1034796.63607
  3 10 28  1 55  0.0000000  0  7G01G07G11G14G20G25G31
  22460101.22809  22460100.88109  22460102.06509 -12329131.78309  -9607113.83609
  24379555.41407  24379555.21007  24379556.49907  -5243344.77207  -4085725.03107
  20400935.48609  20400935.51409  20400934.24109 -24974079.60509 -19460316.50709
  23953393.24407  23953393.05807  23953392.63907  -3250433.21407  -2532798.45307
  21166664.11909  21166663.69309  21166663.41309 -20234191.68309 -15766897.64809
  21880586.20409  21880586.01709  21880586.10209 -16027232.78609 -12488748.86009
  25032605.94707  25032605.97607  25032606.29307   1426210.02607   1111332.00207
  3 10 28  1 55 30.0000000  0  7G01G07G11G14G20G25G31
  22444154.11509  22444153.88409  22444154.85509 -12412934.54109  -9672414.66509
  24373328.07707  24373327.55207  24373328.82107  -5276072.36707  -4111227.06207
  20404371.31809  20404371.31909  20404369.94009 -24956024.59909 -19446247.67509
  23972290.63607  23972290.23607  23972290.10707  -3151126.60807  -2455416.70607
  21157970.08209  21157969.64709  21157969.35409 -20279879.14409 -15802498.26309
  21877585.33709  21877585.24909  21877585.20609 -16043001.90509 -12501036.47409
  25051274.10306  25051273.82006  25051275.20706   1524312.17006   1187775.21606
  3 10 28  1 56  0.0000000  0  7G01G07G11G14G20G25G31
  22428263.55309  22428263.29909  22428264.38009 -12496439.79009  -9737483.66309
  24367190.88007  24367190.40807  24367190.96007  -5308324.31707  -4136358.45907
  20407907.62709  20407907.58709  20407906.23809 -24937441.16209 -19431767.07809
  23991201.49207  23991201.23807  23991200.45907  -3051750.34907  -2377980.68707
  21149315.86209  21149315.45009  21149315.15809 -20325356.93709 -15837935.49609
  21874686.59909  21874686.49409  21874686.35909 -16058235.20109 -12512906.56109
  25069920.13306  25069920.18906  25069921.19306   1622297.76306   1264127.61306
  3 10 28  1 56 30.0000000  0  7G01G07G11G14G20G25G31
  22412428.58609  22412428.41109  22412429.41309 -12579652.83909  -9802324.97209
  24361143.17307  24361142.79707  24361143.03907  -5340106.35407  -4161123.68307
  20411543.34209  20411543.29309  20411541.94709 -24918335.71109 -19416879.71809
  24010123.93207  24010123.35907  24010123.02207  -2952312.85007  -2300496.95407
  21140700.54809  21140700.10809  21140699.65109 -20370631.13309 -15873214.08109
  21871888.53009  21871888.45409  21871888.43609 -16072938.81909 -12524363.91209
  25088542.21806  25088541.85906  25088543.20806   1720157.87906   1340382.26806
  3 10 28  1 57  0.0000000  0  7G01G07G11G14G20G25G31
  22396651.15909  22396650.88109  22396651.81109 -12662563.44809  -9866930.61809
  24355186.31707  24355185.90907  24355186.18407  -5371408.72207  -4185515.14207
  20415280.02409  20415280.02609  20415278.62709 -24898699.38509 -19401578.68909
  24029058.77907  24029058.73907  24029058.34907  -2852806.89807  -2222959.87207
  21132125.73609  21132125.42509  21132124.89009 -20415692.14809 -15908326.55309
  21869193.28109  21869193.24309  21869193.10209 -16087102.71409 -12535400.69809
  25107141.96606  25107141.37106  25107142.64806   1817899.22306   1416544.35906
  3 10 28  1 57 30.0000000  0  7G01G07G11G14G20G25G31
  22380930.68709  22380930.52809  22380931.57009 -12745173.79909  -9931302.29309
  24349320.29007  24349319.66107  24349320.34907  -5402234.02307  -4209534.86507
  20419117.09209  20419117.11709  20419115.73609 -24878535.54109 -19385866.60709
  24048006.30807  24048006.28007  24048006.01507  -2753237.34707  -2145373.22907
  21123591.12509  21123590.66609  21123590.13909 -20460542.54409 -15943274.91209
  21866600.13209  21866600.11509  21866599.96009 -16100729.28509 -12546018.79509
  25125717.71906  25125717.08506  25125718.91506   1915516.05006   1492609.40606
  3 10 28  1 58  0.0000000  0  7G01G07G11G14G20G25G31
  22365266.22709  22365266.04409  22365267.01209 -12827492.02609  -9995446.34909
  24343543.87807  24343543.29407  24343544.19207  -5432590.83007  -4233189.53107
  20423052.73209  20423052.72509  20423051.31009 -24857853.96609 -19369751.10009
  24066963.78207  24066963.35907  24066963.00907  -2653615.85107  -2067746.11807
  21115094.65609  21115094.25009  21115093.61409 -20505191.10209 -15978065.99609
  21864107.70809  21864107.69709  21864107.59009 -16113827.20309 -12556224.95109
  25144267.81605  25144267.24805  25144268.60705   2012996.75805   1568568.37905
  3 10 28  1 58 30.0000000  0  7G01G07G11G14G20G25G31
  22349660.04809  22349659.76409  22349660.80009 -12909503.45809 -10059351.33509
  24337858.85507  24337858.12707  24337859.43807  -5462464.73807  -4256467.91107
  20427089.31509  20427089.36409  20427088.00909 -24836640.82509 -19353221.38409
  24085933.21807  24085932.85407  24085932.66207  -2553930.31907  -1990069.10207
  21106639.69609  21106639.17509  21106638.48009 -20549623.27609 -16012688.46909
  21861718.84609  21861718.70009  21861718.48509 -16126381.72609 -12566007.68509
  25162794.26005  25162793.70605  25162796.08505   2110352.56605   1644430.05005
  3 10 28  1 59  0.0000000  0  7G01G07G11G14G20G25G31
  22334112.55909  22334112.28509  22334113.12109 -12991206.53109 -10123016.04109
  24332266.50107  24332265.79707  24332266.27107  -5491854.92907  -4279369.36307
  20431227.43609  20431227.45009  20431226.04209 -24814895.82009 -19336277.22909
  24104914.60907  24104914.29407  24104914.12307  -2454182.23507  -1912343.33707
  21098225.75609  21098225.39209  21098224.71909 -20593838.17309 -16047141.63509
  21859433.29009  21859433.14309  21859432.98209 -16138392.12209 -12575366.42309
  25181296.16405  25181296.08705  25181297.84505   2207581.48105   1720192.84505
  3 10 28  1 59 30.0000000  0  7G01G07G11G14G20G25G31
  22318621.10809  22318620.85609  22318621.71109 -13072613.78109 -10186450.23309
  24326762.68607  24326762.63307  24326763.54607  -5520774.39207  -4301904.01107
  20435463.83509  20435463.87609  20435462.42009 -24792633.16309 -19318929.71009
  24123904.75207  24123904.71007  24123904.73907  -2354387.05207  -1834580.87607
  21089850.68609  21089850.33509  21089849.79809 -20637848.78309 -16081435.61609
  21857248.97209  21857248.85209  21857248.50709 -16149871.25509 -12584311.19009
  25199771.49705  25199770.97205  25199772.05705   2304667.37705   1795844.14005
  3 10 28  2  0  0.0000000  0  7G01G07G11G14G20G25G31
  22303186.88109  22303186.78109  22303187.33709 -13153720.63709 -10249650.36209
  24321350.28707  24321349.83007  24321350.01007  -5549219.09107  -4324068.72607
  20439799.59809  20439799.61009  20439798.00809 -24769849.37509 -19301176.11409
  24142904.28807  24142904.13307  24142904.70107  -2254543.19307  -1756780.47907
  21081515.42709  21081515.04909  21081514.56509 -20681651.00709 -16115567.21109
  21855166.52309  21855166.38509  21855165.89709 -16160815.36609 -12592839.05409
  25218219.88105  25218219.02305  25218220.51405   2401611.38505   1871384.88705
  3 10 28  2  0 30.0000000  0  7G01G07G11G14G20G25G31
  22287811.19109  22287810.90509  22287811.71009 -13234520.57809 -10312611.33409
  24316028.68007  24316028.16907  24316028.52607  -5577182.93007  -4345858.74107
  20444235.34609  20444235.38609  20444233.90909 -24746539.09909 -19283012.26609
  24161913.81807  24161913.86807  24161914.16407  -2154646.73207  -1678939.09607
  21073221.13709  21073220.72809  21073220.10609 -20725238.73709 -16149531.66709
  21853186.88409  21853186.79609  21853186.11709 -16171218.20009 -12600945.14709
  25236640.94005  25236640.73205  25236641.76505   2498416.66505   1946817.54805
  3 10 28  2  1  0.0000000  0  8G01G07G11G13G14G20G25G31
  22272492.62009  22272492.40709  22272493.34609 -13315020.01209 -10375338.14109
  24310797.71807  24310796.87807  24310797.79107  -5604672.74507  -4367279.38407
  20448769.78409  20448769.79709  20448768.30409 -24722710.11909 -19264444.23809
  25103428.73904  25103428.84404  25103428.33304        -1.13714         -.64014
  24180931.68407  24180931.84507  24180932.00307  -2054707.19007  -1601064.14307
  21064966.20609  21064965.75609  21064965.00309 -20768618.87509 -16183334.36309
  21851309.02009  21851308.86309  21851308.13809 -16181086.67909 -12608634.85809
  25255033.58305  25255033.99405  25255035.39805   2595073.34205   2022134.44405
  3 10 28  2  1 30.0000000  0  7G01G07G11G14G20G25G31
  22257230.35309  22257230.26709  22257230.98209 -13395223.47109 -10437834.31609
  24305655.39507  24305655.09907  24305656.10207  -5631693.54307  -4388334.55007
  20453401.86809  20453401.86809  20453400.43609 -24698368.37409 -19245476.64909
  24199956.75407  24199956.51507  24199956.90107  -1954731.96907  -1523161.38407
  21056749.72409  21056749.22109  21056748.58309 -20811796.26109 -16216979.06909
  21849531.74909  21849531.73209  21849531.05709 -16190425.47209 -12615911.82909
  25273397.24806  25273396.57006  25273398.97006   2691573.66406   2097329.50506
  3 10 28  2  2  0.0000000  0  8G01G07G11G13G14G20G25G31
  22242027.96809  22242027.69909  22242028.29309 -13475113.51709 -10500086.27509
  24300605.63906  24300605.04406  24300606.79406  -5658228.54906  -4409011.19906
  20458134.60609  20458134.59309  20458133.22409 -24673497.72609 -19226096.92909
  25063856.72905  25063856.81805  25063857.82105         -.76315         -.85215
  24218991.15707  24218991.08507  24218990.86707  -1854706.10407  -1445219.15707
  21048575.12509  21048574.64109  21048574.21309 -20854753.85009 -16250452.50809
  21847858.62609  21847858.53809  21847857.87709 -16199217.85309 -12622763.02409
  25291733.63006  25291733.10906  25291734.81606   2787931.53606   2172413.55506
  3 10 28  2  2 30.0000000  0  8G01G07G11G13G14G20G25G31
  22226885.63609  22226885.36509  22226885.72309 -13554687.08109 -10562091.63109
  24295649.37207  24295648.93907  24295650.16007  -5684275.08007  -4429307.20207
  20462968.40909  20462968.39909  20462966.88509 -24648096.36009 -19206303.65909
  25044107.40705  25044107.81805  25044107.50505   -103788.92405    -80874.79405
  24238035.16107  24238035.49707  24238034.77407  -1754629.51807  -1367237.41207
  21040442.78809  21040442.36309  21040442.05909 -20897488.86009 -16283752.50309
  21846289.89709  21846289.75109  21846289.20009 -16207461.28009 -12629186.46009
  25310042.38905  25310042.31005  25310043.81405   2884146.72105   2247386.40505
  3 10 28  2  3  0.0000000  0  7G01G07G11G14G20G25G31
  22211801.77309  22211801.51109  22211802.31209 -13633952.24809 -10623856.68009
  24290783.91607  24290783.70907  24290784.87507  -5709841.85207  -4449229.37407
  20467901.22609  20467901.25009  20467899.85109 -24622173.86309 -19186104.31509
  24257087.00407  24257086.76007  24257086.03307  -1654513.07707  -1289224.60707
  21032351.58309  21032351.05409  21032350.55009 -20940009.75809 -16316885.66109
  21844823.99109  21844823.83209  21844823.44609 -16215164.21409 -12635188.73809
  25328321.23104  25328320.81904  25328323.02704   2980207.87504   2322239.21404
  3 10 28  2  3 30.0000000  0  7G01G07G11G14G20G25G31
  22196778.30509  22196778.04309  22196778.97709 -13712900.98009 -10685375.14309
  24286011.55807  24286010.91707  24286012.29607  -5734921.30607  -4468771.82107
  20472934.63309  20472934.64809  20472933.28309 -24595723.28809 -19165493.48409
  24276147.13107  24276146.56607  24276146.36207  -1554351.46907  -1211176.61707
  21024302.38909  21024301.91309  21024301.26909 -20982308.79109 -16349845.93809
  21843462.21809  21843462.17609  21843461.95409 -16222319.22309 -12640764.06009
  25346572.81004  25346572.21904  25346574.51704   3076119.69404   2396975.58904
  3 10 28  2  4  0.0000000  0  8G01G07G11G13G14G20G25G31
  22181813.37209  22181813.20109  22181814.11609 -13791541.65009 -10746653.57009
  24281330.51407  24281329.65007  24281331.30207  -5759522.38807  -4487941.49307
  20478066.38509  20478066.43809  20478065.19409 -24568754.62309 -19144478.94509
  24984992.64205  24984993.15005  24984993.13705         -.69505         -.02605
  24295213.77907  24295213.63507  24295213.10007  -1454155.70907  -1133102.00407
  21016293.52609  21016293.04309  21016292.61009 -21024394.77909 -16382640.20409
  21842203.38209  21842203.25609  21842202.89909 -16228935.13809 -12645919.30709
  25364794.66705  25364794.21705  25364795.30605   3171870.27605   2471586.41305
  3 10 28  2  4 30.0000000  0  8G01G07G11G13G14G20G25G31
  22166906.79709  22166906.60009  22166907.39109 -13869876.45009 -10807693.65609
  24276739.18507  24276738.78007  24276740.25407  -5783647.88107  -4506740.58007
  20483296.42509  20483296.38209  20483295.09909 -24541271.27709 -19123063.35809
  24965332.41405  24965333.22305  24965333.04505   -103314.89005    -80504.42205
  24314286.05407  24314285.79707  24314285.25507  -1353930.90807  -1055004.77207
  21008324.82609  21008324.44409  21008323.92609 -21066270.20609 -16415270.39809
  21841046.27709  21841046.21209  21841045.92909 -16235014.90909 -12650656.78209
  25382983.23405  25382983.01505  25382984.80905   3267454.34305   2546067.56805
  3 10 28  2  5  0.0000000  0  7G01G07G11G14G20G25G31
  22152058.35509  22152058.12909  22152058.90809 -13947905.51209 -10868495.50209
  24272238.83407  24272238.33507  24272239.77207  -5807298.45707  -4525169.60207
  20488623.99109  20488623.92709  20488622.62709 -24513274.65909 -19101247.81709
  24333363.06407  24333362.95107  24333362.37907  -1253679.72507   -976886.97407
  21000396.34109  21000395.94009  21000395.35009 -21107935.33709 -16447736.73009
  21839991.21909  21839991.10309  21839990.94409 -16240558.98409 -12654976.82709
  25401139.96004  25401139.02604  25401141.50704   3362868.64604   2620416.37904
  3 10 28  2  5 30.0000000  0  8G01G07G11G13G14G20G25G31
  22137272.58009  22137272.43109  22137273.30409 -14025604.96409 -10929040.50809
  24267833.27707  24267832.55007  24267833.88307  -5830450.84807  -4543210.43007
  20494053.35009  20494053.31809  20494052.16809 -24484742.51509 -19079014.98309
  24926083.15505  24926083.52305  24926083.63305         -.65305         -.01505
  24352448.75206  24352449.36106  24352448.68506  -1153380.91906   -898732.06706
  20992512.19509  20992511.83709  20992511.28509 -21149366.66409 -16480020.87509
  21839042.67309  21839042.45509  21839042.40609 -16245544.23509 -12658861.43009
  25419267.37904  25419265.37104  25419266.24604   3458133.68304   2694648.84704
  3 10 28  2  6  0.0000000  0  8G01G07G11G13G14G20G25G31
  22122546.44609  22122546.18309  22122547.13209 -14102991.52409 -10989341.70409
  24263518.21106  24263518.13306  24263519.32506  -5853122.29906  -4560876.48706
  20499581.42309  20499581.41009  20499580.18109 -24455692.94009 -19056378.95709
  24906495.73006  24906496.13806  24906495.47406   -102935.44706    -80208.92306
  24371540.39406  24371540.69606  24371540.09306  -1053053.99906   -820555.25406
  20984669.29009  20984668.88009  20984668.34809 -21190581.44409 -16512136.28509
  21838196.94209  21838196.89909  21838196.73909 -16249988.06809 -12662324.14209
  25437364.41304  25437364.82004  25437365.56804   3553229.54014   2768748.42514
  3 10 28  2  6 30.0000000  0  7G01G07G11G14G20G25G31
  22107882.46009  22107882.20409  22107882.99009 -14180050.94609 -11049387.98309
  24259298.37607  24259297.97907  24259299.30007  -5875299.42407  -4578157.36507
  20505210.34509  20505210.34909  20505208.99609 -24426113.36309 -19033329.94109
  24390639.38006  24390639.21106  24390638.82906   -952687.69506   -742347.76506
  20976870.22309  20976869.79809  20976869.32409 -21231565.64509 -16544072.01809
  21837456.90609  21837456.83709  21837456.87509 -16253876.93809 -12665354.41609
  25455431.42505  25455431.19505  25455430.53105   3648166.90005   2842725.49205
  3 10 28  2  7  0.0000000  0  8G01G07G11G13G14G20G25G31
  22093276.19609  22093276.03709  22093276.50009 -14256808.10709 -11109198.73909
  24255167.81607  24255167.10707  24255168.25007  -5897007.58207  -4595072.80907
  20510934.96809  20510935.00409  20510933.67709 -24396029.76809 -19009888.18509
  24867394.11306  24867394.59806  24867394.45206         -.34716         -.12516
  24409740.54706  24409741.59306  24409740.65606   -852309.15106   -664130.72506
  20969110.46609  20969110.01409  20969109.40709 -21272344.12509 -16575847.45709
  21836817.61509  21836817.57309  21836817.54809 -16257236.10109 -12667971.93509
  25473461.62306  25473461.44706  25473462.23706   3742918.07506   2916557.53706
  3 10 28  2  7 30.0000000  0  8G01G07G11G13G14G20G25G31
  22078730.35109  22078730.09309  22078730.74609 -14333246.86909 -11168761.40209
  24251129.25407  24251128.60407  24251129.10207  -5918231.25507  -4611610.73607
  20516758.33609  20516758.37709  20516757.13909 -24365427.70309 -18986042.42809
  24847879.44106  24847879.81206  24847878.97006   -102553.25206    -79911.46706
  24428847.09106  24428847.68306  24428846.43306   -751904.91206   -585893.66506
  20961392.50709  20961392.11209  20961391.65509 -21312901.08109 -16607450.27109
  21836282.26509  21836282.20309  21836281.92509 -16260050.34309 -12670164.84109
  25491458.86806  25491458.46106  25491460.37906   3837495.85006   2990254.43606
  3 10 28  2  8  0.0000000  0  8G01G07G11G13G14G20G25G31
  22064244.32409  22064244.11509  22064245.02709 -14409370.36009 -11228078.39209
  24247181.65307  24247181.29807  24247182.52007  -5938974.30807  -4627774.14907
  20522679.57409  20522679.53909  20522678.37309 -24334311.62009 -18961796.13509
  24828388.20405  24828387.76405  24828388.47505   -204978.58505   -159723.43505
  24447957.46206  24447957.96306  24447956.86706   -651480.54006   -507640.91806
  20953716.33109  20953715.86909  20953715.37509 -21353239.84909 -16638883.06909
  21835849.64009  21835849.57409  21835849.31009 -16262323.53809 -12671936.15109
  25509422.20907  25509421.91307  25509423.17307   3931893.98407   3063811.37107
  3 10 28  2  8 30.0000000  0  7G01G07G11G13G14G20G25
  22049818.81809  22049818.49709  22049819.39509 -14485177.51109 -11287148.87109
  24243325.77406  24243324.90606  24243326.70006  -5959236.13506  -4643562.59306
  20528698.58609  20528698.58009  20528697.30309 -24302681.67109 -18937149.42809
  24808922.18506  24808921.82906  24808921.75506   -307274.91106   -239434.86006
  24467071.28906  24467071.33306  24467070.26706   -551037.72506   -429373.79906
  20946081.62009  20946081.23309  20946080.77609 -21393359.59209 -16670145.19609
  21835520.30809  21835520.21309  21835519.84309 -16264054.50809 -12673284.94609
  3 10 28  2  9  0.0000000  0  7G01G07G11G13G14G20G25
  22035456.69609  22035456.39009  22035457.01609 -14560652.09409 -11345960.22309
  24239564.41906  24239564.67606  24239565.47706  -5979001.42606  -4658964.11806
  20534818.07409  20534818.10109  20534816.83209 -24270523.34509 -18912090.99609
  24789482.48105  24789482.64305  24789483.27405   -409425.55305   -319032.73805
  24486191.12906  24486191.64606  24486190.13406   -450562.61806   -351081.51406
  20938492.02309  20938491.55009  20938490.85609 -21433244.25509 -16701224.14909
  21835297.02609  21835296.85709  21835296.42109 -16265228.27709 -12674199.56209
  3 10 28  2  9 30.0000000  0  7G01G07G11G13G14G20G25
  22021158.28309  22021158.00909  22021158.74609 -14635789.83409 -11404509.09909
  24235898.28806  24235898.08606  24235899.36706  -5998266.38306  -4673975.76306
  20541038.80209  20541038.75009  20541037.46409 -24237833.76609 -18886618.60709
  24770073.02106  24770073.44606  24770073.03006   -511425.64506   -398513.30306
  24505317.50606  24505317.71406  24505317.32406   -350053.62306   -272762.81306
  20930947.81509  20930947.29609  20930946.54309 -21472889.80809 -16732116.78209
  21835180.14209  21835180.05109  21835179.89809 -16265841.24009 -12674677.18709
  3 10 28  2 10  0.0000000  0  7G01G07G11G13G14G20G25
  22006921.41809  22006921.15109  22006921.72109 -14710606.00809 -11462807.39009
  24232325.43307  24232324.82307  24232325.33007  -6017046.94607  -4688609.97507
  20547357.26109  20547357.25009  20547356.06109 -24204629.78509 -18860745.38109
  24750688.78307  24750689.49107  24750689.04607   -613290.19707   -477888.35907
  24524446.83206  24524447.02406  24524445.34406   -249528.48006   -194431.54406
  20923445.99109  20923445.55309  20923444.85709 -21512311.54809 -16762835.01409
  21835167.03709  21835167.05709  21835166.90909 -16265909.19709 -12674730.13409
  3 10 28  2 10 30.0000000  0  7G01G07G11G13G14G20G25
  21992742.08509  21992741.79409  21992742.39209 -14785118.58809 -11520869.13009
  24228840.12507  24228839.75107  24228839.83307  -6035361.67207  -4702881.20107
  20553769.91509  20553769.87309  20553768.76209 -24170930.81409 -18834486.45009
  24731326.63906  24731326.47606  24731326.72806   -715036.59106   -557171.19206
  24543575.55506  24543575.69006  24543573.92506   -149007.50506   -116103.51206
  20915983.33909  20915982.90909  20915982.29609 -21551527.54509 -16793392.93009
  21835254.49509  21835254.41709  21835254.14209 -16265450.90909 -12674373.02309
  3 10 28  2 11  0.0000000  0  7G01G07G11G13G14G20G25
  21978623.81209  21978623.47109  21978624.41609 -14859309.58409 -11578680.27409
  24225446.81407  24225446.28107  24225446.62907  -6053193.34207  -4716776.02007
  20560279.96309  20560279.94309  20560278.68509 -24136720.15409 -18807828.80109
  24711991.62807  24711992.13807  24711991.33107   -816646.17907   -636347.57307
  24562706.38406  24562705.52006  24562705.35906    -48475.09406    -37766.57206
  20908563.22409  20908562.85709  20908562.34809 -21590519.86509 -16823776.54609
  21835445.10809  21835444.99409  21835444.80109 -16264449.08609 -12673592.37509
  3 10 28  2 11 30.0000000  0  7G01G07G11G13G14G20G25
  21964568.35709  21964568.10909  21964568.87909 -14933171.33409 -11636234.86609
  24222147.48807  24222146.53207  24222146.62907  -6070535.01107  -4730289.02607
  20566888.59609  20566888.57909  20566887.35909 -24101991.79909 -18780767.75509
  24692682.68805  24692683.16305  24692683.17005   -918111.11705   -715411.11105
  24581840.28507  24581840.33907  24581839.37507     52073.70907     40583.15507
  20901187.28009  20901186.85809  20901186.25709 -21629281.17409 -16853980.15309
  21835740.45809  21835740.37709  21835740.18009 -16262896.80009 -12672382.79309
  3 10 28  2 12  0.0000000  0  7G01G07G11G13G14G20G25
  21950576.60109  21950576.34709  21950577.03709 -15006698.65909 -11693528.87709
  24218940.65807  24218939.97307  24218940.79107  -6087382.33907  -4743416.82907
  20573596.43309  20573596.45609  20573595.23509 -24066742.06109 -18753300.43409
  24673404.01106  24673403.72606  24673403.37106  -1019425.91506   -794357.67306
  24600977.80407  24600977.58207  24600976.53507    152641.73607    118947.85307
  20893856.17909  20893855.76109  20893855.11509 -21667806.50809 -16883999.88509
  21836141.52309  21836141.33709  21836141.08609 -16260789.74909 -12670740.92409
  3 10 28  2 12 30.0000000  0  7G01G07G11G13G14G20G25
  21936647.59209  21936647.34509  21936648.21109 -15079895.81509 -11750565.60109
  24215827.56406  24215827.02906  24215828.12106  -6103740.17906  -4756163.21306
  20580402.28709  20580402.26809  20580401.09409 -24030976.67409 -18725431.31009
  24654151.27405  24654151.41705  24654151.61905  -1120594.19805   -873190.10205
  24620117.65107  24620117.20407  24620116.40007    253222.41107    197322.42307
  20886569.14209  20886568.72209  20886568.12709 -21706100.00309 -16913838.96209
  21836647.08809  21836647.00609  21836646.65309 -16258132.74909 -12668670.52609
  3 10 28  2 13  0.0000000  0  7G01G07G11G13G14G20G25
  21922781.61409  21922781.41109  21922782.12409 -15152761.89309 -11807344.34509
  24212808.17906  24212808.46006  24212808.44306  -6119608.37206  -4768528.07306
  20587306.10909  20587306.14409  20587304.92109 -23994696.54809 -18697161.09209
  24634928.23906  24634928.74406  24634929.13106  -1221614.48306   -951907.18106
  24639259.61307  24639259.56407  24639258.77807    353814.14407    275705.60407
  20879326.57209  20879326.03709  20879325.40409 -21744160.80809 -16943496.72509
  21837257.22909  21837257.21209  21837256.92309 -16254925.86209 -12666171.64509
  3 10 28  2 13 30.0000000  0  7G01G07G11G13G14G20G25
  21908976.93309  21908976.69509  21908977.47209 -15225305.66709 -11863871.94309
  24209879.81106  24209879.25206  24209880.57706  -6134996.45506  -4780518.80806
  20594306.12009  20594306.06909  20594304.85909 -23957911.80609 -18668497.66509
  24615731.00705  24615731.61705  24615731.60605  -1322494.81105  -1030515.19905
  24658401.87407  24658401.07807  24658400.86607    454405.94607    354088.82807
  20872126.29309  20872125.88609  20872125.37609 -21781997.65109 -16972979.97309
  21837970.45109  21837970.36809  21837969.96209 -16251178.51909 -12663251.62709
  3 10 28  2 14  0.0000000  0  7G01G07G11G13G14G20G25
  21895233.88109  21895233.68009  21895234.47209 -15297526.13909 -11920147.62109
  24207043.58406  24207042.96706  24207043.58006  -6149904.27006  -4792135.31806
  20601401.97009  20601401.95609  20601400.76809 -23920622.89209 -18639441.37909
  24596561.50706  24596562.01206  24596561.32006  -1423234.13706  -1109013.36506
  24677542.92807  24677542.75307  24677541.76707    554996.26207    432470.90007
  20864969.00509  20864968.63609  20864968.04209 -21819609.71709 -17002288.06709
  21838786.29409  21838786.22409  21838786.06809 -16246890.49809 -12659910.30309
  3 10 28  2 14 30.0000000  0  7G01G07G11G13G14G20G25
  21881551.74009  21881551.63609  21881552.76309 -15369424.69509 -11976172.45509
  24204297.66906  24204296.85906  24204297.84206  -6164333.85506  -4803379.15406
  20608593.05009  20608593.03409  20608591.92209 -23882832.84309 -18609994.59909
  24577417.32305  24577418.20405  24577418.98305  -1523833.38705  -1187402.37005
  24696683.66006  24696683.53506  24696683.17506    655581.40406    510848.93806
  20857854.21209  20857853.78909  20857853.17809 -21856998.55809 -17031422.22109
  21839704.60809  21839704.53809  21839704.49009 -16242064.15709 -12656149.50509
  3 10 28  2 15  0.0000000  0  7G01G07G11G13G14G20G25
  21867934.93309  21867934.77409  21867935.76009 -15440982.15309 -12031931.49009
  24201646.17407  24201645.91707  24201646.55507  -6178266.91807  -4814236.12407
  20615882.93309  20615882.89909  20615881.75909 -23844524.07109 -18580143.62109
  24558304.77106  24558304.76306  24558305.23506  -1624272.64906  -1265666.74106
  24715826.52206  24715826.08906  24715825.95706    756178.48006    589236.26706
  20850785.51309  20850785.07109  20850784.50009 -21894144.85309 -17060367.37409
  21840729.14809  21840728.94909  21840728.79909 -16236681.21709 -12651955.00109
  3 10 28  2 15 30.0000000  0  7G01G07G11G13G14G20G25
  21854380.52709  21854380.35209  21854381.11309 -15512211.71009 -12087435.03209
  24199087.25907  24199086.62107  24199086.85507  -6191717.43307  -4824717.07207
  20623268.86109  20623268.82209  20623267.59609 -23805711.47909 -18549900.05309
  24539219.70506  24539220.28106  24539220.28606  -1724564.72506  -1343816.40706
  24734968.56606  24734968.45506  24734967.87206    856771.90406    667620.76406
  20843760.45509  20843760.00209  20843759.47209 -21931061.73409 -17089133.76309
  21841856.60209  21841856.56609  21841856.47609 -16230755.38709 -12647337.46209
  3 10 28  2 16  0.0000000  0  7G01G07G11G13G14G20G25
  21840888.36009  21840888.05509  21840888.93909 -15583113.95009 -12142683.52109
  24196618.20006  24196618.00706  24196618.80706  -6204686.48506  -4834822.86206
  20630750.00709  20630750.04309  20630748.91009 -23766397.20609 -18519265.56809
  24520163.47207  24520163.46507  24520163.58307  -1824709.88807  -1421851.57907
  24754109.50006  24754109.92606  24754109.41606    957358.85906    746000.21306
  20836778.98309  20836778.52009  20836777.87109 -21967749.78109 -17117721.84209
  21843087.32509  21843087.16809  21843087.17909 -16224288.13609 -12642298.04309
  3 10 28  2 16 30.0000000  0  7G01G07G11G13G14G20G25
  21827459.79509  21827459.56709  21827460.59009 -15653681.05709 -12197670.85509
  24194244.37707  24194243.83307  24194243.97307  -6217167.35607  -4844548.24207
  20638327.98109  20638328.01009  20638326.80309 -23726574.79809 -18488235.13309
  24501135.68006  24501135.97406  24501136.24406  -1924699.43906  -1499765.52706
  24773250.65106  24773251.29106  24773249.99206   1057944.74806    824378.82706
  20829842.46309  20829842.02209  20829841.37109 -22004201.49509 -17146125.76709
  21844422.19009  21844422.18909  21844422.14309 -16217272.58109 -12636831.37109
  3 10 28  2 17  0.0000000  0  7G01G07G11G13G14G20G25
  21814095.64209  21814095.43709  21814096.38409 -15723909.88709 -12252394.59909
  24191962.54007  24191962.01707  24191962.07207  -6229157.51807  -4853891.23407
  20646003.15709  20646003.12309  20646001.81809 -23686242.76109 -18456807.58309
  24482139.10707  24482139.44107  24482139.49307  -2024529.62007  -1577555.24907
  24792391.62306  24792391.51706  24792390.56806   1158530.77406    902757.55006
  20822951.61509  20822951.15909  20822950.56909 -22040413.05809 -17174342.55809
  21845862.30709  21845862.16609  21845862.01809 -16209706.39909 -12630935.64309
  3 10 28  2 17 30.0000000  0  7G01G07G11G13G14G20G25
  21800795.53809  21800795.25409  21800796.12209 -15793802.47609 -12306856.34809
  24189772.66907  24189772.36007  24189773.07907  -6240659.99807  -4862854.23807
  20653774.31709  20653774.31009  20653773.08409 -23645404.77709 -18424985.78509
  24463171.58406  24463171.83706  24463172.20906  -2124202.02806  -1655222.08706
  24811531.50405  24811531.96905  24811530.87805   1259112.60005    981133.00805
  20816106.02509  20816105.53009  20816104.96709 -22076386.68709 -17202373.94609
  21847406.24109  21847406.13909  21847406.02509 -16201592.66009 -12624613.25009
  3 10 28  2 18  0.0000000  0  7G01G07G11G13G14G20G25
  21787557.85509  21787557.62409  21787558.70709 -15863366.70209 -12361062.22709
  24187676.54807  24187675.81107  24187676.10607  -6251683.40307  -4871443.91807
  20661640.03009  20661640.02609  20661638.77409 -23604070.01809 -18392776.89109
  24444233.57707  24444233.88007  24444233.61107  -2223724.02007  -1732771.66207
  24830669.79205  24830669.83405  24830668.39205   1359680.11705   1059497.30705
  20809304.19109  20809303.76509  20809303.11209 -22112130.25809 -17230226.06909
  21849052.79009  21849052.74009  21849052.60209 -16192940.07609 -12617870.97509
  3 10 28  2 18 30.0000000  0  7G01G07G11G13G14G20G25
  21774384.07809  21774383.80509  21774384.80109 -15932596.18009 -12415007.25009
  24185670.37707  24185669.93307  24185670.30407  -6262222.17307  -4879655.96807
  20669601.40109  20669601.35109  20669599.84209 -23562234.08009 -18360177.46409
  24425324.93707  24425325.01107  24425325.65707  -2323088.76807  -1810198.71207
  24849804.88505  24849804.34405  24849803.68605   1460237.59205   1137853.79305
  20802547.49709  20802547.07509  20802546.38509 -22147637.13009 -17257893.75609
  21850803.16509  21850803.03809  21850802.72409 -16183743.08109 -12610704.48409
  3 10 28  2 19  0.0000000  0  7G01G07G11G13G14G20G25
  21761275.91209  21761275.72709  21761276.33409 -16001480.35009 -12468683.21709
  24183759.83507  24183758.53207  24183758.18007  -6272266.72707  -4887482.91207
  20677659.46809  20677659.43409  20677658.05809 -23519888.10309 -18327180.60709
  24406448.17507  24406448.61107  24406448.56007  -2422285.14307  -1887494.62507
  24868939.78805  24868939.49605  24868939.25605   1560793.57605   1216209.09805
  20795837.72809  20795837.36509  20795836.72309 -22182896.83309 -17285368.84109
  21852658.60209  21852658.49809  21852658.26609 -16173992.22009 -12603106.41409
  3 10 28  2 19 30.0000000  0  7G01G07G11G13G14G20G25
  21748233.13209  21748232.87709  21748233.74209 -16070020.37609 -12522091.01309
  24181941.60407  24181941.02607  24181941.01807  -6281818.90707  -4894926.17207
  20685814.22409  20685814.17409  20685812.76809 -23477034.66809 -18293788.33109
  24387603.56407  24387604.28807  24387603.95807  -2521313.81707  -1964659.80907
  24888073.86105  24888073.50805  24888072.73805   1661344.70705   1294560.63505
  20789174.86609  20789174.45009  20789173.75309 -22217910.39209 -17312652.12909
  21854619.26809  21854619.19109  21854618.85209 -16163689.07909 -12595077.99509
  3 10 28  2 20  0.0000000  0  7G01G07G11G13G14G20G25
  21735251.70809  21735251.48809  21735252.15509 -16138238.61309 -12575248.06209
  24180212.05906  24180212.18406  24180212.49106  -6290902.01906  -4902003.94806
  20694060.93209  20694060.95209  20694059.59209 -23433697.71509 -18260019.29009
  24368787.05107  24368787.56107  24368786.98807  -2620196.50907  -2041711.26507
  24907202.09705  24907202.46105  24907201.85505   1761866.45305   1372889.26005
  20782554.61609  20782554.17209  20782553.51409 -22252700.00809 -17339760.91709
  21856680.53009  21856680.37409  21856680.08209 -16152857.08409 -12586637.47809
  3 10 28  2 20 30.0000000  0  7G01G07G11G13G14G20G25
  21722334.62409  21722334.33209  21722335.04809 -16206118.33809 -12628141.34009
  24178576.55207  24178576.12907  24178576.09007  -6299500.38607  -4908703.98407
  20702402.63809  20702402.60709  20702401.13109 -23389862.51509 -18225862.00409
  24350001.32007  24350001.60807  24350000.81907  -2718916.09307  -2118635.61007
  24926328.24905  24926328.35905  24926326.90505   1862373.39605   1451206.36605
  20775980.11509  20775979.73709  20775979.13609 -22287248.96409 -17366682.17509
  21858845.48609  21858845.32209  21858844.90709 -16141480.70009 -12577772.76409
  3 10 28  2 21  0.0000000  0  7G01G07G11G13G14G20G25
  21709482.88809  21709482.73209  21709483.39109 -16273654.19309 -12680766.66709
  24177032.76206  24177032.32306  24177033.23906  -6307609.49206  -4915022.76906
  20710839.58309  20710839.54009  20710838.23209 -23345525.57209 -18191313.74909
  24331248.03607  24331248.66907  24331247.32907  -2817466.42207  -2195428.08207
  24945452.37905  24945451.64005  24945450.12505   1962868.89205   1529514.53605
  20769452.50809  20769452.07709  20769451.48109 -22321551.77909 -17393411.63909
  21861114.59509  21861114.48509  21861114.18009 -16129555.65609 -12568480.52009
  3 10 28  2 21 30.0000000  0  7G01G07G11G13G14G20G25
  21696697.20209  21696696.97809  21696697.63709 -16340843.62609 -12733122.05409
  24175584.17507  24175583.41107  24175583.80907  -6315227.61607  -4920958.99307
  20719372.30009  20719372.32009  20719371.09909 -23300685.51709 -18156373.45509
  24312526.94307  24312527.15007  24312527.52707  -2915844.71007  -2272086.47607
  24964573.49405  24964573.52405  24964572.76005   2063353.30005   1607814.07405
  20762972.31609  20762971.90309  20762971.23509 -22355605.42109 -17419946.93609
  21863488.51509  21863488.38409  21863488.19109 -16117080.22709 -12558759.40909
  3 10 28  2 22  0.0000000  0  7G01G07G11G13G14G20G25
  21683976.28409  21683976.05009  21683976.56509 -16407692.94209 -12785212.41909
  24174226.38207  24174225.78907  24174226.31607  -6322362.10707  -4926518.32907
  20727999.22009  20727999.25209  20727998.04409 -23255350.50409 -18121047.48009
  24293838.22107  24293838.61007  24293837.65807  -3014056.56707  -2348615.20507
  24983691.37605  24983691.19105  24983690.05405   2163818.38005   1686098.53605
  20756538.34209  20756537.91309  20756537.28109 -22389416.26309 -17446293.04309
  21865965.93209  21865965.78809  21865965.48309 -16104061.78709 -12548615.17109
  3 10 28  2 22 30.0000000  0  7G01G07G11G13G14G20G25
  21671318.54609  21671318.40609  21671318.99209 -16474209.22209 -12837043.27209
  24172958.91007  24172958.25307  24172959.13907  -6329020.85807  -4931706.98307
  20736718.75809  20736718.72609  20736717.62009 -23209529.26809 -18085342.63109
  24275179.39107  24275179.47807  24275179.55607  -3112108.37807  -2425019.20107
  25002803.91905  25002802.98105  25002802.63005   2264255.27905   1764361.03905
  20750149.35809  20750148.82909  20750148.31609 -22422990.92909 -17472455.11609
  21868545.05609  21868544.92709  21868544.68609 -16090508.13909 -12538053.88609
  3 10 28  2 23  0.0000000  0  7G01G07G11G13G14G20G25
  21658725.94709  21658725.65309  21658725.93609 -16540384.83309 -12888608.67109
  24171784.31307  24171783.15907  24171784.06907  -6335196.96107  -4936519.54807
  20745531.91809  20745531.88109  20745530.76509 -23163215.82009 -18049254.24309
  24256552.90107  24256552.82407  24256552.92707  -3209991.87007  -2501292.03507
  25021911.47705  25021912.10005  25021911.06705   2364669.65405   1842606.00405
  20743806.63109  20743806.22209  20743805.69609 -22456321.55909 -17498427.03009
  21871227.15509  21871227.13109  21871226.98109 -16076412.57909 -12527070.33109
  3 10 28  2 23 30.0000000  0  7G01G07G11G13G14G20G25
  21646198.14209  21646197.91509  21646198.22309 -16606218.35609 -12939907.50109
  24170699.77906  24170699.26106  24170700.32006  -6340890.02206  -4940955.70906
  20754438.57309  20754438.59609  20754437.55109 -23116410.26909 -18012782.39409
  24237958.25807  24237958.81807  24237958.67307  -3307705.01807  -2577432.15107
  25041015.77905  25041015.44505  25041015.08505   2465060.89505   1920832.94005
  20737510.80209  20737510.35309  20737509.75509 -22489406.73609 -17524207.68509
  21874012.64909  21874012.54209  21874012.38509 -16061775.02409 -12515664.44209
  3 10 28  2 24  0.0000000  0  7G01G07G11G13G14G20G25
  21633732.73609  21633732.52609  21633733.05509 -16671724.25209 -12990951.04009
  24169706.33807  24169705.93407  24169705.98607  -6346115.51907  -4945027.53307
  20763435.90709  20763435.91909  20763434.92109 -23069129.03709 -17975939.88109
  24219393.96607  24219394.12807  24219393.66207  -3405261.88007  -2653450.46607
  25060112.16606  25060111.82006  25060111.60006   2565412.54606   1999029.03406
  20731258.97509  20731258.53809  20731257.96609 -22522260.34409 -17549807.89409
  21876898.44309  21876898.37409  21876897.93309 -16046610.82109 -12503848.17609
  3 10 28  2 24 30.0000000  0  7G01G07G11G13G14G20G25
  21621334.53909  21621334.31209  21621334.54709 -16736877.63509 -13041719.89609
  24168805.02907  24168804.42607  24168805.74507  -6350849.46407  -4948716.33207
  20772528.28109  20772528.21909  20772527.13809 -23021348.96709 -17938708.66209
  24200864.18707  24200864.73907  24200864.10207  -3502636.79207  -2729327.00707
  25079205.30306  25079205.07006  25079204.61906   2665747.67306   2077212.22806
  20725055.95209  20725055.52909  20725054.97909 -22554857.45109 -17575208.23609
  21879888.80409  21879888.69509  21879888.33109 -16030896.16109 -12491602.98209
  3 10 28  2 25  0.0000000  0  7G01G07G11G13G14G20G25
  21609002.69809  21609002.39809  21609002.75209 -16801682.08909 -13092216.85909
  24167997.31307  24167996.42307  24167997.07507  -6355096.60107  -4952025.81107
  20781714.46209  20781714.45709  20781713.32709 -22973075.18109 -17901092.73009
  24182368.05307  24182368.17407  24182367.70607  -3599832.91707  -2805064.23407
  25098293.95906  25098294.01306  25098293.10706   2766060.52306   2155378.08606
  20718901.01409  20718900.56809  20718900.06509 -22587201.40109 -17600411.31509
  21882983.12509  21882983.05509  21882982.53809 -16014635.74809 -12478932.52609
  3 10 28  2 25 30.0000000  0  7G01G07G11G13G14G20G25
  21596735.60709  21596735.30409  21596735.54909 -16866145.89609 -13142448.37709
  24167279.95907  24167279.06807  24167279.56607  -6358866.07807  -4954963.05907
  20790992.64509  20790992.60009  20790991.53709 -22924317.89809 -17863100.05709
  24163904.95207  24163905.13407  24163904.62207  -3696857.67207  -2880667.92507
  25117376.83406  25117377.62406  25117375.99906   2866341.19906   2233518.86106
  20712792.87309  20712792.37009  20712791.87009 -22619300.12209 -17625423.30209
  21886179.52809  21886179.48209  21886178.92409 -15997838.64209 -12465843.86609
  3 10 28  2 26  0.0000000  0  7G01G07G11G13G14G20G25
  21584533.27709  21584533.07209  21584533.18009 -16930269.11209 -13192414.50509
  24166652.85107  24166652.17007  24166653.45707  -6362159.07407  -4957529.04807
  20800362.55209  20800362.57309  20800361.46109 -22875078.85809 -17824731.98709
  24145474.55007  24145475.08607  24145474.39207  -3793710.86107  -2956137.91807
  25136453.31306  25136452.96106  25136452.50506   2966587.64706   2311632.97706
  20706731.28909  20706730.86609  20706730.42609 -22651153.44309 -17650244.07509
  21889477.81609  21889477.71209  21889477.18609 -15980506.26009 -12452338.11209
  3 10 28  2 26 30.0000000  0  7G01G07G11G13G14G20G25
  21572397.84509  21572397.58809  21572397.99309 -16994041.05709 -13242106.90909
  24166119.05607  24166118.45007  24166119.83707  -6364965.74907  -4959716.08207
  20809825.82709  20809825.84209  20809824.83909 -22825348.94409 -17785981.41409
  24127078.54607  24127079.40207  24127078.63107  -3890380.91107  -3031465.22507
  25155524.63306  25155524.42306  25155524.19506   3066808.91306   2389727.47006
  20700718.60109  20700718.16209  20700717.74309 -22682750.39609 -17674865.07809
  21892879.73709  21892879.69309  21892879.06809 -15962628.98809 -12438407.76409
  3 10 28  2 27  0.0000000  0  7G01G07G11G13G14G20G25
  21560329.61109  21560329.40709  21560329.57109 -17057460.01309 -13291524.25509
  24165677.24707  24165676.71107  24165677.84307  -6367285.41607  -4961523.63907
  20819382.54909  20819382.50609  20819381.51809 -22775128.10709 -17746848.31109
  24108718.16907  24108718.46607  24108718.66307  -3986865.52907  -3106648.02307
  25174591.80806  25174591.48906  25174590.71106   3167004.81606   2467802.18606
  20694755.25209  20694754.83109  20694754.20809 -22714088.74609 -17699284.57009
  21896385.52409  21896385.45209  21896384.86509 -15944205.99909 -12424052.18609
  3 10 28  2 27 30.0000000  0  7G01G07G11G13G14G20G25
  21548326.25809  21548326.02209  21548326.22109 -17120537.87909 -13340675.82009
  24165326.67807  24165326.30207  24165326.59807  -6369131.02607  -4962961.79207
  20829029.97309  20829030.05509  20829028.90109 -22724430.34809 -17707343.57309
  24090391.07407  24090391.20407  24090391.11807  -4083176.02207  -3181695.14707
  25193650.72206  25193650.35706  25193650.75106   3267161.53706   2545846.38506
  20688838.76109  20688838.29409  20688837.68809 -22745180.21709 -17723511.68609
  21899992.60509  21899992.49609  21899991.88909 -15925250.68209 -12409281.80809
  3 10 28  2 28  0.0000000  0  7G01G07G11G13G14G20G25
  21536388.32509  21536388.15109  21536388.41409 -17183271.28909 -13389558.97209
  24165065.30206  24165064.82706  24165067.15406  -6370500.25106  -4964028.73606
  20838768.66509  20838768.66809  20838767.42109 -22673253.94409 -17667465.86609
  24072097.77607  24072097.80707  24072097.57607  -4179308.31407  -3256603.40107
  25212702.15806  25212702.45106  25212701.99106   3367280.82006   2623861.40006
  20682969.92909  20682969.54809  20682968.88609 -22776020.92009 -17747543.40509
  21903701.46209  21903701.35909  21903700.71809 -15905760.34909 -12394094.53409
  3 10 28  2 28 30.0000000  0  6G01G07G11G13G20G25
  21524517.48809  21524517.25609  21524517.50609 -17245653.30609 -13438168.31709
  24164896.54706  24164895.90906  24164897.64106  -6371387.20706  -4964719.89706
  20848599.25809  20848599.27809  20848598.05109 -22621593.64709 -17627211.10309
  24053839.25807  24053839.66907  24053840.15507  -4275255.07307  -3331367.07507
  20677150.28109  20677149.85609  20677149.21809 -22806603.83809 -17771374.25309
  21907513.12009  21907513.02609  21907512.52709 -15885729.31309 -12378485.93009
  3 10 28  2 29  0.0000000  0  6G01G07G11G13G20G25
  21512713.25809  21512713.03409  21512713.40609 -17307684.54509 -13486504.32209
  24164819.23706  24164819.19706  24164820.33506  -6371793.72506  -4965036.65906
  20858521.47709  20858521.45709  20858520.19709 -22569452.05609 -17586581.30709
  24035616.57107  24035616.72007  24035616.79507  -4371016.69107  -3405986.50107
  20671379.60709  20671379.16409  20671378.52709 -22836929.04209 -17795004.28209
  21911427.32209  21911427.21809  21911426.89709 -15865159.68509 -12362457.64909
  3 10 28  2 29 30.0000000  0  7G01G07G11G13G14G20G25
  21500973.79009  21500973.59309  21500973.79809 -17369375.50009 -13534575.17709
  24164831.13207  24164830.62307  24164832.33007  -6371731.01607  -4964987.83607
  20868533.05909  20868533.05509  20868531.64609 -22516841.30309 -17545585.93209
  24017427.24507  24017427.32707  24017427.49207  -4466602.19207  -3480468.69007
  25269818.16606  25269818.14706  25269818.23106         -.27016         -.41316
  20665655.95109  20665655.52009  20665654.89409 -22867006.71309 -17818441.42109
  21915441.98809  21915441.83909  21915441.49009 -15844062.56209 -12346018.33009
  3 10 28  2 30  0.0000000  0  6G01G07G11G13G20G25
  21489299.61309  21489299.43909  21489299.72209 -17430723.64009 -13582378.91009
  24164933.39007  24164932.90807  24164933.58107  -6371197.69007  -4964572.26207
  20878634.13409  20878634.10409  20878632.76409 -22463760.46409 -17504224.25409
  23999272.38607  23999272.63807  23999271.96207  -4562008.52807  -3554811.27907
  20659980.10909  20659979.69709  20659978.98409 -22896833.73709 -17841683.25209
  21919557.04909  21919556.94309  21919556.74609 -15822436.66309 -12329166.97809
  3 10 28  2 30 30.0000000  0  7G01G07G11G13G14G20G25
  21477693.22609  21477692.91909  21477693.26709 -17491716.01309 -13629905.41209
  24165125.78807  24165125.68107  24165127.29207  -6370182.01107  -4963780.84407
  20888826.47409  20888826.46409  20888825.21809 -22410198.73809 -17462487.86009
  23981153.59807  23981154.16407  23981153.79807  -4657222.09607  -3629003.66507
  25307854.66305  25307854.39805  25307854.66205        -1.17405         -.56605
  20654354.44309  20654353.96309  20654353.26309 -22926396.76709 -17864719.37809
  21923775.16109  21923775.11709  21923774.98909 -15800270.26509 -12311894.46109
  3 10 28  2 31  0.0000000  0  6G01G07G11G13G20G25
  21466152.72309  21466152.51009  21466152.70709 -17552361.18209 -13677161.37009
  24165409.29807  24165408.68707  24165410.29107  -6368693.63007  -4962621.09507
  20899108.60509  20899108.58909  20899107.18809 -22356166.18409 -17420384.58609
  23963070.01107  23963070.66007  23963069.76907  -4752251.21507  -3703052.31707
  20648777.46809  20648777.04909  20648776.30609 -22955703.90709 -17887556.10709
  21928094.37009  21928094.24209  21928093.94809 -15777573.26609 -12294208.48409
  3 10 28  2 31 30.0000000  0  6G01G07G11G13G20G25
  21454677.47009  21454677.21409  21454677.73909 -17612663.60309 -13724150.25209
  24165781.54807  24165781.12407  24165781.80607  -6366738.11807  -4961097.33507
  20909479.15009  20909479.11609  20909477.71209 -22301669.19809 -17377919.41909
  23945021.30607  23945021.36507  23945021.05107  -4847099.52107  -3776960.06007
  20643248.43109  20643248.02309  20643247.25009 -22984759.29909 -17910196.67509
  21932513.39909  21932513.30709  21932512.98309 -15754351.15109 -12276113.32809
  3 10 28  2 32  0.0000000  0  6G01G07G11G13G20G25
  21443271.40209  21443271.19609  21443271.46009 -17672602.88409 -13770856.16609
  24166246.10607  24166245.77407  24166246.34707  -6364296.06207  -4959194.46007
  20919941.46709  20919941.44809  20919940.03309 -22246688.99809 -17335077.72109
  23927010.28807  23927010.88307  23927010.75607  -4941745.85107  -3850710.42507
  20637771.15009  20637770.72809  20637770.04609 -23013542.16909 -17932624.88909
  21937035.79609  21937035.70409  21937035.61109 -15730584.70909 -12257594.01709
  3 10 28  2 32 30.0000000  0  6G01G07G11G13G20G25
  21431931.27309  21431931.03709  21431931.12509 -17732196.10009 -13817292.42409
  24166800.28807  24166799.86007  24166800.06607  -6361385.59107  -4956926.58507
  20930492.07809  20930492.08309  20930490.66009 -22191244.73109 -17291874.41209
  23909034.76507  23909035.33307  23909035.35107  -5036206.58007  -3924316.16207
  20632342.74009  20632342.25709  20632341.62009 -23042068.92009 -17954853.52709
  21941658.49909  21941658.38809  21941658.32409 -15706292.26009 -12238664.83509
  3 10 28  2 33  0.0000000  0  6G01G07G11G13G20G25
  21420657.20709  21420656.97909  21420657.37909 -17791441.07909 -13863457.31709
  24167443.40307  24167442.55907  24167443.53607  -6358005.95507  -4954293.12607
  20941131.16109  20941131.09709  20941129.78909 -22135336.16309 -17248309.30509
  23891095.84307  23891096.17907          .00001  -5130478.87301          .00011
  20626963.52609  20626963.09509  20626962.38109 -23070336.82509 -17976880.46709
  21946381.39309  21946381.33109  21946381.30309 -15681473.05309 -12219325.18809
  3 10 28  2 33 30.0000000  0  6G01G07G11G13G20G25
  21409448.08109  21409447.88409  21409448.21809 -17850344.88009 -13909356.36209
  24168174.03507  24168173.68607  24168174.88907  -6354165.08407  -4951300.27107
  20951856.77409  20951856.78709  20951855.64009 -22078971.76109 -17204389.00809
  23873191.31508  23873191.50808  23873190.98708  -5224569.06708  -4071092.07708
  20621632.41609  20621631.99009  20621631.09409 -23098352.43009 -17998710.80509
  21951203.11409  21951203.06809  21951202.91009 -15656135.19909 -12199581.40509
  3 10 28  2 34  0.0000000  0  6G01G07G11G13G20G25
  21398306.71209  21398306.45309  21398306.80509 -17908893.05309 -13954978.29609
  24168995.70407  24168994.86507  24168995.77207  -6349849.57407  -4947937.56507
  20962671.74509  20962671.68609  20962670.65109 -22022138.98209 -17160103.74409
  23855324.09208  23855324.38508  23855323.88908  -5318461.99308  -4144255.37708
  20616352.17109  20616351.66809  20616350.76709 -23126100.82609 -18020332.93209
  21956125.96709  21956125.94209  21956125.68509 -15630265.24709 -12179422.99809
  3 10 28  2 34 30.0000000  0  6G01G07G11G13G20G25
  21387232.69509  21387232.46209  21387232.86809 -17967087.41309 -14000324.53109
  24169906.26707  24169905.59807  24169906.71407  -6345062.43407  -4944207.34907
  20973575.04709  20973575.06409  20973573.96209 -21964841.63109 -17115456.47109
  23837493.93108  23837494.54208  23837493.62108  -5412158.85408  -4217265.90108
  20611122.25509  20611121.86709  20611121.06009 -23153583.29209 -18041747.83909
  21961149.57109  21961149.44309  21961149.25109 -15603866.40609 -12158852.46809
  3 10 28  2 35  0.0000000  0  6G01G07G11G13G20G25
  21376224.90209  21376224.69709  21376225.08709 -18024933.64209 -14045399.49409
  24170905.75407  24170904.92907  24170906.64407  -6339810.74507  -4940115.14807
  20984565.28309  20984565.26009  20984564.30509 -21907087.24509 -17070453.06609
  23819700.60408  23819700.67808  23819700.47708  -5505664.73408  -4290127.61108
  20605942.07309  20605941.59009  20605941.01109 -23180805.13409 -18062959.66509
  21966272.62609  21966272.47009  21966272.10209 -15576945.72209 -12137875.31309
  3 10 28  2 35 30.0000000  0  6G01G07G11G13G20G25
  21365285.54909  21365285.29309  21365285.77009 -18082420.37209 -14090194.32809
  24171995.38707  24171994.81207  24171995.80807  -6334084.20207  -4935652.94307
  20995644.38709  20995644.37909  20995643.41509 -21848866.15709 -17025085.99109
  23801945.50208  23801945.73208  23801945.59208  -5598967.55308  -4362831.08408
  20600813.84009  20600813.34709  20600812.79609 -23207754.12409 -18083958.87709
  21971496.65209  21971496.62709  21971496.11509 -15549493.05609 -12116483.62209
  3 10 28  2 36  0.0000000  0  6G01G07G11G13G20G25
  21354414.21009  21354414.02709  21354414.36309 -18139549.84109 -14134710.77709
  24173174.43007  24173174.14907  24173175.42407  -6327886.13707  -4930823.30107
  21006811.53909  21006811.50709  21006810.61209 -21790182.61009 -16979358.56309
  23784228.63607  23784228.92307  23784228.87707  -5692068.60207  -4435377.33507
  20595737.13809  20595736.72209  20595736.13609 -23234432.10409 -18104746.91409
  21976821.54009  21976821.42809  21976820.77909 -15521511.55809 -12094679.85009
  3 10 28  2 36 30.0000000  0  6G01G07G11G13G20G25
  21343609.57209  21343609.33809  21343609.67309 -18196328.99209 -14178954.24409
  24174442.51407  24174441.78507  24174443.54507  -6321224.84007  -4925632.70007
  21018065.04509  21018065.04909  21018064.11409 -21731045.25609 -16933277.52109
  23766549.04207  23766549.50407  23766549.68607  -5784974.61407  -4507771.61507
  20590710.81109  20590710.32709  20590709.82109 -23260845.51809 -18125328.79309
  21982245.22809  21982245.08909  21982244.55609 -15493009.87209 -12072470.74209
  3 10 28  2 37  0.0000000  0  6G01G07G11G13G20G25
  21332871.78609  21332871.55909  21332871.85909 -18252756.32509 -14222923.57109
  24175798.29407  24175797.61507  24175798.85307  -6314099.94707  -4920080.86207
  21029404.91909  21029404.86609  21029403.92609 -21671454.44609 -16886843.13809
  23748906.96207  23748907.46607  23748907.90507  -5877683.02207  -4580011.90907
  20585735.13509  20585734.71909  20585734.28109 -23286992.24509 -18145702.86109
  21987767.90909  21987767.86009  21987767.38909 -15463987.77409 -12049856.11509
  3 10 28  2 37 30.0000000  0  6G01G07G11G13G20G25
  21322202.11409  21322201.90609  21322202.28209 -18308825.16209 -14266613.55009
  24177243.50707  24177243.30807  24177244.51607  -6306505.83507  -4914163.38907
  21040831.94309  21040831.90709  21040831.02709 -21611405.20609 -16840051.53609
  23731304.71707  23731304.80907  23731305.19507  -5970186.48407  -4652092.50407
  20580811.84309  20580811.36109  20580810.94209 -23312864.68909 -18165863.20009
  21993390.78509  21993390.64109  21993390.16909 -15434439.66209 -12026831.61209
  3 10 28  2 38  0.0000000  0  6G01G07G11G13G20G25
  21311600.23609  21311600.01909  21311600.38209 -18364538.62209 -14310026.60809
  24178776.82407  24178776.55307  24178778.21407  -6298446.88907  -4907883.72207
  21052345.04909  21052345.08709  21052344.19909 -21550903.13009 -16792907.07309
  23713740.14907  23713740.56107  23713740.69207  -6062487.46107  -4724015.31807
  20575940.20109  20575939.74909  20575939.20809 -23338465.63609 -18185811.98509
  21999112.70909  21999112.63709  21999112.17709 -15404369.93509 -12003400.65809
  3 10 28  2 38 30.0000000  0  6G01G07G11G13G20G25
  21301065.02209  21301064.82209  21301065.30309 -18419900.54909 -14353165.74609
  24180398.39607  24180397.95607  24180398.90907  -6289928.47107  -4901245.99907
  21063943.41609  21063943.39609  21063942.44809 -21489953.74409 -16745414.05409
  23696213.83407  23696214.15507  23696214.28207  -6154589.22507  -4795782.89907
  20571119.50309  20571119.01109  20571118.60209 -23363798.34509 -18205551.75209
  22004933.16109  22004933.01209  22004932.50809 -15373783.93909 -11979567.41109
  3 10 28  2 39  0.0000000  0  6G01G07G11G13G20G25
  21290596.86509  21290596.69309  21290597.10309 -18474911.49009 -14396031.38609
  24182106.47507  24182106.06007  24182107.45307  -6280952.12707  -4894251.45907
  21075626.26309  21075626.28409  21075625.51609 -21428559.40709 -16697574.32509
  23678725.42507  23678726.00707  23678725.80407  -6246491.61607  -4867395.13207
  20566349.87509  20566349.40809  20566348.97509 -23388862.72809 -18225082.44009
  22010851.31909  22010851.17509  22010850.85809 -15342683.45809 -11955333.26809
  3 10 28  2 39 30.0000000  0  6G01G07G11G13G20G25
  21280193.52409  21280193.32309  21280193.81609 -18529580.51509 -14438630.60009
  24183900.14207  24183899.49407  24183901.32407  -6271528.31207  -4886908.24307
  21087391.90709  21087391.89909  21087390.96309 -21366731.00909 -16649396.36709
  23661273.50307  23661273.64307  23661273.71807  -6338202.74707  -4938858.32607
  20561629.68509  20561629.29109  20561628.83109 -23413667.20909 -18244410.60709
  22016865.23509  22016865.18409  22016865.02209 -15311078.92109 -11930706.35409
  3 10 28  2 40  0.0000000  0  6G01G07G11G13G20G25
  21269859.02509  21269858.73209  21269859.09909 -18583889.48809 -14480949.25409
  24185781.78107  24185781.41407  24185782.64907  -6261639.99407  -4879203.07507
  21099243.29809  21099243.31209  21099242.20709 -21304452.03109 -16600867.31009
  23643861.16207  23643861.46407  23643861.60607  -6429703.66707  -5010157.72207
  20556962.62909  20556962.26009  20556961.71509 -23438192.88909 -18263521.53009
  22022978.50709  22022978.46409  22022978.21109 -15278953.56209 -11905673.60809
  3 10 28  2 40 30.0000000  0  6G01G07G11G13G20G25
  21259593.62709  21259593.36909  21259593.69209 -18637834.27809 -14522984.13009
  24187752.39307  24187752.04207  24187753.31207  -6251284.24307  -4871133.66907
  21111180.60609  21111180.61409  21111179.56709 -21241720.63609 -16551985.72509
  23626490.27008  23626490.29808  23626490.33308  -6520989.64608  -5081289.63008
  20552349.63209  20552349.14909  20552348.65109 -23462434.84509 -18282411.36909
  22029191.37609  22029191.36309  22029191.09209 -15246304.43809 -11880232.73209
  3 10 28  2 41  0.0000000  0  6G01G07G11G13G20G25
  21249395.13009  21249394.86409  21249395.44009 -18691427.05809 -14564744.71109
  24189809.40007  24189808.74007  24189810.49407  -6240474.43907  -4862710.45307
  21123201.41009  21123201.48209  21123200.37309 -21178550.72709 -16502762.43909
  23609157.74708  23609158.00908  23609157.81008  -6612072.10408  -5152262.96308
  20547788.23509  20547787.85409  20547787.40809 -23486404.47109 -18301089.00109
  22035501.71109  22035501.43409  22035500.99109 -15213145.21909 -11854394.37909
  3 10 28  2 41 30.0000000  0  6G01G07G11G13G20G25
  21239264.95509  21239264.75309  21239265.18609 -18744661.27709 -14606225.89809
  24191953.68107  24191953.36607  24191954.18907  -6229205.53407  -4853929.51607
  21135306.54009          .00001  21135305.53309 -21114937.50319 -16453193.71019
  23591865.31608  23591865.61908  23591865.45708  -6702943.73608  -5223072.01408
  20543280.28609  20543279.87209  20543279.23009 -23510094.58009 -18319548.82409
  22041909.64509  22041909.48609  22041909.02609 -15179470.51309 -11828154.34609
  3 10 28  2 42  0.0000000  0  6G01G07G11G13G20G25
  21229203.82709  21229203.61609  21229204.07509 -18797532.82009 -14647424.48109
  24194186.30607  24194185.77107  24194186.81107  -6217474.71607  -4844788.63507
  21147496.59409  21147496.56109  21147495.53709 -21050879.01419 -16403278.02219
  23574614.01608  23574614.31208  23574614.10408  -6793599.92108  -5293713.17908
  20538826.48609  20538826.02509  20538825.23409 -23533500.42509 -18337787.15009
  22048416.33409  22048416.21309  22048415.64809 -15145277.72609 -11801510.61209
  3 10 28  2 42 30.0000000  0  6G01G07G11G13G20G25
  21219208.36809  21219208.17609  21219208.57109 -18850059.03509 -14688353.97609
  24196502.43807  24196501.80007  24196503.38607  -6205300.47107  -4835302.22607
  21159767.57109  21159767.56009  21159766.55909 -20986394.47309 -16353030.34509
  23557400.76208  23557401.05308  23557400.66208  -6884057.02908  -5364199.21008
  20534423.40809  20534422.96109  20534422.14809 -23556638.67109 -18355816.95509
  22055017.95709  22055017.88709  22055017.41609 -15110585.60309 -11774477.79309
  3 10 28  2 43  0.0000000  0  6G01G07G11G13G20G25
  21209279.90409  21209279.71009  21209280.17709 -18902233.43909 -14729009.33309
  24198904.59907  24198903.98607  24198905.19507  -6192677.59907  -4825466.25007
  21172120.50009  21172120.51509  21172119.58009 -20921479.14809 -16302446.99409
  23540226.76008  23540227.13508  23540226.32908  -6974307.67608  -5434524.37808
  20530072.68409  20530072.28309  20530071.44309 -23579501.91309 -18373632.46409
  22061715.57609  22061715.54409  22061715.10209 -15075389.03009 -11747051.88909
  3 10 28  2 43 30.0000000  0  6G01G07G11G13G20G25
  21199420.09909  21199419.90409  21199420.37509 -18954047.15209 -14769383.63209
  24201393.21106  24201392.60306  24201394.16906  -6179598.56306  -4815274.80006
  21184557.05709  21184557.04209  21184555.93109 -20856125.94109 -16251522.43809
  23523093.58608  23523093.89808  23523093.14708  -7064342.18508  -5504681.12208
  20525776.13409  20525775.65309  20525774.84209 -23602080.59509 -18391226.23709
  22068510.84509  22068510.69709  22068510.11909 -15039680.28409 -11719226.89209
  3 10 28  2 44  0.0000000  0  6G01G07G11G13G20G25
  21189627.07209  21189626.90209  21189627.35109 -19005509.93509 -14809484.47909
  24203966.82506  24203966.60506  24203967.55106  -6166074.31506  -4804736.45306
  21197074.43309  21197074.45209  21197073.24509 -20790346.56109 -16200265.79509
  23505999.90608  23506000.32808  23505999.41908  -7154169.63008  -5574676.51608
  20521531.96909  20521531.51509  20521530.80309 -23624383.44309 -18408605.07909
  22075401.17509  22075401.18109  22075400.56009 -15003470.56409 -11691011.52809
  3 10 28  2 44 30.0000000  0  6G01G07G11G13G20G25
  21179900.68309  21179900.38509  21179900.67409 -19056623.38909 -14849313.12309
  24206624.45506  24206624.01306  24206625.12206  -6152107.82206  -4793853.50706
  21209672.12809  21209672.12709  21209670.96709 -20724144.75709 -16148679.98709
  23488945.70708  23488945.75208  23488944.98808  -7243790.94508  -5644511.28908
  20517340.08209  20517339.63909  20517339.03109 -23646411.52409 -18425769.81109
  22082386.51209  22082386.50009  22082385.77209 -14966762.79809 -11662408.07309
  3 10 28  2 45  0.0000000  0  6G01G07G11G13G20G25
  21170242.32509  21170242.10609  21170242.34909 -19107378.74309 -14888862.73209
  24209367.89306  24209367.02906  24209368.97706  -6137691.83306  -4782620.29906
  21222351.57609  21222351.54009  21222350.41509 -20657513.97309 -16096759.91109
  23471932.44108  23471932.73808  23471931.74908  -7333196.65008  -5714178.05408
  20513202.39609  20513201.89309  20513201.29209 -23668155.28009 -18442712.99609
  22089468.02309  22089467.87209  22089467.27509 -14929549.72909 -11633410.88109
  3 10 28  2 45 30.0000000  0  6G01G07G11G13G20G25
  21160653.24809  21160653.02909  21160653.35909 -19157769.30209 -14928128.08409
  24212197.39406  24212196.58606  24212198.78806  -6122820.88606  -4771032.58206
  21235113.60909  21235113.60709  21235112.61009 -20590448.80709 -16044501.35609
  23454961.20108  23454961.63208  23454960.79408  -7422379.23808  -5783670.96308
  20509120.13709  20509119.68509  20509119.10209 -23689607.23409 -18459428.80209
  22096646.41109  22096646.34509  22096645.80909 -14891826.40109 -11604016.07609
  3 10 28  2 46  0.0000000  0  6G01G07G11G13G20G25
  21151132.58109  21151132.34609  21151132.72709 -19207800.57209 -14967113.47409
  24215112.77806  24215112.24006  24215113.82506  -6107501.81706  -4759095.67906
  21247956.95809  21247956.91509  21247955.84909 -20522956.85009 -15991910.23609
  23438031.81608  23438032.14808  23438031.31108  -7511343.19108  -5852993.51308
  20505092.57009  20505092.20309  20505091.60109 -23710771.78509 -18475920.65709
  22103920.80609  22103920.67509  22103920.10209 -14853599.48909 -11574228.87209
  3 10 28  2 46 30.0000000  0  6G01G07G11G13G20G25
  21141678.12609  21141677.92809  21141678.34609 -19257484.13809 -15005827.92009
  24218110.89906  24218110.25306  24218111.96706  -6091747.63006  -4746819.71206
  21260878.81909  21260878.76809  21260877.83109 -20455051.85809 -15938997.27109
  23421142.19208  23421142.23308  23421141.36808  -7600099.63108  -5922154.36208
  20501117.79709  20501117.36309  20501116.70009 -23731660.00009 -18492197.18709
  22111288.46509  22111288.36109  22111287.90109 -14814881.88609 -11544059.31309
  3 10 28  2 47  0.0000000  0  6G01G07G11G13G20G25
  21132291.79709  21132291.56809  21132291.91609 -19306809.87709 -15044263.54409
  24221193.58607  24221192.67107  24221194.43007  -6075549.77707  -4734198.04007
  21273880.84709  21273880.87309  21273879.95509 -20386725.80209 -15885756.20509
  23404293.81708  23404294.11308  23404293.42108  -7688637.99808  -5991145.29108
  20497197.49909  20497197.06109  20497196.47309 -23752261.21209 -18508250.07609
  22118751.08509  22118750.95609  22118750.59809 -14775665.31809 -11513500.95209
  3 10 28  2 47 30.0000000  0  6G01G07G11G13G20G25
  21122974.07209  21122973.84609  21122974.23509 -19355774.48509 -15082417.76509
  24224360.80107  24224360.54107  24224361.79807  -6058906.11307  -4721228.99207
  21286963.37109  21286963.35409  21286962.25409 -20317977.06109 -15832185.77109
  23387487.84208  23387488.20708  23387487.34408  -7776953.79008  -6059962.76708
  20493332.62609  20493332.17009  20493331.71009 -23772570.95309 -18524075.84409
  22126309.12009  22126309.00509  22126308.50809 -14735947.99009 -11482552.38509
  3 10 28  2 48  0.0000000  0  6G01G07G11G13G20G25
  21113726.41809  21113726.22809  21113726.69409 -19404370.53709 -15120284.80309
  24227613.60707  24227613.20207  24227615.09107  -6041810.77207  -4707907.96207
  21300127.40209  21300127.33009  21300126.15709 -20248800.19509 -15778281.73109
  23370725.54008  23370725.90308  23370725.19908  -7865038.79208  -6128600.40808
  20489524.83709  20489524.36509  20489523.92209 -23792580.82509 -18539667.95009
  22133963.47709  22133963.43109  22133962.94609 -14695723.73909 -11451208.80909
  3 10 28  2 48 30.0000000  0  7G01G04G07G11G13G20G25
  21104544.27309  21104544.05909  21104544.37809 -19452623.66709 -15157884.62409
  25154504.15405  25154504.33605  25154503.03305         -.20815          .32015
  24230947.49907  24230947.67007  24230948.70407  -6024290.62007  -4694255.92707
  21313367.26809  21313367.32409  21313366.46809 -20179222.88209 -15724065.65909
  23354002.84408  23354003.17408  23354002.19908  -7952917.83708  -6197077.57208
  20485769.45409  20485769.06209  20485768.48609 -23812315.64509 -18555045.72809
  22141709.39709  22141709.24709  22141708.80309 -14655019.42109 -11419491.15909
  3 10 28  2 49  0.0000000  0  7G01G04G07G11G13G20G25
  21095430.38609  21095430.18409  21095430.48109 -19500517.39809 -15195204.39709
  25135055.27505  25135055.06905  25135053.43805   -102204.29905    -79639.26305
  24234365.54907  24234365.21007  24234366.32807  -6006330.50107  -4680261.05107
  21326686.49909  21326686.47109  21326685.50409 -20109230.70809 -15669526.32209
  23337322.53008  23337322.84608  23337322.20208  -8040573.60108  -6265380.75708
  20482069.90709  20482069.43709  20482068.73209 -23831757.99709 -18570195.61409
  22149549.23609  22149549.13809  22149548.93509 -14613819.92809 -11387387.65909
  3 10 28  2 49 30.0000000  0  7G01G04G07G11G13G20G25
  21086383.54409  21086383.38109  21086383.63209 -19548058.60209 -15232249.47809
  25115629.36005  25115628.76205  25115627.91805   -204288.80905   -159185.66305
  24237865.20507  24237864.33207  24237866.05007  -5987938.84707  -4665929.91107
  21340082.91709  21340082.89409  21340081.98209 -20038832.06409 -15614670.25409
  23320683.03708  23320683.52808  23320683.09808  -8128012.50908  -6333514.94408
  20478424.62709  20478424.16109  20478423.44909 -23850914.09709 -18585122.45109
  22157481.68609  22157481.66709  22157481.48409 -14572134.17109 -11354905.25209
  3 10 28  2 50  0.0000000  0  7G01G04G07G11G13G20G25
  21077403.49109  21077403.28909  21077403.59109 -19595248.81909 -15269021.05909
  25096225.91605  25096225.63505  25096225.68205   -306253.19105   -238638.48405
  24241446.62007  24241446.14907  24241447.48207  -5969118.61707  -4651264.82207
  21353556.06209  21353556.04209  21353555.18609 -19968030.52509 -15559500.24009
  23304085.21108  23304085.58108  23304084.96808  -8215235.11108  -6401480.59008
  20474833.61709  20474833.18609  20474832.54709 -23869784.46009 -18599826.63109
  22165506.44709  22165506.24309  22165506.24209 -14529964.58209 -11322045.83209
  3 10 28  2 50 30.0000000  0  7G01G04G07G11G13G20G25
  21068493.15809  21068492.96209  21068493.35109 -19642072.83009 -15305507.28709
  25076849.26605  25076848.54905  25076848.23705   -408079.48605   -317983.70105
  24245112.10607  24245111.46407  24245113.35307  -5949855.91607  -4636254.93907
  21367108.46609  21367108.41009  21367107.53209 -19896813.03809 -15504006.11409
  23287531.45708  23287531.63508  23287531.54708  -8302225.05708  -6469264.95108
  20471300.14609  20471299.78609  20471299.11609 -23888352.92009 -18614295.56609
  22173625.68609  22173625.58709  22173625.51109 -14487297.74309 -11288798.94709
  3 10 28  2 51  0.0000000  0  7G01G04G07G11G13G20G25
  21059651.63609  21059651.38309  21059651.65709 -19688535.92909 -15341712.28909
  25057497.13505  25057497.37005  25057496.58405   -509770.77605   -397223.70205
  24248860.49107  24248860.25307  24248862.35207  -5930157.37907  -4620905.44807
  21380738.61909  21380738.49009  21380737.56909 -19825186.96009 -15448193.60309
  23271021.15308  23271021.54808  23271021.03708  -8388987.18408  -6536871.78808
  20467823.40909  20467822.98009  20467822.27109 -23906623.77809 -18628532.60209
  22181838.41309  22181838.27509  22181838.00309 -14444139.96309 -11255169.51109
  3 10 28  2 51 30.0000000  0  7G01G04G07G11G13G20G25
  21050878.05309  21050877.84909  21050878.11209 -19734641.24809 -15377638.49509
  25038171.52305  25038171.45705  25038171.59405   -611327.75205   -476359.01305
  24252691.59807  24252690.75907  24252692.31307  -5910027.72507  -4605220.02507
  21394445.28309  21394445.22109  21394444.39109 -19753157.11709 -15392066.47209
  23254553.87308  23254554.19408  23254553.61908  -8475523.76108  -6604302.86708
  20464402.76509  20464402.30409  20464401.61909 -23924599.34409 -18642539.53909
  22190143.35609  22190143.24409  22190143.07709 -14400496.37009 -11221161.51609
  3 10 28  2 52  0.0000000  0  7G01G04G07G11G13G20G25
  21042171.66409  21042171.43309  21042171.65709 -19780393.49209 -15413289.57909
  25018870.45005  25018871.36505  25018870.49205   -712752.93405   -555391.69305
  24256602.40406  24256602.02906  24256603.38606  -5889473.09506  -4589203.44906
  21408227.60109  21408227.62709  21408226.69809 -19680730.30409 -15335630.01209
  23238128.91808  23238129.00608  23238128.73008  -8561838.66708  -6671561.22608
  20461037.64309  20461037.26909  20461036.51209 -23942283.24309 -18656319.20509
  22198539.85409  22198539.71109  22198539.39509 -14356373.09509 -11186779.74409
  3 10 28  2 52 30.0000000  0  7G01G04G07G11G13G20G25
  21033533.39509  21033533.21809  21033533.39109 -19825787.67009 -15448661.64809
  24999596.82505  24999597.52205  24999596.51405   -814038.74805   -634315.76105
  24260595.58406  24260595.11806  24260596.61306  -5868490.04006  -4572853.04006
  21422086.06209  21422086.05709  21422085.15809 -19607903.55209 -15278881.91309
  23221746.81908  23221747.08008  23221746.64508  -8647926.09208  -6738642.30908
  20457729.23609  20457728.73309  20457728.02709 -23959669.47109 -18669866.92109
  22207028.20709  22207027.96809  22207027.76109 -14311766.67409 -11152021.49509
  3 10 28  2 53  0.0000000  0  7G01G04G07G11G13G20G25
  21024962.16709  21024961.98409  21024962.19709 -19870829.76309 -15483759.36709
  24980348.77505  24980349.46405  24980348.49105   -915188.88605   -713134.08705
  24264668.40906  24264667.65206  24264669.58506  -5847086.07206  -4556174.63506
  21436019.12909  21436019.11609  21436018.05509 -19534684.94809 -15221828.47509
  23205407.18708  23205407.43008  23205407.11708  -8733791.27408  -6805550.22408
  20454476.25609  20454475.82709  20454475.22709 -23976763.34909 -18683186.82509
  22215607.03909  22215606.90209  22215606.70909 -14266684.51109 -11116892.53809
  3 10 28  2 53 30.0000000  0  7G01G04G07G11G13G20G25
  21016458.13709  21016457.88009  21016458.13309 -19915518.72309 -15518581.91509
  24961127.75305  24961127.44205  24961126.59905  -1016199.94505   -791844.04805
  24268821.61606  24268820.89906  24268822.72806  -5825261.62406  -4539168.60506
  21450026.64909  21450026.67309  21450025.57109 -19461075.41709 -15164470.41909
  23189110.06708  23189110.28008  23189109.98608  -8819432.52308  -6872283.64808
  20451279.45409  20451279.04109  20451278.40709 -23993562.77809 -18696277.29509
  22224276.09909  22224276.05609  22224276.04109 -14221127.26809 -11081393.39009
  3 10 28  2 54  0.0000000  0  7G01G04G07G11G13G20G25
  21008020.32709  21008020.12709  21008020.13309 -19959860.43609 -15553133.88409
  24941931.46505  24941930.91005  24941931.59505  -1117075.01505   -870448.05105
  24273053.15306  24273052.49806  24273054.53906  -5803023.85406  -4521840.48906
  21464107.11809  21464107.05009  21464105.92909 -19387082.47909 -15106813.60809
  23172855.13908  23172855.25508  23172854.78108  -8904854.39908  -6938846.13008
  20448137.73209  20448137.35309  20448136.69109 -24010072.44809 -18709141.97609
  22233034.45809  22233034.43809  22233034.32709 -14175102.22709 -11045529.72309
  3 10 28  2 54 30.0000000  0  7G01G04G07G11G13G20G25
  20999652.44009  20999652.25909  20999652.47809 -20003832.88009 -15587398.11409
  24922766.59805  24922766.28305  24922766.10105  -1217789.86305   -948927.21505
  24277367.96706  24277367.71406  24277368.64006  -5780352.16706  -4504174.27506
  21478264.13909  21478264.16909  21478263.00509 -19312686.28709 -15048842.56609
  23156645.80608  23156646.13408  23156645.58608  -8990034.24008  -7005220.02008
  20445055.59909  20445055.13409  20445054.44309 -24026269.36609 -18721762.95109
  22241885.77909  22241885.63409  22241885.47609 -14128588.88909 -11009285.56709
  3 10 28  2 55  0.0000000  0  7G01G04G07G11G13G20G25
  20991353.19709  20991353.01509  20991353.20809 -20047445.70809 -15621382.12309
  24903629.98305  24903630.49405  24903629.87805  -1318351.61405  -1027287.06905
  24281762.62206  24281762.16006  24281763.08506  -5757258.01106  -4486178.85506
  21492495.78509  21492495.80509  21492494.74509 -19237898.42909 -14990566.33209
  23140480.99708  23140481.33808  23140480.56408  -9074981.09108  -7071412.36508
  20442031.30009  20442030.84109  20442030.10209 -24042162.34409 -18734147.08609
  22250827.61809  22250827.45809  22250827.37509 -14081598.56309 -10972669.72909
  3 10 28  2 55 30.0000000  0  7G01G04G07G11G13G20G25
  20983122.43709  20983122.25009  20983122.48309 -20090698.24709 -15655085.39409
  24884523.95505  24884523.66305  24884523.40305  -1418756.96105  -1105525.07205
  24286237.55707  24286237.15107  24286238.99507  -5733741.90607  -4467854.64807
  21506801.99509  21506801.90209  21506800.66809 -19162720.04609 -14931985.79609
  23124360.93308  23124361.09208  23124360.49608  -9159693.28408  -7137421.85508
  20439065.11009  20439064.66609  20439063.92909 -24057749.62609 -18746293.01609
  22259860.08909  22259860.02109  22259860.05909 -14034131.67309 -10935682.54209
  3 10 28  2 56  0.0000000  0  7G01G04G07G11G13G20G25
  20974960.66509  20974960.42809  20974960.71109 -20133589.18209 -15688506.89409
  24865447.68905  24865447.58405  24865447.31805  -1519002.15705  -1183638.24905
  24290793.28807  24290792.44907  24290793.90307  -5709804.13007  -4449201.86507
  21521181.96109  21521181.94309  21521180.79109 -19087152.09009 -14873101.69509
  23108285.84208  23108286.19008  23108285.35608  -9244168.67208  -7203246.81608
  20436157.46609  20436157.01209  20436156.40709 -24073028.87809 -18758198.92509
  22268983.30109  22268983.34009  22268983.20609 -13986189.02809 -10898324.63609
  3 10 28  2 56 30.0000000  0  7G01G04G07G11G13G20G25
  20966868.36109  20966868.18109  20966868.47109 -20176113.72909 -15721642.89809
  24846403.44206  24846402.94306  24846403.42806  -1619079.69806  -1261620.79306
  24295428.67806  24295428.60006  24295429.44406  -5685441.59506  -4430218.10506
  21535636.82209  21535636.76509  21535635.66609 -19011191.62909 -14813911.74509
  23092256.88908  23092257.33008  23092256.31508  -9328401.66608  -7268882.91008
  20433309.65709  20433309.22209  20433308.53209 -24087994.19909 -18769860.21109
  22278197.86909  22278197.71409  22278197.56009 -13937767.19809 -10860593.34309
  3 10 28  2 57  0.0000000  0  7G01G04G07G11G13G20G25
  20958839.53009  20958839.34309  20958839.77309 -20218305.22009 -15754519.37709
  24827384.96906  24827385.51706  24827384.99006  -1719020.58906  -1339496.84806
  24300139.34906  24300138.47206  24300140.38506  -5660689.14506  -4410930.51806
  21550159.54609  21550159.50309  21550158.39009 -18934874.04609 -14754443.52009
  23076267.60608  23076268.01208  23076267.54508  -9412424.87108  -7334355.53008
  20430515.39509  20430514.92709  20430514.24209 -24102678.05209 -18781302.17409
  22287496.77209  22287496.65409  22287496.53509 -13888900.79409 -10822515.62909
  3 10 28  2 57 30.0000000  0  7G01G04G07G11G13G20G25
  20950876.87509  20950876.66409  20950877.04209 -20260149.56309 -15787125.35109
  24808396.55106  24808396.69806  24808396.23406  -1818808.20806  -1417253.46806
  24304925.94706  24304925.68906  24304927.07506  -5635534.11206  -4391329.22806
  21564752.34109  21564752.37909  21564751.26109 -18858187.34509 -14694687.67009
  23060321.53108  23060321.86308  23060321.25408  -9496223.24808  -7399652.94208
  20427777.59309  20427777.15109  20427776.48509 -24117065.15909 -18792512.90709
  22296882.68809  22296882.67209  22296882.33609 -13839577.61109 -10784081.98609
  3 10 28  2 58  0.0000000  0  7G01G04G07G11G13G20G25
  20942982.96409  20942982.73209  20942983.08109 -20301632.35309 -15819449.58909
  24789440.20206  24789440.03406  24789439.85206  -1918425.50006  -1494877.36306
  24309792.38507  24309791.64307  24309792.45807  -5609963.71607  -4371404.28107
  21579417.95009  21579417.92909  21579416.90909 -18781119.08709 -14634634.50209
  23044420.85508  23044421.10208  23044420.44908  -9579781.75708  -7464763.45208
  20425099.30309  20425098.84609  20425098.12909 -24131140.14709 -18803480.42909
  22306358.03409  22306357.95309  22306357.74009 -13789784.78809 -10745282.38309
  3 10 28  2 58 30.0000000  0  7G01G04G07G11G13G20G25
  20935156.29509  20935156.08809  20935156.46509 -20342761.77809 -15851498.48409
  24770515.21306  24770514.79506  24770514.74606  -2017878.14406  -1572372.94506
  24314735.02207  24314734.53607  24314736.13107  -5583987.50607  -4351163.11707
  21594154.17109  21594154.18709  21594153.29609 -18703679.19209 -14574291.74209
  23028564.34608  23028564.71808  23028564.10408  -9663107.42608  -7529692.53308
  20422479.00609  20422478.55709  20422477.81809 -24144910.03009 -18814210.20509
  22315920.90109  22315920.81809  22315920.53509 -13739531.75709 -10706124.18009
  3 10 28  2 59  0.0000000  0  7G01G04G07G11G13G20G25
  20927398.78509  20927398.58909  20927398.98109 -20383527.49509 -15883263.97209
  24751623.39106  24751623.11106  24751623.26806  -2117153.12006  -1649730.12906
  24319757.25507  24319756.76907  24319758.66707  -5557596.75507  -4330598.91407
  21608962.77809  21608962.75809  21608962.03309 -18625859.37809 -14513652.94809
  23012754.67509  23012754.90909  23012754.59809  -9746189.20109  -7594431.56209
  20419918.93009  20419918.50109  20419917.80109 -24158363.22709 -18824693.21209
  22325572.88509  22325572.80509  22325572.43109 -13688810.12009 -10666600.83109
  3 10 28  2 59 30.0000000  0  7G01G04G07G11G13G20G25
  20919710.15209  20919709.92209  20919710.21709 -20423932.33009 -15914748.24609
  24732765.89506  24732766.21606  24732766.12806  -2216250.68606  -1726949.06206
  24324857.30707  24324856.98707  24324858.32307  -5530795.80807  -4309715.09907
  21623842.97309  21623842.90509  21623841.89909 -18547664.70109 -14452722.05009
  22996990.66709  22996990.98009  22996990.45609  -9829028.98309  -7658982.02709
  20417418.76709  20417418.29509  20417417.68009 -24171501.68009 -18834930.96109
  22335313.16209  22335313.20909  22335312.70609 -13637624.09009 -10626715.61109
  3 10 28  3  0  0.0000000  0  7G01G04G07G11G13G20G25
  20912087.86309  20912087.67709  20912088.08109 -20463986.96309 -15945959.64109
  24713940.14706  24713940.56606  24713941.04706  -2315178.88606  -1804036.03006
  24330033.01207  24330032.79507  24330034.06307  -5503596.93507  -4288521.18907
  21638791.92609  21638791.90509  21638790.77409 -18469107.50109 -14391508.66609
  22981270.99509  22981271.33909  22981270.78609  -9911636.46009  -7723351.48009
  20414976.75909  20414976.23809  20414975.62509 -24184334.78309 -18844930.78009
  22345139.63209  22345139.63009  22345139.16409 -13585986.07009 -10586478.19409
  3 10 28  3  0 30.0000000  0  7G01G04G07G11G13G20G25
  20904530.72509  20904530.51409  20904530.92809 -20503700.09309 -15976904.93709
  24695145.77106  24695146.15106  24695146.20706  -2413943.79006  -1880995.72606
  24335282.02906  24335281.94706  24335283.49906  -5476010.53006  -4267025.33006
  21653807.77109  21653807.73109  21653806.79509 -18390198.37809 -14330021.05609
  22965594.24409  22965594.43509  22965593.87809  -9994019.63809  -7787546.16409
  20412591.33209  20412590.84109  20412590.20509 -24196870.30909 -18854698.71709
  22355050.31709  22355050.10109  22355049.56109 -13533906.30509 -10545896.56209
  3 10 28  3  1  0.0000000  0  7G01G04G07G11G13G20G25
  20897044.08409  20897043.87909  20897044.10409 -20543043.15809 -16007561.86309
  24676388.76306  24676388.96806  24676388.80806  -2512514.15306  -1957803.83606
  24340610.54006  24340610.27506  24340612.21606  -5448009.50706  -4245206.38206
  21668895.61909  21668895.59409  21668894.78409 -18310911.34809 -14268238.97509
  22949965.24909  22949965.60909  22949965.26809 -10076149.38209  -7851543.35109
  20410268.14809  20410267.64309  20410267.02809 -24209078.62709 -18864211.69209
  22365050.01609  22365049.84909  22365049.18309 -13481357.94509 -10504949.78809
  3 10 28  3  1 30.0000000  0  7G01G04G07G11G13G20G25
  20889625.86709  20889625.63809  20889625.79609 -20582026.55309 -16037938.52109
  24657666.90206  24657667.03706  24657668.29106  -2610897.70106  -2034466.38606
  24346015.48106  24346015.28006  24346017.47706  -5419605.88206  -4223073.72806
  21684053.15809  21684053.10009  21684052.12009 -18231258.35409 -14206171.72709
  22934382.86609  22934383.23409  22934382.91309 -10158035.08909  -7915350.37609
  20408005.42409  20408004.92209  20408004.36609 -24220968.94009 -18873476.87109
  22375136.42009  22375136.28709  22375135.68509 -13428352.62309 -10463646.93809
  3 10 28  3  2  0.0000000  0  7G01G04G07G11G13G20G25
  20882273.17509  20882272.96709  20882273.04409 -20620664.95709 -16068046.35909
  24638978.98606  24638979.06006  24638978.89506  -2709106.28806  -2110992.60506
  24351494.40906  24351494.03706  24351495.87706  -5390815.89506  -4200639.99606
  21699277.11709  21699277.04909  21699276.05409 -18151256.05109 -14143832.28509
  22918844.50009  22918844.84409  22918844.51209 -10239690.38509  -7978977.88309
  20405800.50509  20405800.09009  20405799.61709 -24232554.83709 -18882504.84009
  22385306.81309  22385306.72109  22385306.07009 -13374906.54609 -10422000.64309
  3 10 28  3  2 30.0000000  0  7G01G04G07G11G13G20G25
  20874986.46009  20874986.23409  20874986.33609 -20658956.85709 -16097884.20009
  24620324.25806  24620324.14106  24620324.36206  -2807135.88106  -2187379.35106
  24357046.04106  24357045.89506  24357047.93906  -5361639.68906  -4177905.32306
  21714567.23909  21714567.24109  21714566.41509 -18070905.32709 -14081221.35209
  22903350.36709  22903350.49509  22903350.32209 -10321112.97609  -8042424.04509
  20403654.26609  20403653.87809  20403653.33209 -24243833.58309 -18891293.47409
  22395561.14509  22395561.13009  22395560.34609 -13321020.18209 -10380011.26909
  3 10 28  3  3  0.0000000  0  7G01G04G07G11G13G20G25
  20867768.64709  20867768.43309  20867768.61609 -20696886.44709 -16127439.71009
  24601707.67106  24601707.67606  24601707.64406  -2904967.91206  -2263612.15006
  24362674.46106  24362673.78306  24362675.85206  -5332062.83706  -4154858.47406
  21729926.49709  21729926.48009  21729925.62309 -17990192.03809 -14018327.89709
  22887903.46209  22887903.94309  22887903.65509 -10402286.15609  -8105675.86509
  20401569.75309  20401569.31709  20401568.73309 -24254788.28709 -18899829.60809
  22405902.21509  22405901.96209  22405901.13809 -13266679.29509 -10337667.72109
  3 10 28  3  3 30.0000000  0  7G01G04G07G11G13G20G25
  20860618.13409  20860617.92809  20860618.00609 -20734462.68609 -16156719.88609
  24583126.79606  24583127.06506  24583127.52406  -3002608.66006  -2339695.88206
  24368376.98006  24368376.83406  24368378.97506  -5302096.15606  -4131507.84906
  21745352.63009  21745352.63109  21745351.89909 -17909127.11809 -13955160.44709
  22872502.88009  22872503.23009  22872502.87309 -10483218.01309  -8168739.63909
  20399545.37209  20399544.92109  20399544.33309 -24265426.44809 -18908119.08709
  22416327.11809  22416326.93809  22416326.32309 -13211894.09509 -10294977.95609
  3 10 28  3  4  0.0000000  0  7G01G04G07G11G13G20G25
  20853535.54409  20853535.38809  20853535.54809 -20771681.53509 -16185721.57609
  24564584.51806  24564584.57206  24564584.76306  -3100051.40206  -2415625.33506
  24374153.93106  24374153.21306  24374156.43306  -5271737.12206  -4107851.50306
  21760845.98409  21760846.00109  21760845.43609 -17827708.52909 -13891717.41109
  22857149.07309  22857149.37709  22857148.81409 -10563903.85709  -8231611.71109
  20397582.27909  20397581.80909  20397581.07509 -24275743.13509 -18916158.06609
  22426837.21809  22426837.08909  22426836.61509 -13156662.44209 -10251940.30709
  3 10 28  3  4 30.0000000  0  7G01G04G07G11G13G20G25
  20846521.04909  20846520.81909  20846521.02009 -20808542.68009 -16214444.53309
  24546080.06106  24546080.70406  24546080.38706  -3197292.94606  -2491398.01006
  24380005.89406  24380005.89906  24380007.45206  -5240986.95806  -4083890.36706
  21776406.62209  21776406.57009  21776405.81209 -17745938.09209 -13828000.20909
  22841841.88709  22841842.36109  22841841.94509 -10644342.26709  -8294290.97709
  20395680.54009  20395680.02409  20395679.40009 -24285736.90109 -18923945.41809
  22437432.08809  22437431.96109  22437431.67009 -13100985.39409 -10208555.59809
  3 10 28  3  5  0.0000000  0  7G01G04G07G11G13G20G25
  20839572.11409  20839571.87209  20839572.02109 -20845060.16509 -16242899.70709
  24527611.83806  24527612.15806  24527611.84506  -3294344.80406  -2567022.86806
  24385928.47406  24385928.21406  24385930.99806  -5209861.55906  -4059636.84106
  21792031.01309  21792030.93909  21792030.21809 -17663831.62009 -13764021.15909
  22826579.60509  22826579.93609  22826579.31409 -10724546.51209  -8356787.77509
  20393837.76009  20393837.29409  20393836.67009 -24295420.53909 -18931491.10909
  22448108.65609  22448108.69009  22448108.31809 -13044878.69309 -10164836.09409
  3 10 28  3  5 30.0000000  0  7G01G04G07G11G13G20G25
  20832689.98109  20832689.79709  20832690.08809 -20881225.31309 -16271080.33209
  24509181.96306  24509182.05106  24509182.12206  -3391195.33506  -2642490.83006
  24391925.01206  24391924.40506  24391926.10206  -5178353.88606  -4035085.45006
  21807720.57109  21807720.55109  21807719.70509 -17581382.81409 -13699775.35109
  22811363.59909  22811363.94209  22811363.33709 -10804507.24509  -8419094.82009
  20392055.87609  20392055.42109  20392054.74109 -24304784.38809 -18938787.60909
  22458868.64109  22458868.44909  22458868.07409 -12988335.75309 -10120776.66809
  3 10 28  3  6  0.0000000  0  7G01G04G07G11G13G20G25
  20825875.75709  20825875.54709  20825875.79509 -20917034.87509 -16298983.88509
  24490790.96506  24490791.67506  24490791.50406  -3487838.86806  -2717797.50306
  24397993.79906  24397993.73706  24397995.23206  -5146462.37206  -4010234.96606
  21823475.38009  21823475.33409  21823474.61509 -17498590.43609 -13635261.82209
  22796194.77509  22796195.10809  22796194.54909 -10884220.18709  -8481208.78909
  20390335.66609  20390335.23809  20390334.58509 -24313823.97009 -18945831.43609
  22469711.70609  22469711.61209  22469711.12709 -12931354.94809 -10076376.04409
  3 10 28  3  6 30.0000000  0  7G01G04G07G11G13G20G25
  20819127.49909  20819127.31009  20819127.65309 -20952496.39609 -16326616.23409
  24472438.88406  24472439.05006  24472439.48906  -3584279.86706  -2792946.33806
  24404133.66606  24404133.52306  24404135.50806  -5114196.07506  -3985092.45906
  21839293.66109  21839293.68009  21839293.00309 -17415463.81509 -13570487.84709
  22781071.88409  22781072.15809  22781071.55709 -10963692.02909  -8543134.86909
  20388675.98509  20388675.56609  20388674.95809 -24322545.57209 -18952627.48609
  22480636.32809  22480636.27609  22480635.76909 -12873945.12709 -10031641.12509
  3 10 28  3  7  0.0000000  0  7G01G04G07G11G13G20G25
  20812446.41209  20812446.21809  20812446.69909 -20987605.25309 -16353973.77009
  24454126.34706  24454126.85406  24454126.94406  -3680511.15706  -2867931.78006
  24410346.23907  24410346.06007  24410347.17607  -5081552.20007  -3959655.72207
  21855176.39909  21855176.31409  21855175.55809 -17332000.45709 -13505451.47809
  22765995.76009  22765996.09609  22765995.24609 -11042917.35409  -8604868.86209
  20387078.09709  20387077.62109  20387076.97709 -24330943.22309 -18959171.10809
  22491643.27109  22491643.16209  22491642.74009 -12816103.24309  -9986569.53209
  3 10 28  3  7 30.0000000  0  7G01G04G07G11G13G20G25
  20805832.25809  20805832.06309  20805832.42809 -21022363.10609 -16381057.80109
  24435854.61506  24435854.70006  24435854.84806  -3776531.43906  -2942752.80406
  24416629.26807  24416628.79407  24416630.42607  -5048533.85507  -3933927.18707
  21871122.36809  21871122.30409  21871121.43009 -17248204.16809 -13440155.67909
  22750966.50209  22750966.82309  22750965.86009 -11121896.87709  -8666411.32009
  20385541.55909  20385541.10009  20385540.45109 -24339017.70509 -18965462.90909
  22502731.66009  22502731.57509  22502731.41109 -12757832.52309  -9941163.78709
  3 10 28  3  8  0.0000000  0  7G01G04G07G11G13G20G25
  20799285.27709  20799285.06709  20799285.28109 -21056768.32409 -16407867.06209
  24417623.81707  24417623.76407  24417623.87807  -3872336.24307  -3017405.91807
  24422984.09107  24422983.81307  24422985.24607  -5015141.06007  -3907906.88607
  21887131.59309  21887131.60909  21887130.78009 -17164075.16809 -13374600.63009
  22735984.44609  22735984.70809  22735983.69509 -11200628.26509  -8727760.42609
  20384067.14609  20384066.64009  20384066.05209 -24346765.82809 -18971500.40809
  22513901.83909  22513901.67209  22513901.57809 -12699133.21509  -9895424.07809
  3 10 28  3  8 30.0000000  0  7G01G04G07G11G13G20G25
  20792805.81009  20792805.61409  20792805.91109 -21090817.57709 -16434398.94309
  24399435.00107  24399435.15407  24399434.94507  -3967919.39707  -3091886.31407
  24429410.19707  24429410.00907  24429410.70007  -4981372.26007  -3881593.58107
  21903204.28109  21903204.28209  21903203.61609 -17079612.00409 -13308785.19609
  22721050.27109  22721050.59809  22721049.66509 -11279107.00109  -8788912.65509
  20382655.61909  20382655.13009  20382654.53009 -24354183.19009 -18977280.17109
  22525153.77309  22525153.62109  22525153.63709 -12640003.39409  -9849348.90309
  3 10 28  3  9  0.0000000  0  7G01G04G07G11G13G20G25
  20786390.40909  20786390.20609  20786390.52309 -21124530.95509 -16460669.10709
  24381285.00907  24381285.32707  24381285.07407  -4063298.25807  -3166207.50507
  24435903.40806  24435902.91606  24435903.79806  -4947249.24206  -3855004.28006
  21919336.63209  21919336.59109  21919335.70709 -16994836.69209 -13242726.53109
  22706160.66109  22706160.87409  22706160.15009 -11357352.33009  -8849883.01309
  20381303.49909  20381303.04509  20381302.40609 -24361288.67709 -18982816.90809
  22536483.40209  22536483.43109  22536483.44109 -12580464.90209  -9802955.28109
  3 10 28  3  9 30.0000000  0  7G01G04G07G11G13G20G25
  20780042.74209  20780042.59809  20780042.83209 -21157888.09909 -16486661.68209
  24363178.20907  24363178.15207  24363178.49607  -4158449.46407  -3240351.31107
  24442467.60906  24442467.49706  24442468.83306  -4912753.30706  -3828124.36506
  21935531.67909  21935531.61109  21935530.75709 -16909731.00609 -13176410.42309
  22691319.47509  22691319.78309  22691318.69209 -11435343.18009  -8910655.06909
  20380014.86309  20380014.39109  20380013.76509 -24368060.61109 -18988093.73709
  22547894.65509  22547894.70609  22547894.66109 -12520498.89109  -9756228.53009
  3 10 28  3 10  0.0000000  0  7G01G04G07G11G13G20G25
  20773761.36309  20773761.16609  20773761.28609 -21190897.34509 -16512383.16409
  24345114.07607  24345113.99807  24345114.14907  -4253378.48007  -3314321.97507
  24449101.14306  24449100.54306  24449103.02006  -4877894.33206  -3800961.57606
  21951787.72709  21951787.71309  21951787.00309 -16824305.18709 -13109844.86409
  22676525.14309  22676525.45309  22676524.54609 -11513086.81409  -8971234.49009
  20378788.14909  20378787.78409  20378787.28109 -24374506.00609 -18993116.12609
  22559385.34209  22559385.34009  22559385.12609 -12460115.25409  -9709176.36309
  3 10 28  3 10 30.0000000  0  7G01G04G07G11G13G20G25
  20767547.09309  20767546.87909  20767547.03009 -21223553.39209 -16537829.41809
  24327093.57707  24327093.62807  24327093.63307  -4348077.16107  -3388113.15907
  24455804.02106  24455803.87906  24455805.38406  -4842668.74406  -3773513.09106
  21968105.35409  21968105.31309  21968104.51509 -16738556.13109 -13043027.43209
  22661779.25409  22661779.53809  22661778.59609 -11590577.10409  -9031616.49909
  20377625.09809  20377624.69809  20377624.14009 -24380618.28109 -18997878.93609
  22570956.12709  22570956.11209  22570955.94609 -12399310.46309  -9661796.01809
  3 10 28  3 11  0.0000000  0  7G01G04G07G11G13G20G25
  20761399.46409  20761399.25709  20761399.52609 -21255859.41309 -16563002.91609
  24309116.59507  24309116.79807  24309116.86607  -4442545.81007  -3461725.09807
  24462576.02206  24462575.95106  24462577.65006  -4807081.39206  -3745782.71506
  21984483.43209  21984483.35009  21984482.50809 -16652488.80509 -12975961.99709
  22647081.19509  22647081.48909  22647080.47109 -11667816.18309  -9091802.76109
  20376524.95409  20376524.54509  20376524.01709 -24386399.56809 -19002383.83409
  22582606.28109  22582606.08409  22582605.96609 -12338089.63209  -9614091.48509
  3 10 28  3 11 30.0000000  0  8G01G02G04G07G11G13G20G25
  20755319.79909  20755319.59009  20755319.65509 -21287808.80209 -16587898.53109
  25111871.44505  25111872.49505  25111874.14905         -.06915         -.00215
  24291185.31607  24291185.46307  24291185.43607  -4536774.99207  -3535150.43507
  24469417.38306  24469416.15606  24469419.28106  -4771127.44706  -3717766.68606
  22000922.57409  22000922.61309  22000922.11709 -16566098.40709 -12908644.82309
  22632432.05509  22632432.41109  22632431.56709 -11744796.82509  -9151787.64009
  20375489.40109  20375488.94009  20375488.42209 -24391841.67909 -19006624.43909
  22594336.26609  22594336.12509  22594335.97209 -12276447.60409  -9566058.75009
  3 10 28  3 12  0.0000000  0  8G01G04G07G11G13G16G20G25
  20749307.21609  20749307.02609  20749307.25209 -21319404.45409 -16612518.50409
  24273299.47507  24273299.66007  24273300.40407  -4630764.60307  -3608389.09007
  24476328.22606  24476328.20806  24476329.58206  -4734811.40406  -3689468.49806
  22017422.67009  22017422.61409  22017422.09309 -16479390.26309 -12841080.04909
  22617831.97409  22617832.33109  22617831.43709 -11821520.98509  -9211572.66509
  25175392.69905  25175392.26905  25175393.42505         -.04015          .23815
  20374518.07009  20374517.60409  20374516.98909 -24396946.42809 -19010602.15709
  22606145.46709  22606145.52409  22606145.55409 -12214388.84309  -9517701.28409
  3 10 28  3 12 30.0000000  0  7G01G04G07G11G13G20G25
  20743359.35109  20743359.14409  20743359.27209 -21350661.14109 -16636874.35109
  24255457.36707  24255457.48007  24255457.93907  -4724526.57207  -3681450.36207
  24483304.84206  24483303.98206  24483306.97006  -4698149.96106  -3660901.16206
  22033979.92009  22033979.95109  22033979.42609 -16392380.90909 -12773280.56809
  22603278.02909  22603278.30609  22603277.48809 -11898002.43509  -9271168.56109
  20373608.30709  20373607.79209  20373607.23109 -24401727.39909 -19014327.58609
  22618031.30809  22618031.14509  22618031.27109 -12151929.81009  -9469031.92209
  3 10 28  3 13  0.0000000  0  9G01G02G04G07G11G13G16G20G25
  20737476.76709  20737476.58009  20737476.79909 -21381573.67409 -16660962.03009
  25073597.49006  25073596.69806  25073599.32806        -1.10906         -.22606
  24237660.10707  24237660.21307  24237660.36207  -4818052.97907  -3754328.07507
  24490347.37205  24490347.26705  24490349.40205  -4661139.61905  -3632061.97605
  22050595.19509  22050595.13809  22050594.54609 -16305067.35509 -12705244.04709
  22588771.51209  22588771.74109  22588770.80109 -11974235.23109  -9330570.70309
  25147233.25806  25147233.17706  25147233.40506         -.24306         -.09506
  20372761.32209  20372760.84709  20372760.28509 -24406178.10609 -19017795.66109
  22629993.75109  22629993.59309  22629993.67309 -12089066.92209  -9420047.87209
  3 10 28  3 13 30.0000000  0  7G01G04G07G11G13G20G25
  20731660.19009  20731659.96409  20731660.07909 -21412140.46109 -16684780.29309
  24219908.10607  24219908.45907  24219908.37407  -4911339.13807  -3827018.59007
  24497456.72305  24497455.94105  24497458.59805  -4623780.47205  -3602950.95005
  22067268.32409  22067268.19009  22067267.68109 -16217449.93109 -12636970.74109
  22574312.44009  22574312.76509  22574312.10809 -12050217.07709  -9389777.30309
  20371977.74409  20371977.21809  20371976.72409 -24410295.85509 -19021004.29509
  22642032.84209  22642032.89609  22642032.81009 -12025800.54509  -9370749.40809
  3 10 28  3 14  0.0000000  0  9G01G02G04G07G11G13G16G20G25
  20725910.36709  20725910.17509  20725910.39109 -21442355.57109 -16708324.52709
  25048067.17007  25048066.90807  25048068.17107        -1.07007         -.43307
  24202203.29207  24202203.58407  24202203.96207  -5004376.34607  -3899515.11507
  24504632.59405  24504632.02105  24504635.38105  -4586068.41705  -3573564.97405
  22083999.81709  22083999.77409  22083999.21809 -16129524.76109 -12568457.63509
  22559902.46509  22559902.81709  22559902.23109 -12125941.11009  -9448782.99309
  25119140.40106  25119140.14106  25119140.70106          .21806          .17706
  20371258.96009  20371258.49409  20371257.92209 -24414072.98509 -19023947.51209
  22654149.79709  22654149.78109  22654149.69709 -11962126.11209  -9321132.98309
  3 10 28  3 14 30.0000000  0  7G01G04G07G11G13G20G25
  20720226.39509  20720226.21609  20720226.61809 -21472224.24309 -16731598.80009
  24184545.97407  24184546.28007  24184546.64207  -5097166.68607  -3971819.27407
  24511875.42705  24511874.63305  24511877.35805  -4548010.18505  -3543909.23105
  22100788.68409  22100788.65809  22100788.19109 -16041298.74809 -12499710.10409
  22545541.01409  22545541.40109  22545540.69609 -12201411.02309  -9507590.67609
  20370604.13509  20370603.68309  20370603.16909 -24417513.61909 -19026628.51909
  22666343.43509  22666343.12309  22666343.02809 -11898050.31409  -9271203.80409
  3 10 28  3 15  0.0000000  0  9G01G02G04G07G11G13G16G20G25
  20714608.80309  20714608.66209  20714609.03709 -21501744.89609 -16754601.88709
  25022531.52907  25022531.08807  25022534.23607         -.35117         -.16117
  24166936.55507  24166936.59307  24166937.16207  -5189705.66707  -4043927.55507
  24519183.69005  24519183.43205  24519185.19905  -4509605.99505  -3513983.92105
  22117634.58209  22117634.60509  22117634.06409 -15952772.45409 -12430728.58709
  22531228.17809  22531228.44909  22531227.90009 -12276624.93909  -9566198.87709
  25091122.37306  25091121.65306  25091122.51106         -.74416         -.20516
  20370013.92509  20370013.49309  20370013.01109 -24420615.02009 -19029045.19109
  22678612.76809  22678612.63909  22678612.59409 -11833573.41109  -9220962.07109
  3 10 28  3 15 30.0000000  0  8G01G02G04G07G11G13G20G25
  20709056.14309  20709055.90609  20709056.26709 -21530925.13109 -16777339.71609
  25009761.37807  25009761.00507  25009762.63607    -67106.21707    -52290.46807
  24149373.99107  24149374.08007  24149374.20107  -5281997.77207  -4115843.46007
  24526556.21406  24526556.02406  24526556.89006  -4470865.03806  -3483796.19306
  22134536.15109  22134536.08909  22134535.38309 -15863955.43509 -12361520.52809
  22516963.01309  22516963.30009  22516962.58609 -12351589.31609  -9624612.63309
  20369487.28009  20369486.79009  20369486.20209 -24423383.34909 -19031202.32509
  22690956.86109  22690956.85609  22690956.71809 -11768704.56209  -9170414.92509
  3 10 28  3 16  0.0000000  0  9G01G02G04G07G11G13G16G20G25
  20703567.98109  20703567.76509  20703568.09109 -21559765.56109 -16799812.76209
  24996990.60907  24996990.34607  24996992.17307   -134218.13107   -104585.53107
  24131858.95807  24131859.24107  24131858.92107  -5374040.96307  -4187565.41207
  24533992.09806  24533992.13506  24533993.73306  -4431789.90206  -3453348.08206
  22151492.21309  22151492.27309  22151491.61009 -15774850.37809 -12292088.02109
  22502744.99909  22502745.28509  22502744.78209 -12426304.02309  -9682831.84009
  25063179.56206  25063179.00306  25063180.35306        -1.08816         -.04916
  20369024.02609  20369023.58009  20369022.92909 -24425817.82109 -19033099.31309
  22703375.37909  22703375.14809  22703375.12209 -11703445.96009  -9119564.08009
  3 10 28  3 16 30.0000000  0  8G01G02G04G07G11G13G20G25
  20698144.60309  20698144.42409  20698144.68409 -21588265.59009 -16822020.56509
  24984219.23107  24984219.01807  24984221.93707   -201332.53307   -156882.52207
  24114391.65807  24114391.79407  24114391.89207  -5465831.48707  -4259090.48707
  24541490.98606  24541490.79406  24541492.53206  -4392381.65006  -3422640.38406
  22168503.00309  22168502.96809  22168502.41609 -15685458.63809 -12222432.13709
  22488575.20209  22488575.41809  22488574.77809 -12500767.65909  -9740855.40409
  20368624.46409  20368624.07609  20368623.59609 -24427916.71909 -19034734.81509
  22715867.44909  22715867.50709  22715867.36309 -11637798.97309  -9068410.59809
  3 10 28  3 17  0.0000000  0  9G01G02G04G07G11G13G16G20G25
  20692789.05909  20692788.88509  20692789.15509 -21616408.83909 -16843950.35209
  24971450.80007  24971450.34607  24971453.96507   -268430.15107   -209166.35907
  24096976.49107  24096976.44907  24096976.38907  -5557350.21407  -4330403.76007
  24549056.86906  24549056.69506  24549058.12106  -4352625.91006  -3391661.92406
  22185571.03509  22185570.89909  22185570.28809 -15595766.12209 -12152541.88409
  22474456.01709  22474456.35809  22474455.81209 -12574962.77709  -9798669.73809
  25035317.67106  25035317.70606  25035318.24506         -.56316          .06316
  20368292.28709  20368291.87209  20368291.33509 -24429662.35909 -19036095.05509
  22728436.41609  22728436.34209  22728436.21609 -11571749.06309  -9016943.15309
  3 10 28  3 17 30.0000000  0  8G01G02G04G07G11G13G20G25
  20687499.06409  20687498.87809  20687499.22709 -21644207.81909 -16865611.87209
  24958684.64707  24958684.16107  24958686.12107   -335520.36907   -261444.53207
  24079610.19107  24079610.92307  24079610.92007  -5648606.37207  -4401512.43707
  24556685.66606  24556685.54906  24556685.65706  -4312536.78106  -3360423.68606
  22202693.38109  22202693.24609  22202692.62709 -15505786.99409 -12082428.29709
  22460385.99809  22460386.31709  22460385.81109 -12648901.33409  -9856284.15009
  20368025.07009  20368024.72709  20368024.18809 -24431066.15809 -19037188.92409
  22741079.46109  22741079.25609  22741079.23609 -11505310.14209  -8965172.58209
  3 10 28  3 18  0.0000000  0  8G01G02G04G07G11G13G20G25
  20682270.74809  20682270.59009  20682270.87009 -21671682.57609 -16887020.75109
  24945915.40506  24945914.89206  24945918.10306   -402620.08206   -313730.04706
  24062291.46807  24062291.79807  24062292.22807  -5739617.05607  -4472429.84007
  24564373.03106  24564372.94806  24564374.87906  -4272135.95006  -3328942.56306
  22219866.07909  22219865.97609  22219865.54409 -15415543.19909 -12012108.47309
  22446361.28809  22446361.64209  22446361.08409 -12722601.97409  -9913713.18309
  20367819.66109  20367819.24909  20367818.66509 -24432146.22809 -19038030.53709
  22753792.28509  22753792.13009  22753792.10009 -11438503.79109  -8913115.70309
  3 10 28  3 18 30.0000000  0  9G01G02G04G07G11G13G16G20G25
  20677108.44809  20677108.29909  20677108.59109 -21698810.41109 -16908159.30709
  24933150.30607  24933150.24007  24933153.22007   -469703.46707   -366002.81807
  24045024.45707  24045024.65507  24045025.06207  -5830356.62807  -4543135.97707
  24572125.17406  24572125.02906  24572125.30006  -4231402.53106  -3297202.26806
  22237093.19409  22237093.21909  22237092.66109 -15325014.09609 -11941566.32809
  22432386.07109  22432386.35409  22432386.00609 -12796041.30209  -9970938.59209
  24993687.79907  24993686.82007  24993688.57207         -.98817         -.57017
  20367680.36409  20367679.84809  20367679.27309 -24432878.85209 -19038601.41909
  22766578.88209  22766578.79709  22766578.82109 -11371309.29209  -8860756.36909
  3 10 28  3 19  0.0000000  0  9G01G02G04G07G11G13G16G20G25
  20672015.85009  20672015.65309  20672015.86409 -21725572.09409 -16929012.55209
  24920391.25105  24920391.42505  24920394.93505   -536748.50605   -418245.71705
  24027812.67107  24027813.35407  24027813.48507  -5920802.92607  -4613613.57807
  24579942.75406  24579942.66606  24579944.40206  -4190319.24606  -3265189.36206
  22254377.80509  22254377.73409  22254377.28409 -15234182.74109 -11870788.66709
  22418464.58909  22418464.90009  22418464.35609 -12869199.38909 -10027944.85509
  24979861.10407  24979861.00607  24979861.83307    -72662.17907    -56619.67607
  20367610.99609  20367610.51809  20367609.86309 -24433243.60009 -19038885.64309
  22779442.73909  22779442.74709  22779442.74809 -11303709.03009  -8808080.85909
  3 10 28  3 19 30.0000000  0  9G01G02G04G07G11G13G16G20G25
  20666988.61209  20666988.41609  20666988.59409 -21751990.59909 -16949598.38609
  24907636.41505  24907635.52405  24907639.75105   -603774.99005   -470474.13705
  24010653.82607  24010653.85207  24010654.34207  -6010975.85407  -4683878.16607
  24587822.69706  24587822.80706  24587823.51306  -4148910.66806  -3232922.96606
  22271715.41009  22271715.31609  22271714.88409 -15143073.84509 -11799794.74109
  22404592.13409  22404592.51109  22404591.94509 -12942098.20309 -10084749.09409
  24966058.37507  24966057.79907  24966058.83707   -145196.22607   -113139.67407
  20367607.53509  20367606.99909  20367606.38109 -24433261.98409 -19038899.97309
  22792379.31109  22792379.28109  22792379.14209 -11235727.60409  -8755108.33709
  3 10 28  3 20  0.0000000  0  9G01G02G04G07G11G13G16G20G25
  20662024.15109  20662023.98809  20662024.09009 -21778078.91809 -16969926.93209
  24894883.12705  24894882.59705  24894886.19305   -670792.96905   -522695.90805
  23993544.84907  23993544.94007  23993544.83407  -6100885.52907  -4753937.62107
  24595761.09906  24595760.85706  24595762.50106  -4107191.73306  -3200414.72906
  22289102.68709  22289102.65209  22289102.12209 -15051702.48609 -11728596.30009
  22390767.17409  22390767.48809  22390766.81909 -13014749.86609 -10141360.74809
  24952277.97106  24952277.55806  24952278.00206   -217612.78906   -169568.13806
  20367667.47309  20367667.02609  20367666.58509 -24432945.68809 -19038653.51409
  22805385.60909  22805385.52309  22805385.39209 -11167379.47409  -8701850.07009
  3 10 28  3 20 30.0000000  0  9G01G02G04G07G11G13G16G20G25
  20657123.41209  20657123.21709  20657123.30509 -21803833.02109 -16989995.05009
  24882133.73305  24882131.62905  24882135.41705   -737795.29205   -574905.49405
  23976487.15907  23976487.45107  23976487.21607  -6190524.78907  -4823786.34207
  24603759.56806  24603759.45206  24603761.29506  -4065160.11106  -3167662.86006
  22306540.53609  22306540.54109  22306539.73909 -14960066.90509 -11657191.96609
  22376989.82609  22376990.13009  22376989.44009 -13087149.42209 -10197775.95109
  24938521.64707  24938521.66807  24938521.98107   -289904.22207   -225899.07607
  20367792.37209  20367791.94209  20367791.43309 -24432289.55509 -19038142.24609
  22818461.95809  22818461.98509  22818461.83209 -11098662.34509  -8648304.27609
  3 10 28  3 21  0.0000000  0  9G01G02G04G07G11G13G16G20G25
  20652287.65409  20652287.47109  20652287.74009 -21829244.45709 -17009796.15709
  24869387.81205  24869388.21305  24869391.23605   -804770.49805   -627093.89305
  23959482.59107  23959482.84407  23959483.06407  -6279882.27507  -4893415.50507
  24611818.47806  24611817.72806  24611820.03806  -4022809.35506  -3134662.28806
  22324029.77709  22324029.70209  22324029.27609 -14868159.82809 -11585576.08709
  22363262.25009  22363262.58409  22363262.10409 -13159287.43909 -10253987.35809
  24924790.86806  24924790.58506  24924791.84506   -362058.66906   -282123.28706
  20367983.87509  20367983.44109  20367982.90709 -24431283.55909 -19037358.35709
  22831609.86509  22831609.82309  22831609.66209 -11029569.56809  -8594465.77109
  3 10 28  3 21 30.0000000  0  9G01G02G04G07G11G13G16G20G25
  20647516.10109  20647515.92009  20647516.06609 -21854319.15209 -17029334.85909
  24856648.74205  24856649.08105  24856651.22905   -871721.42205   -679263.39805
  23942531.69607  23942531.94607  23942531.83807  -6368960.76707  -4962827.26907
  24619936.84906  24619936.84006  24619939.05506  -3980146.98306  -3101418.92906
  22341569.20409  22341569.20509  22341568.59109 -14775989.65909 -11513755.20209
  22349583.78409  22349584.05609  22349583.23609 -13231169.15309 -10309999.04609
  24911086.90007  24911086.67707  24911086.41907   -434078.46207   -338242.58607
  20368240.99909  20368240.54009  20368240.01309 -24429932.33509 -19036305.46009
  22844828.04509  22844827.95109  22844827.60909 -10960108.58609  -8540340.35109
  3 10 28  3 22  0.0000000  0  9G01G02G04G07G11G13G16G20G25
  20642809.32209  20642809.13009  20642809.17309 -21879053.61109 -17048608.44709
  24843914.51105  24843913.96105  24843916.56405   -938641.50505   -731408.88205
  23925635.04707  23925635.22707  23925634.95007  -6457753.64407  -5032016.47807
  24628114.82406  24628114.61406  24628116.53706  -3937171.21106  -3067931.33606
  22359159.11409  22359159.04709  22359158.29109 -14683554.98709 -11441728.20809
  22335954.59209  22335954.89909  22335954.17309 -13302790.28209 -10365807.68809
  24897408.01806  24897407.41806  24897408.35706   -505956.33806   -394251.31206
  20368564.63809  20368564.19009  20368563.68709 -24428231.16209 -19034979.87409
  22858116.50009  22858116.31809  22858115.93209 -10890277.73009  -8485926.71709
  3 10 28  3 22 30.0000000  0  9G01G02G04G07G11G13G16G20G25
  20638168.02109  20638167.81509  20638167.88309 -21903443.92109 -17067613.86709
  24831188.03705  24831187.80205  24831189.42905  -1005523.50105   -783524.69705
  23908793.83807  23908794.31407  23908793.73507  -6546254.00607  -5100977.74507
  24636353.03606  24636353.09506  24636355.02006  -3893880.01506  -3034197.97306
  22376799.49709  22376799.47209  22376798.73609 -14590853.60509 -11369493.38309
  22322376.15909  22322376.47209  22322375.83009 -13374145.73709 -10421409.30409
  24883758.46206  24883757.35306  24883759.05806   -577685.04706   -450143.77706
  20368956.04709  20368955.53909  20368955.00309 -24426174.63109 -19033377.38709
  22871475.72109  22871475.67109  22871475.12409 -10820074.53709  -8431222.95309
  3 10 28  3 23  0.0000000  0  9G01G02G04G07G11G13G16G20G25
  20633591.71209  20633591.54809  20633591.54909 -21927492.50209 -17086353.00909
  24818467.99305  24818467.20505  24818469.11605  -1072366.97405   -835610.46505
  23892008.25307  23892008.72207  23892008.58507  -6634461.23407  -5169710.61707
  24644650.49706  24644650.44106  24644652.34206  -3850277.58406  -3000222.09106
  22394489.82809  22394489.85409  22394489.21009 -14497890.16709 -11297054.36209
  22308848.05009  22308848.20109  22308847.42109 -13445236.95209 -10476805.02109
  24870137.81506  24870137.43806  24870137.78706   -649263.40506   -505919.09706
  20369414.75309  20369414.34409  20369413.68709 -24423763.91709 -19031498.91109
  22884904.96609  22884904.91209  22884904.35409 -10749503.30209  -8376232.40009
  3 10 28  3 23 30.0000000  0  9G01G02G04G07G11G13G16G20G25
  20629078.88609  20629078.66609  20629078.93409 -21951207.02709 -17104831.84409
  24805754.53905  24805753.19805  24805756.28205  -1139176.66205   -887669.98405
  23875278.22807  23875278.50607  23875278.33907  -6722380.00107  -5238218.71307
  24653005.37306  24653005.15406  24653007.12606  -3806373.61406  -2966011.24006
  22412228.41609  22412228.44409  22412227.68009 -14404674.14309 -11224418.52409
  22295368.32909  22295368.71209  22295368.06009 -13516070.88709 -10532000.25109
  24856543.85305  24856543.79805  24856545.43005   -720695.78605   -561580.66405
  20369939.85609  20369939.40909  20369938.63109 -24421005.30709 -19029349.34809
  22898402.51909  22898402.48409  22898401.93409 -10678573.38409  -8320962.35909
  3 10 28  3 24  0.0000000  0  9G01G02G04G07G11G13G16G20G25
  20624630.36409  20624630.19309  20624630.39909 -21974584.02509 -17123047.67409
  24793048.40206  24793047.63906  24793050.91206  -1205945.95906   -939697.99106
  23858603.96207  23858604.21807  23858604.07907  -6810003.80607  -5306496.96607
  24661417.69906  24661417.47406  24661419.37806  -3762166.28806  -2931564.00406
  22430015.26409  22430015.16909  22430014.51009 -14311204.17909 -11151584.80609
  22281939.01609  22281939.31509  22281938.74109 -13586643.50409 -10586991.85909
  24842978.75705  24842979.35105  24842980.30905   -791975.28105   -617123.08805
  20370531.83909  20370531.42609  20370530.65809 -24417894.00709 -19026924.96709
  22911968.93409  22911968.76909  22911967.97009 -10607282.90109  -8265411.35209
  3 10 28  3 24 30.0000000  0  9G01G02G04G07G11G13G16G20G25
  20620244.48009  20620244.26609  20620244.38109 -21997632.38709 -17141007.42109
  24780349.23506  24780348.92606  24780351.68406  -1272680.30406   -991698.75806
  23841984.50207  23841984.85607  23841984.68507  -6897338.55907  -5374549.99007
  24669885.66606  24669885.43306  24669888.12806  -3717666.37606  -2896888.77406
  22447848.17409  22447848.06809  22447847.59509 -14217491.05109 -11078561.61909
  22268557.73709  22268558.05109  22268557.39309 -13656962.38209 -10641785.74709
  24829443.52905  24829443.26805  24829444.58905   -863106.86705   -672550.24405
  20371189.60309  20371189.13909  20371188.48009 -24414437.66109 -19024231.71509
  22925601.60509  22925601.37509  22925600.81609 -10535642.45209  -8209587.64809
  3 10 28  3 25  0.0000000  0  9G01G02G04G07G11G13G16G20G25
  20615922.01109  20615921.85409  20615922.05209 -22020346.66409 -17158706.84009
  24767658.90606  24767658.14206  24767660.24206  -1339371.12906  -1043665.65606
  23825421.85107  23825421.87707  23825421.97007  -6984375.61707  -5442371.05107
  24678410.45106  24678410.01106  24678412.03406  -3672870.22806  -2861982.71006
  22465728.29109  22465728.26209  22465727.50209 -14123531.15309 -11005346.13409
  22255226.01609  22255226.28809  22255225.63109 -13727021.28609 -10696377.06209
  24815936.81505  24815937.31505  24815939.59705   -934081.58905   -727855.19005
  20371914.35709  20371913.92209  20371913.19009 -24410629.26309 -19021264.13309
  22939301.52509  22939301.40009  22939300.86609 -10463648.08609  -8153488.16809
  3 10 28  3 25 30.0000000  0  9G01G02G04G07G11G13G16G20G25
  20611665.14909  20611664.95609  20611665.24509 -22042716.48909 -17176137.85909
  24754978.33606  24754977.50706  24754980.76306  -1406005.10206  -1095588.26006
  23808918.21207  23808918.54507  23808918.42507  -7071101.67607  -5509949.78307
  24686992.43106  24686992.24706  24686994.75306  -3627769.34906  -2826839.19706
  22483656.68609  22483656.75209  22483656.00209 -14029316.25209 -10931931.94509
  22241945.90509  22241946.20809  22241945.53709 -13796809.01309 -10750757.07109
  24802463.70305  24802464.36005  24802465.12605  -1004885.80505   -783027.24705
  20372708.21509  20372707.75009  20372707.08709 -24406457.39109 -19018013.32809
  22953070.57709  22953070.52209  22953069.87809 -10391291.17909  -8097106.19009
  3 10 28  3 26  0.0000000  0  9G01G02G04G07G11G13G16G20G25
  20607472.23709  20607472.11909  20607472.39209 -22064749.68809 -17193306.56709
  24742307.83406  24742307.42106  24742310.04206  -1472587.12206  -1147470.35806
  23792473.40907  23792473.52307  23792473.19607  -7157521.53907  -5577289.91907
  24695631.42606  24695631.05006  24695633.16806  -3582373.62206  -2791465.93806
  22501631.99609  22501631.94609  22501631.13009 -13934856.32709 -10858326.83109
  22228715.84709  22228716.25509  22228715.49809 -13866332.53609 -10804931.20509
  24789021.27805  24789021.32805  24789023.26005  -1075523.54605   -838069.59705
  20373570.09309  20373569.63109  20373569.01909 -24401928.28409 -19014484.16009
  22966906.75209  22966906.61609  22966906.06309 -10318581.54309  -8040449.36009
  3 10 28  3 26 30.0000000  0  9G01G02G04G07G11G13G16G20G25
  20603343.39409  20603343.20109  20603343.30509 -22086447.84309 -17210214.20709
  24729648.30206  24729647.97106  24729650.67706  -1539115.47506  -1199310.65506
  23776086.86107  23776086.98607  23776086.44407  -7243633.48507  -5644390.12407
  24704325.28206  24704324.35906  24704327.33806  -3536686.11806  -2755865.32206
  22519653.17709  22519653.10009  22519652.20909 -13840154.73209 -10784533.40609
  22215536.34909  22215536.57909  22215535.61609 -13935592.73509 -10858900.15109
  24775611.18405  24775611.17405  24775613.88005  -1145992.83505   -892980.68305
  20374499.76909  20374499.35909  20374498.82609 -24397042.29309 -19010676.90509
  22980809.31509  22980809.19309  22980808.66609 -10245522.23509  -7983520.05909
  3 10 28  3 27  0.0000000  0  9G01G02G04G07G11G13G16G20G25
  20599277.59009  20599277.36409  20599277.55209 -22107813.57809 -17226862.81309
  24716998.89806  24716998.56406  24717000.33006  -1605589.38206  -1251108.53206
  23759758.44107  23759759.09207  23759758.57307  -7329436.98207  -5711249.98007
  24713073.77406  24713073.66706  24713075.68606  -3490711.37606  -2720040.87606
  22537719.39709  22537719.37809  22537718.43809 -13745215.99909 -10710555.19909
  22202406.20709  22202406.49609  22202405.68409 -14004591.02109 -10912665.01809
  24762233.94905  24762233.33105  24762236.30705  -1216292.64505   -947759.70405
  20375497.25509  20375496.79509  20375496.30509 -24391800.52409 -19006592.42309
  22994777.79109  22994777.65909  22994777.09809 -10172117.32009  -7926321.45609
  3 10 28  3 27 30.0000000  0  9G01G02G04G07G11G13G16G20G25
  20595276.67109  20595276.47409  20595276.54409 -22128839.15909 -17243246.37209
  24704360.63606  24704360.04906  24704363.60206  -1671997.90206  -1302855.43606
  23743491.71708  23743492.02108  23743491.59708  -7414921.14108  -5777860.99808
  24721879.19706  24721878.53306  24721880.27606  -3444443.25106  -2683987.81506
  22555832.06909  22555832.04209  22555831.01309 -13650034.27309 -10636387.64409
  22189327.93209  22189328.21609  22189327.14509 -14073318.44809 -10966218.82409
  24748890.34205  24748889.36605  24748892.90605  -1286411.66105  -1002397.84605
  20376564.24009  20376563.77709  20376563.33509 -24386193.65609 -19002223.44409
  23008813.24809  23008813.28409  23008812.42809 -10098360.75709  -7868848.83709
  3 10 28  3 28  0.0000000  0  9G01G02G04G07G11G13G16G20G25
  20591337.79009  20591337.63709  20591337.85209 -22149537.21509 -17259374.71809
  24691734.65806  24691734.27006  24691737.54406  -1738350.36506  -1354558.66006
  23727283.79708  23727284.03508  23727283.39908  -7500095.46308  -5844230.58908
  24730735.64906  24730735.22206  24730737.97106  -3397896.27006  -2647717.47306
  22573988.11009  22573988.03109  22573987.12809 -13554623.80209 -10562041.84609
  22176298.73509  22176299.01009  22176298.16109 -14141787.06909 -11019570.96209
  24735581.18306  24735580.70906  24735582.29406  -1356358.69406  -1056901.99006
  20377698.42909  20377698.00509  20377697.60409 -24380233.12909 -18997578.87909
  23022912.83309  23022912.73709  23022912.16909 -10024266.72809  -7811113.26309
  3 10 28  3 28 30.0000000  0  9G01G02G04G07G11G13G16G20G25
  20587462.69009  20587462.49809  20587462.60309 -22169901.54709 -17275243.02509
  24679121.32807  24679120.60007  24679123.19007  -1804637.30607  -1406210.84607
  23711136.48808  23711136.71608  23711136.18708  -7584950.69508  -5910351.53508
  24739647.45306  24739647.39506  24739649.68406  -3351066.08706  -2611226.43506
  22592188.16709  22592188.11509  22592187.45709 -13458980.40209 -10487514.55309
  22163320.17209  22163320.50809  22163319.40409 -14209989.68309 -11072715.81709
  24722303.83205  24722303.54205  24722305.82405  -1426124.33305  -1111264.80705
  20378901.38209  20378900.95609  20378900.57509 -24373911.35509 -18992652.82609
  23037077.40509  23037077.26209  23037076.90009  -9949830.84909  -7753111.31509
  3 10 28  3 29  0.0000000  0  9G01G02G04G07G11G13G16G20G25
  20583650.48509  20583650.23809  20583650.45109 -22189934.78809 -17290853.33709
  24666518.70106  24666518.14306  24666520.47706  -1870858.46006  -1457811.74806
  23695049.46708  23695050.08708  23695049.30008  -7669486.69508  -5976223.73508
  24748611.60806  24748611.81306  24748613.81906  -3303957.45906  -2574518.44906
  22610431.86309  22610431.85909  22610431.09509 -13363109.15509 -10412809.71309
  22150391.68509  22150392.05309  22150390.99509 -14277928.36909 -11125655.02109
  24709063.21006  24709063.38306  24709065.34006  -1495707.61106  -1165485.54006
  20380172.82709  20380172.38409  20380172.07409 -24367229.80309 -18987446.43109
  23051306.30309  23051306.20109  23051305.85309  -9875057.53209  -7694846.42709
  3 10 28  3 29 30.0000000  0  9G01G02G04G07G11G13G16G20G25
  20579900.01409  20579899.82909  20579899.89609 -22209644.09909 -17306211.22209
  24653928.79506  24653928.78806  24653931.59706  -1937017.93306  -1509364.57006
  23679022.85808  23679023.15508  23679022.47708  -7753707.26808  -6041850.14208
  24757627.62806  24757627.08006  24757629.78506  -3256579.32906  -2537600.43706
  22628717.35109  22628717.34809  22628716.54209 -13267018.94409 -10337934.24409
  22137512.69209  22137512.94209  22137511.84709 -14345609.13609 -11178393.25109
  24695855.89906  24695855.41906  24695857.82406  -1565111.82506  -1219566.74506
  20381511.66009  20381511.23609  20381510.90609 -24360194.28509 -18981964.21909
  23065597.76109  23065597.70109  23065597.32909  -9799955.79109  -7636325.62409
  3 10 28  3 30  0.0000000  0  9G01G02G04G07G11G13G16G20G25
  20576211.48509  20576211.26809  20576211.33509 -22229027.41809 -17321315.10209
  24641352.41906  24641352.09306  24641354.85406  -2003110.43506  -1560865.22006
  23663056.96408  23663057.51408  23663056.90408  -7837607.40308  -6107226.87008
  24766695.32106  24766694.74206  24766696.55006  -3208931.40106  -2500472.22206
  22647044.37609  22647044.40709  22647043.56009 -13170709.81909 -10262888.19409
  22124683.22209  22124683.47309  22124682.24909 -14413029.13409 -11230928.29109
  24682683.98506  24682683.87406  24682685.59506  -1634331.51006  -1273504.15506
  20382918.50709  20382918.07509  20382917.66709 -24352801.22309 -18976203.39909
  23079951.73909  23079951.68909  23079951.51009  -9724524.63909  -7577548.14009
  3 10 28  3 30 30.0000000  0  9G01G02G04G07G11G13G16G20G25
  20572586.81809  20572586.62509  20572586.68009 -22248074.92409 -17336157.31009
  24628790.52106  24628789.94406  24628792.59906  -2069123.03406  -1612303.59806
  23647154.95508  23647155.13008  23647154.54308  -7921174.41408  -6172344.01608
  24775814.81406  24775815.13806  24775817.27406  -3161005.96406  -2463127.73806
  22665414.65809  22665414.54409  22665413.88409 -13074173.82709 -10187665.37309
  22111905.14109  22111905.47509  22111904.29509 -14480177.94109 -11283251.99909
  24669549.94907  24669549.88807  24669551.58507  -1703353.29207  -1327287.37407
  20384395.45809  20384395.03209  20384394.65609 -24345039.64309 -18970155.42009
  23094369.94809  23094369.92709  23094369.87609  -9648756.43109  -7518508.01309
  3 10 28  3 31  0.0000000  0  9G01G02G04G07G11G13G16G20G25
  20569025.04409  20569024.86409  20569025.03909 -22266791.65409 -17350741.77409
  24616242.90206  24616243.08306  24616245.78406  -2135057.40806  -1663681.01906
  23631315.72708  23631315.95008  23631315.38308  -8004410.10708  -6237202.99008
  24784985.97206  24784985.41506  24784988.08306  -3112809.90706  -2425572.38806
  22683826.46309  22683826.48409  22683825.93509 -12977418.18309 -10112271.39809
  22099177.95509  22099178.24909  22099177.10109 -14547059.63009 -11335367.57109
  24656452.15106  24656451.89506  24656454.37006  -1772178.96806  -1380917.79906
  20385941.88609  20385941.44209  20385941.04809 -24336913.22809 -18963823.15509
  23108851.22509  23108851.04809  23108850.93609  -9572657.92009  -7459210.51209
  3 10 28  3 31 30.0000000  0  9G01G02G04G07G11G13G16G20G25
  20565524.88909  20565524.71309  20565524.72809 -22285185.36509 -17365074.53209
  24603710.41406  24603709.79406  24603713.27206  -2200917.99806  -1715000.94706
  23615538.37308  23615538.77808  23615538.22308  -8087318.95708  -6301807.28008
  24794207.38606  24794206.76506  24794208.90506  -3064352.68206  -2387813.54306
  22702278.44309  22702278.59009  22702278.05409 -12880452.37609 -10036713.65809
  22086500.45609  22086500.76709  22086499.26109 -14613680.89609 -11387280.21409
  24643392.10406  24643391.94806  24643393.65506  -1840812.38406  -1434398.38506
  20387556.55409  20387556.10009  20387555.64009 -24328428.38409 -18957211.59909
  23123393.45609  23123393.24209  23123393.12609  -9496238.25909  -7399662.76209
  3 10 28  3 32  0.0000000  0  9G01G02G04G07G11G13G16G20G25
  20562088.78409  20562088.57009  20562088.69709 -22303241.96009 -17379144.60809
  24591194.88206  24591194.14706  24591197.59606  -2266687.43506  -1766249.85606
  23599826.98008  23599827.24508  23599826.68808  -8169883.59008  -6366143.34208
  24803480.17505  24803480.15605  24803482.50405  -3015622.09505  -2349841.68805
  22720772.93009  22720772.98009  22720772.31309 -12783263.99809  -9960982.48809
  22073875.05509  22073875.40809  22073874.08009 -14680026.78509 -11438978.28809
  24630371.72207  24630371.48407  24630373.64107  -1909235.46807  -1487715.09407
  20389242.49909  20389242.05009  20389241.46109 -24319569.46609 -18950308.55809
  23137999.26609  23137998.90409  23137998.89709  -9419485.05809  -7339855.11509
  3 10 28  3 32 30.0000000  0  9G01G02G04G07G11G13G16G20G25
  20558714.00309  20558713.74609  20558713.84409 -22320976.93109 -17392964.05809
  24578693.95506  24578693.15706  24578697.62606  -2332377.94906  -1817437.24206
  23584178.60508  23584178.77808  23584178.36508  -8252116.62608  -6430221.01908
  24812801.86505  24812801.59905  24812804.53105  -2966635.35205  -2311670.23405
  22739306.56309  22739306.37209  22739305.65209 -12685870.56609  -9885091.53809
  22061299.59109  22061299.86009  22061298.58609 -14746111.83909 -11490473.10109
  24617388.39606  24617387.88306  24617390.44906  -1977460.27706  -1540877.29706
  20390996.91409  20390996.45309  20390995.71909 -24310350.61309 -18943125.04609
  23152665.03109  23152664.92009  23152664.87609  -9342415.33709  -7279800.82709
  3 10 28  3 33  0.0000000  0  9G01G02G04G07G11G13G16G20G25
  20555399.83109  20555399.69909  20555399.87009 -22338391.73809 -17406534.03109
  24566208.97706  24566208.41906  24566212.31806  -2397988.19306  -1868562.09706
  23568593.47108  23568593.75008  23568593.36608  -8334016.52608  -6494039.10508
  24822172.92006  24822171.86006  24822173.82906  -2917396.13706  -2273302.03906
  22757878.16009  22757878.06209  22757877.29909 -12588275.73309  -9809043.65009
  22048773.46509  22048773.75009  22048772.27809 -14811936.94409 -11541765.36109
  24604443.65106  24604443.72906  24604445.98506  -2045484.91006  -1593883.52206
  20392819.67009  20392819.19009  20392818.46009 -24300772.12309 -18935661.29509
  23167390.40009  23167390.38809  23167390.43709  -9265032.84409  -7219502.82109
  3 10 28  3 33 30.0000000  0  9G01G02G04G07G11G13G16G20G25
  20552151.09809  20552150.96009  20552151.12609 -22355464.35509 -17419837.36909
  24553744.15106  24553743.52106  24553746.82106  -2463492.52906  -1919604.41706
  23553076.55608  23553076.95308  23553076.65908  -8415558.11208  -6557577.97608
  24831594.35106  24831594.30906  24831595.48506  -2867884.04806  -2234721.21006
  22776491.93409  22776491.90109  22776491.08909 -12490459.48209  -9732823.22109
  22036301.09109  22036301.40009  22036300.25309 -14877478.94309 -11592837.01909
  24591542.36306  24591541.82306  24591544.30606  -2113283.62406  -1646713.72506
  20394715.15009  20394714.68709  20394714.11009 -24290810.60909 -18927899.08509
  23182179.28809  23182179.15609  23182179.36509  -9187316.76509  -7158944.87809
  3 10 28  3 34  0.0000000  0  9G01G02G04G07G11G13G16G20G25
  20548964.31009  20548964.16609  20548964.40309 -22372210.75409 -17432886.50709
  24541296.62506  24541296.23106  24541299.63006  -2528903.73606  -1970574.15206
  23537625.23208  23537625.54608  23537625.58608  -8496754.00808  -6620847.47508
  24841065.15506  24841065.00406  24841065.57806  -2818116.93406  -2195941.66106
  22795144.33209  22795144.48709  22795143.82409 -12392439.38609  -9656443.96409
  22023879.97709  22023880.27909  22023879.01709 -14942752.81109 -11643699.73809
  24578680.88806  24578681.28906  24578682.91706  -2180868.52206  -1699377.30806
  20396680.91509  20396680.43409  20396679.88209 -24280480.56509 -18919849.71109
  23197028.30709  23197028.28409  23197028.41709  -9109284.59209  -7098140.62509
  3 10 28  3 34 30.0000000  0  9G01G02G04G07G11G13G16G20G25
  20545837.93109  20545837.77109  20545837.89509 -22388640.50909 -17445688.91609
  24528865.55106  24528865.83606  24528868.76206  -2594227.92206  -2021476.10506
  23522238.74908  23522238.87508  23522238.74308  -8577610.76108  -6683852.70708
  24850581.87806  24850581.69406  24850582.99306  -2768106.18306  -2156972.25906
  22813833.89209  22813833.90609  22813832.85409 -12294226.69909  -9579914.63009
  22011508.13109  22011508.41209  22011506.89209 -15007767.44009 -11694360.45909
  24565859.95406  24565859.67306  24565861.80506  -2248245.44206  -1751878.84606
  20398715.10509  20398714.74309  20398714.31709 -24269790.04009 -18911519.44409
  23211935.72609  23211935.46509  23211935.64409  -9030947.22909  -7037098.56809
  3 10 28  3 35  0.0000000  0  9G01G02G04G07G11G13G16G20G25
  20542771.40309  20542771.22709  20542771.34809 -22404755.55309 -17458246.09109
  24516451.96206  24516451.50506  24516454.97906  -2659463.90906  -2072309.33606
  23506917.06308  23506917.28708  23506916.86208  -8658127.24908  -6746592.80108
  24860144.04105  24860143.79605  24860145.02205  -2717855.70105  -2117816.05305
  22832559.13409  22832559.13409  22832558.14709 -12195825.62309  -9503238.50109
  21999185.44809  21999185.77309  21999184.43609 -15072523.71909 -11744819.87509
  24553078.88206  24553078.52206  24553079.87006  -2315413.07106  -1804217.28706
  20400818.04509  20400817.61909  20400817.18409 -24258739.72109 -18902908.82109
  23226900.09109  23226900.00009  23226900.30109  -8952308.33809  -6975821.55709
  3 10 28  3 35 30.0000000  0  9G01G02G04G07G11G13G16G20G25
  20539765.90909  20539765.70609  20539765.78609 -22420550.11209 -17470553.53909
  24504056.15706  24504055.65106  24504059.27406  -2724602.76606  -2123066.89106
  23491661.71508  23491661.86608  23491661.72608  -8738294.59808  -6809060.83708
  24869752.36905  24869751.86605  24869753.55605  -2667361.56205  -2078469.98705
  22851320.83809  22851320.66909  22851319.93109 -12097232.35309  -9426412.61809
  21986913.09109  21986913.35909  21986912.14809 -15137015.18409 -11795072.93809
  24540339.06506  24540338.47006  24540340.59206  -2382361.85506  -1856385.22106
  20402990.49709  20402990.14809  20402989.78609 -24247322.62409 -18894012.40209
  23241922.36809  23241922.50409  23241923.06309  -8873364.03809  -6914306.56509
  3 10 28  3 36  0.0000000  0  9G01G02G04G07G11G13G16G20G25
  20536824.08109  20536823.84409  20536823.91909 -22436009.65509 -17482599.93809
  24491681.49206  24491681.55406  24491685.47006  -2789626.51406  -2173734.75806
  23476476.13108  23476476.36808  23476476.18808  -8818095.15208  -6871243.06008
  24879410.24605  24879410.01705  24879411.62305  -2616611.16605  -2038924.23705
  22870121.54109  22870121.47609  22870120.56509 -11998434.19409  -9349427.07909
  21974694.04509  21974694.33209  21974693.00409 -15201226.32609 -11845107.56809
  24527644.68306  24527644.71406  24527645.29006  -2449073.66906  -1908368.48906
  20405236.07209  20405235.61609  20405235.17109 -24235522.74009 -18884817.70209
  23257005.43409  23257005.57309  23257006.23709  -8794101.72809  -6852543.77309
  3 10 28  3 36 30.0000000  0  9G01G02G04G07G11G13G16G20G25
  20533943.19809  20533943.03009  20533943.14909 -22451148.29009 -17494396.28009
  24479329.04606  24479328.36806  24479331.69406  -2854546.26906  -2224321.57806
  23461358.17508  23461358.19108  23461358.24108  -8897539.77408  -6933147.93808
  24889112.83705  24889112.02005  24889114.33705  -2565620.47705  -1999191.24205
  22888958.09309  22888958.06709  22888956.97409 -11899447.02509  -9272294.25509
  21962525.87709  21962526.16009  21962524.99509 -15265170.58409 -11894934.23909
  24514993.21007  24514992.87607  24514994.18707  -2515559.00307  -1960175.29107
  20407551.96409  20407551.54209  20407551.00009 -24223352.88709 -18875334.71809
  23272146.44509  23272146.20609  23272147.04109  -8714536.87109  -6790545.23209
  3 10 28  3 37  0.0000000  0  9G01G02G04G07G11G13G16G20G25
  20531122.86609  20531122.65809  20531122.88109 -22465969.13109 -17505944.99209
  24466994.33606  24466993.52806  24466998.05106  -2919361.61906  -2274827.07906
  23446308.16208  23446308.25808  23446307.81808  -8976628.74408  -6994775.69108
  24898861.02105  24898860.69405  24898861.97505  -2514394.59205  -1959274.98205
  22907829.49209  22907829.42609  22907828.72509 -11800276.04109  -9195018.20309
  21950407.87009  21950408.22009  21950407.25509 -15328850.03909 -11944554.57009
  24502384.32007  24502383.78307  24502385.68407  -2581817.32207  -2011805.17707
  20409937.84609  20409937.39909  20409936.97509 -24210814.93809 -18865564.90509
  23287343.89109  23287343.64509  23287344.42509  -8634674.32909  -6728314.73109
  3 10 28  3 37 30.0000000  0  9G01G02G04G07G11G13G16G20G25
  20528362.92909  20528362.71609  20528362.89009 -22480472.87909 -17517246.60609
  24454680.98406  24454680.47906  24454684.01006  -2984070.09706  -2325249.27706
  23431326.05608  23431326.43808  23431325.83208  -9055359.47408  -7056124.29008
  24908653.38005  24908653.38905  24908654.81205  -2462936.04305  -1919177.43905
  22926735.72609  22926735.68409  22926735.04509 -11700923.58809  -9117600.75409
  21938340.64909  21938340.90409  21938339.66409 -15392264.61609 -11993968.50509
  24489819.37607  24489819.32507  24489820.54607  -2647845.69407  -2063255.87307
  20412393.93409  20412393.49409  20412393.14109 -24197908.11109 -18855507.65309
  23302597.41109  23302597.25809  23302598.02209  -8554516.13209  -6665853.84809
  3 10 28  3 38  0.0000000  0  9G01G02G04G07G11G13G16G20G25
  20525665.96409  20525665.79309  20525666.00609 -22494645.10009 -17528289.88509
  24442391.17206  24442390.93806  24442394.25106  -3048653.81406  -2375574.27706
  23416415.48708  23416415.90008  23416415.47808  -9133714.53908  -7117180.16908
  24918492.52105  24918492.35405  24918493.66405  -2411232.22905  -1878888.73905
  22945678.48009  22945678.49909  22945678.20509 -11601377.40409  -9040032.33909
  21926326.47709  21926326.82109  21926325.68909 -15455398.69009 -12043163.87809
  24477302.52307  24477302.11307  24477303.12007  -2713625.97707  -2114513.26007
  20414923.31009  20414922.80909  20414922.45409 -24184616.60409 -18845150.65209
  23317909.84809  23317909.54009  23317910.36209  -8474049.61009  -6603152.70909
  3 10 28  3 38 30.0000000  0  9G01G02G04G07G11G13G16G20G25
  20523027.69609  20523027.52409  20523027.74109 -22508508.90909 -17539092.84609
  24430121.47906  24430120.79106  24430124.32606  -3113132.71806  -2425817.61406
  23401572.83008  23401573.10908  23401572.81508  -9211713.94808  -7177958.91808
  24928373.32305  24928372.58905  24928374.07705  -2359308.24405  -1838428.55305
  22964653.37909  22964653.42409  22964653.22709 -11501662.57409  -8962332.51609
  21914361.37609  21914361.71309  21914360.87809 -15518275.27709 -12092158.60509
  24464827.20606  24464827.18506  24464829.49506  -2779177.77206  -2165592.59506
  20417521.52309  20417521.04809  20417520.81009 -24170962.39709 -18834511.02709
  23333276.03509  23333275.92009  23333276.59609  -8393299.47209  -6540230.57509
  3 10 28  3 39  0.0000000  0 10G01G02G04G07G11G13G16G20G25G27
  20520449.98509  20520449.81309  20520449.95709 -22522055.07209 -17549648.29809
  24417873.86106  24417873.28706  24417877.41906  -3177494.39806  -2475969.61106
  23386800.15708  23386800.34708  23386800.31108  -9289345.43108  -7238450.97208
  24938297.74905  24938297.00505  24938297.73705  -2307156.77705  -1797790.99405
  22983662.10009  22983662.06309  22983661.78709 -11401771.69909  -8884495.51709
  21902447.53309  21902447.87309  21902446.79109 -15580883.53009 -12140944.24509
  24452399.20006  24452398.64206  24452401.16506  -2844488.07706  -2216483.72506
  20420190.95609  20420190.55509  20420190.23009 -24156934.68609 -18823580.35609
  23348697.53208  23348697.48508  23348698.45108  -8312258.02608  -6477081.45408
  24865358.83304  24865357.49204  24865359.68304         -.03414          .36814
