     2.10           OBSERVATION DATA    G (GPS)             RINEX VERSION / TYPE
teqc  2002Dec5      gpsops              20031029 00:45:14UTCPGM / RUN BY / DATE
Linux 2.0.36|Pentium II|gcc -static|Linux|486/DX+           COMMENT
ASC1                                                        MARKER NAME
30602M001                                                   MARKER NUMBER
GGN                 JPL                                     OBSERVER / AGENCY
T337-U              AOA SNR-8000 ACT    3.3.32.2            REC # / TYPE / VERS
203                 AOAD/M_T        NONE                    ANT # / TYPE
  6118526.0694 -1572344.7417  -876451.0977                  APPROX POSITION XYZ
        0.0677        0.0000        0.0000                  ANTENNA: DELTA H/E/N
     1     1                                                WAVELENGTH FACT L1/2
     7    L1    L2    P1    P2    C1    S1    S2            # / TYPES OF OBSERV
    30.0000                                                 INTERVAL
                                                            COMMENT
This data is provided as a public service by NASA/JPL.      COMMENT
No warranty is expressed or implied regarding suitability   COMMENT
for use.  For further information, contact:                 COMMENT
Dave Stowers, NASA/JPL m/s 238-600                          COMMENT
4800 Oak Grove Drive, Pasadena CA 91109 USA                 COMMENT
                                                            COMMENT
    P1 =    P1  TurboRogue; =    Y1  Benchmark              COMMENT
    L1 = L1(CA)                                             COMMENT
    P2 =    P2  TurboRogue; =    Y2  Benchmark              COMMENT
    L2 = L2(P2) TurboRogue; = L2(Y2) Benchmark              COMMENT
 SNR is mapped to RINEX snr flag value [1,4-9]              COMMENT
    SNR:  >=316 >=100 >=31.6 >=10 >=3.2    >0 bad=0         COMMENT
L1 & L2:      9     8     7     6     5     4     1         COMMENT
teqc windowed: start @ 2003 Oct 28 00:00:00.000             COMMENT
teqc windowed: delta = 86399.000 sec                        COMMENT
  2003    10    28     0     0    0.0000000     GPS         TIME OF FIRST OBS
                                                            END OF HEADER
 03 10 28  0  0  0.0000000  0  9G 3G13G 1G27G11G31G20G 2G16
      4432.999 8      3454.584 7  22903239.466    22903251.446    22903239.657
       107.000          66.000
  -4929643.254 7  -3841274.043 6  24052140.691    24052149.635    24052140.534
        33.000          20.000
 -14840101.153 8 -11563686.798 8  22113587.973    22113597.923    22113588.212
       177.000         124.000
   -202429.902 6   -157738.779 5  24234356.369    24234370.812    24234356.231
        22.000           8.000
   2266079.660 6   1765781.051 6  24778465.323    24778479.847    24778465.301
        21.000          11.000
   -976921.310 8   -761239.733 8  22351021.594    22351032.561    22351021.973
       142.000         107.000
   2121425.993 8   1653047.141 8  21714575.369    21714587.072    21714575.949
       255.000         196.000
   7516461.387 8   5856987.466 7  22405638.435    22405648.294    22405639.079
       103.000          62.000
  -2204091.549 6  -1717429.723 6  24974658.464    24974665.445    24974658.721
        23.000          13.000
 03 10 28  0  0 30.0000000  0  9G 3G13G 1G27G11G31G20G 2G16
      9272.554 8      7225.945 7  22904159.929    22904172.261    22904160.339
       114.000          70.000
  -5014235.630 7  -3907190.094 6  24036043.366    24036052.057    24036042.849
        35.000          20.000
 -14896488.543 8 -11607624.947 8  22102857.818    22102867.780    22102858.130
       177.000         124.000
   -224772.258 6   -175148.476 4  24230103.274    24230115.581    24230104.250
        16.000           1.000
   2276506.611 6   1773905.992 6  24780448.994    24780464.312    24780449.188
        21.000          12.000
  -1018505.063 8   -793643.456 8  22343109.101    22343120.351    22343109.593
       144.000         107.000
   2167818.880 8   1689197.403 8  21723403.663    21723415.363    21723404.225
       256.000         192.000
   7601217.197 8   5923031.082 7  22421766.768    22421776.666    22421767.414
       105.000          60.000
  -2101397.230 6  -1637407.991 6  24994200.432    24994207.193    24994200.581
        21.000          14.000
 03 10 28  0  1  0.0000000  0  8G 3G13G 1G11G31G20G 2G16
     14533.744 8     11325.544 7  22905161.255    22905172.744    22905161.623
       106.000          61.000
  -5098853.589 7  -3973126.101 6  24019941.055    24019949.689    24019940.364
        36.000          20.000
 -14952670.833 8 -11651403.278 8  22092166.632    22092176.412    22092166.927
       178.000         126.000
   2286710.927 6   1781857.434 6  24782391.746    24782406.124    24782392.329
        24.000          12.000
  -1059808.590 8   -825828.329 8  22335249.573    22335261.002    22335249.958
       159.000         128.000
   2214661.397 8   1725698.026 8  21732317.509    21732329.375    21732318.071
       254.000         192.000
   7686236.571 8   5989280.072 7  22437945.220    22437955.150    22437945.607
       105.000          58.000
  -1998681.093 6  -1557369.278 6  25013746.535    25013753.585    25013746.462
        19.000          14.000
 03 10 28  0  1 30.0000000  0  8G 3G13G 1G11G31G20G 2G16
     20216.121 8     15752.730 7  22906243.193    22906254.423    22906243.525
       112.000          60.000
  -5183495.780 7  -4039080.998 6  24003834.243    24003842.854    24003834.187
        37.000          22.000
 -15008646.201 8 -11695020.370 8  22081514.653    22081524.537    22081515.032
       176.000         128.000
   2296691.614 6   1789634.638 6  24784290.699    24784305.299    24784290.910
        23.000          11.000
  -1100831.510 8   -857794.683 8  22327443.495    22327455.084    22327443.934
       155.000         116.000
   2261950.414 8   1762546.576 8  21741316.320    21741327.953    21741316.863
       254.000         186.000
   7771515.833 8   6055731.569 7  22454173.250    22454183.143    22454173.626
       105.000          57.000
  -1895946.175 6  -1477315.946 6  25033295.492    25033303.069    25033295.646
        17.000          14.000
 03 10 28  0  7  0.0000000  0  3G 1G20G 3
        -1.08318         -.24618  21159909.211    21159919.113    21159909.573
       176.000         139.000
         -.86718         -.13518  21038601.658    21038613.394    21038602.197
       249.000         170.000
         -.53218          .48817  22116326.446    22116339.031    22116326.989
       114.000          73.000
 03 10 28  0  7 30.0000000  0  7G27G11G 1G31G20G 3G16
         -.62116         -.82716  23363982.909    23363998.114    23363983.319
        25.000          13.000
         -.07016         -.07016  23996520.557    23996535.067    23996520.640
        24.000          13.000
    -53500.771 8    -41688.280 8  21149728.539    21149738.564    21149728.824
       180.000         142.000
         -.40518         -.91618  21430881.770    21430892.138    21430882.199
       175.000         129.000
     52242.735 8     40709.424 8  21048542.695    21048554.662    21048543.235
       246.000         172.000
     10619.198 8      8275.573 7  22118347.185    22118359.800    22118347.111
       113.000          69.000
         -.39216         -.92315  24460792.539    24460798.122    24460793.028
        15.000           5.000
 03 10 28  0  8  0.0000000  0  7G27G11G 1G31G20G 3G16
    -22127.430 6    -17241.608 6  23359771.525    23359788.815    23359772.098
        24.000          17.000
      6844.705 6      5333.641 6  23997822.983    23997837.404    23997822.761
        24.000          12.000
   -106745.532 8    -83177.687 8  21139596.428    21139606.322    21139596.704
       189.000         142.000
    -37356.285 8    -29109.543 8  21423773.388    21423783.678    21423773.838
       170.000         123.000
    104915.183 8     81753.584 8  21058565.725    21058577.412    21058566.206
       252.000         174.000
     21688.028 8     16900.674 7  22120453.242    22120466.087    22120453.525
       107.000          67.000
    102566.182 6     79921.263 5  24480310.343    24480315.191    24480310.939
        16.000           4.000
 03 10 28  0  8 30.0000000  0  9G27G11G13G 1G31G20G 3G 2G16
    -44230.116 6    -34463.804 6  23355565.461    23355582.029    23355566.215
        22.000          16.000
     13469.251 6     10495.754 6  23999083.524    23999097.948    23999083.982
        23.000          13.000
         -.63017          .38116  22970794.508    22970802.569    22970794.523
        44.000          26.000
   -159739.211 8   -124471.456 8  21129512.230    21129521.993    21129512.513
       198.000         146.000
    -74391.054 8    -57967.892 8  21416726.087    21416736.355    21416726.460
       174.000         124.000
    158006.271 8    123123.594 8  21068668.260    21068679.880    21068668.862
       237.000         162.000
     33200.065 8     25870.936 7  22122644.227    22122657.069    22122644.705
       111.000          72.000
         -.58317          .17817  21878958.024    21878967.817    21878958.292
        74.000          45.000
    205126.184 6    159838.330 5  24499826.674    24499831.271    24499827.272
        18.000           4.000
 03 10 28  0  9  0.0000000  0  9G27G11G13G 1G31G20G 3G 2G16
    -66319.374 6    -51675.417 6  23351361.301    23351377.843    23351362.074
        25.000          19.000
     19863.007 6     15478.026 6  24000299.570    24000314.752    24000299.579
        21.000          12.000
    -84935.419 7    -66182.479 6  22954631.854    22954639.907    22954631.755
        44.000          26.000
   -212489.380 8   -165575.480 8  21119474.063    21119483.973    21119474.227
       199.000         148.000
   -111112.358 8    -86581.705 8  21409737.964    21409748.347    21409738.328
       176.000         122.000
    211505.146 8    164811.951 8  21078848.122    21078859.436    21078848.658
       245.000         166.000
     45146.838 8     35180.304 7  22124917.445    22124930.238    22124918.159
       109.000          71.000
     88633.247 7     69065.622 7  21895824.277    21895834.133    21895824.606
        73.000          44.000
    307667.072 6    239740.510 4  24519339.688    24519343.900    24519340.182
        17.000           3.000
 03 10 28  0  9 30.0000000  0  9G27G11G13G 1G31G20G 3G 2G16
    -88401.476 6    -68881.885 6  23347158.982    23347172.893    23347159.544
        23.000          12.000
     26022.087 6     20277.484 6  24001471.790    24001486.737    24001471.703
        23.000          14.000
   -169865.169 7   -132361.428 6  22938469.905    22938478.271    22938469.160
        45.000          27.000
   -264997.354 8   -206490.784 8  21109482.333    21109491.930    21109482.643
       205.000         148.000
   -147522.390 8   -114952.985 8  21402809.203    21402819.476    21402809.523
       178.000         120.000
    265402.787 8    206810.743 8  21089104.066    21089115.304    21089104.682
       242.000         167.000
     57524.549 8     44825.580 7  22127272.453    22127285.360    22127272.564
       108.000          72.000
    177473.647 7    138292.020 7  21912729.951    21912739.975    21912730.650
        72.000          45.000
    410182.845 6    319623.120 4  24538847.855    24538851.404    24538848.130
        19.000           3.000
 03 10 28  0 10  0.0000000  0  9G27G11G13G 1G31G20G 3G 2G16
   -110436.228 6    -86051.094 6  23342964.821    23342981.529    23342965.189
        23.000          18.000
     31985.968 6     24924.837 6  24002606.843    24002620.928    24002606.879
        23.000          12.000
   -254747.556 7   -198503.472 6  22922317.366    22922325.460    22922316.990
        47.000          26.000
   -317220.563 8   -247184.192 8  21099544.603    21099554.222    21099545.003
       208.000         150.000
   -183578.795 8   -143048.652 8  21395947.925    21395957.903    21395948.294
       179.000         118.000
    319738.650 8    249151.390 8  21099442.866    21099454.049    21099443.380
       221.000         150.000
     70373.934 8     54838.274 7  22129717.733    22129730.294    22129717.408
       111.000          69.000
    266557.663 7    207708.254 7  21929682.061    21929692.044    21929682.381
        73.000          43.000
    512711.247 6    399515.593 4  24558357.748    24558361.270    24558358.431
        18.000           2.000
 03 10 28  0 10 30.0000000  0  9G27G11G13G 1G31G20G 3G 2G16
   -132453.527 6   -103206.925 6  23338774.833    23338790.356    23338774.750
        24.000          15.000
     37726.980 6     29398.543 6  24003698.803    24003712.914    24003699.070
        24.000          11.000
   -339608.105 7   -264628.497 6  22906169.115    22906176.853    22906169.193
        49.000          27.000
   -369184.037 8   -287675.211 8  21089656.087    21089665.876    21089656.308
       200.000         151.000
   -219306.320 8   -170887.589 8  21389148.666    21389158.642    21389149.135
       186.000         131.000
    374483.626 8    291811.876 8  21109859.237    21109869.788    21109859.815
       247.000         166.000
     83667.251 8     65196.454 7  22132247.628    22132260.023    22132248.527
       110.000          69.000
    355854.639 7    277290.444 7  21946674.850    21946684.293    21946675.098
        75.000          38.000
    615222.172 6    479394.433 4  24577865.246    24577868.599    24577865.715
        19.000           1.000
 03 10 28  0 11  0.0000000  0  8G27G11G13G 1G31G20G 3G 2
   -154493.820 6   -120380.689 6  23334580.030    23334596.298    23334580.416
        22.000          16.000
     43205.546 6     33667.776 6  24004741.616    24004755.586    24004741.748
        24.000          10.000
   -424483.951 7   -330765.445 6  22890017.750    22890025.406    22890017.418
        51.000          27.000
   -420924.640 8   -327992.560 8  21079810.246    21079819.881    21079810.592
       199.000         152.000
   -254745.270 8   -198502.845 8  21382405.105    21382415.294    21382405.569
       175.000         124.000
    429591.988 8    334754.954 8  21120344.743    21120354.862    21120345.360
       226.000         144.000
     97367.027 8     75871.538 7  22134854.618    22134867.076    22134855.181
       108.000          69.000
    445322.301 7    347005.655 7  21963700.136    21963709.062    21963700.609
        79.000          36.000
 03 10 28  0 11 30.0000000  0  9G27G11G13G 1G31G20G 3G 2G16
   -176566.536 6   -137579.759 6  23330379.637    23330395.398    23330379.629
        22.000          15.000
     48413.265 6     37725.992 6  24005732.108    24005745.958    24005732.021
        24.000          11.000
   -509380.690 7   -396918.679 6  22873862.161    22873870.108    22873861.678
        55.000          28.000
   -472447.878 8   -368140.533 8  21070005.465    21070015.416    21070005.652
       196.000         154.000
   -289900.120 8   -225897.119 8  21375716.004    21375726.387    21375716.451
       178.000         126.000
    485057.535 8    377977.641 8  21130897.207    21130906.717    21130897.796
       208.000         129.000
    111465.703 8     86857.589 7  22137537.254    22137550.085    22137537.579
       107.000          72.000
    534949.452 7    416845.148 7  21980755.692    21980764.426    21980756.340
        78.000          35.000
         -.52816         -.01214  24616843.540    24616847.744    24616843.352
        17.000           3.000
 03 10 28  0 12  0.0000000  0  9G27G11G13G 1G31G20G 3G 2G16
   -198652.438 6   -154789.140 6  23326176.286    23326191.749    23326176.843
        22.000          16.000
     53370.173 6     41588.787 6  24006675.288    24006688.833    24006675.642
        23.000          12.000
   -594275.698 7   -463070.566 6  22857707.123    22857715.185    22857706.826
        58.000          30.000
   -523730.823 8   -408101.271 8  21060246.703    21060256.703    21060247.012
       194.000         156.000
   -324745.853 8   -253049.614 8  21369085.066    21369095.481    21369085.427
       181.000         134.000
    540898.764 8    421495.039 8  21141519.841    21141527.978    21141520.408
       240.000         121.000
    125983.801 8     98170.296 7  22140300.264    22140312.859    22140300.713
       114.000          76.000
    624753.686 7    486822.622 7  21997844.737    21997853.653    21997845.228
        76.000          38.000
    102330.394 6     79738.575 4  24636315.991    24636320.903    24636315.955
        16.000           2.000
 03 10 28  0 12 30.0000000  0  9G27G11G13G 1G31G20G 3G 2G16
   -220741.862 6   -172001.283 5  23321972.637    23321985.085    23321972.804
        23.000           8.000
     58087.074 6     45264.523 6  24007572.617    24007586.054    24007573.203
        23.000          10.000
   -679155.919 7   -529210.925 7  22841555.153    22841563.011    22841555.176
        60.000          32.000
   -574759.965 8   -447864.237 8  21050536.413    21050546.071    21050536.834
       199.000         156.000
   -359270.281 8   -279951.339 8  21362514.849    21362525.405    21362515.292
       173.000         133.000
    597122.915 8    465311.506 8  21152214.090    21152221.957    21152214.704
       242.000         139.000
    140933.391 8    109819.372 7  22143145.266    22143157.464    22143145.058
       109.000          68.000
    714742.959 7    556944.278 7  22014968.838    22014978.043    22014969.458
        75.000          40.000
    204618.640 6    159443.911 4  24655780.473    24655785.391    24655781.088
        15.000           3.000
 03 10 28  0 13  0.0000000  0  9G27G11G13G 1G31G20G 3G 2G16
   -242842.869 6   -189222.438 6  23317767.213    23317780.329    23317767.107
        27.000          12.000
     62557.046 6     48747.870 6  24008423.476    24008436.612    24008423.287
        24.000          10.000
   -764025.772 7   -595343.195 7  22825404.962    22825412.699    22825405.032
        61.000          33.000
   -625539.480 8   -487432.700 8  21040873.165    21040882.967    21040873.364
       200.000         155.000
   -393480.243 8   -306608.705 8  21356005.183    21356015.759    21356005.684
       169.000         133.000
    653713.638 8    509413.545 8  21162979.007    21162984.782    21162979.655
       228.000         135.000
    156309.172 8    121801.006 7  22146070.592    22146082.959    22146069.817
       110.000          73.000
    804907.648 7    627202.625 7  22032126.481    22032135.635    22032126.968
        76.000          42.000
    306855.009 6    239108.842 4  24675235.390    24675239.921    24675235.895
        14.000           3.000
 03 10 28  0 13 30.0000000  0  9G27G11G13G 1G31G20G 3G 2G16
   -264936.878 6   -206438.210 6  23313562.072    23313576.803    23313562.237
        24.000          13.000
     66799.850 6     52054.164 6  24009230.120    24009244.797    24009230.626
        22.000          13.000
   -848862.875 7   -661449.939 7  22809260.688    22809268.667    22809260.246
        61.000          34.000
   -676047.020 8   -526789.243 8  21031262.157    21031271.724    21031262.384
       209.000         153.000
   -427350.601 8   -333000.607 8  21349559.455    21349569.894    21349560.003
       172.000         144.000
    710688.365 8    553812.490 8  21173818.823    21173823.586    21173819.364
       259.000         164.000
    172129.268 8    134128.150 7  22149081.111    22149093.683    22149080.767
       107.000          72.000
    895264.693 7    697610.869 7  22049320.783    22049329.793    22049321.301
        76.000          42.000
    409057.141 6    318747.084 5  24694683.250    24694688.786    24694683.712
        11.000           4.000
 03 10 28  0 14  0.0000000  0  9G27G11G13G 1G31G20G 3G 2G16
   -287011.764 6   -223638.806 5  23309361.211    23309375.252    23309361.051
        22.000           9.000
     70828.491 6     55193.584 6  24009996.903    24010010.679    24009996.512
        23.000          12.000
   -933652.079 7   -727519.356 7  22793125.588    22793133.665    22793124.753
        60.000          34.000
   -726267.410 8   -565922.040 8  21021705.572    21021715.154    21021705.876
       218.000         156.000
   -460868.831 8   -359118.367 8  21343180.724    21343191.220    21343181.170
       170.000         147.000
    768058.998 8    598519.044 8  21184734.366    21184738.817    21184734.910
       232.000         157.000
    188408.853 8    146813.645 7  22152178.975    22152191.584    22152179.749
       107.000          72.000
    985823.778 7    768176.542 7  22066553.333    22066562.549    22066553.877
        72.000          42.000
    511235.618 6    398366.898 4  24714126.886    24714132.565    24714127.476
        10.000           3.000
 03 10 28  0 14 30.0000000  0  9G27G11G13G 1G31G20G 3G 2G16
   -309091.034 6   -240842.558 6  23305158.538    23305174.062    23305158.788
        25.000          18.000
     74620.396 6     58148.494 6  24010718.175    24010731.581    24010717.754
        22.000          10.000
  -1018412.842 7   -793566.605 7  22776996.171    22777004.128    22776995.863
        60.000          35.000
   -776220.002 8   -604846.169 8  21012199.712    21012209.515    21012199.982
       216.000         158.000
   -494055.685 8   -384978.619 8  21336865.850    21336876.298    21336866.333
       166.000         142.000
    825798.124 8    643510.516 8  21195721.627    21195726.158    21195722.157
       241.000         173.000
    205125.747 8    159839.714 7  22155360.092    22155372.756    22155360.594
       104.000          71.000
   1076559.929 7    838880.187 7  22083819.758    22083828.998    22083820.363
        70.000          44.000
    613366.411 5    477949.539 5  24733561.176    24733567.460    24733561.858
         9.000           4.000
 03 10 28  0 15  0.0000000  0  9G27G11G13G 1G31G20G 3G 2G16
   -331155.512 6   -258035.243 6  23300959.897    23300974.357    23300959.574
        23.000          12.000
     78197.079 6     60935.689 6  24011398.127    24011411.836    24011397.769
        22.000          13.000
  -1103121.821 7   -859573.491 7  22760876.652    22760884.422    22760876.709
        61.000          35.000
   -825880.728 8   -643542.878 8  21002749.985    21002759.492    21002750.346
       226.000         160.000
   -526886.362 8   -410561.477 8  21330618.903    21330629.216    21330619.459
       169.000         146.000
    883927.624 8    688805.358 8  21206784.047    21206788.604    21206784.641
       224.000         141.000
    222302.343 8    173224.102 7  22158628.476    22158641.162    22158629.155
       104.000          71.000
   1167491.780 7    909736.320 7  22101123.531    22101132.753    22101124.100
        70.000          45.000
    715468.520 5    557509.823 5  24752990.726    24752996.827    24752991.160
         8.000           4.000
 03 10 28  0 15 30.0000000  0  9G27G11G13G 1G31G 3G 2G16G28
   -353251.404 6   -275252.499 6  23296754.910    23296767.382    23296755.010
        26.000          14.000
     81512.485 6     63519.228 6  24012029.642    24012042.981    24012029.209
        23.000          10.000
  -1187821.983 7   -925573.502 7  22744758.452    22744766.290    22744758.117
        60.000          35.000
   -875292.701 8   -682045.774 8  20993347.060    20993356.749    20993347.306
       226.000         160.000
   -559403.588 8   -435899.809 8  21324431.139    21324441.588    21324431.649
       165.000         143.000
    239893.897 8    186932.135 7  22161975.810    22161988.400    22161975.817
       102.000          70.000
   1258570.956 7    980707.257 7  22118455.297    22118464.367    22118455.811
        70.000          42.000
    817494.326 5    637010.648 5  24772404.206    24772411.882    24772406.153
         7.000           5.000
         -.37515                  25286022.801                    25286022.939
         6.000
 03 10 28  0 16  0.0000000  0  8G31G27G11G13G 1G 3G 2G16
   -591602.930 8   -460991.194 8  21318304.351    21318315.269    21318304.714
       157.000         137.000
   -375375.320 6   -292491.527 6  23292544.124    23292558.506    23292544.712
        23.000          12.000
     84571.489 6     65903.002 6  24012611.611    24012624.998    24012611.489
        24.000          10.000
  -1272506.459 7   -991561.298 7  22728643.233    22728651.273    22728642.855
        59.000          35.000
   -924448.788 8   -720349.275 8  20983993.073    20984002.724    20983993.319
       226.000         165.000
    257904.729 8    200966.886 7  22165403.081    22165415.493    22165402.903
       108.000          73.000
   1349798.906 7   1051794.117 7  22135815.248    22135824.009    22135815.920
        68.000          37.000
    919445.934 5    716453.680 4  24791807.256    24791811.332    24791806.628
         8.000           3.000
 03 10 28  0 16 30.0000000  0  9G27G11G13G 1G31G 3G 2G16G28
   -397532.351 6   -309756.643 6  23288327.945    23288342.627    23288328.377
        24.000          15.000
     87370.363 6     68084.059 6  24013143.462    24013157.665    24013143.255
        21.000          13.000
  -1357176.119 7  -1057537.542 7  22712531.086    22712539.114    22712530.930
        56.000          35.000
   -973349.922 8   -758454.120 8  20974687.488    20974697.371    20974687.750
       227.000         170.000
   -623482.103 8   -485832.053 8  21312238.193    21312248.967    21312238.632
       171.000         154.000
    276331.497 8    215325.479 7  22168909.443    22168922.041    22168909.500
       104.000          72.000
   1441169.383 7   1122992.034 7  22153202.252    22153210.874    22153202.861
        64.000          33.000
   1021317.980 5    795834.663 5  24811192.714    24811198.605    24811191.695
         7.000           4.000
         -.48315         -.21914  25250563.592    25250568.756    25250565.144
         6.000           1.000
 03 10 28  0 17  0.0000000  0  9G27G11G13G 1G31G20G 3G 2G16
   -419705.929 6   -327034.104 6  23284108.045    23284121.214    23284108.487
        26.000          12.000
     89925.353 6     70075.042 6  24013630.082    24013643.656    24013629.680
        21.000          11.000
  -1441812.545 7  -1123487.879 7  22696425.162    22696433.197    22696424.984
        56.000          33.000
  -1021977.453 8   -796345.773 8  20965433.931    20965443.902    20965434.221
       222.000         170.000
   -655025.017 8   -510410.971 8  21306235.952    21306246.662    21306236.495
       169.000         145.000
         -.61218          .36117  21251687.665    21251693.876    21251688.138
       184.000          91.000
    295191.801 8    230022.014 7  22172498.181    22172510.841    22172498.099
       104.000          76.000
   1532695.631 7   1194311.335 7  22170618.809    22170627.616    22170619.208
        62.000          32.000
   1123124.167 5    875164.363 5  24830564.792    24830568.913    24830565.436
         8.000           4.000
 03 10 28  0 17 30.0000000  0  9G27G11G13G 1G31G20G 3G 2G16
   -441881.171 6   -344312.995 6  23279887.384    23279901.092    23279888.534
        22.000          12.000
     92254.236 6     71889.843 6  24014073.744    24014087.079    24014073.742
        25.000          12.000
  -1526395.514 7  -1189396.568 7  22680329.411    22680337.247    22680329.035
        59.000          32.000
  -1070310.960 8   -834008.334 8  20956236.539    20956246.252    20956236.877
       220.000         169.000
   -686212.356 8   -534713.041 8  21300301.290    21300312.153    21300301.771
       173.000         154.000
     59874.572 8     46655.230 8  21263082.315    21263088.190    21263082.892
       220.000         126.000
    314503.471 8    245070.245 7  22176172.980    22176185.512    22176173.110
       100.000          73.000
   1624392.560 7   1265763.625 6  22188068.061    22188076.730    22188068.217
        61.000          31.000
   1224880.888 5    954455.667 4  24849925.242    24849931.546    24849928.308
         8.000           3.000
 03 10 28  0 18  0.0000000  0 10G27G11G13G 1G31G20G 3G 2G16G28
   -464100.444 6   -361626.084 6  23275659.361    23275673.869    23275660.038
        24.000          17.000
     94315.116 6     73495.848 6  24014465.365    24014479.202    24014465.892
        24.000          14.000
  -1610964.489 7  -1255294.360 6  22664236.400    22664244.264    22664236.016
        60.000          31.000
  -1118389.707 8   -871472.397 8  20947087.499    20947097.352    20947087.766
       224.000         172.000
   -717083.356 8   -558768.590 8  21294426.797    21294437.780    21294427.219
       171.000         148.000
    120071.952 8     93561.923 8  21274537.531    21274543.507    21274538.175
       184.000         104.000
    334225.123 8    260437.921 7  22179925.892    22179938.103    22179926.072
       102.000          74.000
   1716215.518 7   1337314.112 7  22205541.291    22205550.020    22205541.762
        62.000          32.000
   1326542.985 5   1033673.157 4  24869273.970    24869275.581    24869274.479
         8.000           3.000
          .11715         -.28514  25197656.830    25197659.692    25197657.002
         8.000           2.000
 03 10 28  0 18 30.0000000  0 10G27G11G13G 1G31G20G 3G 2G16G28
   -486333.184 6   -378949.815 6  23271428.224    23271440.830    23271428.669
        22.000          11.000
     96139.876 6     74917.826 6  24014812.648    24014826.067    24014812.606
        24.000          15.000
  -1695484.787 7  -1321154.219 7  22648152.684    22648160.503    22648152.492
        61.000          32.000
  -1166179.123 8   -908711.020 8  20937993.622    20938003.506    20937993.949
       222.000         173.000
   -747604.199 8   -582551.472 8  21288619.141    21288630.026    21288619.518
       165.000         143.000
    180624.200 8    140745.691 8  21286059.492    21286065.420    21286060.070
       242.000         124.000
    354389.360 8    276150.543 7  22183762.762    22183774.984    22183762.703
       101.000          75.000
   1808193.858 7   1408985.664 6  22223044.021    22223052.876    22223044.488
        59.000          31.000
   1428140.750 6   1112840.412 5  24888606.838    24888611.774    24888606.887
        10.000           6.000
    -92283.502 5    -71909.814 4  25180096.261    25180098.191    25180096.172
         7.000           1.000
 03 10 28  0 19  0.0000000  0  9G27G11G13G 1G31G20G 3G 2G16
   -508548.630 6   -396260.350 6  23267200.667    23267213.265    23267201.203
        25.000          16.000
     97760.766 6     76180.927 6  24015120.353    24015134.599    24015120.504
        21.000          14.000
  -1779921.730 7  -1386949.114 7  22632084.872    22632092.709    22632084.793
        61.000          33.000
  -1213644.543 8   -945697.185 8  20928961.314    20928971.211    20928961.559
       222.000         169.000
   -777739.727 8   -606033.702 8  21282884.591    21282895.415    21282885.022
       175.000         148.000
    241554.240 8    188223.528 8  21297653.859    21297660.199    21297654.558
       199.000         123.000
    375028.305 7    292232.911 7  22187690.005    22187702.515    22187690.225
        96.000          76.000
   1900356.711 7   1480800.995 7  22240582.087    22240590.822    22240582.463
        59.000          32.000
   1529704.280 5   1191981.001 4  24907933.546    24907938.608    24907934.042
         9.000           3.000
 03 10 28  0 19 30.0000000  0 10G27G11G13G 1G31G20G 3G 2G16G28
   -530784.268 6   -413586.867 5  23262969.059    23262981.775    23262969.684
        21.000           9.000
     99141.566 6     77256.899 6  24015383.670    24015397.477    24015384.321
        21.000          16.000
  -1864308.998 7  -1452705.307 7  22616026.454    22616034.079    22616026.053
        64.000          35.000
  -1260818.649 8   -982456.006 8  20919984.045    20919994.120    20919984.262
       222.000         178.000
   -807525.388 8   -629243.690 8  21277216.825    21277227.796    21277217.199
       174.000         144.000
    302828.280 8    235970.475 8  21309313.172    21309319.444    21309313.614
       196.000         122.000
    396106.657 7    308657.668 7  22191701.188    22191713.703    22191701.664
        97.000          78.000
   1992665.152 7   1552729.766 6  22258147.847    22258156.379    22258148.622
        59.000          30.000
   1631195.347 6   1271065.148 4  24927246.252    24927251.121    24927246.200
        10.000           3.000
         -.48215         -.77614  25145105.978    25145110.224    25145106.220
         8.000           1.000
 03 10 28  0 20  0.0000000  0  9G27G11G13G 1G31G20G 3G 2G16
   -553051.434 6   -430937.624 6  23258731.491    23258746.111    23258731.368
        22.000          17.000
    100270.933 6     78136.929 6  24015598.692    24015612.347    24015598.953
        22.000          16.000
  -1948655.733 7  -1518429.924 7  22599975.601    22599983.291    22599974.955
        66.000          34.000
  -1307710.578 8  -1018994.593 8  20911060.470    20911070.329    20911060.782
       221.000         186.000
   -836970.563 8   -652188.651 8  21271614.035    21271625.283    21271614.428
       170.000         144.000
    364428.550 8    283970.901 8  21321035.704    21321041.046    21321036.327
       231.000         141.000
    417613.599 8    325416.601 7  22195793.804    22195806.063    22195793.949
       101.000          79.000
   2085104.867 7   1624760.824 6  22275738.630    22275747.119    22275739.353
        61.000          31.000
   1732600.455 6   1350082.295 5  24946543.649    24946548.760    24946543.485
        10.000           5.000
 03 10 28  0 20 30.0000000  0 10G27G11G13G 1G31G20G 3G 2G16G28
   -575356.445 6   -448318.316 6  23254487.002    23254500.885    23254486.697
        23.000          14.000
    101145.375 6     78818.332 6  24015765.197    24015778.390    24015765.231
        24.000          14.000
  -2032963.310 7  -1584124.040 7  22583932.354    22583939.907    22583931.982
        67.000          34.000
  -1354321.713 8  -1055314.157 8  20902189.826    20902199.665    20902190.091
       216.000         171.000
   -866076.274 8   -674868.918 8  21266075.737    21266087.235    21266076.126
       169.000         146.000
    426349.702 8    332221.382 8  21332818.419    21332824.276    21332818.952
       205.000         128.000
    439545.075 8    342506.272 7  22199966.860    22199979.167    22199967.191
       102.000          79.000
   2177669.271 7   1696889.039 7  22293352.969    22293361.690    22293353.356
        65.000          32.000
   1833913.862 6   1429027.998 5  24965822.365    24965827.700    24965822.829
        12.000           4.000
         -.14815          .25814  25110268.566    25110271.626    25110269.144
         8.000           1.000
 03 10 28  0 21  0.0000000  0  9G27G11G13G 1G31G20G 3G 2G16
   -597704.521 6   -465732.332 6  23250234.376    23250247.725    23250233.780
        23.000          12.000
    101759.885 6     79297.172 6  24015881.816    24015895.388    24015881.255
        22.000          13.000
  -2117234.082 7  -1649789.480 7  22567896.130    22567903.693    22567895.861
        66.000          35.000
  -1400653.942 8  -1091415.858 8  20893372.205    20893381.594    20893372.590
       223.000         195.000
   -894844.856 8   -697286.118 8  21260601.265    21260612.843    21260601.644
       172.000         149.000
    488584.574 8    380716.574 8  21344661.189    21344666.584    21344661.793
       218.000         127.000
    461896.479 7    359923.133 7  22204220.084    22204232.374    22204220.885
        99.000          77.000
   2270350.463 7   1769108.256 6  22310989.498    22310998.202    22310989.792
        65.000          31.000
   1935128.276 6   1507896.554 4  24985082.549    24985087.069    24985083.186
        10.000           3.000
 03 10 28  0 21 30.0000000  0 10G27G11G13G 1G31G20G 3G 2G16G28
   -620095.690 6   -483179.655 6  23245973.308    23245987.612    23245973.107
        24.000          18.000
    102115.065 6     79574.002 6  24015949.351    24015963.246    24015949.369
        22.000          12.000
  -2201464.828 7  -1715423.736 7  22551867.527    22551875.015    22551867.342
        66.000          36.000
  -1446706.153 8  -1127299.872 8  20884608.192    20884617.361    20884608.350
       215.000         177.000
   -923273.885 8   -719438.427 8  21255191.400    21255202.694    21255191.780
       183.000         153.000
    551128.871 8    429452.312 8  21356562.824    21356568.154    21356563.423
       188.000         100.000
    484669.174 8    377668.342 7  22208553.536    22208565.714    22208553.495
       102.000          80.000
   2363146.293 7   1841416.802 6  22328647.911    22328656.435    22328648.267
        67.000          29.000
   2036242.436 6   1586686.995 4  25004324.582    25004328.685    25004324.949
        11.000           3.000
          .23915          .16514  25075580.833    25075584.222    25075581.657
         9.000           1.000
 03 10 28  0 22  0.0000000  0  9G27G11G13G 1G31G20G 3G 2G16
   -642508.044 6   -500643.252 6  23241708.080    23241722.525    23241707.976
        24.000          20.000
    102234.471 6     79667.088 6  24015972.356    24015985.907    24015971.666
        28.000          20.000
  -2285629.428 7  -1781006.459 7  22535851.321    22535859.096    22535851.073
        65.000          38.000
  -1492452.639 8  -1162946.296 8  20875902.826    20875911.717    20875903.079
       210.000         167.000
   -951339.400 8   -741307.748 8  21249851.084    21249862.020    21249851.507
       182.000         140.000
    614007.971 8    478450.672 8  21368526.905    21368532.463    21368527.429
       206.000         130.000
    507886.395 8    395759.896 7  22212971.340    22212983.486    22212971.335
       102.000          78.000
   2456077.457 7   1913830.805 6  22346331.948    22346340.311    22346332.407
        67.000          26.000
   2137277.655 6   1665415.910 4  25023550.499    25023554.685    25023550.762
        12.000           2.000
 03 10 28  0 22 30.0000000  0 10G27G11G13G 1G31G20G 3G 2G16G28
   -664932.897 6   -518117.204 6  23237440.659    23237453.987    23237440.662
        23.000          13.000
    102129.636 6     79585.482 6  24015952.318    24015965.764    24015952.301
        25.000          17.000
  -2369714.517 7  -1846527.224 7  22519850.405    22519858.043    22519850.106
        66.000          40.000
  -1537877.661 8  -1198342.034 8  20867258.397    20867267.226    20867258.827
       240.000         171.000
   -979026.016 8   -762881.159 8  21244582.008    21244592.833    21244582.354
       195.000         153.000
    677072.768 7    527584.845 7  21380561.143    21380555.622    21380562.391
        96.000          46.000
    531559.915 8    414207.032 7  22217476.211    22217488.146    22217476.420
       106.000          75.000
   2549152.584 7   1986356.985 6  22364043.439    22364051.743    22364043.759
        63.000          24.000
   2238243.159 6   1744090.518 4  25042763.782    25042767.869    25042764.165
        13.000           3.000
         -.27816         -.06715  25041058.348    25041061.717    25041058.443
        10.000           4.000
 03 10 28  0 23  0.0000000  0  9G27G11G13G31G20G 3G 2G16G28
   -687362.008 6   -535594.109 6  23233172.283    23233185.031    23233172.376
        26.000          14.000
    101807.882 6     79334.829 6  24015891.233    24015904.262    24015891.262
        26.000          17.000
  -2453709.764 7  -1911977.986 7  22503866.592    22503874.290    22503866.387
        67.000          43.000
  -1006326.778 8   -784154.365 8  21239386.646    21239397.679    21239387.023
       196.000         152.000
    739875.118 7    576501.028 4  21392647.134    21392636.107    21392649.030
        51.000           2.000
    555697.264 8    433015.560 7  22222069.363    22222081.073    22222068.956
       106.000          74.000
   2642376.103 7   2058998.801 6  22381783.009    22381791.334    22381783.337
        60.000          23.000
   2339144.401 6   1822715.036 4  25061964.191    25061968.607    25061964.511
        12.000           2.000
    -90346.839 6    -70399.556 4  25023866.067    25023868.233    25023866.233
        10.000           2.000
 03 10 28  0 23 30.0000000  0  8G31G27G11G13G 3G 2G16G28
  -1033267.894 8   -805147.600 8  21234259.995    21234271.271    21234260.432
       198.000         153.000
   -709826.305 6   -553098.729 6  23228897.540    23228911.834    23228897.879
        26.000          20.000
    101240.583 6     78892.831 6  24015782.595    24015796.383    24015783.002
        22.000          18.000
  -2537641.245 7  -1977379.071 7  22487894.833    22487902.649    22487894.565
        67.000          46.000
    580270.187 8    452163.504 7  22226745.165    22226756.838    22226744.538
       103.000          71.000
   2735716.709 7   2131731.849 6  22399544.865    22399553.511    22399545.518
        55.000          25.000
   2439950.810 6   1901265.644 4  25081147.084    25081149.843    25081147.659
        12.000           1.000
   -180476.062 6   -140629.459 4  25006714.085    25006717.315    25006714.191
        10.000           3.000
 03 10 28  0 24  0.0000000  0  8G27G11G13G 1G31G 3G 2G28
   -732324.849 6   -570629.968 6  23224616.183    23224628.241    23224616.525
        25.000          14.000
    100429.407 6     78260.823 6  24015628.119    24015641.850    24015628.679
        22.000          18.000
  -2621505.171 7  -2042727.524 7  22471936.081    22471943.980    22471935.790
        69.000          48.000
         -.82118         -.43518  20841688.535    20841696.679    20841688.712
       241.000         172.000
  -1059845.962 8   -825858.198 8  21229202.862    21229214.081    21229203.262
       208.000         159.000
    605280.394 8    471652.160 7  22231504.462    22231515.815    22231504.754
       107.000          70.000
   2829173.057 7   2204555.080 6  22417328.856    22417337.687    22417329.455
        52.000          25.000
   -270386.383 5   -210689.230 4  24989603.654    24989607.123    24989604.070
         9.000           2.000
 03 10 28  0 24 30.0000000  0 10G27G11G13G 1G31G20G 3G 2G16G28
   -754868.061 6   -588196.071 6  23220326.273    23220339.823    23220326.789
        26.000          16.000
     99365.625 6     77431.941 6  24015426.408    24015439.929    24015426.444
        23.000          17.000
  -2705307.771 7  -2108028.192 7  22455989.073    22455996.885    22455989.020
        71.000          50.000
    -44179.724 8    -34425.185 8  20833281.343    20833289.405    20833281.624
       237.000         185.000
  -1086067.317 8   -846290.661 8  21224213.311    21224224.406    21224213.722
       214.000         165.000
         -.33918         -.13618  21429290.339    21429295.120    21429290.956
       188.000         121.000
    630719.219 8    491474.863 7  22236345.152    22236356.538    22236345.460
       107.000          71.000
   2922733.335 7   2277459.290 6  22435132.753    22435141.632    22435133.402
        51.000          24.000
         -.07916         -.11015  25119455.355    25119460.285    25119455.675
        12.000           4.000
   -360084.400 5   -280583.896 4  24972535.200    24972538.134    24972535.870
         8.000           2.000
 03 10 28  0 25  0.0000000  0 10G27G11G13G 1G31G20G 3G 2G16G28
   -777440.593 6   -605785.112 6  23216030.993    23216044.718    23216031.247
        26.000          16.000
     98066.019 6     76419.371 6  24015178.667    24015192.127    24015178.729
        21.000          16.000
  -2789030.097 7  -2173266.320 7  22440057.059    22440064.965    22440056.784
        74.000          52.000
    -88038.047 8    -68600.364 8  20824935.100    20824943.382    20824935.483
       240.000         184.000
  -1111913.828 8   -866430.909 8  21219294.901    21219305.998    21219295.328
       208.000         153.000
     64796.106 8     50490.481 8  21441621.058    21441625.500    21441621.644
       201.000         123.000
    656602.745 8    511643.987 7  22241270.209    22241282.003    22241270.478
       104.000          71.000
   3016411.269 7   2350455.190 6  22452959.179    22452967.550    22452959.816
        51.000          24.000
    100512.033 6     78321.208 4  25138581.941    25138587.417    25138582.202
        11.000           1.000
   -449551.190 5   -350298.090 4  24955510.582    24955512.572    24955510.904
         8.000           2.000
 03 10 28  0 25 30.0000000  0  9G27G11G13G 1G31G20G 3G 2G28
   -800025.184 6   -623383.140 6  23211733.239    23211747.276    23211733.622
        27.000          18.000
     96547.760 6     75236.410 6  24014889.107    24014902.980    24014888.860
        21.000          16.000
  -2872652.292 7  -2238426.427 7  22424144.077    22424152.081    22424143.460
        75.000          53.000
   -131557.092 8   -102511.997 8  20816654.234    20816662.479    20816654.513
       216.000         160.000
  -1137365.746 8   -886263.354 8  21214451.344    21214462.556    21214451.771
       214.000         159.000
    129918.044 8    101233.748 8  21454013.933    21454019.062    21454014.570
       179.000         104.000
    682948.609 8    532173.348 7  22246283.788    22246295.285    22246284.409
       105.000          69.000
   3110221.499 7   2423554.181 6  22470810.841    22470818.890    22470811.339
        52.000          24.000
   -538768.251 5   -419817.736 4  24938531.983    24938535.105    24938532.553
         9.000           3.000
 03 10 28  0 26  0.0000000  0 10G27G11G13G 1G31G20G 3G 2G16G28
   -822627.404 6   -640995.140 6  23207431.801    23207445.232    23207432.093
        26.000          15.000
     94807.846 6     73880.739 6  24014558.290    24014571.633    24014558.307
        20.000          15.000
  -2956174.938 7  -2303508.969 7  22408250.276    22408258.315    22408249.830
        76.000          52.000
   -174734.689 8   -136156.756 8  20808437.466    20808445.917    20808437.745
       227.000         166.000
  -1162425.585 8   -905790.487 8  21209682.545    21209694.032    21209682.935
       218.000         172.000
    195361.267 8    152227.466 8  21466468.135    21466473.498    21466468.648
       181.000         105.000
    709754.004 8    553060.811 7  22251384.452    22251395.931    22251385.281
       102.000          69.000
   3204157.992 7   2496751.555 6  22488686.208    22488694.404    22488686.626
        53.000          24.000
         -.62915         -.24714  25176791.069    25176795.196    25176790.538
         9.000           1.000
   -627737.140 5   -489144.106 4  24921602.193    24921605.331    24921602.453
         9.000           3.000
 03 10 28  0 26 30.0000000  0  9G27G11G13G 1G31G20G 3G 2G28
   -845269.010 7   -658637.604 6  23203123.257    23203135.548    23203123.281
        32.000          18.000
     92825.091 6     72335.832 6  24014181.215    24014194.367    24014181.669
        24.000          15.000
  -3039617.110 7  -2368528.816 7  22392372.008    22392379.728    22392371.983
        78.000          50.000
   -217587.711 8   -169547.049 8  20800281.758    20800291.625    20800282.130
       248.000         219.000
  -1187112.728 8   -925027.239 8  21204984.831    21204996.283    21204985.193
       217.000         172.000
    261100.428 8    203451.557 8  21478978.881    21478984.147    21478979.505
       176.000         104.000
    736997.204 7    574289.430 7  22256568.436    22256580.058    22256568.778
        99.000          68.000
   3298196.429 7   2570028.361 6  22506581.152    22506589.405    22506581.651
        52.000          25.000
   -716478.422 6   -558293.427 5  24904716.232    24904719.243    24904716.338
        10.000           4.000
 03 10 28  0 27  0.0000000  0 10G27G11G13G 1G31G20G 3G 2G16G28
   -867963.432 6   -676321.710 6  23198804.464    23198816.391    23198805.264
        26.000          10.000
     90588.580 6     70593.189 6  24013755.740    24013768.733    24013755.976
        22.000          12.000
  -3122987.084 7  -2433492.413 7  22376507.294    22376514.887    22376507.027
        81.000          50.000
   -260132.461 8   -202697.870 8  20792185.749    20792193.922    20792186.059
       210.000         164.000
  -1211436.161 8   -943980.603 8  21200356.351    21200367.648    21200356.728
       221.000         173.000
    327125.464 8    254899.804 8  21491542.930    21491548.576    21491543.552
       184.000         106.000
    764667.542 8    595850.872 7  22261833.974    22261845.403    22261834.377
       102.000          68.000
   3392323.337 7   2643374.116 6  22524492.924    22524501.159    22524493.415
        52.000          25.000
         -.31915          .08514  25214921.747    25214925.175    25214922.406
         9.000           1.000
   -805000.316 6   -627271.829 5  24887871.010    24887874.517    24887871.465
        11.000           5.000
 03 10 28  0 27 30.0000000  0  9G27G11G13G 1G31G20G 3G 2G28
   -890697.253 6   -694035.986 6  23194478.216    23194490.322    23194478.842
        28.000          14.000
     88111.108 6     68662.788 6  24013284.095    24013297.332    24013284.121
        20.000          14.000
  -3206269.717 7  -2498387.958 7  22360658.797    22360666.759    22360658.387
        83.000          51.000
   -302352.405 8   -235598.185 8  20784152.726    20784161.424    20784153.052
       199.000         168.000
  -1235381.602 8   -962639.357 8  21195799.677    21195810.881    21195800.108
       222.000         170.000
    393443.060 8    306576.191 8  21504162.729    21504167.988    21504163.334
       185.000         102.000
    792777.469 7    617754.894 7  22267182.856    22267194.417    22267182.728
        99.000          68.000
   3486548.172 7   2716796.171 6  22542423.199    22542431.481    22542423.743
        51.000          24.000
   -893290.613 5   -696070.677 4  24871070.633    24871074.063    24871071.379
         9.000           3.000
 03 10 28  0 28  0.0000000  0  9G27G11G13G 1G31G20G 3G 2G28
   -913452.260 6   -711766.867 6  23190147.877    23190161.491    23190148.175
        28.000          18.000
     85413.312 6     66560.691 6  24012769.913    24012783.558    24012769.314
        20.000          18.000
  -3289442.033 7  -2563197.550 7  22344831.733    22344839.550    22344831.400
        85.000          52.000
   -344218.171 8   -268221.214 8  20776185.877    20776194.559    20776186.190
       213.000         183.000
  -1258926.690 8   -980986.050 8  21191319.077    21191330.245    21191319.508
       221.000         175.000
    460069.818 8    358493.135 8  21516841.093    21516846.229    21516841.636
       179.000         100.000
    821347.533 8    640017.478 7  22272619.523    22272630.899    22272619.448
       100.000          67.000
   3580888.695 7   2790308.368 6  22560375.528    22560383.767    22560376.117
        46.000          24.000
   -981325.942 6   -764670.888 5  24854319.275    24854322.943    24854319.809
        10.000           4.000
 03 10 28  0 28 30.0000000  0 10G27G11G13G 1G31G20G 3G 2G16G28
   -936253.678 6   -729533.847 6  23185808.469    23185821.963    23185808.902
        28.000          18.000
     82471.061 6     64268.092 6  24012210.138    24012223.461    24012209.597
        19.000          15.000
  -3372525.721 7  -2627938.075 7  22329021.757    22329029.082    22329021.726
        87.000          52.000
   -385753.569 8   -300586.561 8  20768281.063    20768289.501    20768281.326
       206.000         152.000
  -1282094.563 8   -999038.962 8  21186910.359    21186921.506    21186910.751
       223.000         179.000
    526978.808 8    410629.902 8  21529573.365    21529578.783    21529573.837
       184.000         105.000
    850353.282 7    662619.540 7  22278138.871    22278150.336    22278139.350
        99.000          69.000
   3675317.679 7   2863889.502 6  22578344.487    22578352.770    22578345.143
        42.000          24.000
        -1.11915                  25271964.162                    25271965.690
         7.000
  -1069128.348 6   -833089.639 4  24837612.211    24837615.783    24837612.848
        10.000           2.000
 03 10 28  0 29  0.0000000  0  9G27G11G13G 1G31G20G 3G 2G28
   -959086.788 6   -747325.697 6  23181463.420    23181475.489    23181464.061
        26.000          14.000
     79300.650 6     61797.782 6  24011607.592    24011619.699    24011607.432
        21.000          13.000
  -3455502.084 7  -2692594.972 7  22313231.671    22313239.210    22313231.534
        86.000          51.000
   -426940.726 8   -332678.482 8  20760441.602    20760449.491    20760441.820
       249.000         229.000
  -1304867.005 8  -1016783.702 8  21182576.953    21182588.094    21182577.382
       216.000         171.000
    594183.251 8    462996.719 7  21542362.450    21542367.904    21542363.037
       179.000          96.000
    879810.688 7    685573.543 7  22283744.273    22283755.720    22283744.193
        98.000          67.000
   3769848.667 7   2937550.116 6  22596332.871    22596341.318    22596333.445
        38.000          24.000
  -1156679.524 5   -901312.216 5  24820951.010    24820956.789    24820951.569
         8.000           4.000
 03 10 28  0 29 30.0000000  0 10G27G11G13G 1G31G20G 3G 2G16G28
   -981917.057 6   -765115.486 6  23177119.092    23177131.353    23177119.725
        28.000          15.000
     75937.969 6     59177.597 6  24010967.140    24010979.844    24010966.855
        21.000          14.000
  -3538332.872 7  -2757138.438 7  22297469.282    22297477.090    22297468.629
        86.000          53.000
   -467746.566 8   -364475.326 8  20752676.892    20752684.781    20752677.203
       245.000         212.000
  -1327206.923 8  -1034191.562 8  21178325.950    21178337.074    21178326.409
       216.000         174.000
    661716.740 8    515620.338 8  21555213.691    21555218.739    21555214.214
       198.000         107.000
    909755.480 8    708907.340 7  22289442.789    22289453.749    22289443.359
       103.000          67.000
   3864514.797 7   3011316.025 6  22614347.163    22614355.684    22614347.581
        36.000          25.000
         -.80415                  25309902.744                    25309902.539
         6.000
  -1243943.153 6   -969310.865 5  24804347.009    24804351.438    24804347.076
        10.000           4.000
 03 10 28  0 30  0.0000000  0  9G27G11G13G 1G31G20G 3G 2G28
  -1004809.465 6   -782953.418 6  23172762.502    23172774.793    23172763.102
        30.000          18.000
     72318.340 6     56357.200 6  24010277.374    24010291.019    24010277.380
        17.000          12.000
  -3621080.390 7  -2821617.014 7  22281723.025    22281730.742    22281722.733
        88.000          56.000
   -508232.110 8   -396023.501 8  20744973.388    20744980.876    20744973.751
       230.000         156.000
  -1349177.138 8  -1051311.271 8  21174145.053    21174156.411    21174145.414
       212.000         171.000
    729509.093 8    568444.988 7  21568114.315    21568119.627    21568114.876
       187.000          98.000
    940122.625 8    732570.242 7  22295221.164    22295232.225    22295221.419
       102.000          68.000
   3959248.339 7   3085134.463 6  22632374.100    22632382.860    22632374.460
        35.000          26.000
  -1330982.526 6  -1037134.913 4  24787785.104    24787789.293    24787784.941
        11.000           2.000
 03 10 28  0 30 30.0000000  0  9G27G11G13G 1G31G20G 3G 2G28
  -1027794.863 6   -800864.081 6  23168388.393    23168400.715    23168388.867
        28.000          14.000
     68413.403 6     53314.414 6  24009535.000    24009548.205    24009534.904
        20.000          14.000
  -3703770.625 7  -2886050.935 7  22265987.742    22265995.250    22265987.727
        91.000          59.000
   -548420.074 8   -427339.091 8  20737326.264    20737334.081    20737326.645
       220.000         136.000
  -1370804.527 8  -1068163.771 8  21170029.511    21170040.745    21170029.938
       211.000         172.000
    797530.485 8    621448.250 7  21581058.535    21581064.465    21581059.150
       162.000          83.000
    970883.579 8    756540.017 7  22301074.505    22301085.723    22301074.799
       101.000          69.000
   4054017.972 7   3158981.021 6  22650408.050    22650416.827    22650408.351
        35.000          27.000
  -1417822.576 6  -1104802.720 4  24771259.936    24771264.154    24771260.239
        11.000           3.000
 03 10 28  0 31  0.0000000  0  9G27G11G13G 1G31G20G 3G 2G28
  -1050818.771 6   -818804.505 6  23164007.254    23164019.380    23164007.748
        30.000          17.000
     64277.841 6     50091.949 6  24008748.468    24008761.487    24008748.245
        21.000          14.000
  -3786346.301 7  -2950395.590 7  22250273.979    22250281.805    22250273.619
        93.000          61.000
   -588251.195 8   -458373.997 8  20729745.529    20729753.406    20729745.781
       267.000         265.000
  -1392032.935 8  -1084705.229 8  21165989.731    21166000.956    21165990.142
       207.000         172.000
    865832.988 8    674671.044 7  21594056.241    21594061.486    21594056.750
       185.000          94.000
   1002092.446 8    780858.803 7  22307013.314    22307024.489    22307014.000
       101.000          67.000
   4148875.410 7   3232896.005 6  22668458.781    22668467.362    22668459.127
        35.000          26.000
  -1504409.453 6  -1172273.332 5  24754783.404    24754788.600    24754783.666
        10.000           4.000
 03 10 28  0 31 30.0000000  0 10G27G11G13G 1G31G20G 3G 2G 8G28
  -1073908.334 6   -836795.960 6  23159612.854    23159622.739    23159613.656
        30.000          14.000
     59885.874 6     46669.700 6  24007912.186    24007925.446    24007912.626
        19.000          14.000
  -3868830.876 7  -3014669.266 7  22234577.672    22234585.622    22234577.178
        96.000          62.000
   -627756.810 8   -489158.304 8  20722228.263    20722236.200    20722228.509
       226.000         187.000
  -1412886.772 8  -1100954.752 8  21162021.124    21162032.376    21162021.515
       206.000         173.000
    934386.807 8    728089.795 7  21607101.282    21607106.633    21607101.849
       177.000          88.000
   1033723.113 8    805506.264 7  22313032.248    22313043.286    22313032.467
       102.000          66.000
   4243791.862 7   3306856.971 6  22686520.735    22686529.042    22686521.359
        37.000          26.000
         -.79216                  25132867.278                    25132867.961
        11.000
  -1590766.984 6  -1239565.202 5  24738350.374    24738355.365    24738350.516
        10.000           4.000
 03 10 28  0 32  0.0000000  0  9G27G11G13G 1G31G20G 3G 2G28
  -1097080.629 6   -854852.045 6  23155202.985    23155215.290    23155203.711
        27.000          15.000
     55222.779 6     43036.167 6  24007024.275    24007037.945    24007024.677
        18.000          16.000
  -3951237.128 7  -3078881.897 7  22218896.270    22218903.981    22218896.144
        93.000          61.000
   -666943.795 8   -519693.177 8  20714770.906    20714778.885    20714771.236
       218.000         162.000
  -1433379.796 8  -1116923.089 8  21158121.163    21158132.456    21158121.564
       206.000         172.000
   1003174.340 8    781690.178 7  21620190.796    21620196.018    21620191.353
       177.000          81.000
   1065760.373 8    830470.540 7  22319128.560    22319139.498    22319129.067
       103.000          66.000
   4338749.495 7   3380850.025 6  22704590.727    22704598.964    22704591.212
        41.000          25.000
  -1676909.517 6  -1306689.799 5  24721957.584    24721963.817    24721958.147
        11.000           4.000
 03 10 28  0 32 30.0000000  0 10G27G11G13G 1G31G20G 3G 2G 8G28
  -1120297.816 6   -872943.084 6  23150784.718    23150797.172    23150785.274
        29.000          20.000
     50326.903 6     39221.269 6  24006092.945    24006106.202    24006092.820
        20.000          17.000
  -4033523.988 7  -3143001.479 7  22203237.521    22203244.972    22203237.286
        88.000          57.000
   -705774.638 8   -549951.103 8  20707381.776    20707389.556    20707382.055
       217.000         181.000
  -1453472.130 8  -1132579.223 8  21154297.573    21154308.722    21154298.013
       204.000         170.000
   1072230.241 8    835500.572 7  21633331.245    21633336.560    21633331.848
       177.000          90.000
   1098242.264 8    855781.296 7  22325309.421    22325320.425    22325310.036
       101.000          66.000
   4433783.985 7   3454902.976 6  22722675.281    22722683.533    22722675.884
        45.000          25.000
          .01716                  25126059.827                    25126060.289
        11.000
  -1762796.795 6  -1373615.365 5  24705615.152    24705620.607    24705615.520
        12.000           6.000
 03 10 28  0 33  0.0000000  0  9G27G11G13G 1G31G20G 3G 2G28
  -1143549.320 6   -891061.055 6  23146359.789    23146371.210    23146359.924
        28.000          14.000
     45210.849 6     35234.773 6  24005119.831    24005132.632    24005120.048
        22.000          15.000
  -4115676.925 7  -3207016.708 7  22187604.164    22187611.720    22187603.773
        85.000          58.000
   -744232.462 8   -579918.753 8  20700063.338    20700070.862    20700063.621
       269.000         214.000
  -1473150.107 8  -1147912.492 8  21150552.802    21150563.886    21150553.231
       204.000         169.000
   1141562.852 8    889526.482 7  21646524.014    21646529.232    21646524.543
       173.000          85.000
   1131180.523 8    881447.657 7  22331577.309    22331588.282    22331578.090
       100.000          67.000
   4528904.818 7   3529023.210 6  22740775.976    22740784.352    22740776.773
        46.000          24.000
  -1848415.850 6  -1440332.345 5  24689322.556    24689329.190    24689322.731
        11.000           5.000
 03 10 28  0 33 30.0000000  0  9G27G11G13G 1G31G20G 3G 2G28
  -1166835.996 6   -909206.332 6  23141928.608    23141941.314    23141928.707
        29.000          18.000
     39874.583 6     31076.717 6  24004104.272    24004117.227    24004104.287
        20.000          16.000
  -4197693.579 7  -3270925.732 7  22171996.881    22172004.732    22171996.453
        85.000          62.000
   -782317.981 8   -609595.784 8  20692815.926    20692823.131    20692816.205
       210.000         158.000
  -1492412.553 8  -1162921.981 8  21146887.279    21146898.197    21146887.654
       210.000         169.000
   1211169.095 8    943765.569 8  21659769.682    21659774.577    21659770.180
       199.000         101.000
   1164574.330 7    907468.990 7  22337931.745    22337942.845    22337932.087
        99.000          67.000
   4624108.636 7   3603208.100 6  22758892.683    22758900.997    22758893.102
        46.000          22.000
  -1933766.639 6  -1506841.147 5  24673082.125    24673088.989    24673081.994
        10.000           5.000
 03 10 28  0 34  0.0000000  0  9G27G11G13G 1G31G20G 3G 2G28
  -1190188.455 6   -927402.976 6  23137484.514    23137496.421    23137484.289
        27.000          17.000
     34288.940 6     26724.305 6  24003040.459    24003054.073    24003040.747
        15.000          12.000
  -4279600.400 7  -3334749.158 7  22156410.608    22156418.596    22156410.455
        86.000          67.000
   -820055.592 8   -639001.157 8  20685634.157    20685641.496    20685634.460
       280.000         227.000
  -1511287.071 8  -1177629.194 8  21143295.431    21143306.254    21143295.853
       208.000         168.000
   1281015.403 8    998191.051 7  21673061.132    21673066.379    21673061.759
       173.000          86.000
   1198394.465 8    933822.511 7  22344367.438    22344378.257    22344367.534
       100.000          65.000
   4719363.675 7   3677432.898 6  22777018.628    22777027.058    22777019.142
        45.000          21.000
  -2018875.242 6  -1573161.227 5  24656888.031    24656894.646    24656888.337
        11.000           4.000
 03 10 28  0 34 30.0000000  0  9G27G11G13G 1G31G20G 3G 2G28
  -1213585.974 6   -945634.728 6  23133032.050    23133045.116    23133032.028
        27.000          20.000
     28476.130 6     22194.928 6  24001934.298    24001948.163    24001934.510
        15.000          13.000
  -4361373.368 7  -3398468.275 7  22140849.744    22140857.467    22140849.601
        90.000          67.000
   -857423.400 8   -668118.398 8  20678522.958    20678530.092    20678523.256
       248.000         196.000
  -1529750.759 8  -1192016.279 8  21139781.714    21139792.410    21139782.134
       209.000         166.000
   1351120.729 8   1052817.986 7  21686401.766    21686407.384    21686402.298
       176.000          89.000
   1232662.102 8    960524.726 7  22350888.392    22350898.967    22350887.856
       102.000          63.000
   4814688.841 7   3751712.347 6  22795158.377    22795166.611    22795158.752
        43.000          18.000
  -2103719.267 6  -1639275.418 5  24640744.178    24640751.402    24640745.060
        11.000           4.000
 03 10 28  0 35  0.0000000  0 10G27G11G13G 1G31G20G 3G 2G 8G28
  -1237024.922 6   -963898.696 6  23128571.829    23128584.700    23128571.992
        28.000          20.000
     22440.781 6     17492.147 6  24000785.948    24000799.277    24000786.275
        19.000          17.000
  -4443005.408 7  -3462077.575 7  22125315.449    22125323.107    22125315.067
        91.000          64.000
   -894415.767 8   -696944.842 8  20671484.425    20671493.961    20671484.739
       275.000         192.000
  -1547797.444 8  -1206078.433 8  21136347.440    21136358.078    21136347.885
       210.000         166.000
   1421487.223 8   1107648.405 7  21699792.994    21699797.851    21699793.616
       175.000          81.000
   1267381.477 7    987578.959 7  22357494.984    22357505.875    22357495.337
        96.000          65.000
   4910086.006 7   3826047.891 6  22813311.958    22813319.990    22813312.513
        40.000          16.000
         -.36915                  25109022.130                    25109024.611
         9.000
  -2188289.876 6  -1705175.541 5  24624652.477    24624658.295    24624652.807
        12.000           4.000
 03 10 28  0 35 30.0000000  0  9G27G11G13G 1G31G20G 3G 2G28
  -1260531.540 6   -982215.580 6  23124098.665    23124111.756    23124099.011
        30.000          23.000
     16158.534 6     12597.015 6  23999590.187    23999603.392    23999590.164
        20.000          14.000
  -4524518.514 7  -3525594.206 7  22109803.914    22109811.582    22109803.689
        92.000          64.000
   -931052.132 8   -725492.686 8  20664512.404    20664519.586    20664512.676
       247.000         169.000
  -1565450.436 8  -1219833.822 8  21132988.114    21132998.647    21132988.559
       218.000         165.000
   1492087.443 8   1162661.046 7  21713227.952    21713233.514    21713228.454
       150.000          64.000
   1302527.537 7   1014965.663 7  22364182.904    22364193.900    22364182.755
        99.000          67.000
   5005527.780 7   3900418.202 6  22831473.754    22831482.015    22831474.241
        38.000          15.000
  -2272613.389 6  -1770883.562 4  24608605.845    24608613.091    24608606.184
        10.000           3.000
 03 10 28  0 36  0.0000000  0  9G27G11G13G 1G31G20G 3G 2G28
  -1284096.363 6  -1000577.721 6  23119614.181    23119627.561    23119614.818
        28.000          21.000
      9639.540 6      7517.425 6  23998350.399    23998363.303    23998350.253
        23.000          17.000
  -4605900.095 7  -3589008.344 7  22094317.638    22094325.264    22094317.532
        94.000          63.000
   -967322.328 8   -753756.099 8  20657610.740    20657618.542    20657611.033
       215.000         203.000
  -1582698.314 8  -1233273.546 8  21129705.864    21129716.267    21129706.251
       219.000         164.000
   1562928.329 8   1217861.353 7  21726708.748    21726714.557    21726709.369
       186.000          95.000
   1338109.756 7   1042692.239 7  22370953.964    22370964.689    22370953.153
        98.000          65.000
   5101021.407 7   3974828.912 6  22849645.458    22849653.707    22849645.873
        34.000          15.000
  -2356675.856 6  -1836387.332 4  24592610.105    24592617.345    24592610.350
        11.000           3.000
 03 10 28  0 36 30.0000000  0  9G27G11G13G 1G31G20G 3G 2G28
  -1307710.599 6  -1018978.416 6  23115120.630    23115133.994    23115121.293
        31.000          26.000
      2894.153 6      2261.372 6  23997066.912    23997079.688    23997066.772
        24.000          20.000
  -4687137.523 7  -3652310.154 7  22078858.546    22078866.159    22078858.220
        98.000          61.000
  -1003213.887 8   -781724.165 8  20650781.297    20650788.737    20650781.623
       258.000         191.000
  -1599529.705 8  -1246388.738 8  21126502.702    21126513.030    21126503.155
       216.000         163.000
   1634015.653 8   1273253.342 7  21740236.973    21740242.472    21740237.516
       173.000          81.000
   1374137.950 7   1070766.314 7  22377809.757    22377820.348    22377809.983
        95.000          62.000
   5196574.218 7   4049285.742 6  22867828.517    22867836.599    22867829.087
        32.000          15.000
  -2440465.413 6  -1901677.335 4  24576665.685    24576671.774    24576666.009
        11.000           3.000
 03 10 28  0 37  0.0000000  0  9G27G11G13G 1G31G20G 3G 2G28
  -1331351.753 6  -1037400.130 6  23110622.148    23110634.802    23110622.966
        27.000          19.000
     -4053.514 6     -3152.305 6  23995744.695    23995757.880    23995744.353
        18.000          17.000
  -4768204.358 8  -3715479.022 7  22063432.014    22063439.564    22063431.612
       101.000          61.000
  -1038698.089 8   -809373.122 8  20644028.386    20644036.064    20644028.709
       265.000         251.000
  -1615919.444 8  -1259159.760 8  21123383.598    21123393.978    21123384.015
       208.000         162.000
   1705371.291 8   1328854.667 7  21753815.582    21753821.821    21753816.195
       161.000          82.000
   1410635.353 7   1099206.029 7  22384755.090    22384765.294    22384756.026
        91.000          61.000
   5292207.280 6   4123805.119 6  22886027.073    22886034.777    22886027.685
        31.000          15.000
  -2523957.108 6  -1966734.316 5  24560775.507    24560783.781    24560776.479
        10.000           5.000
 03 10 28  0 37 30.0000000  0  9G27G11G13G 1G31G20G 3G 2G28
  -1355055.604 6  -1055870.724 6  23106111.478    23106124.607    23106111.982
        30.000          26.000
    -11238.301 6     -8750.837 6  23994377.415    23994390.505    23994377.170
        19.000          17.000
  -4849133.303 8  -3778540.514 7  22048031.902    22048039.313    22048031.764
       107.000          65.000
  -1073813.436 8   -836737.564 8  20637347.229    20637354.632    20637347.693
       195.000         164.000
  -1631901.378 8  -1271613.089 8  21120342.287    21120352.728    21120342.685
       211.000         168.000
   1776956.431 8   1384634.751 7  21767438.844    21767444.539    21767439.472
       164.000          78.000
   1447566.091 7   1127983.329 7  22391782.480    22391792.976    22391784.034
        88.000          63.000
   5387882.882 7   4198357.575 6  22904233.636    22904241.073    22904234.162
        32.000          16.000
  -2607188.628 6  -2031589.424 5  24544937.015    24544943.166    24544937.270
        11.000           4.000
 03 10 28  0 38  0.0000000  0  9G27G11G13G 1G31G20G 3G 2G28
  -1378819.664 6  -1074388.129 6  23101588.924    23101602.196    23101589.610
        27.000          20.000
    -18656.207 6    -14530.975 6  23992966.039    23992978.799    23992965.848
        22.000          15.000
  -4929917.842 8  -3841489.444 7  22032659.029    22032666.415    22032658.725
       108.000          68.000
  -1108549.084 8   -863805.427 8  20630737.256    20630744.922    20630737.672
       259.000         244.000
  -1647470.484 8  -1283744.699 8  21117379.522    21117389.966    21117380.042
       208.000         170.000
   1848771.652 8   1440594.343 7  21781104.891    21781110.216    21781105.445
       170.000          76.000
   1484933.428 7   1157100.885 7  22398893.055    22398903.605    22398894.167
        88.000          64.000
   5483601.827 7   4272943.851 6  22922448.298    22922455.847    22922448.888
        32.000          16.000
  -2690153.997 6  -2096237.618 5  24529149.201    24529155.652    24529149.533
        11.000           4.000
 03 10 28  0 38 30.0000000  0  9G27G11G13G 1G31G20G 3G 2G28
  -1402633.035 6  -1092943.741 6  23097057.628    23097070.366    23097058.144
        31.000          25.000
    -26295.723 6    -20483.807 6  23991512.268    23991524.771    23991512.421
        26.000          18.000
  -5010544.061 8  -3904315.014 7  22017316.241    22017323.621    22017315.929
       113.000          70.000
  -1142894.442 8   -890568.982 8  20624202.291    20624210.400    20624202.691
       255.000         216.000
  -1662613.915 8  -1295544.620 8  21114497.676    21114508.091    21114498.180
       205.000         170.000
   1920825.818 8   1496740.347 7  21794815.971    21794822.058    21794816.675
       157.000          78.000
   1522748.441 7   1186567.271 7  22406089.206    22406099.477    22406090.950
        86.000          64.000
   5579372.890 7   4347570.748 6  22940672.642    22940680.653    22940673.397
        32.000          17.000
  -2772841.154 6  -2160669.968 4  24513415.456    24513420.809    24513415.924
        11.000           3.000
 03 10 28  0 39  0.0000000  0 10G27G11G13G 1G31G20G 3G 2G 8G28
  -1426524.783 6  -1111560.410 6  23092510.870    23092523.774    23092511.302
        30.000          24.000
    -34183.843 6    -26630.358 6  23990011.080    23990023.168    23990011.054
        24.000          13.000
  -5091037.093 8  -3967036.804 7  22001999.086    22002006.335    22001998.851
       118.000          74.000
  -1176873.327 8   -917046.133 8  20617736.323    20617744.434    20617736.698
       228.000         210.000
  -1677358.122 8  -1307033.458 8  21111691.742    21111702.208    21111692.287
       204.000         172.000
   1993087.075 8   1553047.538 7  21808567.684    21808573.815    21808568.339
       158.000          76.000
   1560982.537 7   1216360.215 7  22413364.297    22413374.942    22413365.158
        82.000          63.000
   5675165.642 6   4422214.546 6  22958901.335    22958909.388    22958902.234
        31.000          17.000
         -.25115                  25081580.992                    25081581.543
         7.000
  -2855274.457 6  -2224904.429 5  24497728.011    24497735.861    24497729.313
        12.000           5.000
 03 10 28  0 39 30.0000000  0  9G27G11G13G 1G31G20G 3G 2G28
  -1450464.261 6  -1130214.402 6  23087955.140    23087968.188    23087955.503
        29.000          24.000
    -42288.327 6    -32945.480 6  23988468.627    23988480.881    23988468.924
        24.000          15.000
  -5171362.612 8  -4029628.064 7  21986713.660    21986720.993    21986713.551
       119.000          77.000
  -1210450.696 8   -943210.072 8  20611346.814    20611354.730    20611347.186
       252.000         234.000
  -1691669.885 8  -1318185.334 8  21108968.246    21108978.698    21108968.740
       205.000         174.000
   2065584.463 8   1609538.761 7  21822363.208    21822369.534    21822363.882
       163.000          85.000
   1599667.498 7   1246504.491 7  22420725.601    22420736.182    22420726.228
        80.000          62.000
   5771009.466 6   4496898.141 6  22977139.673    22977147.753    22977140.167
        28.000          16.000
  -2937424.691 6  -2288919.996 5  24482098.347    24482105.279    24482098.958
        12.000           4.000
 03 10 28  0 40  0.0000000  0  9G31G27G11G13G 1G20G 3G 2G28
  -1705596.249 8  -1329036.901 8  21106318.118    21106328.443    21106318.626
       208.000         174.000
  -1474500.262 6  -1148943.481 6  23083381.205    23083394.060    23083381.036
        29.000          25.000
    -50657.330 6    -39466.729 6  23986876.444    23986888.273    23986876.931
        22.000          13.000
  -5251566.192 8  -4092124.306 7  21971451.144    21971458.707    21971450.962
       118.000          77.000
  -1243673.512 8   -969097.174 8  20605023.838    20605031.656    20605024.147
       254.000         250.000
   2138266.298 8   1666173.604 7  21836194.314    21836200.168    21836194.963
       153.000          71.000
   1638754.249 7   1276961.847 7  22428163.777    22428174.176    22428163.134
        84.000          64.000
   5866853.374 6   4571581.800 6  22995377.711    22995386.218    22995378.233
        25.000          15.000
  -3019334.004 6  -2352747.224 5  24466512.753    24466520.000    24466513.412
        13.000           6.000
 03 10 28  0 40 30.0000000  0 10G31G27G11G13G 1G20G 3G 2G 8G28
  -1719110.122 8  -1339567.044 8  21103746.389    21103756.724    21103746.904
       211.000         175.000
  -1498608.538 6  -1167728.995 6  23078792.988    23078806.249    23078792.869
        29.000          26.000
    -59264.009 6    -46173.179 6  23985238.053    23985250.789    23985238.430
        22.000          16.000
  -5331618.964 8  -4154503.044 7  21956217.642    21956225.021    21956217.322
       124.000          78.000
  -1276515.738 8   -994689.258 8  20598774.032    20598781.961    20598774.369
       219.000         112.000
   2211155.311 8   1722969.842 7  21850065.215    21850071.474    21850065.746
       144.000          66.000
   1678268.077 7   1307752.000 7  22435682.980    22435693.489    22435683.656
        86.000          66.000
   5962720.790 6   4646283.790 6  23013620.776    23013628.843    23013621.576
        24.000          14.000
         -.99715                  25071191.511                    25071192.906
         7.000
  -3100975.074 6  -2416364.768 5  24450977.557    24450984.964    24450977.617
        12.000           4.000
 03 10 28  0 41  0.0000000  0  8G31G27G11G13G 1G20G 3G 2
  -1732193.729 8  -1349761.935 8  21101256.602    21101266.774    21101257.001
       210.000         171.000
  -1522773.215 6  -1186558.502 6  23074194.417    23074207.857    23074194.811
        28.000          24.000
    -68091.875 6    -53051.999 6  23983557.795    23983570.464    23983557.865
        20.000          16.000
  -5411502.054 8  -4216749.574 7  21941016.579    21941023.728    21941016.587
       125.000          80.000
  -1308956.882 8  -1019968.570 8  20592600.474    20592607.942    20592600.833
       300.000         263.000
   2284265.956 8   1779939.195 7  21863977.029    21863984.239    21863977.651
       136.000          73.000
   1718224.804 7   1338887.266 7  22443286.107    22443296.846    22443287.213
        84.000          67.000
   6058625.561 6   4721014.879 6  23031870.873    23031878.676    23031871.121
        22.000          14.000
 03 10 28  0 41 30.0000000  0  8G31G27G11G13G 1G20G 3G 2
  -1744872.299 8  -1359641.219 8  21098843.819    21098853.927    21098844.341
       211.000         174.000
  -1547021.320 6  -1205452.781 6  23069579.974    23069593.092    23069579.903
        28.000          24.000
    -77166.930 6    -60123.449 6  23981831.274    23981843.405    23981831.755
        22.000          14.000
  -5491239.473 8  -4278882.594 7  21925842.952    21925850.091    21925842.840
       125.000          82.000
  -1341022.070 8  -1044953.771 8  20586497.900    20586505.982    20586498.328
       236.000         207.000
   2357568.060 8   1837057.948 7  21877926.378    21877932.066    21877927.011
       147.000          69.000
   1758597.441 7   1370346.601 7  22450968.694    22450979.228    22450969.495
        85.000          65.000
   6154538.649 6   4795752.445 6  23050122.085    23050130.670    23050122.814
        23.000          14.000
 03 10 28  0 42  0.0000000  0  8G31G27G11G13G 1G20G 3G 2
  -1757116.047 8  -1369181.668 8  21096513.671    21096523.953    21096514.187
       207.000         176.000
  -1571325.550 6  -1224390.786 6  23064954.942    23064967.967    23064955.321
        27.000          24.000
    -86459.979 6    -67364.725 6  23980062.941    23980075.108    23980063.175
        23.000          16.000
  -5570799.718 8  -4340877.566 7  21910702.931    21910710.219    21910702.585
       124.000          81.000
  -1372681.381 8  -1069623.894 8  20580473.637    20580480.936    20580474.008
       257.000         216.000
   2431086.527 8   1894345.233 7  21891916.421    21891922.307    21891917.143
       133.000          62.000
   1799413.949 7   1402151.815 7  22458736.038    22458746.228    22458736.216
        86.000          65.000
   6250485.911 6   4870516.649 6  23068380.564    23068388.831    23068381.046
        23.000          13.000
 03 10 28  0 42 30.0000000  0  9G31G27G11G13G 1G20G 3G 2G 8
  -1768920.800 8  -1378380.039 8  21094267.209    21094277.484    21094267.658
       209.000         179.000
  -1595684.127 6  -1243371.224 6  23060319.558    23060332.462    23060320.003
        27.000          25.000
    -95967.707 6    -74773.307 6  23978253.212    23978266.071    23978253.687
        20.000          12.000
  -5650176.746 8  -4402729.766 7  21895598.159    21895605.231    21895597.921
       122.000          81.000
  -1403929.345 8  -1093972.885 8  20574526.808    20574534.126    20574527.188
       234.000         208.000
   2504821.324 8   1951800.965 7  21905947.079    21905954.113    21905947.675
       153.000          88.000
   1840676.558 7   1434304.659 7  22466587.860    22466598.051    22466588.465
        85.000          66.000
   6346467.806 6   4945307.857 6  23086645.346    23086653.417    23086646.158
        25.000          14.000
         -.51915                  25057223.163                    25057223.210
         7.000
 03 10 28  0 43  0.0000000  0  8G31G27G11G13G 1G20G 3G 2
  -1780262.654 8  -1387217.715 8  21092108.918    21092118.985    21092109.397
       216.000         178.000
  -1620074.829 6  -1262376.618 6  23055677.944    23055690.836    23055678.460
        28.000          25.000
   -105666.868 6    -82331.036 6  23976407.404    23976420.214    23976407.932
        22.000          14.000
  -5729345.960 8  -4464420.023 7  21880532.806    21880539.782    21880532.692
       119.000          82.000
  -1434741.041 8  -1117981.732 8  20568663.555    20568670.657    20568663.862
       271.000         242.000
   2578792.018 8   2009440.578 7  21920023.754    21920029.754    21920024.276
       122.000          55.000
   1882407.231 7   1466822.232 7  22474528.796    22474538.935    22474529.080
        85.000          64.000
   6442504.476 6   5020141.744 6  23104920.169    23104928.263    23104920.822
        27.000          16.000
 03 10 28  0 43 30.0000000  0  9G31G27G11G13G 1G20G 3G 2G28
  -1791186.539 8  -1395729.695 8  21090030.121    21090040.090    21090030.618
       218.000         178.000
  -1644544.853 6  -1281443.793 6  23051021.210    23051033.973    23051021.480
        27.000          25.000
   -115603.225 6    -90073.568 6  23974516.394    23974529.520    23974516.472
        21.000          12.000
  -5808350.573 8  -4525982.014 7  21865498.349    21865505.611    21865498.055
       118.000          84.000
  -1465161.302 8  -1141685.850 8  20562874.724    20562882.016    20562874.961
       258.000         242.000
   2652949.318 8   2067225.649 7  21934134.739    21934141.020    21934135.300
       142.000          76.000
   1924559.150 7   1499668.045 7  22482549.814    22482560.095    22482550.019
        85.000          63.000
   6538547.375 6   5094980.491 6  23123196.587    23123204.175    23123197.365
        30.000          17.000
         -.67916         -.07914  24358898.640    24358905.951    24358898.304
        13.000           3.000
 03 10 28  0 44  0.0000000  0  9G31G27G11G13G 1G20G 3G 2G28
  -1801656.194 8  -1403887.736 8  21088037.627    21088047.700    21088038.118
       214.000         177.000
  -1669059.704 6  -1300545.801 6  23046355.681    23046368.129    23046356.161
        29.000          27.000
   -125741.232 6    -97973.222 6  23972587.156    23972600.205    23972587.443
        21.000          13.000
  -5887152.489 8  -4587386.066 7  21850502.687    21850510.048    21850502.425
       117.000          84.000
  -1495152.022 8  -1165055.279 8  20557167.537    20557174.938    20557167.922
       279.000         282.000
   2727325.303 8   2125181.050 7  21948287.915    21948294.547    21948288.446
       125.000          65.000
   1967166.647 7   1532868.849 7  22490657.396    22490667.930    22490657.822
        83.000          62.000
   6634629.090 7   5169849.472 6  23141480.668    23141488.115    23141481.168
        32.000          17.000
    -79612.464 6    -62035.685 5  24343748.616    24343756.156    24343748.783
        15.000           5.000
 03 10 28  0 44 30.0000000  0  9G27G11G13G 1G31G20G 3G 2G 8
  -1693654.522 6  -1319710.127 6  23041675.171    23041687.500    23041675.431
        28.000          27.000
   -136114.106 6   -106055.898 6  23970613.269    23970626.026    23970613.642
        20.000          13.000
  -5965783.181 8  -4648656.702 7  21835540.042    21835547.126    21835539.858
       121.000          86.000
  -1524746.234 8  -1188116.229 8  20551536.612    20551543.901    20551536.867
       244.000         211.000
  -1811704.426 8  -1411717.399 8  21086125.351    21086135.481    21086125.797
       214.000         177.000
   2801883.013 8   2183278.227 7  21962476.158    21962482.298    21962476.764
       139.000          71.000
   2010195.031 7   1566397.621 7  22498845.518    22498855.591    22498846.310
        86.000          58.000
   6730713.153 7   5244720.294 6  23159764.781    23159772.239    23159765.627
        33.000          19.000
         -.67115                  25043159.266                    25043160.717
         8.000
 03 10 28  0 45  0.0000000  0  8G31G27G11G13G20G 3G 1G 2
  -1821315.624 8  -1419206.523 8  21084296.468    21084306.362    21084296.976
       217.000         177.000
  -1718315.636 6  -1338926.142 6  23036982.020    23036994.187    23036982.600
        29.000          28.000
   -146706.941 6   -114309.971 6  23968597.548    23968610.263    23968597.069
        22.000          14.000
  -6044225.322 8  -4709780.415 7  21820612.945    21820620.052    21820612.831
       119.000          86.000
   2876633.476 8   2241525.482 7  21976700.022    21976706.178    21976700.666
       125.000          60.000
   2053658.432 7   1600265.356 7  22507116.606    22507126.232    22507117.067
        89.000          57.000
  -1553925.529 8  -1210854.187 8  20545983.834    20545991.372    20545984.188
       247.000         220.000
   6826811.555 7   5319602.289 6  23178051.281    23178059.156    23178051.877
        33.000          19.000
 03 10 28  0 45 30.0000000  0  8G31G27G11G13G 1G20G 3G 2
  -1830466.531 8  -1426336.980 8  21082555.045    21082564.967    21082555.581
       219.000         178.000
  -1743022.047 6  -1358177.547 6  23032280.448    23032292.485    23032280.858
        28.000          27.000
   -157496.912 6   -122717.652 6  23966544.503    23966556.984    23966545.109
        22.000          14.000
  -6122453.969 8  -4770737.758 7  21805726.069    21805733.547    21805725.596
       112.000          85.000
  -1582667.195 8  -1233250.715 8  20540514.721    20540521.965    20540515.121
       260.000         245.000
   2951595.593 8   2299937.602 7  21990964.882    21990971.221    21990965.600
       130.000          69.000
   2097577.865 7   1634488.444 7  22515473.898    22515483.808    22515474.300
        86.000          56.000
   6922944.106 7   5394510.893 6  23196344.335    23196352.114    23196344.927
        33.000          19.000
 03 10 28  0 46  0.0000000  0  9G31G27G11G13G 1G20G 3G 2G 8
  -1839168.541 8  -1433117.648 8  21080898.909    21080909.033    21080899.395
       217.000         179.000
  -1767786.548 6  -1377474.217 6  23027567.801    23027579.336    23027568.177
        28.000          27.000
   -168495.856 6   -131288.172 6  23964451.382    23964464.198    23964451.386
        22.000          15.000
  -6200479.040 8  -4831536.465 7  21790878.378    21790885.619    21790878.028
       115.000          83.000
  -1610981.473 8  -1255314.135 8  20535126.815    20535134.387    20535127.120
       270.000         256.000
   3026753.769 8   2358502.346 7  22005267.538    22005273.835    22005268.047
       126.000          62.000
   2141940.419 7   1669056.826 7  22523915.625    22523925.508    22523915.690
        85.000          54.000
   7019095.828 7   5469434.436 6  23214641.369    23214649.011    23214641.868
        33.000          18.000
        -1.04515                  25032527.923                    25032528.251
         8.000
 03 10 28  0 46 30.0000000  0  9G27G11G13G 1G31G20G 3G 2G28
  -1792680.538 6  -1396871.773 6  23022829.998    23022842.111    23022830.444
        28.000          28.000
   -179773.886 6   -140076.156 6  23962304.936    23962317.851    23962304.958
        21.000          14.000
  -6278368.201 8  -4892229.246 7  21776056.751    21776063.784    21776056.563
       122.000          84.000
  -1638936.569 8  -1277097.628 8  20529807.360    20529815.054    20529807.590
       253.000         235.000
  -1847490.932 8  -1439602.507 8  21079315.053    21079325.174    21079315.492
       218.000         179.000
   3102035.331 8   2417163.494 7  22019592.498    22019598.695    22019593.056
       130.000          70.000
   2186674.715 7   1703914.869 7  22532428.184    22532437.876    22532428.422
        85.000          52.000
   7115193.731 7   5544316.041 6  23232928.300    23232935.757    23232928.976
        33.000          16.000
         -.08616          .27715  24268823.768    24268831.809    24268824.250
        14.000           6.000
 03 10 28  0 47  0.0000000  0 10G27G11G13G 1G31G20G 3G 2G 8G28
  -1817658.246 6  -1416334.589 6  23018076.903    23018088.753    23018077.090
        27.000          28.000
   -191283.459 6   -149044.575 6  23960114.695    23960127.563    23960114.520
        21.000          14.000
  -6356071.599 8  -4952777.276 7  21761270.125    21761277.452    21761269.595
       125.000          86.000
  -1666483.190 8  -1298562.542 8  20524565.495    20524573.090    20524565.832
       253.000         238.000
  -1855385.873 8  -1445754.266 8  21077812.678    21077822.602    21077813.171
       218.000         176.000
   3177482.293 8   2475953.072 7  22033950.189    22033955.776    22033950.762
       142.000          70.000
   2231826.672 7   1739098.363 7  22541020.049    22541029.754    22541019.922
        83.000          49.000
   7211282.076 7   5619190.207 6  23251213.289    23251220.577    23251214.070
        33.000          15.000
         -.78616                  25025373.939                    25025374.183
        10.000
    -77906.537 6    -60705.370 5  24253998.019    24254006.639    24253998.403
        15.000           6.000
 03 10 28  0 47 30.0000000  0  9G27G11G13G 1G31G20G 3G 2G28
  -1842706.879 6  -1435852.712 6  23013309.955    23013322.076    23013310.585
        26.000          29.000
   -203010.623 6   -158182.520 6  23957883.056    23957895.766    23957883.231
        22.000          14.000
  -6433573.765 8  -5013168.522 7  21746521.922    21746529.221    21746521.628
       125.000          87.000
  -1693607.089 8  -1319698.315 8  20519404.016    20519411.890    20519404.277
       265.000         264.000
  -1862839.071 8  -1451561.842 8  21076394.309    21076404.146    21076394.851
       216.000         172.000
   3253105.039 8   2534879.176 7  22048341.249    22048347.466    22048341.879
       116.000          54.000
   2277408.892 7   1774617.108 7  22549693.920    22549703.704    22549693.965
        80.000          49.000
   7307371.962 7   5694065.551 6  23269498.600    23269506.181    23269499.087
        32.000          14.000
   -155515.448 6   -121178.972 5  24239228.721    24239236.971    24239229.472
        15.000           8.000
 03 10 28  0 48  0.0000000  0  9G27G11G13G 1G31G20G 3G 2G28
  -1867822.177 6  -1455422.759 6  23008530.560    23008542.352    23008530.946
        25.000          28.000
   -214949.626 6   -167485.493 6  23955611.527    23955623.890    23955611.609
        23.000          15.000
  -6510866.716 8  -5073396.709 7  21731813.637    21731820.627    21731813.484
       124.000          90.000
  -1720300.543 8  -1340498.636 8  20514324.914    20514332.580    20514325.281
       239.000         223.000
  -1869844.309 8  -1457020.336 8  21075061.193    21075070.894    21075061.667
       215.000         171.000
   3328908.025 8   2593946.495 7  22062765.856    22062772.471    22062766.416
       131.000          75.000
   2323425.768 7   1810474.563 7  22558450.632    22558460.278    22558450.860
        80.000          48.000
   7403466.257 6   5768944.361 6  23287784.691    23287791.873    23287785.188
        30.000          12.000
   -232822.963 6   -181418.858 5  24224518.054    24224525.412    24224518.667
        14.000           7.000
 03 10 28  0 48 30.0000000  0  9G27G11G13G 1G31G20G 3G 2G28
  -1893004.294 6  -1475044.839 6  23003738.229    23003750.095    23003738.934
        24.000          27.000
   -227099.172 6   -176952.567 6  23953299.467    23953311.563    23953299.473
        22.000          14.000
  -6587946.916 8  -5133459.101 7  21717145.738    21717152.813    21717145.384
       128.000          95.000
  -1746561.321 8  -1360961.845 8  20509327.696    20509335.678    20509328.112
       257.000         265.000
  -1876399.913 8  -1462128.477 8  21073813.679    21073823.279    21073814.174
       212.000         169.000
   3404885.640 8   2653149.091 7  22077224.938    22077230.611    22077225.651
       128.000          78.000
   2369876.863 7   1846670.376 7  22567289.740    22567299.546    22567289.810
        78.000          47.000
   7499562.914 6   5843825.017 6  23306071.116    23306078.518    23306071.962
        27.000          11.000
   -309823.246 6   -241418.335 5  24209864.810    24209872.961    24209865.664
        14.000           7.000
 03 10 28  0 49  0.0000000  0 10G27G11G13G 1G31G20G 3G 2G 8G28
  -1918242.736 6  -1494710.877 6  22998935.119    22998947.000    22998935.697
        24.000          26.000
   -239447.430 6   -186574.519 6  23950949.667    23950961.680    23950949.774
        22.000          14.000
  -6664800.375 8  -5193344.853 7  21702521.000    21702528.236    21702520.650
       132.000          96.000
  -1772377.100 8  -1381078.824 8  20504415.876    20504423.757    20504416.230
       252.000         237.000
  -1882493.729 8  -1466876.813 8  21072653.938    21072663.657    21072654.498
       211.000         171.000
   3481046.499 8   2712493.794 7  22091718.656    22091724.950    22091719.168
       134.000          55.000
   2416772.478 7   1883212.538 7  22576213.672    22576223.517    22576214.097
        80.000          47.000
   7595670.737 6   5918714.347 6  23324359.818    23324366.779    23324360.827
        25.000          10.000
         -.36615                  25010941.673                    25010942.356
         7.000
   -386506.839 6   -301171.546 6  24195271.834    24195281.065    24195272.777
        15.000          10.000
 03 10 28  0 49 30.0000000  0  9G27G11G13G 1G31G20G 3G 2G28
  -1943554.537 6  -1514434.061 6  22994118.248    22994129.807    22994118.749
        26.000          26.000
   -252010.179 6   -196363.600 6  23948559.298    23948570.891    23948559.766
        23.000          14.000
  -6741440.725 8  -5253064.540 7  21687936.742    21687943.932    21687936.527
       135.000          95.000
  -1797760.379 8  -1400858.335 8  20499585.674    20499593.729    20499585.943
       264.000         258.000
  -1888140.947 8  -1471277.070 8  21071579.151    21071588.848    21071579.642
       216.000         173.000
   3557372.027 7   2771966.980 6  22106243.511    22106250.438    22106244.280
        85.000          29.000
   2464095.452 7   1920087.699 7  22585219.121    22585228.482    22585219.557
        87.000          48.000
   7691771.097 6   5993597.847 5  23342646.868    23342654.084    23342647.467
        23.000           9.000
   -462891.281 6   -360693.597 5  24180737.982    24180748.749    24180738.007
        14.000           9.000
 03 10 28  0 50  0.0000000  0  9G27G11G13G 1G31G20G 3G 2G28
  -1968948.876 6  -1534221.557 6  22989285.675    22989297.375    22989285.961
        26.000          26.000
   -264794.930 6   -206325.653 6  23946125.911    23946137.882    23946126.157
        23.000          15.000
  -6817873.509 8  -5312622.465 7  21673391.952    21673399.077    21673391.583
       141.000          96.000
  -1822718.690 8  -1420306.869 8  20494836.691    20494844.860    20494836.970
       249.000         223.000
  -1893348.881 8  -1475334.969 8  21070587.890    21070597.588    21070588.335
       217.000         175.000
   3633853.499 8   2831562.876 7  22120798.004    22120804.847    22120798.720
       120.000          58.000
   2511836.609 7   1957288.747 7  22594303.694    22594313.187    22594303.767
        86.000          48.000
   7787853.427 6   6068467.314 5  23360930.564    23360937.832    23360930.694
        20.000           9.000
   -538983.574 6   -419988.949 5  24166260.367    24166269.222    24166261.008
        13.000           6.000
 03 10 28  0 50 30.0000000  0  9G27G11G13G 1G31G20G 3G 2G 8
  -1994432.938 6  -1554078.982 6  22984436.061    22984447.422    22984435.884
        28.000          25.000
   -277807.646 6   -216465.344 6  23943649.230    23943661.920    23943649.244
        22.000          14.000
  -6894102.527 8  -5372021.609 7  21658886.014    21658893.116    21658885.612
       147.000          96.000
  -1847254.954 8  -1439425.785 8  20490167.521    20490175.541    20490167.796
       293.000         284.000
  -1898123.009 8  -1479054.685 8  21069679.041    21069688.787    21069679.467
       215.000         177.000
   3710478.554 8   2891270.399 7  22135379.035    22135385.886    22135379.720
       105.000          51.000
   2559988.608 7   1994809.931 7  22603466.554    22603476.024    22603466.555
        88.000          47.000
   7883908.868 6   6143315.828 5  23379209.258    23379216.186    23379210.030
        19.000           8.000
          .23216                  25000001.631                    25000001.890
        10.000
 03 10 28  0 51  0.0000000  0  8G27G11G13G 1G31G20G 3G 2
  -2019967.023 6  -1573975.405 6  22979576.831    22979588.131    22979576.853
        29.000          24.000
   -291006.975 6   -226750.432 6  23941137.737    23941149.910    23941137.753
        24.000          15.000
  -6970084.419 8  -5431228.194 7  21644427.264    21644434.170    21644427.070
       153.000          99.000
  -1871329.963 8  -1458186.050 8  20485586.584    20485594.538    20485586.910
       260.000         229.000
  -1902422.295 8  -1482404.425 8  21068860.646    21068870.274    21068861.088
       212.000         174.000
   3787283.173 8   2951117.080 7  22149995.164    22150002.494    22149995.964
       117.000          61.000
   2608590.763 7   2032681.876 7  22612715.277    22612724.592    22612715.536
        90.000          47.000
   7979975.408 6   6218172.986 5  23397490.053    23397496.753    23397490.660
        16.000           8.000
 03 10 28  0 51 30.0000000  0  9G27G11G13G 1G31G20G 3G 2G 8
  -2045566.810 6  -1593923.070 6  22974705.123    22974716.325    22974705.213
        27.000          23.000
   -304407.353 6   -237192.220 6  23938588.128    23938599.675    23938588.548
        24.000          14.000
  -7045831.507 8  -5490251.821 8  21630013.112    21630019.928    21630013.096
       155.000         102.000
  -1894954.662 8  -1476595.136 8  20481091.082    20481099.240    20481091.437
       264.000         237.000
  -1906260.321 8  -1485394.558 8  21068129.889    21068139.361    21068130.408
       211.000         178.000
   3864251.831 8   3011092.188 7  22164642.825    22164650.448    22164643.678
       127.000          72.000
   2657627.376 7   2070892.355 7  22622046.635    22622055.839    22622046.980
        88.000          47.000
   8076035.837 6   6293025.371 5  23415769.258    23415776.156    23415769.599
        15.000           7.000
          .05215                  24992652.359                    24992652.831
         8.000
 03 10 28  0 52  0.0000000  0  9G27G11G13G 1G31G20G 3G 2G28
  -2071232.331 6  -1613921.953 6  22969821.318    22969831.976    22969821.630
        27.000          23.000
   -318007.265 6   -247789.483 6  23935999.971    23936011.616    23936000.495
        22.000          14.000
  -7121340.518 8  -5549089.927 8  21615643.979    21615651.048    21615643.789
       150.000         104.000
  -1918127.450 8  -1494652.124 8  20476681.665    20476689.819    20476681.989
       288.000         269.000
  -1909636.575 8  -1488025.066 8  21067487.282    21067496.589    21067487.780
       207.000         177.000
   3941381.328 8   3071192.571 7  22179320.007    22179327.908    22179320.593
       110.000          55.000
   2707097.844 7   2109440.904 7  22631460.529    22631469.593    22631460.658
        86.000          47.000
   8172088.359 6   6367871.589 5  23434047.094    23434054.606    23434048.369
        15.000           6.000
         -.00516          .48915  24108938.393    24108949.165    24108939.221
        14.000           5.000
 03 10 28  0 52 30.0000000  0  9G27G11G13G 1G31G20G 3G 2G28
  -2096988.835 6  -1633991.730 6  22964919.831    22964930.515    22964920.328
        26.000          22.000
   -331830.521 6   -258560.751 6  23933369.162    23933381.346    23933369.309
        20.000          13.000
  -7196633.076 8  -5607759.339 8  21601316.227    21601323.264    21601315.949
       145.000         105.000
  -1940870.804 8  -1512374.440 8  20472353.935    20472362.199    20472354.304
       256.000         228.000
  -1912574.416 8  -1490314.136 8  21066928.282    21066937.486    21066928.823
       210.000         181.000
   4018643.315 7   3131395.956 6  22194023.000    22194030.464    22194023.720
        76.000          27.000
   2756976.761 7   2148307.753 7  22640951.816    22640961.050    22640952.234
        83.000          46.000
   8268106.366 6   6442690.950 5  23452319.438    23452326.420    23452319.893
        16.000           7.000
    -74536.811 6    -58082.227 5  24094756.202    24094769.297    24094756.533
        14.000           6.000
 03 10 28  0 53  0.0000000  0 10G27G11G13G 1G31G20G 3G 2G 8G28
  -2122849.064 6  -1654142.333 6  22959998.359    22960009.229    22959999.382
        24.000          22.000
   -345888.550 6   -269514.970 6  23930694.144    23930705.948    23930694.579
        21.000          12.000
  -7271718.406 8  -5666267.273 8  21587028.123    21587034.868    21587028.010
       144.000         107.000
  -1963194.186 8  -1529769.015 8  20468105.959    20468114.133    20468106.355
       283.000         277.000
  -1915084.535 8  -1492269.779 8  21066450.546    21066459.542    21066451.014
       205.000         174.000
   4096025.192 8   3191693.689 7  22208749.101    22208756.365    22208749.752
       130.000          84.000
   2807251.037 7   2187482.677 7  22650518.720    22650527.823    22650519.259
        81.000          45.000
   8364075.478 6   6517472.197 5  23470581.802    23470588.792    23470582.322
        17.000           7.000
          .22415                  24981535.649                    24981536.309
         9.000
   -148788.415 6   -115942.166 5  24080628.233    24080638.799    24080629.074
        14.000           6.000
 03 10 28  0 53 30.0000000  0  9G27G11G13G 1G31G20G 3G 2G28
  -2148761.341 6  -1674333.589 6  22955067.644    22955078.467    22955068.276
        24.000          21.000
   -360128.032 6   -280610.583 6  23927984.703    23927996.029    23927984.953
        23.000          14.000
  -7346541.755 8  -5724571.103 8  21572789.605    21572796.502    21572789.395
       151.000         111.000
  -1985044.768 8  -1546795.416 8  20463947.817    20463955.901    20463948.170
       265.000         242.000
  -1917113.118 8  -1493849.747 8  21066063.904    21066072.674    21066064.384
       208.000         180.000
   4173572.977 8   3252120.096 7  22223505.372    22223514.190    22223505.924
       124.000          84.000
   2857971.828 7   2227005.483 7  22660170.570    22660179.520    22660171.114
        84.000          46.000
   8460045.547 6   6592254.159 5  23488844.274    23488851.354    23488845.024
        19.000           8.000
   -222700.133 6   -173536.323 5  24066564.254    24066573.339    24066564.551
        14.000           5.000
 03 10 28  0 54  0.0000000  0  9G27G11G13G 1G31G20G 3G 2G28
  -2174796.245 6  -1694620.425 6  22950113.285    22950124.201    22950113.435
        25.000          22.000
   -374618.364 6   -291901.689 6  23925227.148    23925238.650    23925227.430
        22.000          14.000
  -7421169.927 8  -5782722.877 8  21558588.064    21558595.180    21558587.757
       154.000         114.000
  -2006490.359 8  -1563506.251 8  20459866.761    20459874.850    20459867.117
       277.000         256.000
  -1918730.610 8  -1495109.600 8  21065755.403    21065764.224    21065755.908
       207.000         180.000
   4251213.762 7   3312618.284 7  22238280.477    22238289.077    22238281.168
        92.000          47.000
   2909068.259 7   2266820.973 7  22669893.583    22669902.814    22669894.089
        83.000          46.000
   8555944.459 6   6666980.667 5  23507093.041    23507099.905    23507094.093
        21.000           9.000
   -296341.196 6   -230918.869 5  24052549.901    24052560.031    24052550.220
        14.000           6.000
 03 10 28  0 54 30.0000000  0  9G27G11G13G 1G31G20G 3G 2G28
  -2200895.559 6  -1714957.376 6  22945146.368    22945157.437    22945146.542
        26.000          23.000
   -389300.006 6   -303341.860 6  23922432.541    23922444.495    23922432.794
        22.000          15.000
  -7495541.380 8  -5840674.592 8  21544435.579    21544442.581    21544435.353
       155.000         114.000
  -2027470.993 8  -1579855.037 8  20455874.559    20455882.868    20455874.920
       278.000         256.000
  -1919877.131 8  -1496002.450 8  21065536.792    21065545.465    21065537.300
       211.000         179.000
   4329004.423 8   3373233.434 7  22253085.293    22253092.307    22253085.842
       109.000          49.000
   2960598.015 7   2306974.136 7  22679699.266    22679708.671    22679699.470
        84.000          46.000
   8651828.531 6   6741695.626 5  23525339.104    23525345.886    23525339.563
        22.000           9.000
   -369653.175 6   -288044.894 5  24038599.664    24038610.671    24038600.116
        15.000           8.000
 03 10 28  0 55  0.0000000  0 10G27G11G13G 1G31G20G 3G 2G 8G28
  -2227078.151 6  -1735359.189 6  22940163.733    22940174.763    22940163.325
        27.000          23.000
   -404190.338 6   -314944.621 6  23919598.682    23919610.803    23919598.438
        21.000          14.000
  -7569671.627 8  -5898438.320 8  21530328.863    21530335.951    21530328.630
       155.000         119.000
  -2048002.213 8  -1595853.477 8  20451967.363    20451975.957    20451967.553
       299.000         287.000
  -1920569.891 8  -1496541.525 8  21065404.459    21065412.968    21065404.990
       216.000         186.000
   4406924.217 7   3433949.419 7  22267912.914    22267921.512    22267913.219
        92.000          47.000
   3012541.758 7   2347449.928 7  22689583.799    22689592.959    22689583.775
        86.000          44.000
   8747677.653 6   6816383.383 6  23543578.096    23543585.528    23543578.474
        23.000          10.000
         -.80316                  24966500.534                    24966500.879
        10.000
   -442652.109 6   -344926.145 5  24024708.039    24024716.811    24024708.174
        18.000           8.000
 03 10 28  0 55 30.0000000  0  9G27G11G13G 1G31G20G 3G 2G28
  -2253338.217 6  -1755821.419 6  22935166.487    22935177.490    22935165.955
        28.000          22.000
   -419282.002 6   -326704.261 6  23916727.061    23916738.965    23916726.761
        22.000          14.000
  -7643551.511 8  -5956006.981 8  21516269.812    21516277.112    21516269.542
       154.000         121.000
  -2068076.505 8  -1611496.117 8  20448147.881    20448156.031    20448148.157
       275.000         239.000
  -1920802.628 8  -1496722.575 8  21065359.709    21065368.518    21065359.988
       210.000         184.000
   4484975.968 7   3494768.167 7  22282765.515    22282775.711    22282766.029
        87.000          59.000
   3064905.123 7   2388252.691 7  22699548.007    22699557.052    22699548.116
        85.000          42.000
   8843495.959 6   6891047.106 6  23561811.560    23561819.012    23561812.103
        25.000          11.000
   -515332.251 6   -401559.216 5  24010875.815    24010886.197    24010876.355
        15.000           7.000
 03 10 28  0 56  0.0000000  0 10G27G11G13G 1G31G20G 3G 2G 8G28
  -2279682.446 6  -1776349.212 6  22930153.215    22930163.899    22930153.116
        27.000          21.000
   -434580.155 6   -338624.785 6  23913815.842    23913827.989    23913815.989
        23.000          15.000
  -7717184.334 8  -6013383.123 8  21502257.831    21502265.093    21502257.623
       150.000         121.000
  -2087697.926 8  -1626785.971 8  20444414.182    20444422.802    20444414.427
       289.000         269.000
  -1920579.237 8  -1496547.929 8  21065401.872    21065410.617    21065402.314
       214.000         193.000
   4563151.010 8   3555683.211 7  22297643.127    22297651.776    22297643.679
       109.000          60.000
   3117680.727 7   2429376.677 7  22709590.677    22709599.728    22709591.112
        81.000          42.000
   8939275.295 6   6965680.469 6  23580038.154    23580045.245    23580038.863
        26.000          12.000
         -.25416                  24958895.858                    24958896.348
        11.000
   -587697.260 6   -457945.917 6  23997104.605    23997114.942    23997105.082
        17.000          12.000
 03 10 28  0 56 30.0000000  0  9G27G11G13G 1G31G20G 3G 2G28
  -2306078.749 6  -1796917.545 6  22925130.147    22925140.315    22925130.717
        28.000          20.000
   -450051.517 6   -350680.259 6  23910871.523    23910883.606    23910871.445
        23.000          14.000
  -7790534.844 8  -6070539.279 8  21488299.617    21488306.750    21488299.393
       152.000         122.000
  -2106831.974 8  -1641695.947 8  20440773.416    20440782.028    20440773.680
       279.000         256.000
  -1919868.237 8  -1495993.820 8  21065537.126    21065545.655    21065537.552
       214.000         186.000
   4641478.365 8   3616716.966 7  22312548.871    22312556.649    22312549.229
       127.000          70.000
   3170899.779 7   2470846.203 7  22719717.860    22719727.008    22719718.108
        78.000          43.000
   9035045.835 6   7040306.973 6  23598262.434    23598269.457    23598263.011
        28.000          12.000
   -659717.575 6   -514065.525 5  23983399.201    23983409.382    23983399.245
        15.000           9.000
 03 10 28  0 57  0.0000000  0 10G27G11G13G 1G31G20G 3G 2G 8G28
  -2332574.220 6  -1817563.162 6  22920087.977    22920098.223    22920088.669
        28.000          20.000
   -465741.594 6   -362906.166 6  23907885.542    23907897.887    23907885.889
        24.000          13.000
  -7863646.644 8  -6127509.440 8  21474386.856    21474394.039    21474386.535
       158.000         126.000
  -2125522.826 8  -1656260.170 8  20437216.508    20437225.013    20437216.680
       289.000         267.000
  -1918713.121 8  -1495093.050 8  21065756.292    21065764.601    21065756.803
       207.000         175.000
   4719907.726 7   3677829.886 7  22327473.116    22327482.839    22327473.762
        78.000          38.000
   3224514.922 7   2512624.377 7  22729920.334    22729929.749    22729920.617
        78.000          44.000
   9130759.005 6   7114888.775 6  23616475.860    23616483.223    23616476.288
        28.000          13.000
          .06216                  24951236.451                    24951236.865
        13.000
   -731435.498 6   -569949.201 5  23969751.095    23969761.314    23969751.269
        16.000           9.000
 03 10 28  0 57 30.0000000  0  9G27G11G13G 1G31G20G 3G 2G28
  -2359163.526 6  -1838281.898 6  22915028.274    22915038.313    22915028.507
        29.000          20.000
   -481643.579 6   -375297.187 6  23904859.623    23904871.702    23904859.575
        24.000          14.000
  -7936510.735 8  -6184286.583 8  21460521.355    21460528.521    21460521.048
       157.000         129.000
  -2143763.875 8  -1670474.080 8  20433745.398    20433754.215    20433745.705
       281.000         268.000
  -1917109.118 8  -1493842.825 8  21066061.399    21066069.527    21066061.803
       206.000         174.000
   4798443.754 8   3739026.212 7  22342418.960    22342429.204    22342419.654
       106.000          69.000
   3278530.936 7   2554714.920 7  22740199.258    22740208.456    22740199.432
        78.000          43.000
   9226418.647 6   7189428.866 6  23634679.242    23634686.632    23634680.000
        27.000          13.000
   -802845.084 6   -625592.868 6  23956162.512    23956172.553    23956162.933
        15.000          11.000
 03 10 28  0 58  0.0000000  0 10G27G11G13G 1G31G20G 3G 2G 8G28
  -2385821.011 6  -1859053.756 6  22909955.272    22909965.717    22909955.699
        29.000          20.000
   -497730.728 6   -387832.503 6  23901798.285    23901810.149    23901798.586
        24.000          14.000
  -8009098.225 8  -6240848.190 8  21446708.453    21446715.554    21446708.213
       159.000         132.000
  -2161527.459 8  -1684316.121 8  20430365.497    20430374.198    20430365.741
       293.000         274.000
  -1915027.362 8  -1492219.675 8  21066456.731    21066464.866    21066457.159
       219.000         194.000
   4877108.325 7   3800322.586 7  22357389.203    22357398.746    22357389.694
        75.000          36.000
   3332972.855 7   2597137.335 7  22750559.095    22750568.078    22750559.382
        77.000          42.000
   9322048.767 6   7263945.955 6  23652876.765    23652884.599    23652877.098
        26.000          13.000
         -.48616                  24943509.098                    24943508.604
        11.000
   -873918.325 6   -680974.179 6  23942637.562    23942647.168    23942637.963
        16.000          10.000
 03 10 28  0 58 30.0000000  0  9G27G11G13G 1G31G20G 3G 2G28
  -2412585.503 6  -1879908.993 6  22904861.865    22904872.461    22904861.826
        31.000          21.000
   -514040.117 6   -400541.001 6  23898694.402    23898706.360    23898694.566
        24.000          14.000
  -8081444.999 8  -6297222.231 8  21432941.143    21432948.173    21432940.887
       160.000         131.000
  -2178849.560 8  -1697813.990 8  20427069.092    20427077.833    20427069.312
       289.000         269.000
  -1912506.611 8  -1490254.320 8  21066935.636    21066943.525    21066936.130
       214.000         186.000
   4955861.354 7   3861688.268 7  22372375.147    22372384.350    22372375.635
        90.000          46.000
   3387801.092 7   2639860.784 7  22760992.379    22761001.481    22760992.573
        77.000          43.000
   9417608.984 6   7338408.574 6  23671061.087    23671068.570    23671061.698
        25.000          12.000
   -944692.181 6   -736121.800 6  23929168.869    23929179.640    23929168.996
        18.000          14.000
 03 10 28  0 59  0.0000000  0 10G27G11G13G 1G31G20G 3G 2G 8G28
  -2439443.478 6  -1900837.062 6  22899750.711    22899761.249    22899750.819
        31.000          21.000
   -530556.979 6   -413411.155 6  23895551.279    23895563.444    23895551.225
        21.000          14.000
  -8153534.030 8  -6353395.443 8  21419222.958    21419229.960    21419222.715
       161.000         129.000
  -2195715.211 8  -1710956.426 8  20423860.132    20423868.854    20423860.411
       287.000         267.000
  -1909532.333 8  -1487935.469 8  21067500.665    21067508.254    21067501.138
       220.000         193.000
   5034712.489 7   3923130.206 7  22387380.831    22387390.164    22387381.524
        85.000          46.000
   3443028.547 7   2682895.308 7  22771501.560    22771510.891    22771501.868
        75.000          44.000
   9513111.241 6   7412826.032 6  23689235.131    23689241.430    23689235.459
        26.000          11.000
         -.36416                  24935708.684                    24935708.069
        10.000
  -1015153.717 6   -791026.502 5  23915760.065    23915769.803    23915760.730
        16.000           9.000
 03 10 28  0 59 30.0000000  0  9G13G27G11G 1G31G20G 3G 2G28
  -8225366.355 8  -6409368.633 8  21405553.957    21405560.761    21405553.800
       165.000         130.000
  -2466399.239 6  -1921841.315 6  22894621.020    22894631.599    22894621.262
        31.000          22.000
   -547284.037 6   -426445.064 6  23892367.854    23892380.197    23892368.121
        20.000          15.000
  -2212126.289 8  -1723744.668 8  20420737.328    20420746.382    20420737.588
       275.000         258.000
  -1906111.230 8  -1485270.110 8  21068151.950    21068159.432    21068152.393
       199.000         157.000
   5113655.821 7   3984644.143 7  22402403.691    22402413.783    22402404.219
        93.000          55.000
   3498650.042 7   2726236.883 7  22782085.960    22782095.180    22782085.967
        75.000          44.000
   9608549.328 6   7487193.483 6  23707396.257    23707402.806    23707397.065
        24.000          11.000
  -1085305.085 6   -845689.618 6  23902409.727    23902420.585    23902410.475
        18.000          12.000
 03 10 28  1  0  0.0000000  0 10G13G27G11G 1G31G20G 3G 2G 8G28
  -8296931.848 8  -6465133.897 8  21391935.409    21391942.261    21391935.174
       167.000         131.000
  -2493446.047 6  -1942916.498 6  22889474.029    22889484.255    22889474.197
        30.000          22.000
   -564213.039 6   -439636.347 6  23889146.240    23889158.692    23889146.296
        19.000          15.000
  -2228072.885 8  -1736170.495 8  20417702.738    20417711.644    20417703.066
       279.000         261.000
  -1902228.083 8  -1482242.746 8  21068889.915    21068896.797    21068890.405
       232.000         185.000
   5192695.215 7   4046232.935 7  22417443.831    22417454.602    22417444.165
        82.000          49.000
   3554671.682 7   2769890.254 7  22792746.576    22792755.494    22792746.791
        73.000          44.000
   9703928.569 6   7561515.078 6  23725546.109    23725552.403    23725546.720
        22.000          10.000
         -.43616                  24927835.099                    24927835.334
        13.000
  -1155139.415 6   -900106.550 6  23889121.855    23889131.767    23889122.275
        18.000          11.000
 03 10 28  1  0 30.0000000  0  9G13G27G11G 1G31G20G 3G 2G28
  -8368227.417 8  -6520688.839 8  21378368.132    21378374.977    21378367.624
       168.000         133.000
  -2520584.217 6  -1964062.845 6  22884309.391    22884319.786    22884309.878
        29.000          21.000
   -581342.937 6   -452984.162 6  23885886.561    23885898.670    23885886.507
        20.000          15.000
  -2243555.241 8  -1748235.007 8  20414756.825    20414765.681    20414757.148
       278.000         254.000
  -1897886.942 8  -1478858.818 8  21069715.062    21069721.819    21069715.509
       227.000         192.000
   5271827.985 8   4107894.534 7  22432502.859    22432512.264    22432503.620
       104.000          58.000
   3611092.402 7   2813854.607 7  22803482.893    22803491.735    22803483.142
        71.000          45.000
   9799247.087 6   7635789.342 6  23743684.102    23743690.955    23743684.068
        20.000          10.000
  -1224654.244 6   -954274.431 6  23875893.855    23875904.865    23875894.069
        17.000          13.000
 03 10 28  1  1  0.0000000  0  9G13G27G11G 1G31G20G 3G 2G28
  -8439236.218 8  -6576020.324 8  21364855.774    21364862.455    21364855.481
       173.000         136.000
  -2547800.216 6  -1985269.852 6  22879129.949    22879140.523    22879130.509
        29.000          22.000
   -598658.616 6   -466476.703 6  23882591.241    23882603.133    23882591.112
        21.000          16.000
  -2258556.270 8  -1759924.264 8  20411902.287    20411911.322    20411902.576
       281.000         261.000
  -1893073.306 8  -1475107.173 8  21070630.491    21070637.090    21070630.935
       210.000         174.000
   5351065.109 7   4169637.527 7  22447582.144    22447590.953    22447582.646
        84.000          36.000
   3667924.841 7   2858139.768 7  22814297.739    22814306.425    22814298.075
        71.000          44.000
   9894517.029 6   7710025.748 6  23761813.262    23761820.152    23761813.940
        19.000          10.000
  -1293833.247 6  -1008180.008 6  23862729.598    23862740.139    23862729.757
        18.000          13.000
 03 10 28  1  1 30.0000000  0 10G13G27G11G 1G31G20G 3G 2G 8G28
  -8509953.911 8  -6631124.970 8  21351398.626    21351405.358    21351398.324
       175.000         139.000
  -2575092.229 6  -2006536.085 6  22873936.453    22873946.762    22873936.665
        29.000          22.000
   -616157.057 6   -480111.673 6  23879261.318    23879272.879    23879261.084
        22.000          13.000
  -2273072.539 8  -1771235.623 8  20409140.019    20409148.893    20409140.269
       284.000         259.000
  -1887784.026 8  -1470985.105 8  21071636.540    21071642.914    21071636.906
       210.000         169.000
   5430405.893 7   4231461.361 7  22462679.229    22462690.202    22462679.831
        64.000          33.000
   3725170.027 7   2902746.525 7  22825191.042    22825199.738    22825191.182
        71.000          45.000
   9989738.389 6   7784224.324 6  23779933.922    23779940.276    23779934.496
        17.000          10.000
         -.74716                  24915890.646                    24915891.237
        11.000
  -1362675.117 6  -1061823.025 6  23849629.454    23849639.932    23849630.077
        18.000          12.000
 03 10 28  1  2  0.0000000  0  9G13G27G11G 1G31G20G 3G 2G28
  -8580385.904 8  -6686007.001 8  21337995.570    21338002.600    21337995.183
       166.000         141.000
  -2602469.613 6  -2027868.811 6  22868726.561    22868736.843    22868726.734
        30.000          22.000
   -633846.148 6   -493895.171 6  23875894.900    23875907.141    23875894.551
        22.000          13.000
  -2287111.455 8  -1782174.879 8  20406468.323    20406477.237    20406468.664
       282.000         259.000
  -1882026.425 8  -1466497.776 8  21072731.586    21072737.791    21072732.041
       214.000         179.000
   5509838.886 7   4293357.167 7  22477794.590    22477806.039    22477795.263
        92.000          66.000
   3782817.910 7   2947667.101 7  22836160.771    22836169.652    22836161.198
        67.000          44.000
  10084900.167 6   7858376.469 6  23798042.241    23798048.522    23798042.568
        17.000          11.000
  -1431186.918 6  -1115208.551 6  23836592.181    23836601.996    23836592.139
        17.000          10.000
 03 10 28  1  2 30.0000000  0 10G13G27G11G 1G31G20G 3G 2G 8G28
  -8650555.852 8  -6740684.829 8  21324642.633    21324649.570    21324642.546
       163.000         141.000
  -2629959.382 7  -2049289.116 6  22863495.506    22863505.365    22863495.542
        32.000          22.000
   -651751.492 6   -507847.146 6  23872487.985    23872499.708    23872487.883
        23.000          14.000
  -2300698.561 8  -1792762.283 8  20403882.860    20403891.781    20403883.130
       287.000         264.000
  -1875830.297 8  -1461670.385 8  21073911.073    21073917.691    21073911.406
       202.000         166.000
   5589333.560 8   4355300.915 7  22492923.691    22492932.634    22492924.210
       103.000          53.000
   3840840.467 7   2992879.613 7  22847202.001    22847210.792    22847202.272
        65.000          42.000
  10179973.870 6   7932459.978 6  23816133.980    23816140.742    23816134.831
        15.000          12.000
          .22916                  24907836.793                    24907836.771
        11.000
  -1499393.700 6  -1168355.787 6  23823611.399    23823621.232    23823611.828
        18.000          11.000
 03 10 28  1  3  0.0000000  0  9G13G27G11G 1G31G20G 3G 2G28
  -8720426.246 8  -6795129.240 8  21311346.764    21311353.481    21311346.608
       171.000         140.000
  -2657527.093 7  -2070770.176 6  22858249.257    22858259.222    22858249.545
        32.000          22.000
   -669837.147 6   -521939.639 6  23869046.227    23869057.941    23869046.283
        23.000          13.000
  -2313797.259 8  -1802969.151 8  20401390.440    20401399.253    20401390.778
       290.000         266.000
  -1869155.890 8  -1456469.626 8  21075181.100    21075187.536    21075181.438
       207.000         170.000
   5668922.243 7   4417317.889 7  22508068.590    22508077.504    22508068.840
        76.000          32.000
   3899271.321 7   3038410.270 7  22858320.924    22858329.837    22858321.246
        64.000          42.000
  10274992.598 6   8006500.648 6  23834215.172    23834222.738    23834215.732
        14.000          12.000
  -1567261.761 6  -1221239.367 6  23810697.175    23810705.631    23810697.684
        19.000          10.000
 03 10 28  1  3 30.0000000  0 10G13G27G11G 1G31G20G 3G 2G 8G28
  -8790017.690 8  -6849356.294 8  21298103.975    21298110.665    21298103.634
       178.000         141.000
  -2685196.204 7  -2092330.215 6  22852983.788    22852993.565    22852984.149
        32.000          22.000
   -688125.092 6   -536189.786 6  23865565.824    23865577.321    23865565.717
        23.000          13.000
  -2326428.975 8  -1812812.060 8  20398986.726    20398995.550    20398987.006
       297.000         279.000
  -1862025.841 8  -1450913.230 8  21076537.746    21076544.177    21076538.116
       219.000         182.000
   5748579.122 7   4479388.048 7  22523225.022    22523236.715    22523225.556
        73.000          46.000
   3958086.217 7   3084240.190 7  22869512.825    22869521.987    22869513.326
        59.000          43.000
  10369931.075 6   8080478.772 6  23852281.205    23852288.164    23852281.962
        14.000          11.000
         -.28016                  24899704.046                    24899704.539
        11.000
  -1634812.662 6  -1273875.687 6  23797841.783    23797851.140    23797842.221
        19.000          11.000
 03 10 28  1  4  0.0000000  0  9G13G27G11G 1G31G20G 3G 2G28
  -8859300.559 8  -6903342.895 8  21284919.871    21284926.608    21284919.597
       181.000         145.000
  -2712940.541 7  -2113948.854 6  22847703.801    22847713.643    22847704.402
        32.000          23.000
   -706587.719 6   -550576.053 6  23862052.396    23862063.748    23862052.363
        23.000          13.000
  -2338565.874 8  -1822269.384 8  20396677.087    20396686.074    20396677.315
       293.000         275.000
  -1854416.010 8  -1444982.598 8  21077985.782    21077992.342    21077986.221
       198.000         163.000
   5828327.606 7   4541529.645 7  22538402.258    22538413.033    22538402.702
        86.000          53.000
   4017310.223 7   3130388.865 7  22880782.773    22880791.809    22880782.836
        58.000          42.000
  10464813.951 6   8154413.576 6  23870336.748    23870343.942    23870337.284
        13.000          10.000
  -1702019.430 6  -1326244.044 6  23785052.109    23785061.096    23785052.396
        18.000          12.000
 03 10 28  1  4 30.0000000  0  9G13G27G11G 1G31G20G 3G 2G28
  -8928261.735 8  -6957078.832 8  21271796.863    21271803.630    21271796.541
       180.000         145.000
  -2740750.263 6  -2135618.450 6  22842411.376    22842421.289    22842411.838
        31.000          23.000
   -725213.735 6   -565089.680 6  23858507.837    23858519.053    23858507.951
        24.000          12.000
  -2350196.256 8  -1831332.059 8  20394463.958    20394473.002    20394464.154
       288.000         277.000
  -1846315.332 8  -1438671.223 8  21079527.957    21079534.510    21079528.384
       192.000         156.000
   5908175.256 8   4603748.601 7  22553597.823    22553606.944    22553598.236
       112.000          52.000
   4076952.359 7   3176863.354 7  22892132.200    22892141.046    22892132.469
        55.000          39.000
  10559649.583 6   8228311.555 5  23888383.438    23888390.378    23888383.946
        14.000           8.000
  -1768870.189 6  -1378334.756 6  23772330.668    23772339.111    23772331.248
        18.000          11.000
 03 10 28  1  5  0.0000000  0 10G13G31G27G11G 1G20G 3G 2G 8G28
  -8996897.305 8  -7010561.052 8  21258735.854    21258742.665    21258735.462
       185.000         146.000
  -1837720.661 8  -1431974.763 8  21081163.756    21081171.002    21081164.089
       202.000         186.000
  -2768624.541 6  -2157338.361 6  22837106.739    22837116.542    22837107.168
        31.000          23.000
   -744000.897 6   -579728.917 6  23854932.745    23854943.861    23854932.809
        24.000          12.000
  -2361317.579 8  -1839998.070 8  20392347.581    20392356.602    20392347.779
       277.000         257.000
   5988120.411 7   4666043.595 7  22568809.042    22568818.987    22568809.543
        70.000          32.000
   4137012.525 7   3223663.588 7  22903560.942    22903569.914    22903561.219
        53.000          38.000
  10654437.127 6   8302172.074 5  23906421.391    23906427.266    23906421.857
        14.000           8.000
          .15116                  24887378.818                    24887378.539
        10.000
  -1835362.090 6  -1430145.013 6  23759675.387    23759684.514    23759676.083
        19.000          10.000
 03 10 28  1  5 30.0000000  0  9G13G31G27G11G 1G20G 3G 2G28
  -9065251.178 8  -7063823.765 8  21245728.621    21245735.361    21245728.265
       190.000         146.000
  -1828678.951 8  -1424930.133 8  21082885.395    21082892.357    21082885.812
       205.000         176.000
  -2796610.169 6  -2179145.019 6  22831781.153    22831790.626    22831781.485
        31.000          23.000
   -762994.660 6   -594529.185 6  23851318.271    23851329.561    23851318.517
        24.000          13.000
  -2371974.184 8  -1848301.534 8  20390319.571    20390328.405    20390319.885
       299.000         298.000
   6068113.308 7   4728375.785 7  22584030.757    22584041.442    22584031.704
        60.000          33.000
   4197442.512 7   3270752.000 7  22915060.364    22915069.347    22915060.767
        53.000          37.000
  10749128.169 6   8375957.385 5  23924440.374    23924446.461    23924440.886
        14.000           7.000
  -1901543.698 6  -1481714.042 6  23747081.453    23747090.918    23747081.769
        19.000          14.000
 03 10 28  1  6  0.0000000  0  9G13G31G27G11G 1G20G 3G 2G28
  -9133303.413 8  -7116851.443 8  21232778.783    21232785.378    21232778.561
       196.000         148.000
  -1819170.830 8  -1417521.152 8  21084694.539    21084701.468    21084695.071
       225.000         178.000
  -2824690.882 7  -2201025.796 6  22826437.552    22826446.825    22826437.854
        32.000          23.000
   -782177.094 6   -609476.452 6  23847667.967    23847679.316    23847667.896
        25.000          15.000
  -2382149.414 8  -1856230.326 8  20388383.000    20388392.228    20388383.201
       272.000         269.000
   6148168.006 7   4790756.129 7  22599266.408    22599276.200    22599267.024
        92.000          47.000
   4258257.746 7   3318140.615 7  22926633.186    22926641.790    22926633.443
        53.000          36.000
  10843737.584 6   8449679.085 5  23942443.412    23942449.863    23942443.438
        14.000           7.000
  -1967396.296 6  -1533026.729 6  23734548.960    23734557.540    23734549.742
        21.000          15.000
 03 10 28  1  6 30.0000000  0 10G13G31G27G11G 1G20G 3G 2G 8G28
  -9201058.306 8  -7169647.427 8  21219885.385    21219891.976    21219885.125
       199.000         148.000
  -1809205.796 8  -1409756.714 8  21086590.978    21086598.059    21086591.452
       195.000         154.000
  -2852873.615 7  -2222986.068 6  22821074.250    22821083.580    22821074.704
        33.000          23.000
   -801553.967 6   -624575.264 6  23843981.008    23843991.738    23843980.762
        26.000          15.000
  -2391847.565 8  -1863787.260 8  20386537.639    20386546.557    20386537.902
       293.000         293.000
   6228274.661 7   4853176.986 7  22614510.227    22614519.822    22614510.805
        89.000          45.000
   4319450.164 7   3365823.134 7  22938277.494    22938286.176    22938277.794
        53.000          33.000
  10938256.728 6   8523330.430 5  23960429.816    23960436.692    23960430.207
        14.000           7.000
         -.65116                  24874871.329                    24874871.221
        11.000
  -2032926.523 6  -1584088.488 6  23722077.995    23722086.792    23722078.482
        19.000          13.000
 03 10 28  1  7  0.0000000  0  9G13G31G27G11G 1G20G 3G 2G28
  -9268519.327 8  -7222214.424 8  21207047.962    21207054.532    21207047.745
       203.000         149.000
  -1798787.454 8  -1401639.647 8  21088574.037    21088581.076    21088574.455
       215.000         176.000
  -2881164.976 7  -2245031.015 6  22815690.494    22815699.777    22815690.486
        35.000          23.000
   -821130.635 6   -639829.750 6  23840255.644    23840266.116    23840255.578
        27.000          14.000
  -2401074.284 8  -1870977.082 8  20384781.879    20384790.884    20384782.134
       275.000         267.000
   6308424.155 7   4915631.210 7  22629759.993    22629770.565    22629760.538
        67.000          41.000
   4381012.114 7   3413793.640 7  22949992.288    22950000.700    22949992.598
        53.000          32.000
  11032677.296 6   8596904.972 5  23978397.002    23978403.448    23978397.721
        14.000           6.000
  -2098140.294 6  -1634904.080 6  23709668.488    23709677.056    23709669.023
        21.000          14.000
 03 10 28  1  7 30.0000000  0  9G13G31G27G11G 1G20G 3G 2G28
  -9335627.529 8  -7274506.504 8  21194277.818    21194284.287    21194277.629
       211.000         149.000
  -1787863.404 8  -1393128.699 8  21090653.609    21090661.114    21090654.027
       212.000         173.000
  -2909509.304 7  -2267117.245 6  22810296.599    22810305.778    22810296.520
        35.000          23.000
   -840849.652 6   -655195.187 6  23836503.047    23836513.744    23836503.053
        26.000          12.000
  -2409771.509 8  -1877754.167 8  20383127.031    20383136.056    20383127.253
       278.000         266.000
   6388669.571 7   4978160.167 7  22645030.809    22645040.757    22645031.253
        63.000          33.000
   4442997.800 7   3462094.328 6  22961787.653    22961796.010    22961788.144
        52.000          31.000
  11127053.387 6   8670444.849 5  23996356.531    23996363.177    23996356.835
        15.000           6.000
  -2162980.617 6  -1685429.005 6  23697329.863    23697338.380    23697330.117
        20.000          14.000
 03 10 28  1  8  0.0000000  0 10G13G31G27G11G 1G20G 3G 2G 8G28
  -9402428.980 8  -7326559.564 8  21181565.929    21181572.295    21181565.678
       211.000         150.000
  -1776474.473 8  -1384253.139 8  21092820.166    21092827.448    21092820.593
       205.000         186.000
  -2937955.892 7  -2289283.165 6  22804883.051    22804892.297    22804883.209
        35.000          24.000
   -860758.639 6   -670708.665 6  23832714.497    23832724.877    23832714.327
        24.000          11.000
  -2417986.882 8  -1884155.609 8  20381563.497    20381572.400    20381563.709
       297.000         294.000
   6468959.320 7   5040723.738 7  22660311.091    22660320.060    22660311.508
        80.000          36.000
   4505357.112 7   3510686.157 6  22973654.019    22973662.473    22973654.236
        52.000          31.000
  11221334.409 6   8743910.645 5  24014297.698    24014303.847    24014298.306
        18.000           5.000
         -.59716                  24862175.907                    24862176.772
        14.000
  -2227494.971 6  -1735699.817 6  23685052.647    23685061.318    23685052.957
        20.000          13.000
 03 10 28  1  8 30.0000000  0  9G13G31G27G11G 1G20G 3G 2G28
  -9468884.843 8  -7378343.331 8  21168919.664    21168925.983    21168919.418
       209.000         153.000
  -1764590.554 8  -1374992.548 8  21095081.207    21095088.449    21095081.593
       220.000         193.000
  -2966468.596 7  -2311500.609 6  22799457.223    22799466.136    22799457.321
        33.000          24.000
   -880820.324 6   -686341.128 6  23828896.811    23828907.444    23828896.742
        25.000          10.000
  -2425683.483 8  -1890153.029 8  20380098.834    20380107.799    20380099.113
       270.000         254.000
   6549326.427 7   5103347.518 7  22675603.306    22675613.594    22675603.891
        75.000          44.000
   4568124.743 7   3559596.131 6  22985598.257    22985606.784    22985598.222
        53.000          31.000
  11315554.801 6   8817329.196 5  24032227.114    24032233.735    24032227.434
        20.000           5.000
  -2291646.113 6  -1785687.341 6  23672845.258    23672853.268    23672845.506
        21.000          13.000
 03 10 28  1  9  0.0000000  0  9G13G31G27G11G 1G20G 3G 2G28
  -9535015.330 8  -7429873.555 8  21156335.429    21156341.897    21156335.164
       209.000         159.000
  -1752234.246 8  -1365364.422 8  21097432.738    21097439.887    21097433.237
       204.000         181.000
  -2995070.805 7  -2333787.799 6  22794014.331    22794023.035    22794014.701
        32.000          24.000
   -901056.437 6   -702109.520 6  23825045.900    23825057.010    23825046.056
        28.000          11.000
  -2432882.692 8  -1895762.771 8  20378729.020    20378737.972    20378729.354
       284.000         271.000
   6629745.109 7   5166011.451 7  22690904.913    22690916.039    22690905.450
        59.000          37.000
   4631276.295 7   3608805.265 7  22997615.653    22997623.971    22997615.739
        55.000          32.000
  11409689.483 6   8890680.959 4  24050140.575    24050145.890    24050141.441
        21.000           3.000
  -2355457.150 6  -1835409.841 6  23660702.106    23660710.186    23660702.420
        21.000          15.000
 03 10 28  1  9 30.0000000  0 10G13G31G27G11G 1G20G 3G 2G 8G28
  -9600806.896 8  -7481139.690 8  21143815.786    21143822.352    21143815.446
       212.000         165.000
  -1739393.560 8  -1355358.927 8  21099876.271    21099883.731    21099876.671
       203.000         179.000
  -3023751.931 7  -2356136.492 6  22788556.362    22788564.979    22788556.511
        32.000          24.000
   -921455.025 6   -718004.502 6  23821164.183    23821175.451    23821163.929
        28.000          12.000
  -2439572.519 8  -1900975.589 8  20377455.666    20377464.738    20377455.941
       263.000         248.000
   6710223.487 7   5228721.889 7  22706221.003    22706230.315    22706221.669
        70.000          33.000
   4694820.940 7   3658320.688 6  23009707.549    23009715.909    23009707.622
        55.000          31.000
  11503747.567 6   8963973.033 4  24068039.482    24068043.991    24068039.763
        23.000           3.000
         -.36116                  24849307.081                    24849307.494
        12.000
  -2418916.865 6  -1884858.829 6  23648626.427    23648633.693    23648626.579
        22.000          14.000
 03 10 28  1 10  0.0000000  0  9G13G31G27G11G 1G20G 3G 2G28
  -9666259.616 8  -7532141.798 8  21131360.543    21131367.088    21131360.203
       210.000         169.000
  -1726069.278 8  -1344975.828 8  21102411.433    21102418.662    21102411.882
       198.000         174.000
  -3052515.092 7  -2378549.115 6  22783082.473    22783091.458    22783082.728
        33.000          24.000
   -942018.058 6   -734027.635 6  23817250.822    23817262.468    23817250.699
        26.000          12.000
  -2445754.237 8  -1905792.271 8  20376279.257    20376288.121    20376279.561
       280.000         272.000
   6790755.748 7   5291474.362 7  22721546.678    22721555.387    22721547.222
        79.000          34.000
   4758754.459 7   3708139.151 7  23021873.599    23021882.222    23021873.702
        55.000          33.000
  11597724.694 6   9037202.041 4  24085922.202    24085926.793    24085922.812
        23.000           3.000
  -2482026.985 6  -1934035.276 6  23636616.736    23636624.351    23636617.420
        21.000          12.000
 03 10 28  1 10 30.0000000  0 10G13G31G27G11G 1G20G 3G 2G 8G28
  -9731405.123 8  -7582904.518 8  21118963.592    21118970.173    21118963.272
       201.000         170.000
  -1712297.089 8  -1334243.597 8  21105031.689    21105038.726    21105032.150
       216.000         188.000
  -3081394.989 7  -2401052.722 6  22777586.791    22777595.567    22777586.632
        34.000          24.000
   -962778.479 6   -750204.526 6  23813300.016    23813311.494    23813299.881
        25.000          11.000
  -2451462.376 8  -1910240.361 8  20375193.266    20375202.228    20375193.533
       280.000         280.000
   6871304.680 7   5354239.838 7  22736873.155    22736883.693    22736873.753
        66.000          37.000
   4823040.717 7   3758232.410 7  23034107.073    23034115.573    23034107.342
        56.000          33.000
  11691584.338 6   9110339.501 4  24103783.373    24103787.127    24103783.731
        23.000           2.000
         -.18216                  24840619.319                    24840619.678
        12.000
  -2544821.948 6  -1982966.367 6  23624666.887    23624674.554    23624667.376
        23.000          14.000
 03 10 28  1 11  0.0000000  0  9G13G31G27G11G 1G20G 3G 2G28
  -9796147.208 8  -7633352.871 8  21106643.467    21106650.162    21106643.218
       194.000         176.000
  -1697984.957 8  -1323091.289 8  21107755.129    21107762.281    21107755.546
       213.000         184.000
  -3110298.245 7  -2423574.543 6  22772086.475    22772095.142    22772086.507
        34.000          24.000
   -983641.731 6   -766461.577 6  23809330.274    23809341.599    23809329.669
        27.000          12.000
  -2456601.105 8  -1914244.540 8  20374215.186    20374224.301    20374215.298
       260.000         256.000
   6951960.999 7   5417089.036 7  22752220.839    22752231.979    22752221.422
        64.000          38.000
   4887771.776 7   3808672.280 7  23046424.955    23046433.202    23046425.148
        57.000          33.000
  11785418.253 6   9183456.911 4  24121639.196    24121641.828    24121640.008
        22.000           1.000
  -2607208.453 6  -2031579.728 6  23612795.911    23612802.902    23612796.206
        22.000          13.000
 03 10 28  1 11 30.0000000  0  9G13G31G27G11G 1G20G 3G 8G28
  -9860573.414 8  -7683555.067 8  21094383.535    21094390.311    21094383.295
       188.000         177.000
  -1683221.529 8  -1311587.170 8  21110564.628    21110571.591    21110565.018
       217.000         186.000
  -3139315.635 7  -2446185.310 6  22766564.698    22766573.289    22766564.751
        33.000          24.000
  -1004696.705 6   -782867.990 6  23805323.825    23805334.853    23805323.673
        27.000          13.000
  -2461259.909 8  -1917874.679 8  20373328.796    20373337.646    20373329.057
       273.000         276.000
   7032631.277 7   5479949.127 7  22767573.092    22767582.439    22767573.770
        74.000          33.000
   4952855.637 7   3859387.064 7  23058809.757    23058818.063    23058810.069
        55.000          33.000
         -.16216                  24831858.983                    24831859.982
        11.000
  -2669275.856 6  -2079944.749 6  23600985.342    23600993.362    23600985.749
        21.000          12.000
 03 10 28  1 12  0.0000000  0  9G13G31G27G11G 1G20G 3G 2G28
  -9924669.413 8  -7733499.954 8  21082186.289    21082193.203    21082185.927
       183.000         180.000
  -1667996.266 8  -1299723.606 8  21113462.072    21113469.043    21113462.504
       214.000         182.000
  -3168435.647 7  -2468876.047 6  22761023.215    22761031.659    22761023.705
        32.000          25.000
  -1025930.912 6   -799414.045 6  23801282.991    23801293.836    23801282.763
        28.000          16.000
  -2465426.431 8  -1921121.324 8  20372535.882    20372544.779    20372536.271
       269.000         274.000
   7113324.284 7   5542826.944 6  22782928.476    22782937.478    22782929.046
        70.000          27.000
   5018302.228 7   3910384.508 7  23071263.660    23071272.136    23071263.781
        54.000          32.000
         -.82316         -.26614  24157285.431    24157289.477    24157285.675
        21.000           1.000
  -2731009.986 6  -2128049.275 6  23589237.569    23589245.841    23589237.752
        21.000          12.000
 03 10 28  1 12 30.0000000  0  9G13G31G27G11G 1G20G 3G 8G28
  -9988429.132 8  -7783182.758 8  21070053.081    21070059.954    21070052.742
       182.000         185.000
  -1652303.578 8  -1287495.249 8  21116448.061    21116455.024    21116448.556
       224.000         189.000
  -3197655.046 7  -2491644.239 6  22755462.736    22755471.164    22755463.010
        32.000          27.000
  -1047339.220 6   -816095.788 6  23797209.101    23797219.731    23797209.131
        27.000          14.000
  -2469095.676 8  -1923980.511 8  20371837.602    20371846.633    20371837.931
       269.000         276.000
   7194041.035 7   5605723.367 6  22798287.495    22798297.682    22798288.107
        62.000          29.000
   5084113.683 7   3961666.257 7  23083787.108    23083795.683    23083787.351
        53.000          32.000
          .16715                  24822999.323                    24822999.619
         9.000
  -2792408.192 6  -2175892.169 6  23577553.893    23577561.990    23577554.417
        22.000          15.000
 03 10 28  1 13  0.0000000  0  9G13G31G27G11G 1G20G 3G 2G28
 -10051854.777 8  -7832605.318 8  21057983.586    21057990.437    21057983.194
       184.000         183.000
  -1636151.854 8  -1274910.346 8  21119522.242    21119529.283    21119522.680
       215.000         177.000
  -3226978.913 7  -2514493.846 6  22749882.296    22749891.022    22749882.423
        32.000          28.000
  -1068925.744 6   -832916.403 6  23793101.078    23793111.836    23793101.201
        28.000          15.000
  -2472271.623 8  -1926455.237 8  20371233.282    20371242.236    20371233.525
       272.000         281.000
   7274773.635 7   5668632.225 7  22813650.167    22813660.165    22813650.745
        67.000          35.000
   5150283.187 7   4013227.037 6  23096379.054    23096387.189    23096379.191
        55.000          31.000
         -.79016         -.54414  24192849.121    24192854.481    24192849.788
        18.000           2.000
  -2853475.125 6  -2223476.956 6  23565932.537    23565941.459    23565932.603
        21.000          14.000
 03 10 28  1 13 30.0000000  0  9G13G31G27G11G 1G20G 3G 2G28
 -10114938.692 8  -7881761.575 8  21045979.195    21045985.927    21045978.959
       183.000         178.000
  -1619532.490 8  -1261960.425 8  21122685.067    21122692.181    21122685.465
       214.000         175.000
  -3256402.640 7  -2537421.278 6  22744283.041    22744291.738    22744282.980
        33.000          29.000
  -1090684.164 6   -849870.947 6  23788960.635    23788971.560    23788960.456
        29.000          15.000
  -2474948.147 8  -1928540.753 8  20370723.773    20370732.750    20370724.068
       272.000         284.000
   7355524.148 7   5731555.099 6  22829016.718    22829026.139    22829017.164
        70.000          31.000
   5216814.233 7   4065069.552 6  23109039.437    23109047.453    23109039.691
        55.000          31.000
     93277.802 6     72684.138 4  24210599.711    24210605.185    24210600.415
        17.000           3.000
  -2914205.909 6  -2270800.064 6  23554376.477    23554385.823    23554376.691
        21.000          16.000
 03 10 28  1 14  0.0000000  0 10G13G31G27G11G 1G20G 3G 2G 8G28
 -10177670.689 8  -7930643.344 8  21034041.549    21034048.138    21034041.355
       194.000         194.000
  -1602440.563 8  -1248642.532 8  21125937.876    21125945.269    21125938.295
       217.000         185.000
  -3285919.366 7  -2560421.193 6  22738666.289    22738674.857    22738666.268
        33.000          30.000
  -1112606.320 6   -866953.074 6  23784789.049    23784799.779    23784788.945
        29.000          14.000
  -2477117.616 8  -1930231.213 8  20370311.102    20370319.941    20370311.383
       273.000         277.000
   7436296.595 7   5794495.101 6  22844386.769    22844395.850    22844387.488
        70.000          31.000
   5283712.001 7   4117197.857 6  23121769.079    23121777.608    23121769.338
        52.000          30.000
    186451.727 6    145287.257 4  24228330.329    24228334.824    24228330.327
        16.000           3.000
         -.80016                  24809521.092                    24809521.782
        11.000
  -2974592.326 6  -2317854.732 6  23542885.324    23542895.372    23542885.882
        21.000          15.000
 03 10 28  1 14 30.0000000  0  9G13G31G27G11G 1G20G 3G 2G28
 -10240041.194 8  -7979243.740 8  21022172.757    21022179.450    21022172.465
       190.000         189.000
  -1584867.304 8  -1234949.617 8  21129282.215    21129289.882    21129282.645
       211.000         184.000
  -3315521.126 7  -2583487.381 6  22733033.116    22733041.927    22733033.210
        33.000          29.000
  -1134682.795 6   -884155.431 6  23780588.090    23780598.634    23780588.024
        30.000          13.000
  -2478770.900 8  -1931519.442 8  20369996.318    20370005.323    20369996.553
       272.000         277.000
   7517096.233 7   5857456.306 6  22859761.679    22859771.011    22859762.256
        61.000          26.000
   5350982.940 7   4169616.931 6  23134569.940    23134578.561    23134570.111
        50.000          29.000
    279527.402 6    217813.805 5  24246042.253    24246048.368    24246042.758
        17.000           5.000
  -3034626.589 6  -2364635.252 6  23531461.995    23531471.766    23531462.274
        22.000          16.000
 03 10 28  1 15  0.0000000  0 10G13G31G27G11G 1G20G 3G 2G 8G28
 -10302052.991 8  -8027564.523 8  21010372.254    21010378.883    21010372.079
       195.000         196.000
  -1566819.499 8  -1220887.018 8  21132717.055    21132724.827    21132717.520
       206.000         189.000
  -3345214.718 6  -2606625.129 6  22727382.410    22727391.213    22727382.795
        31.000          30.000
  -1156918.925 6   -901482.204 6  23776356.305    23776367.318    23776356.367
        26.000          12.000
  -2479913.564 8  -1932409.745 8  20369778.746    20369787.703    20369779.037
       271.000         275.000
   7597914.096 7   5920431.804 7  22875140.210    22875149.942    22875140.917
        63.000          32.000
   5418618.733 7   4222320.287 6  23147440.821    23147448.786    23147441.030
        49.000          28.000
    372496.615 6    290257.406 5  24263732.708    24263738.732    24263733.506
        14.000           4.000
          .04716                  24800417.967                    24800418.134
        12.000
  -3094313.559 6  -2411144.828 6  23520104.843    23520113.628    23520104.837
        24.000          17.000
 03 10 28  1 15 30.0000000  0  9G13G31G27G11G 1G20G 3G 2G28
 -10363680.255 8  -8075585.684 8  20998645.016    20998651.512    20998644.764
       196.000         186.000
  -1548273.409 8  -1206436.135 8  21136246.670    21136254.470    21136247.027
       201.000         172.000
  -3374976.490 6  -2629816.008 6  22721718.725    22721727.450    22721718.938
        31.000          31.000
  -1179289.549 6   -918913.755 6  23772099.077    23772110.133    23772099.322
        25.000          13.000
  -2480520.969 8  -1932882.973 8  20369663.347    20369672.049    20369663.595
       275.000         274.000
   7678770.462 7   5983437.302 6  22890526.695    22890535.837    22890527.177
        66.000          31.000
   5486641.396 7   4275325.058 6  23160385.240    23160393.002    23160385.475
        50.000          28.000
    465381.335 6    362635.112 4  24281408.888    24281414.716    24281409.380
        13.000           3.000
  -3153629.782 6  -2457365.416 6  23508817.202    23508826.414    23508817.506
        25.000          19.000
 03 10 28  1 16  0.0000000  0 10G31G27G11G13G 1G20G 3G 2G 8G28
  -1529251.147 8  -1191613.583 8  21139866.562    21139874.194    21139867.052
       196.000         163.000
  -3404829.908 7  -2653078.316 6  22716037.858    22716046.582    22716037.769
        32.000          31.000
  -1201816.660 6   -936467.272 6  23767812.279    23767823.343    23767812.806
        26.000          13.000
 -10424943.255 8  -8123322.939 8  20986987.023    20986993.390    20986986.651
       213.000         197.000
  -2480615.510 8  -1932956.568 8  20369645.017    20369654.022    20369645.160
       269.000         272.000
   7759639.537 7   6046452.709 6  22905915.050    22905924.372    22905915.571
        65.000          28.000
   5555025.768 7   4328611.662 6  23173398.251    23173406.446    23173398.402
        49.000          30.000
    558156.519 6    434927.526 5  24299062.545    24299068.780    24299063.077
        11.000           4.000
         -.50816                  24791227.103                    24791227.211
        11.000
  -3212598.437 6  -2503315.193 6  23497596.400    23497605.013    23497596.951
        26.000          19.000
 03 10 28  1 16 30.0000000  0  9G31G27G11G13G 1G20G 3G 2G28
  -1509745.877 8  -1176413.906 8  21143577.517    21143585.297    21143577.887
       210.000         190.000
  -3434768.323 7  -2676406.866 7  22710340.637    22710349.545    22710340.614
        33.000          32.000
  -1224492.491 6   -954136.624 6  23763497.328    23763508.298    23763497.674
        28.000          14.000
 -10485833.067 8  -8170769.434 8  20975400.086    20975406.278    20975399.868
       215.000         193.000
  -2480189.573 8  -1932624.588 8  20369726.151    20369734.892    20369726.409
       269.000         266.000
   7840525.200 7   6109481.076 6  22921306.496    22921315.099    22921307.030
        61.000          25.000
   5623777.152 7   4382184.300 7  23186480.809    23186489.512    23186480.975
        46.000          32.000
    650827.363 6    507138.643 5  24316696.490    24316704.298    24316697.483
        10.000           5.000
  -3271211.584 6  -2548987.649 6  23486442.458    23486451.432    23486443.035
        23.000          17.000
 03 10 28  1 17  0.0000000  0 10G31G27G11G13G 1G20G 3G 2G 8G28
  -1489767.989 8  -1160846.943 8  21147379.394    21147387.225    21147379.985
       195.000         162.000
  -3464798.701 7  -2699807.073 7  22704626.234    22704635.202    22704626.545
        33.000          34.000
  -1247322.778 6   -971926.291 6  23759152.805    23759163.579    23759152.776
        29.000          14.000
 -10546353.787 8  -8217928.385 8  20963883.289    20963889.520    20963883.086
       217.000         197.000
  -2479249.095 8  -1931891.672 8  20369905.011    20369913.844    20369905.229
       267.000         267.000
   7921417.907 7   6172514.964 6  22936699.352    22936707.845    22936699.812
        63.000          27.000
   5692886.921 7   4436036.234 6  23199631.716    23199640.324    23199631.852
        44.000          31.000
    743385.302 5    579261.749 4  24334309.413    24334319.275    24334309.899
         9.000           1.000
         -.62816                  24781940.076                    24781940.149
        11.000
  -3329476.628 6  -2594388.886 6  23475354.287    23475363.794    23475354.553
        23.000          18.000
 03 10 28  1 17 30.0000000  0  8G31G27G11G13G 1G20G 3G28
  -1469292.074 8  -1144892.115 8  21151276.308    21151284.139    21151276.752
       206.000         175.000
  -3494897.167 7  -2723260.326 7  22698898.618    22698907.483    22698899.045
        33.000          34.000
  -1270281.417 6   -989815.950 6  23754783.484    23754794.182    23754783.632
        27.000          13.000
 -10606478.793 8  -8264779.015 8  20952441.958    20952448.174    20952441.748
       218.000         200.000
  -2477769.189 8  -1930738.423 8  20370186.436    20370195.433    20370186.668
       261.000         266.000
   8002338.629 7   6235570.621 6  22952097.947    22952106.546    22952098.508
        67.000          31.000
   5762377.222 7   4490184.624 6  23212855.531    23212863.261    23212855.657
        44.000          29.000
  -3387369.206 6  -2639499.919 6  23464338.010    23464346.660    23464338.585
        24.000          20.000
 03 10 28  1 18  0.0000000  0  9G31G27G11G13G 1G20G 3G 8G28
  -1448330.498 8  -1128558.795 8  21155265.521    21155273.281    21155265.995
       208.000         172.000
  -3525076.267 7  -2746776.410 7  22693155.501    22693164.505    22693155.887
        33.000          34.000
  -1293379.910 6  -1007814.574 6  23750387.533    23750398.581    23750387.646
        25.000          13.000
 -10666218.053 8  -8311329.147 8  20941074.040    20941080.241    20941073.771
       221.000         202.000
  -2475761.561 8  -1929173.940 8  20370568.579    20370577.311    20370568.863
       267.000         266.000
   8083272.127 7   6298636.086 6  22967498.637    22967507.492    22967499.298
        61.000          29.000
   5832233.945 7   4544618.624 6  23226148.731    23226156.347    23226148.800
        44.000          30.000
         -.42116                  24772564.254                    24772564.125
        10.000
  -3444901.749 6  -2684330.624 6  23453389.605    23453398.457    23453389.829
        24.000          16.000
 03 10 28  1 18 30.0000000  0  9G31G27G11G13G 1G20G 3G 2G28
  -1426906.521 8  -1111865.158 8  21159342.577    21159350.330    21159342.935
       196.000         154.000
  -3555359.283 7  -2770373.463 7  22687392.669    22687401.514    22687392.845
        36.000          34.000
  -1316640.534 6  -1025939.575 6  23745961.165    23745971.985    23745961.382
        23.000          12.000
 -10725591.482 8  -8357594.101 8  20929775.586    20929781.772    20929775.383
       227.000         211.000
  -2473248.646 8  -1927215.745 8  20371046.534    20371055.494    20371046.817
       265.000         270.000
   8164192.539 7   6361691.374 6  22982897.191    22982905.485    22982897.794
        62.000          27.000
   5902431.857 7   4599318.487 6  23239506.596    23239514.509    23239506.911
        40.000          31.000
         -.72215          .16315  24387032.893    24387040.957    24387033.258
         8.000           5.000
  -3502097.004 6  -2728898.653 6  23442506.008    23442514.758    23442505.944
        23.000          16.000
 03 10 28  1 19  0.0000000  0  9G31G27G11G13G 1G20G 3G 2G28
  -1404982.826 8  -1094781.835 8  21163514.568    21163522.394    21163515.011
       209.000         172.000
  -3585709.271 7  -2794022.697 7  22681617.256    22681625.917    22681617.318
        37.000          33.000
  -1340024.349 6  -1044160.500 6  23741511.530    23741522.183    23741511.528
        28.000          14.000
 -10784560.020 8  -8403543.609 8  20918554.225    20918560.414    20918553.988
       219.000         207.000
  -2470192.479 8  -1924834.250 8  20371628.161    20371637.026    20371628.481
       267.000         271.000
   8245134.258 7   6424763.298 6  22998299.381    22998307.148    22998299.888
        59.000          24.000
   5973006.434 7   4654311.860 7  23252936.319    23252944.520    23252936.411
        38.000          33.000
     92138.386 5     71796.939 5  24404566.455    24404574.001    24404567.123
         9.000           6.000
  -3558917.472 6  -2773174.734 6  23431693.900    23431703.254    23431694.374
        27.000          22.000
 03 10 28  1 19 30.0000000  0 10G31G27G11G13G 1G20G 3G 8G 2G28
  -1382557.343 8  -1077308.408 8  21167782.635    21167790.928    21167783.067
       205.000         166.000
  -3616121.498 7  -2817720.413 7  22675830.283    22675838.635    22675830.701
        38.000          32.000
  -1363525.786 6  -1062473.100 6  23737039.267    23737049.977    23737039.698
        31.000          15.000
 -10843115.976 8  -8449171.446 8  20907411.116    20907417.477    20907410.714
       224.000         220.000
  -2466587.787 8  -1922025.313 8  20372314.139    20372322.850    20372314.394
       273.000         271.000
   8326099.158 7   6487853.260 6  23013706.165    23013714.145    23013706.611
        57.000          24.000
   6043960.279 7   4709600.710 7  23266438.179    23266446.495    23266438.319
        38.000          34.000
         -.55116                  24758321.396                    24758321.497
        12.000
    184186.476 6    143522.782 5  24422084.167    24422089.084    24422084.359
        10.000           5.000
  -3615359.171 6  -2817156.156 6  23420953.622    23420963.716    23420953.658
        26.000          20.000
 03 10 28  1 20  0.0000000  0  9G31G27G11G13G 1G20G 3G 2G28
  -1359681.239 8  -1059483.304 8  21172136.209    21172144.562    21172136.606
       198.000         162.000
  -3646649.654 7  -2841508.451 7  22670020.884    22670029.139    22670021.304
        40.000          32.000
  -1387196.738 6  -1080917.837 6  23732534.746    23732545.265    23732534.977
        31.000          14.000
 -10901310.986 8  -8494518.244 8  20896337.051    20896343.359    20896336.706
       216.000         212.000
  -2462487.530 8  -1918830.229 8  20373094.378    20373103.090    20373094.653
       277.000         274.000
   8407030.961 7   6550917.496 6  23029106.667    23029114.947    23029107.225
        57.000          27.000
   6115237.955 7   4765141.895 7  23280001.854    23280010.018    23280002.190
        39.000          34.000
    276088.294 6    215134.669 5  24439571.552    24439577.648    24439571.866
        10.000           5.000
  -3671475.013 6  -2860883.904 6  23410276.651    23410286.313    23410277.208
        25.000          18.000
 03 10 28  1 20 30.0000000  0 10G31G27G11G13G 1G20G 3G 8G 2G28
  -1336321.570 8  -1041281.172 8  21176581.677    21176589.886    21176582.041
       202.000         163.000
  -3677260.187 7  -2865360.674 7  22664195.587    22664204.093    22664195.622
        40.000          32.000
  -1411002.267 6  -1099467.361 6  23728004.180    23728014.984    23728004.179
        29.000          14.000
 -10959108.046 8  -8539554.825 8  20885338.532    20885344.860    20885338.294
       217.000         225.000
  -2457857.186 8  -1915222.110 8  20373975.514    20373984.228    20373975.779
       278.000         276.000
   8487960.639 7   6613980.057 6  23044506.465    23044514.953    23044507.033
        55.000          26.000
   6186871.277 7   4820960.096 7  23293633.371    23293641.361    23293633.739
        40.000          34.000
         -.37116                  24748699.487                    24748699.565
        11.000
    367876.099 6    286657.713 5  24457037.744    24457043.811    24457037.981
        10.000           5.000
  -3727230.240 6  -2904330.557 6  23399667.790    23399677.653    23399668.133
        27.000          21.000
 03 10 28  1 21  0.0000000  0  9G31G27G11G13G 1G20G 3G 2G28
  -1312494.133 8  -1022714.862 8  21181116.246    21181124.565    21181116.691
       207.000         169.000
  -3707967.249 7  -2889288.101 7  22658351.921    22658360.605    22658351.744
        39.000          33.000
  -1434955.089 6  -1118131.681 6  23723446.032    23723456.645    23723446.099
        29.000          15.000
 -11016518.816 8  -8584290.252 8  20874413.314    20874419.822    20874413.058
       213.000         233.000
  -2452710.275 8  -1911211.457 8  20374954.690    20374963.456    20374954.915
       276.000         273.000
   8568871.338 7   6677027.883 6  23059902.993    23059910.744    23059903.518
        57.000          27.000
   6258844.604 7   4877043.280 7  23307329.263    23307337.217    23307329.710
        41.000          34.000
    459534.097 6    358079.596 5  24474479.391    24474486.068    24474480.234
        11.000           6.000
  -3782639.999 6  -2947508.290 6  23389124.190    23389133.971    23389124.434
        24.000          16.000
 03 10 28  1 21 30.0000000  0 10G31G27G11G13G 1G20G 3G 8G 2G28
  -1288189.747 8  -1003776.835 8  21185741.489    21185749.947    21185741.929
       198.000         153.000
  -3738762.235 7  -2913284.030 7  22652491.672    22652500.223    22652491.988
        39.000          32.000
  -1459045.211 6  -1136902.982 6  23718861.436    23718872.230    23718861.420
        29.000          16.000
 -11073533.213 8  -8628717.071 8  20863563.839    20863570.410    20863563.488
       218.000         244.000
  -2447037.698 8  -1906791.211 8  20376034.364    20376042.845    20376034.582
       282.000         271.000
   8649768.292 7   6740064.766 6  23075296.754    23075304.301    23075297.201
        52.000          23.000
   6331164.577 7   4933396.642 7  23321091.337    23321099.098    23321091.516
        43.000          33.000
        -1.17916                  24738972.853                    24738972.278
        12.000
    551069.334 6    429405.838 5  24491898.839    24491905.032    24491899.525
        11.000           6.000
  -3837693.133 6  -2990407.307 6  23378648.533    23378658.565    23378649.197
        26.000          20.000
 03 10 28  1 22  0.0000000  0  9G31G27G11G13G 1G20G 3G 2G28
  -1263412.325 8   -984469.586 8  21190456.340    21190464.822    21190456.713
       218.000         175.000
  -3769649.780 7  -2937352.070 6  22646614.047    22646622.316    22646614.636
        38.000          31.000
  -1483275.892 6  -1155783.807 6  23714250.530    23714261.436    23714250.568
        30.000          17.000
 -11130152.705 8  -8672836.221 8  20852789.703    20852796.018    20852789.441
       208.000         221.000
  -2440843.299 8  -1901964.344 8  20377213.046    20377221.678    20377213.264
       279.000         271.000
   8730644.876 7   6803085.799 6  23090686.873    23090694.604    23090687.459
        54.000          26.000
   6403824.422 7   4990014.788 7  23334918.085    23334925.637    23334918.313
        45.000          32.000
    642475.892 6    500631.823 5  24509293.337    24509299.005    24509293.706
        13.000           5.000
  -3892395.498 6  -3033032.994 6  23368239.155    23368249.973    23368239.681
        26.000          20.000
 03 10 28  1 22 30.0000000  0 10G31G27G11G13G 1G20G 3G 8G 2G28
  -1238175.882 8   -964805.069 8  21195258.960    21195267.490    21195259.414
       209.000         158.000
  -3800641.463 7  -2961501.248 6  22640716.327    22640724.471    22640716.921
        39.000          30.000
  -1507657.385 7  -1174782.106 6  23709610.914    23709621.524    23709610.823
        32.000          16.000
 -11186385.323 8  -8716653.533 8  20842088.680    20842094.965    20842088.490
       219.000         241.000
  -2434138.181 8  -1896739.517 8  20378488.685    20378497.390    20378488.954
       271.000         267.000
   8811486.777 7   6866079.756 6  23106070.439    23106078.614    23106070.682
        52.000          26.000
   6476810.794 7   5046887.325 6  23348807.064    23348814.484    23348807.399
        47.000          30.000
         -.33716                  24729136.147                    24729136.213
        12.000
    733740.557 6    571747.191 4  24526659.027    24526666.178    24526659.355
        13.000           3.000
  -3946757.798 6  -3075393.343 6  23357894.404    23357904.867    23357894.736
        26.000          20.000
 03 10 28  1 23  0.0000000  0  9G31G27G11G13G 1G20G 3G 2G28
  -1212454.290 8   -944762.274 8  21200153.642    21200161.950    21200154.060
       214.000         161.000
  -3831712.052 7  -2985711.909 6  22634803.604    22634811.685    22634803.394
        38.000          29.000
  -1532163.062 7  -1193877.215 6  23704947.360    23704958.099    23704947.509
        33.000          16.000
 -11242204.813 8  -8760149.210 8  20831466.587    20831472.988    20831466.418
       218.000         246.000
  -2426896.374 8  -1891096.495 8  20379866.940    20379875.243    20379867.184
       275.000         262.000
   8892316.276 7   6929063.928 6  23121451.616    23121459.591    23121452.333
        49.000          24.000
   6550147.056 7   5104032.545 6  23362762.206    23362769.791    23362762.574
        46.000          28.000
    824886.876 6    642770.386 4  24544004.438    24544009.386    24544005.167
        14.000           3.000
  -4000755.936 6  -3117470.173 6  23347618.642    23347629.010    23347619.092
        25.000          18.000
 03 10 28  1 23 30.0000000  0 10G31G27G11G13G 1G20G 3G 8G 2G28
  -1186267.339 8   -924357.071 8  21205137.008    21205145.347    21205137.480
       211.000         154.000
  -3862879.994 7  -3009998.439 6  22628872.273    22628880.459    22628871.822
        39.000          28.000
  -1556809.714 7  -1213082.200 6  23700257.233    23700267.465    23700257.183
        32.000          14.000
 -11297626.115 8  -8803334.470 8  20820920.102    20820926.452    20820919.904
       210.000         234.000
  -2419135.743 8  -1885049.179 8  20381343.679    20381352.110    20381343.956
       277.000         264.000
   8973112.579 7   6992022.384 6  23136826.425    23136834.203    23136826.965
        55.000          29.000
   6623813.026 7   5161434.747 6  23376780.117    23376788.010    23376780.249
        47.000          28.000
         -.65516                  24719191.739                    24719192.311
        12.000
    915894.884 6    713685.806 4  24561322.962    24561328.089    24561323.449
        14.000           3.000
  -4054407.528 6  -3159276.720 6  23337409.003    23337419.981    23337408.943
        24.000          18.000
 03 10 28  1 24  0.0000000  0  9G31G27G11G13G 1G20G 3G 2G28
  -1159606.926 8   -903582.709 8  21210210.451    21210218.794    21210210.927
       229.000         170.000
  -3894137.468 7  -3034354.732 6  22622924.085    22622932.172    22622924.365
        39.000          27.000
  -1581588.487 6  -1232390.173 6  23695541.614    23695552.360    23695541.805
        30.000          15.000
 -11352640.014 8  -8846202.559 8  20810451.452    20810457.570    20810451.240
       212.000         232.000
  -2410848.188 8  -1878591.277 8  20382920.414    20382929.069    20382920.613
       269.000         263.000
   9053880.008 7   7054958.154 6  23152195.894    23152203.266    23152196.543
        46.000          20.000
   6697814.101 7   5219098.003 6  23390862.133    23390870.090    23390862.321
        50.000          28.000
   1006770.921 6    784498.393 4  24578615.391    24578620.635    24578615.918
        14.000           3.000
  -4107704.024 6  -3200806.086 6  23327267.160    23327277.921    23327267.785
        25.000          20.000
 03 10 28  1 24 30.0000000  0  9G31G27G11G13G 1G20G 3G 2G28
  -1132475.447 8   -882441.043 8  21215373.176    21215381.528    21215373.593
       223.000         167.000
  -3925486.427 7  -3058782.317 6  22616958.595    22616966.554    22616959.559
        37.000          27.000
  -1606499.699 6  -1251801.315 6  23690801.025    23690811.687    23690800.889
        29.000          14.000
 -11407244.865 8  -8888751.813 8  20800060.476    20800066.579    20800060.152
       213.000         227.000
  -2402035.067 8  -1871723.822 8  20384597.612    20384605.998    20384597.868
       274.000         261.000
   9134614.920 7   7117868.702 6  23167559.428    23167566.514    23167559.756
        53.000          25.000
   6772146.684 7   5277019.563 6  23405007.334    23405014.966    23405007.678
        51.000          26.000
   1097511.782 6    855205.638 4  24595882.387    24595887.986    24595883.142
        13.000           3.000
  -4160648.538 6  -3242061.313 6  23317191.965    23317202.834    23317192.329
        26.000          22.000
 03 10 28  1 25  0.0000000  0 10G31G27G11G13G 1G20G 3G 8G 2G28
  -1104896.436 8   -860950.963 8  21220621.181    21220629.627    21220621.476
       219.000         167.000
  -3956948.789 7  -3083298.262 6  22610971.221    22610979.261    22610971.740
        37.000          28.000
  -1631564.099 6  -1271331.863 6  23686030.989    23686041.794    23686030.838
        27.000          15.000
 -11461460.639 8  -8930997.786 8  20789743.564    20789749.699    20789743.303
       227.000         251.000
  -2392717.940 8  -1864463.660 8  20386370.562    20386378.982    20386370.805
       276.000         263.000
   9215292.040 7   7180734.131 6  23182911.618    23182918.913    23182912.048
        51.000          25.000
   6846786.662 7   5335180.694 6  23419210.855    23419217.892    23419211.116
        52.000          25.000
        -1.12816         -.25714  24704064.535    24704072.622    24704064.134
        11.000           1.000
   1188093.879 6    925789.175 4  24613119.969    24613124.927    24613120.711
        15.000           3.000
  -4213263.443 6  -3283059.965 6  23307180.218    23307190.457    23307180.389
        26.000          20.000
 03 10 28  1 25 30.0000000  0  9G31G27G11G13G 1G20G 3G 2G28
  -1076824.109 8   -839076.395 8  21225963.212    21225971.672    21225963.527
       213.000         165.000
  -3988478.776 7  -3107866.914 6  22604971.075    22604979.187    22604971.245
        38.000          28.000
  -1656734.491 6  -1290945.068 6  23681241.205    23681251.740    23681241.215
        28.000          15.000
 -11515239.992 8  -8972904.024 8  20779509.869    20779516.050    20779509.579
       217.000         240.000
  -2382850.850 8  -1856775.021 8  20388248.199    20388256.674    20388248.486
       279.000         264.000
   9295954.488 7   7243588.101 6  23198261.031    23198268.924    23198261.569
        46.000          24.000
   6921777.844 7   5393615.502 6  23433480.868    23433488.012    23433481.282
        49.000          25.000
   1278561.275 6    996283.338 4  24630335.336    24630340.801    24630335.499
        15.000           3.000
  -4265501.462 6  -3323764.521 6  23297239.654    23297249.742    23297240.125
        28.000          23.000
 03 10 28  1 26  0.0000000  0 10G31G27G11G13G 1G20G 3G 8G 2G28
  -1048295.415 8   -816845.995 8  21231391.969    21231400.389    21231392.369
       225.000         178.000
  -4020113.246 7  -3132516.997 6  22598951.233    22598959.165    22598951.407
        39.000          29.000
  -1682045.918 6  -1310668.201 6  23676424.656    23676435.090    23676424.674
        29.000          16.000
 -11568616.271 8  -9014496.122 8  20769352.750    20769358.968    20769352.431
       211.000         237.000
  -2372469.993 8  -1848685.964 8  20390223.719    20390231.991    20390223.974
       285.000         265.000
   9376563.209 7   7306400.317 6  23213600.028    23213607.371    23213600.679
        47.000          25.000
   6997081.495 7   5452293.770 6  23447810.597    23447818.142    23447810.691
        48.000          25.000
         -.30416         -.85314  24693839.258    24693848.714    24693839.860
        10.000           2.000
   1368875.571 6   1066658.230 4  24647521.253    24647525.447    24647522.012
        14.000           2.000
  -4317400.353 6  -3364204.815 6  23287362.897    23287373.098    23287362.919
        29.000          23.000
 03 10 28  1 26 30.0000000  0 10G31G27G11G13G 1G20G 3G 8G 2G28
  -1019294.369 8   -794247.877 8  21236910.848    21236919.212    21236911.370
       221.000         169.000
  -4051834.246 7  -3157234.528 6  22592914.811    22592922.576    22592915.003
        38.000          29.000
  -1707479.337 6  -1330486.406 6  23671584.980    23671595.355    23671584.926
        28.000          15.000
 -11621569.141 8  -9055758.105 8  20759276.324    20759282.437    20759276.082
       215.000         245.000
  -2361557.424 8  -1840182.609 8  20392300.114    20392308.516    20392300.303
       284.000         265.000
   9457132.844 7   7369181.976 6  23228931.788    23228938.841    23228932.183
        45.000          23.000
   7072713.472 7   5511227.868 6  23462202.800    23462210.584    23462203.060
        47.000          25.000
    -27093.008 5                  24688683.790                    24688684.393
         9.000
   1459053.326 6   1136926.668 4  24664680.790    24664686.179    24664681.542
        10.000           1.000
  -4368942.537 6  -3404367.290 6  23277554.474    23277564.502    23277554.940
        28.000          21.000
 03 10 28  1 27  0.0000000  0  8G31G27G11G13G 1G20G 3G28
   -989818.833 8   -771279.928 8  21242519.648    21242528.194    21242520.043
       219.000         171.000
  -4083639.891 7  -3182018.023 6  22586862.208    22586869.978    22586862.451
        38.000          29.000
  -1733031.799 6  -1350397.396 6  23666722.577    23666733.046    23666722.552
        27.000          16.000
 -11674094.612 8  -9096686.947 8  20749280.957    20749287.211    20749280.682
       222.000         261.000
  -2350110.798 8  -1831263.118 8  20394478.437    20394486.862    20394478.736
       287.000         269.000
   9537662.792 7   7431932.709 6  23244256.072    23244263.249    23244256.390
        42.000          21.000
   7148673.308 7   5570417.442 6  23476657.417    23476665.213    23476657.681
        47.000          24.000
  -4420125.836 6  -3444250.042 6  23267813.640    23267824.538    23267813.943
        26.000          21.000
 03 10 28  1 27 30.0000000  0  9G31G27G11G13G 1G20G 3G 2G28
   -959841.546 8   -747920.821 8  21248223.873    21248232.417    21248224.199
       217.000         166.000
  -4115502.395 7  -3206845.843 6  22580798.726    22580806.697    22580798.949
        38.000          30.000
  -1758673.490 6  -1370377.864 6  23661842.983    23661853.668    23661843.250
        26.000          18.000
 -11726163.329 8  -9137260.126 8  20739372.579    20739378.909    20739372.370
       210.000         247.000
  -2338101.957 8  -1821905.523 8  20396763.581    20396772.027    20396763.804
       287.000         272.000
   9618178.090 7   7494672.061 6  23259577.483    23259584.860    23259578.205
        44.000          26.000
   7224986.709 7   5629882.543 6  23491179.302    23491186.684    23491179.671
        47.000          23.000
         -.33616         -.17814  24698928.813    24698934.841    24698929.199
        11.000           2.000
  -4470923.506 6  -3483832.721 6  23258146.818    23258157.382    23258147.101
        25.000          19.000
 03 10 28  1 28  0.0000000  0 10G31G27G11G13G 1G20G 3G 8G 2G28
   -929369.881 8   -724176.478 8  21254022.556    21254030.782    21254023.006
       226.000         168.000
  -4147427.901 7  -3231722.768 7  22574723.318    22574731.470    22574723.708
        38.000          32.000
  -1784409.613 6  -1390431.979 6  23656945.704    23656956.283    23656945.606
        26.000          17.000
 -11777778.562 8  -9177479.856 8  20729550.683    20729556.875    20729550.508
       217.000         262.000
  -2325537.139 8  -1812114.715 8  20399154.477    20399162.909    20399154.671
       284.000         269.000
   9698669.661 7   7557392.802 6  23274894.062    23274901.995    23274894.674
        39.000          24.000
   7301645.563 7   5689616.824 6  23505766.859    23505773.971    23505766.998
        45.000          21.000
          .02616         -.37514  24673066.985    24673074.761    24673068.132
        10.000           2.000
     89813.944 6     69985.081 4  24716019.949    24716024.809    24716020.194
        11.000           1.000
  -4521341.424 6  -3523119.651 6  23248553.330    23248563.555    23248553.913
        26.000          21.000
 03 10 28  1 28 30.0000000  0  9G31G27G11G13G 1G20G 3G 8G28
   -898443.286 8   -700077.941 8  21259907.868    21259916.045    21259908.384
       226.000         163.000
  -4179454.672 7  -3256678.613 6  22568629.009    22568637.067    22568629.347
        39.000          31.000
  -1810276.938 6  -1410588.347 6  23652023.241    23652033.877    23652023.340
        26.000          17.000
 -11828976.138 8  -9217374.153 8  20719808.237    20719814.513    20719807.930
       218.000         264.000
  -2312454.264 8  -1801920.255 8  20401644.136    20401652.526    20401644.393
       286.000         267.000
   9779096.428 7   7620062.835 6  23290199.026    23290206.973    23290199.300
        32.000          18.000
   7378609.297 7   5749588.649 6  23520412.562    23520419.513    23520412.653
        44.000          20.000
    -27645.376 6    -21542.376 4  24667806.249    24667815.409    24667806.936
        11.000           3.000
  -4571417.426 6  -3562139.984 6  23239024.592    23239034.107    23239024.939
        28.000          19.000
 03 10 28  1 29  0.0000000  0 10G31G27G11G13G 1G20G 3G 8G 2G28
   -867043.270 8   -675610.278 8  21265882.872    21265891.057    21265883.366
       227.000         163.000
  -4211564.232 7  -3281698.988 7  22562518.958    22562526.786    22562519.427
        41.000          32.000
  -1836255.586 6  -1430831.438 6  23647079.392    23647090.383    23647079.701
        25.000          19.000
 -11879735.350 8  -9256926.772 8  20710148.999    20710155.425    20710148.681
       212.000         273.000
  -2298834.965 8  -1791307.795 8  20404235.633    20404244.185    20404235.815
       281.000         266.000
   9859474.906 7   7682695.584 6  23305494.627    23305502.196    23305495.146
        40.000          22.000
   7455894.187 7   5809810.724 6  23535119.476    23535126.368    23535119.779
        44.000          21.000
    -55437.359 6    -43198.157 4  24662517.416    24662526.463    24662518.410
        10.000           3.000
         -.67916                  24750116.468                    24750116.316
        12.000
  -4621133.533 6  -3600879.851 6  23229564.297    23229573.407    23229564.960
        29.000          21.000
 03 10 28  1 29 30.0000000  0  9G31G27G11G13G 1G20G 3G 8G28
   -835161.011 8   -650766.801 8  21271949.700    21271957.838    21271950.055
       225.000         162.000
  -4243746.646 7  -3306776.147 7  22556394.592    22556402.344    22556394.931
        41.000          32.000
  -1862333.954 6  -1451152.183 6  23642117.340    23642128.047    23642117.311
        28.000          20.000
 -11930044.503 8  -9296128.799 8  20700575.438    20700582.004    20700575.095
       211.000         282.000
  -2284668.963 8  -1780269.320 8  20406931.270    20406939.801    20406931.441
       282.000         265.000
   9939811.941 7   7745296.005 6  23320782.356    23320789.302    23320782.973
        42.000          25.000
   7533508.256 7   5870289.307 6  23549889.001    23549895.912    23549889.477
        44.000          20.000
    -83367.932 5    -64962.020 4  24657201.829    24657210.584    24657203.112
         9.000           1.000
  -4670480.261 6  -3639332.031 6  23220174.590    23220182.528    23220175.032
        28.000          14.000
 03 10 28  1 30  0.0000000  0  8G31G27G11G13G 1G20G 3G28
   -802814.502 8   -625561.489 8  21278104.963    21278112.915    21278105.324
       224.000         159.000
  -4276019.103 7  -3331923.487 7  22550253.054    22550261.122    22550252.964
        40.000          33.000
  -1888527.986 6  -1471563.032 6  23637132.392    23637143.223    23637132.266
        29.000          19.000
 -11979917.584 8  -9334990.684 8  20691084.654    20691091.187    20691084.354
       208.000         278.000
  -2269973.687 8  -1768818.439 8  20409727.870    20409736.177    20409728.074
       286.000         260.000
  10020087.174 7   7807848.145 6  23336057.995    23336065.240    23336058.648
        38.000          20.000
   7611431.869 7   5931009.103 6  23564717.218    23564724.359    23564717.545
        42.000          20.000
  -4719474.319 6  -3677509.068 6  23210850.646    23210860.413    23210851.260
        28.000          19.000
 03 10 28  1 30 30.0000000  0  9G31G27G11G13G 1G20G 3G 2G28
   -769997.342 8   -599989.436 8  21284349.731    21284357.629    21284350.135
       220.000         160.000
  -4308373.971 7  -3357135.045 7  22544096.278    22544104.082    22544096.659
        40.000          34.000
  -1914828.745 6  -1492056.977 6  23632127.651    23632138.205    23632127.473
        28.000          20.000
 -12029346.017 8  -9373506.237 8  20681678.888    20681685.180    20681678.591
       223.000         295.000
  -2254741.385 8  -1756949.065 8  20412626.193    20412634.771    20412626.418
       277.000         262.000
  10100305.725 7   7870356.091 6  23351323.379    23351330.694    23351323.706
        40.000          20.000
   7689670.296 7   5991974.211 6  23579605.106    23579612.537    23579605.336
        40.000          19.000
         -.50216         -.19614  24801058.812    24801063.500    24801058.835
        11.000           2.000
  -4768108.786 6  -3715405.803 6  23201595.370    23201605.691    23201595.963
        31.000          24.000
 03 10 28  1 31  0.0000000  0 10G31G27G11G13G 1G20G 3G 8G 2G28
   -736714.361 8   -574054.415 8  21290683.099    21290691.122    21290683.575
       215.000         163.000
  -4340815.159 7  -3382413.857 7  22537923.058    22537930.881    22537923.760
        40.000          34.000
  -1941238.787 6  -1512636.153 6  23627101.883    23627112.394    23627101.857
        30.000          21.000
 -12078331.274 8  -9411676.426 8  20672357.215    20672363.456    20672356.975
       219.000         288.000
  -2238976.060 8  -1744664.352 8  20415626.221    20415634.681    20415626.463
       280.000         259.000
  10180460.974 7   7932814.773 6  23366576.494    23366583.701    23366576.867
        42.000          20.000
   7768217.302 7   6053179.774 6  23594552.092    23594559.156    23594552.297
        38.000          18.000
         -.13216          .10914  24641080.026    24641087.893    24641080.405
        11.000           1.000
     88939.057 6                  24817984.404                    24817984.894
        11.000
  -4816388.518 6  -3753026.254 6  23192407.435    23192418.378    23192407.442
        25.000          19.000
 03 10 28  1 31 30.0000000  0  8G31G27G11G13G 1G20G 3G28
   -702976.424 8   -547764.895 8  21297102.861    21297111.079    21297103.316
       209.000         165.000
  -4373352.579 7  -3407767.658 7  22531731.203    22531739.228    22531731.547
        41.000          36.000
  -1967766.858 6  -1533307.276 6  23622053.691    23622063.998    23622053.691
        29.000          20.000
 -12126881.125 8  -9449507.290 8  20663118.117    20663124.429    20663117.737
       215.000         282.000
  -2222687.710 8  -1731972.085 8  20418725.877    20418734.145    20418726.075
       285.000         255.000
  10260540.393 7   7995214.411 6  23381815.177    23381822.137    23381815.655
        43.000          21.000
   7847060.870 7   6114616.423 6  23609555.624    23609562.134    23609555.977
        37.000          16.000
  -4864323.723 6  -3790378.328 6  23183285.712    23183296.249    23183286.085
        29.000          23.000
 03 10 28  1 32  0.0000000  0  9G31G27G11G13G 1G20G 3G 2G28
   -668744.550 8   -521090.498 8  21303616.573    21303624.845    21303616.991
       203.000         162.000
  -4405946.152 7  -3433165.222 7  22525528.683    22525536.944    22525528.564
        40.000          37.000
  -1994371.677 6  -1554038.148 6  23616990.883    23617000.756    23616990.847
        29.000          18.000
 -12174953.054 8  -9486965.728 8  20653970.300    20653976.371    20653969.983
       223.000         294.000
  -2205836.258 8  -1718841.040 8  20421932.535    20421940.937    20421932.808
       283.000         259.000
  10340580.889 7   8057583.572 6  23397045.914    23397053.152    23397046.089
        39.000          18.000
   7926238.609 7   6176313.462 6  23624622.481    23624628.862    23624622.739
        35.000          16.000
         -.31715         -.57014  24851747.460    24851754.929    24851747.494
         8.000           1.000
  -4911874.238 6  -3827430.575 6  23174237.520    23174248.093    23174237.996
        24.000          16.000
 03 10 28  1 32 30.0000000  0  9G31G27G11G13G 1G20G 3G 8G28
   -634052.111 8   -494057.224 8  21310218.158    21310226.334    21310218.611
       203.000         160.000
  -4438628.248 7  -3458631.755 7  22519309.785    22519317.793    22519309.752
        40.000          38.000
  -2021083.894 6  -1574852.743 6  23611907.772    23611917.332    23611907.703
        30.000          18.000
 -12222578.060 8  -9524075.991 8  20644907.446    20644913.509    20644907.086
       215.000         280.000
  -2188454.172 8  -1705296.513 8  20425240.264    20425248.635    20425240.479
       285.000         262.000
  10420547.626 7   8119895.141 6  23412263.471    23412270.438    23412263.821
        41.000          19.000
   8005715.824 7   6238243.855 6  23639746.114    23639752.929    23639746.460
        33.000          15.000
         -.28815         -.35914  24624695.489    24624705.567    24624696.562
         8.000           2.000
  -4959072.133 7  -3864207.621 6  23165255.447    23165265.889    23165255.831
        32.000          25.000
 03 10 28  1 33  0.0000000  0  9G31G27G11G13G 1G20G 3G 8G28
   -598906.851 8   -466671.110 8  21316906.215    21316914.099    21316906.701
       212.000         160.000
  -4471405.616 7  -3484172.509 7  22513072.206    22513080.446    22513072.946
        41.000          39.000
  -2047908.900 6  -1595755.250 6  23606803.169    23606812.563    23606803.210
        30.000          19.000
 -12269760.693 8  -9560841.549 8  20635928.712    20635934.838    20635928.356
       210.000         272.000
  -2170548.484 8  -1691343.984 8  20428647.526    20428655.802    20428647.742
       284.000         259.000
  10500431.050 7   8182141.725 6  23427464.883    23427472.346    23427465.347
        38.000          18.000
   8085483.620 6   6300400.696 6  23654925.359    23654932.553    23654925.670
        31.000          15.000
    -29016.964 5    -22610.338 5  24619174.158    24619183.176    24619175.846
         9.000           5.000
  -5005925.209 7  -3900715.862 6  23156340.223    23156349.318    23156340.379
        32.000          23.000
 03 10 28  1 33 30.0000000  0  9G31G27G11G13G 1G20G 3G 8G28
   -563304.675 8   -438928.960 8  21323680.989    21323688.743    21323681.410
       216.000         159.000
  -4504273.044 7  -3509783.426 7  22506817.647    22506825.697    22506817.780
        41.000          37.000
  -2074840.135 6  -1616740.524 6  23601677.787    23601687.734    23601677.850
        30.000          19.000
 -12316493.497 8  -9597256.584 8  20627035.785    20627041.728    20627035.471
       214.000         278.000
  -2152114.259 8  -1676979.615 8  20432155.491    20432163.694    20432155.770
       285.000         261.000
  10580234.012 7   8244325.828 6  23442650.931    23442658.177    23442651.318
        39.000          19.000
   8165544.765 6   6362786.112 6  23670160.655    23670167.979    23670160.770
        29.000          15.000
    -58198.428 5    -45348.749 4  24613620.042    24613628.961    24613620.656
         8.000           2.000
  -5052429.222 6  -3936952.141 6  23147489.966    23147499.161    23147490.136
        31.000          23.000
 03 10 28  1 34  0.0000000  0 10G31G27G11G13G 1G20G 3G 8G 2G28
   -527232.962 8   -410820.938 8  21330544.970    21330552.800    21330545.315
       214.000         160.000
  -4537216.548 7  -3535453.626 7  22500548.640    22500556.735    22500548.731
        42.000          37.000
  -2101862.477 6  -1637796.815 6  23596535.544    23596545.452    23596535.504
        31.000          19.000
 -12362760.705 8  -9633308.696 8  20618231.130    20618237.136    20618230.800
       215.000         290.000
  -2133137.738 8  -1662192.671 8  20435766.712    20435774.944    20435766.964
       292.000         264.000
  10659967.213 7   8306455.525 6  23457823.441    23457830.709    23457824.012
        34.000          15.000
   8245910.756 6   6425409.064 6  23685453.719    23685461.257    23685454.117
        26.000          16.000
    -87531.528 6    -68205.113 4  24608038.154    24608045.353    24608038.936
        10.000           1.000
          .09415                  24918926.434                    24918927.040
         8.000
  -5098570.641 6  -3972905.903 6  23138708.516    23138718.447    23138708.886
        31.000          24.000
 03 10 28  1 34 30.0000000  0  8G31G27G11G13G 1G20G 3G28
   -490681.457 8   -382339.059 8  21337500.508    21337508.214    21337500.942
       214.000         160.000
  -4570224.896 7  -3561174.339 7  22494267.743    22494275.307    22494268.101
        42.000          37.000
  -2128963.214 6  -1658914.175 6  23591378.289    23591388.348    23591378.067
        30.000          21.000
 -12408548.867 8  -9668987.515 8  20609517.740    20609523.753    20609517.456
       218.000         299.000
  -2113607.728 8  -1646974.438 8  20439482.862    20439491.313    20439483.106
       284.000         264.000
  10739639.938 7   8368538.301 6  23472984.696    23472992.025    23472985.204
        36.000          17.000
   8326590.429 6   6488276.435 6  23700806.277    23700813.568    23700806.768
        25.000          15.000
  -5144339.231 6  -4008569.405 6  23129998.622    23130008.430    23129998.890
        29.000          22.000
 03 10 28  1 35  0.0000000  0  9G31G27G11G13G 1G20G 3G 8G28
   -453686.652 8   -353511.760 8  21344540.203    21344547.946    21344540.658
       208.000         159.000
  -4603333.250 7  -3586972.954 7  22487967.353    22487974.940    22487968.019
        43.000          38.000
  -2156176.225 7  -1680118.980 6  23586199.695    23586209.961    23586199.629
        32.000          23.000
 -12453891.531 8  -9704319.146 8  20600889.231    20600894.973    20600888.999
       209.000         274.000
  -2093559.981 8  -1631352.779 8  20443297.886    20443306.126    20443298.145
       289.000         260.000
  10819213.648 7   8430543.946 6  23488126.944    23488134.051    23488127.468
        36.000          18.000
   8407545.790 6   6551358.630 6  23716211.147    23716218.706    23716211.624
        25.000          14.000
         -.38216                  24596785.162                    24596784.294
        10.000
  -5189769.994 6  -4043969.591 6  23121353.061    23121362.772    23121353.338
        31.000          25.000
 03 10 28  1 35 30.0000000  0  8G31G27G11G13G 1G20G 3G28
   -416256.171 8   -324344.978 8  21351662.675    21351670.545    21351663.050
       201.000         157.000
  -4636548.121 7  -3612854.562 7  22481646.624    22481654.358    22481646.982
        43.000          39.000
  -2183506.566 7  -1701415.231 6  23580998.994    23581009.188    23580999.006
        32.000          23.000
 -12498792.981 8  -9739306.991 8  20592344.441    20592350.123    20592344.193
       221.000         305.000
  -2073001.219 8  -1615332.911 8  20447210.162    20447218.408    20447210.337
       294.000         264.000
  10898678.851 7   8492464.857 6  23503249.099    23503256.338    23503249.747
        38.000          18.000
   8488768.028 6   6614648.787 6  23731667.414    23731674.150    23731667.464
        24.000          14.000
  -5234870.409 7  -4079112.525 6  23112770.771    23112780.541    23112770.943
        34.000          27.000
 03 10 28  1 36  0.0000000  0  9G31G27G11G13G 1G20G 3G 8G28
   -378358.387 8   -294814.065 8  21358874.270    21358882.032    21358874.673
       199.000         155.000
  -4669836.502 7  -3638793.457 7  22475311.969    22475319.823    22475312.029
        45.000          39.000
  -2210919.852 7  -1722776.074 6  23575782.497    23575792.596    23575782.537
        32.000          24.000
 -12543218.769 8  -9773924.171 8  20583890.257    20583895.908    20583889.978
       227.000         316.000
  -2051898.962 8  -1598889.539 8  20451225.462    20451234.125    20451225.680
       286.000         265.000
  10978066.053 7   8554324.969 6  23518355.799    23518362.725    23518356.119
        34.000          15.000
   8570287.612 6   6678170.639 6  23747180.039    23747186.879    23747180.588
        24.000          14.000
         -.16516                  24585398.081                    24585397.979
        10.000
  -5279608.290 7  -4113973.118 6  23104257.817    23104267.095    23104258.227
        34.000          25.000
 03 10 28  1 36 30.0000000  0  8G31G27G11G13G 1G20G 3G28
   -340017.943 8   -264938.228 8  21366170.219    21366177.857    21366170.699
       199.000         153.000
  -4703221.677 7  -3664807.774 7  22468958.986    22468966.656    22468959.031
        46.000          37.000
  -2238438.315 7  -1744218.853 6  23570545.719    23570555.713    23570545.762
        33.000          25.000
 -12587190.537 8  -9808187.557 8  20575522.613    20575528.074    20575522.369
       221.000         310.000
  -2030277.080 8  -1582041.265 8  20455340.158    20455348.466    20455340.370
       292.000         261.000
  11057349.240 6   8616104.046 6  23533442.984    23533450.423    23533443.477
        31.000          15.000
   8652078.981 6   6741904.264 6  23762744.358    23762751.118    23762744.809
        25.000          15.000
  -5324007.186 7  -4148569.400 6  23095808.935    23095818.031    23095809.280
        35.000          28.000
 03 10 28  1 37  0.0000000  0  9G31G27G11G13G 1G20G 3G 8G28
   -301209.693 8   -234697.874 8  21373555.013    21373562.673    21373555.436
       202.000         152.000
  -4736677.252 7  -3690876.937 7  22462592.698    22462600.141    22462593.090
        46.000          37.000
  -2266033.952 6  -1765721.748 6  23565294.162    23565304.227    23565294.187
        30.000          25.000
 -12630680.177 8  -9842075.477 8  20567246.658    20567252.070    20567246.395
       215.000         298.000
  -2008109.441 8  -1564767.718 8  20459558.386    20459566.663    20459558.600
       290.000         257.000
  11136552.527 7   8677821.077 6  23548514.639    23548521.951    23548515.094
        33.000          16.000
   8734166.176 6   6805868.399 6  23778364.801    23778371.824    23778365.071
        25.000          16.000
         -.44516                  24573886.999                    24573886.966
        10.000
  -5368041.198 6  -4182881.366 6  23087429.321    23087438.224    23087429.822
        31.000          22.000
 03 10 28  1 37 30.0000000  0  8G31G27G11G13G 1G20G 3G28
   -261910.253 8   -204074.780 8  21381033.434    21381040.896    21381033.856
       206.000         148.000
  -4770178.469 7  -3716981.667 7  22456217.505    22456224.977    22456217.981
        46.000          35.000
  -2293680.639 6  -1787264.392 6  23560032.972    23560042.984    23560032.765
        31.000          25.000
 -12673660.427 8  -9875566.304 9  20559067.603    20559073.052    20559067.338
       223.000         321.000
  -1985371.976 8  -1547050.156 8  20463885.023    20463893.462    20463885.210
       285.000         258.000
  11215697.231 7   8739492.482 6  23563575.265    23563582.265    23563575.753
        35.000          15.000
   8816571.167 6   6870080.171 6  23794046.091    23794052.974    23794046.009
        26.000          16.000
  -5411686.126 7  -4216889.914 6  23079123.188    23079132.610    23079123.647
        32.000          27.000
 03 10 28  1 38  0.0000000  0  9G31G27G11G13G 1G20G 3G 8G28
   -222194.573 8   -173127.348 8  21388591.037    21388598.302    21388591.521
       205.000         143.000
  -4803798.844 7  -3743179.252 7  22449819.647    22449826.948    22449819.616
        46.000          33.000
  -2321450.735 6  -1808903.229 6  23554748.271    23554758.474    23554748.287
        30.000          26.000
 -12716203.631 8  -9908716.672 9  20550971.765    20550977.235    20550971.444
       228.000         336.000
  -1962138.613 8  -1528946.176 8  20468306.355    20468314.552    20468306.623
       292.000         257.000
  11294707.352 7   8801059.076 6  23578610.083    23578617.168    23578610.677
        34.000          15.000
   8899217.937 6   6934480.333 6  23809772.850    23809780.251    23809773.475
        28.000          17.000
        -1.24116         -.43414  24562257.340    24562264.674    24562257.709
        11.000           2.000
  -5455017.352 6  -4250654.382 6  23070876.868    23070886.383    23070876.969
        31.000          28.000
 03 10 28  1 38 30.0000000  0  9G31G27G11G13G 1G20G 3G 8G28
   -182015.803 8   -141819.067 8  21396236.627    21396243.794    21396237.031
       204.000         140.000
  -4837490.123 7  -3769432.090 7  22443408.225    22443415.452    22443408.597
        46.000          32.000
  -2349295.061 6  -1830599.974 6  23549449.781    23549459.623    23549449.628
        30.000          25.000
 -12758259.563 8  -9941487.287 8  20542968.580    20542973.951    20542968.301
       209.000         293.000
  -1938361.767 8  -1510418.703 8  20472830.790    20472839.063    20472831.036
       289.000         258.000
  11373628.298 7   8862556.180 6  23593627.958    23593635.019    23593628.404
        34.000          15.000
   8982151.897 6   6999104.279 6  23825554.987    23825561.773    23825555.261
        31.000          18.000
    -30817.538 6                  24556393.162                    24556392.581
        12.000
  -5497986.791 7  -4284137.055 6  23062700.200    23062709.654    23062700.635
        32.000          26.000
 03 10 28  1 39  0.0000000  0  8G31G27G11G20G13G 1G 3G28
   -141365.572 8   -110143.419 8  21403971.956    21403979.093    21403972.367
       199.000         138.000
  -4871242.544 7  -3795732.562 7  22436985.377    22436992.503    22436985.852
        44.000          34.000
  -2377202.050 6  -1852345.581 6  23544139.257    23544148.870    23544139.046
        31.000          26.000
  11452467.094 6   8923989.278 6  23608630.251    23608637.194    23608630.693
        30.000          13.000
 -12799816.720 8  -9973869.292 9  20535060.497    20535065.606    20535060.223
       238.000         353.000
  -1914032.161 8  -1491460.513 8  20477460.441    20477468.854    20477460.653
       282.000         260.000
   9065380.524 7   7063957.835 6  23841392.870    23841399.454    23841392.956
        34.000          18.000
  -5540585.138 6  -4317330.527 6  23054594.224    23054603.329    23054594.706
        31.000          23.000
 03 10 28  1 39 30.0000000  0  8G31G27G11G20G 3G13G 1G28
   -100245.131 8    -78101.375 8  21411796.726    21411804.082    21411797.160
       195.000         139.000
  -4905055.745 7  -3822080.399 7  22430550.577    22430558.086    22430550.801
        45.000          34.000
  -2405170.093 6  -1874138.746 6  23538816.875    23538826.583    23538816.795
        31.000          26.000
  11531221.392 7   8985356.562 6  23623616.380    23623623.362    23623616.950
        32.000          15.000
   9148901.563 7   7129039.242 6  23857286.490    23857292.775    23857286.888
        35.000          19.000
 -12840873.670 8 -10005861.668 8  20527247.572    20527252.657    20527247.299
       207.000         292.000
  -1889150.157 8  -1472071.877 8  20482195.372    20482203.619    20482195.640
       286.000         261.000
  -5582813.169 7  -4350235.480 6  23046558.887    23046567.593    23046558.853
        33.000          24.000
 03 10 28  1 40  0.0000000  0  8G31G27G11G13G 1G20G 3G28
    -58652.339 8    -45691.269 8  21419711.462    21419718.914    21419711.984
       191.000         138.000
  -4938926.163 7  -3848472.830 7  22424105.090    22424112.748    22424105.564
        44.000          35.000
  -2433194.335 6  -1895975.730 6  23533484.110    23533493.379    23533483.728
        31.000          24.000
 -12881424.064 8 -10037459.064 9  20519530.718    20519535.918    20519530.391
       228.000         341.000
  -1863712.869 8  -1452250.553 8  20487035.812    20487043.999    20487035.991
       284.000         258.000
  11609892.205 6   9046658.879 6  23638587.141    23638593.558    23638587.620
        31.000          14.000
   9232715.951 7   7194349.223 6  23873235.702    23873242.153    23873236.099
        36.000          18.000
  -5624668.391 7  -4382850.133 6  23038594.518    23038602.685    23038594.914
        34.000          25.000
 03 10 28  1 40 30.0000000  0  9G31G27G11G13G 1G20G 3G 8G28
    -16638.932 8    -12953.415 8  21427706.241    21427713.511    21427706.591
       191.000         136.000
  -4972903.963 7  -3874948.933 7  22417639.256    22417646.784    22417639.595
        43.000          36.000
  -2461323.496 6  -1917894.429 6  23528130.923    23528140.647    23528130.796
        30.000          26.000
 -12921517.701 8 -10068700.769 9  20511901.124    20511906.290    20511900.884
       213.000         321.000
  -1837771.256 8  -1432036.256 8  20491972.367    20491980.516    20491972.592
       287.000         260.000
  11688426.415 6   9107854.745 6  23653530.783    23653537.563    23653531.146
        28.000          13.000
   9316770.982 7   7259846.722 6  23889230.707    23889237.580    23889230.972
        36.000          18.000
         -.83116                  24532645.422                    24532645.219
        12.000
  -5666201.411 7  -4415213.710 6  23030690.857    23030699.361    23030691.117
        33.000          22.000
 03 10 28  1 41  0.0000000  0  8G31G27G11G13G 1G20G 3G28
     25844.463 8     20150.658 8  21435790.553    21435797.622    21435790.958
       189.000         136.000
  -5006938.098 7  -3901468.948 7  22411162.717    22411170.064    22411163.125
        42.000          36.000
  -2489505.455 7  -1939854.277 6  23522767.974    23522777.659    23522767.738
        32.000          26.000
 -12961100.934 8 -10099544.520 8  20504368.413    20504373.463    20504368.122
       205.000         315.000
  -1811275.087 8  -1411389.838 8  20497014.448    20497022.664    20497014.659
       289.000         268.000
  11766871.967 6   9168981.550 6  23668457.944    23668465.141    23668458.664
        26.000          12.000
   9401114.647 7   7325569.138 6  23905280.753    23905287.671    23905281.047
        36.000          18.000
  -5707361.742 6  -4447286.634 6  23022858.066    23022867.320    23022858.373
        31.000          25.000
 03 10 28  1 41 30.0000000  0  9G31G27G11G13G 1G20G 3G 8G28
     68782.722 8     53609.167 8  21443961.280    21443968.522    21443961.709
       186.000         137.000
  -5041042.080 7  -3928043.385 7  22404672.776    22404680.138    22404672.944
        43.000          37.000
  -2517752.546 7  -1961864.885 6  23517392.608    23517402.355    23517392.509
        34.000          28.000
 -13000186.156 8 -10130000.099 9  20496930.252    20496935.321    20496929.938
       210.000         336.000
  -1784238.650 8  -1390322.439 8  20502159.122    20502167.478    20502159.331
       283.000         268.000
  11845213.017 6   9230027.078 6  23683365.726    23683372.452    23683366.451
        29.000          13.000
   9485730.877 7   7391503.942 6  23921382.666    23921389.442    23921383.003
        36.000          16.000
         -.52016         -.37514  24520584.249    24520591.778    24520584.626
        13.000           3.000
  -5748163.805 6  -4479080.163 6  23015093.571    23015103.092    23015094.092
        31.000          27.000
 03 10 28  1 42  0.0000000  0  9G31G27G11G13G 1G20G 3G 8G28
    112164.643 8     87413.389 8  21452216.245    21452223.777    21452216.714
       183.000         138.000
  -5075225.562 7  -3954679.776 7  22398168.003    22398175.258    22398168.459
        45.000          38.000
  -2546072.863 7  -1983932.531 6  23512003.615    23512013.169    23512003.341
        36.000          29.000
 -13038781.822 8 -10160074.303 9  20489585.647    20489590.466    20489585.500
       215.000         356.000
  -1756672.371 8  -1368842.178 8  20507404.965    20507413.041    20507405.195
       290.000         264.000
  11923436.905 6   9290981.339 6  23698250.914    23698257.062    23698251.502
        31.000          14.000
   9570607.443 7   7457641.601 6  23937534.015    23937540.475    23937534.498
        35.000          15.000
    -31944.632 6    -24891.873 4  24514504.369    24514513.158    24514505.771
        12.000           2.000
  -5788618.635 7  -4510603.071 6  23007394.711    23007404.352    23007394.787
        34.000          31.000
 03 10 28  1 42 30.0000000  0  9G31G27G11G13G 1G20G 3G 8G28
    155991.288 8    121564.129 8  21460556.377    21460563.486    21460556.939
       185.000         136.000
  -5109485.826 7  -3981376.022 7  22391648.345    22391655.731    22391648.586
        44.000          39.000
  -2574462.387 7  -2006054.155 6  23506601.424    23506610.882    23506601.493
        40.000          29.000
 -13076883.800 8 -10189763.953 9  20482334.937    20482339.675    20482334.651
       208.000         336.000
  -1728574.343 8  -1346947.583 8  20512751.916    20512759.831    20512752.236
       290.000         263.000
  12001543.305 6   9351843.779 6  23713113.574    23713120.142    23713114.069
        27.000          13.000
   9655744.165 7   7523981.961 6  23953735.188    23953741.298    23953735.346
        32.000          14.000
    -64060.809 6    -49917.337 4  24508393.760    24508401.661    24508394.451
        12.000           2.000
  -5828724.401 7  -4541853.928 6  22999763.302    22999772.341    22999763.803
        32.000          28.000
 03 10 28  1 43  0.0000000  0 10G31G27G11G13G 1G20G 3G 8G 7G28
    200284.718 8    156078.633 8  21468985.233    21468991.937    21468985.812
       187.000         133.000
  -5143798.948 7  -4008113.414 7  22385118.864    22385125.968    22385119.420
        43.000          38.000
  -2602895.947 7  -2028210.022 6  23501190.670    23501200.072    23501190.736
        41.000          29.000
 -13114466.667 8 -10219049.138 9  20475183.106    20475187.759    20475182.916
       198.000         322.000
  -1699921.721 8  -1324620.807 8  20518204.231    20518212.304    20518204.554
       279.000         265.000
  12079553.802 6   9412631.623 6  23727958.574    23727964.302    23727959.183
        27.000          11.000
   9741162.235 6   7590541.595 6  23969989.809    23969996.009    23969989.733
        29.000          13.000
    -96327.005 6    -75060.029 4  24502254.650    24502261.804    24502255.256
        12.000           3.000
         -.67715                  25421218.473                    25421219.603
         7.000
  -5868458.336 7  -4572814.989 6  22992201.970    22992210.284    22992202.295
        34.000          28.000
 03 10 28  1 43 30.0000000  0  9G31G27G11G13G 1G20G 3G 8G28
    245009.212 8    190929.005 8  21477495.841    21477502.521    21477496.345
       188.000         132.000
  -5178198.916 7  -4034918.504 7  22378572.817    22378579.710    22378573.042
        46.000          38.000
  -2631406.086 7  -2050425.518 6  23495765.447    23495774.496    23495765.473
        44.000          29.000
 -13151562.417 8 -10247954.686 9  20468123.804    20468128.438    20468123.569
       205.000         342.000
  -1670749.525 8  -1301889.205 8  20523755.576    20523763.634    20523755.919
       282.000         266.000
  12157431.251 6   9473315.763 6  23742777.528    23742783.827    23742778.351
        30.000          14.000
   9826825.045 6   7657291.904 6  23986290.616    23986296.915    23986291.094
        27.000          12.000
   -128778.522 6   -100347.522 4  24496079.541    24496086.566    24496079.387
        12.000           3.000
  -5907855.347 7  -4603513.430 6  22984704.277    22984712.601    22984704.636
        34.000          26.000
 03 10 28  1 44  0.0000000  0  9G31G27G11G13G 1G20G 3G 8G28
    290188.104 8    226133.452 8  21486092.852    21486099.861    21486093.234
       186.000         137.000
  -5212660.759 7  -4061771.819 7  22372014.706    22372021.863    22372015.146
        47.000          38.000
  -2659966.886 7  -2072680.521 6  23490330.023    23490339.453    23490330.223
        44.000          29.000
 -13188145.478 8 -10276460.879 9  20461162.100    20461166.725    20461161.833
       201.000         336.000
  -1641033.734 8  -1278734.021 8  20529410.270    20529418.270    20529410.594
       287.000         264.000
  12235197.676 6   9533913.108 6  23757576.193    23757582.253    23757576.923
        30.000          14.000
   9912754.502 6   7724249.990 6  24002642.421    24002648.730    24002642.704
        25.000          11.000
   -161390.719 6   -125760.108 4  24489874.386    24489882.640    24489875.330
        12.000           3.000
  -5946891.787 7  -4633930.996 6  22977275.724    22977283.494    22977276.178
        33.000          23.000
 03 10 28  1 44 30.0000000  0 10G31G27G11G13G 1G20G 3G 8G 7G28
    335843.233 8    261709.015 8  21494780.642    21494787.915    21494781.068
       181.000         142.000
  -5247160.821 7  -4088654.893 7  22365449.547    22365456.848    22365449.853
        48.000          39.000
  -2688553.296 7  -2094955.440 6  23484890.229    23484899.416    23484890.274
        45.000          28.000
 -13224190.738 8 -10304548.034 9  20454303.028    20454307.566    20454302.815
       212.000         361.000
  -1610751.594 8  -1255137.505 8  20535172.593    20535180.671    20535172.919
       283.000         263.000
  12312874.374 6   9594440.571 6  23772356.998    23772362.925    23772357.537
        28.000          11.000
   9998971.589 6   7791432.224 6  24019048.903    24019055.291    24019049.222
        23.000          10.000
   -194140.851 6   -151279.929 4  24483642.147    24483649.142    24483642.943
        12.000           2.000
         -.89515         -.24714  25361370.688    25361375.872    25361371.608
         9.000           2.000
  -5985544.930 7  -4664049.801 6  22969919.598    22969927.657    22969920.104
        37.000          28.000
 03 10 28  1 45  0.0000000  0 10G31G27G11G13G 1G20G 3G 8G 7G28
    381945.497 8    297632.958 8  21503553.652    21503560.834    21503554.155
       175.000         143.000
  -5281726.293 7  -4115588.964 7  22358872.039    22358879.164    22358872.390
        49.000          39.000
  -2717191.106 7  -2117270.403 6  23479440.451    23479449.531    23479440.503
        43.000          25.000
 -13259723.709 8 -10332236.042 9  20447541.492    20447545.962    20447541.262
       201.000         335.000
  -1579931.481 8  -1231121.819 8  20541037.620    20541045.610    20541037.956
       283.000         262.000
  12390431.296 6   9654874.624 6  23787115.569    23787121.942    23787115.847
        27.000          13.000
  10085446.502 6   7858815.339 5  24035504.196    24035511.214    24035504.484
        21.000           9.000
   -227057.348 6   -176929.339 4  24477378.895    24477385.591    24477379.821
        13.000           3.000
   -104954.245 5    -81782.223 4  25341400.018    25341404.950    25341400.405
         8.000           2.000
  -6023843.514 7  -4693892.572 6  22962631.176    22962639.001    22962631.413
        35.000          28.000
 03 10 28  1 45 30.0000000  0 10G31G27G11G13G 1G20G 3G 8G 7G28
    428453.227 8    333872.882 8  21512403.533    21512410.648    21512404.027
       168.000         140.000
  -5316396.976 7  -4142604.986 7  22352274.485    22352281.537    22352274.643
        50.000          41.000
  -2745919.026 7  -2139655.488 6  23473973.524    23473982.420    23473973.622
        41.000          23.000
 -13294782.276 8 -10359554.050 9  20440869.611    20440874.224    20440869.280
       204.000         387.000
  -1548614.397 8  -1206718.847 8  20546997.206    20547005.079    20546997.503
       281.000         260.000
  12467825.689 6   9715182.017 6  23801843.820    23801849.757    23801844.129
        30.000          11.000
  10172136.404 6   7926366.019 5  24052000.477    24052007.561    24052000.840
        19.000           8.000
   -260182.036 6   -202741.069 4  24471075.673    24471083.538    24471076.741
        13.000           3.000
   -210013.784 5   -163646.754 4  25321406.809    25321411.724    25321407.278
         8.000           1.000
  -6061828.638 7  -4723491.269 6  22955403.220    22955410.480    22955403.861
        32.000          23.000
 03 10 28  1 46  0.0000000  0  9G31G27G11G13G 1G20G 3G 8G28
    475392.530 8    370449.050 8  21521335.578    21521342.677    21521336.098
       169.000         140.000
  -5351145.006 7  -4169681.318 7  22345662.030    22345669.268    22345662.217
        53.000          42.000
  -2774707.528 7  -2162087.686 6  23468494.704    23468503.487    23468494.966
        42.000          22.000
 -13329338.800 8 -10386481.206 9  20434293.673    20434298.268    20434293.444
       201.000         365.000
  -1516773.534 8  -1181907.794 8  20553056.067    20553064.131    20553056.403
       279.000         261.000
  12545082.938 6   9775382.504 6  23816544.669    23816550.512    23816545.438
        29.000          11.000
  10259066.580 6   7994103.876 5  24068542.720    24068549.761    24068543.144
        18.000           8.000
   -293487.931 6   -228694.253 5  24464738.200    24464745.513    24464738.689
        13.000           4.000
  -6099472.931 7  -4752824.326 7  22948239.517    22948247.648    22948240.113
        38.000          32.000
 03 10 28  1 46 30.0000000  0 10G31G27G11G13G 1G20G 3G 8G 7G28
    522794.122 8    407385.488 8  21530355.750    21530362.854    21530356.183
       172.000         142.000
  -5385937.565 7  -4196792.304 7  22339041.310    22339048.351    22339041.513
        55.000          43.000
  -2803523.377 7  -2184541.321 6  23463010.933    23463019.818    23463011.120
        43.000          20.000
 -13363358.489 8 -10412989.914 9  20427819.861    20427824.426    20427819.611
       200.000         371.000
  -1484377.384 8  -1156664.009 8  20559220.723    20559228.849    20559220.983
       283.000         263.000
  12622232.826 6   9835499.302 6  23831225.992    23831232.214    23831226.393
        27.000          11.000
  10346266.550 6   8062052.005 5  24085136.355    24085142.763    24085136.624
        19.000           7.000
   -326942.395 6   -254762.784 5  24458372.165    24458379.631    24458371.753
        14.000           5.000
         -.44115         -.99314  25281383.603    25281391.210    25281384.513
         9.000           3.000
  -6136745.676 7  -4781868.070 6  22941146.285    22941155.119    22941146.283
        34.000          27.000
 03 10 28  1 47  0.0000000  0 10G31G27G11G13G 1G20G 3G 8G 7G28
    570652.685 8    444677.970 8  21539463.005    21539470.009    21539463.471
       173.000         141.000
  -5420778.191 7  -4223940.778 7  22332411.182    22332418.513    22332411.493
        55.000          43.000
  -2832368.452 7  -2207017.816 6  23457521.816    23457530.673    23457522.099
        42.000          21.000
 -13396843.983 8 -10439082.603 9  20421447.736    20421452.433    20421447.450
       196.000         369.000
  -1451430.593 8  -1130991.177 8  20565490.479    20565498.447    20565490.832
       282.000         265.000
  12699269.330 6   9895527.743 6  23845885.655    23845891.742    23845886.365
        30.000          12.000
  10433729.787 6   8130205.244 5  24101780.071    24101786.345    24101780.144
        19.000           7.000
   -360551.562 6   -280952.259 5  24451976.692    24451985.735    24451976.441
        12.000           4.000
   -105225.093 5    -81994.295 4  25261361.541    25261366.341    25261361.933
         9.000           2.000
  -6173650.315 7  -4810624.587 6  22934123.505    22934131.875    22934124.132
        33.000          26.000
 03 10 28  1 47 30.0000000  0 10G31G27G11G13G 1G20G 3G 8G 7G28
    618931.578 8    482298.008 8  21548650.108    21548657.086    21548650.559
       173.000         139.000
  -5455701.413 7  -4251153.597 7  22325765.478    22325772.695    22325765.898
        52.000          43.000
  -2861276.000 7  -2229542.951 6  23452020.937    23452029.549    23452020.994
        43.000          20.000
 -13429828.461 8 -10464784.944 9  20415171.320    20415175.914    20415171.157
       196.000         380.000
  -1417968.964 8  -1104917.147 8  20571857.858    20571865.962    20571858.119
       274.000         266.000
  12776155.204 6   9955438.804 6  23860516.994    23860522.222    23860517.630
        29.000          11.000
  10521419.071 6   8198534.657 5  24118466.929    24118472.651    24118467.294
        20.000           7.000
   -394350.431 6   -307289.415 4  24445545.451    24445552.935    24445545.277
        13.000           3.000
   -210527.761 5   -164048.256 4  25241322.998    25241328.209    25241323.488
         9.000           1.000
  -6210223.680 7  -4839123.148 6  22927163.973    22927171.726    22927164.489
        36.000          28.000
 03 10 28  1 48  0.0000000  0  9G31G27G11G13G 1G20G 3G 8G28
    667669.111 8    520275.409 8  21557924.432    21557931.325    21557924.922
       173.000         138.000
  -5490666.950 7  -4278399.392 7  22319111.637    22319118.848    22319112.195
        51.000          44.000
  -2890204.535 7  -2252084.489 6  23446515.811    23446524.790    23446516.117
        44.000          20.000
 -13462270.644 8 -10490064.773 9  20408997.888    20409002.572    20408997.673
       190.000         364.000
  -1383953.413 8  -1078411.511 8  20578330.763    20578338.921    20578331.057
       275.000         269.000
  12852927.592 6  10015261.373 6  23875126.454    23875131.858    23875127.105
        31.000          10.000
  10609371.740 6   8267069.283 5  24135203.819    24135209.502    24135204.405
        21.000           7.000
   -428299.731 6   -333743.882 5  24439084.923    24439094.110    24439085.035
        12.000           4.000
  -6246426.393 7  -4867332.932 6  22920274.881    22920282.502    22920275.155
        38.000          27.000
 03 10 28  1 48 30.0000000  0 10G31G27G11G13G 1G20G 3G 8G 7G28
    716818.007 8    558573.359 8  21567277.000    21567283.889    21567277.499
       168.000         136.000
  -5525720.077 7  -4305713.423 7  22312441.123    22312448.261    22312441.733
        49.000          44.000
  -2919198.357 7  -2274676.955 6  23440998.500    23441007.390    23440998.742
        47.000          21.000
 -13494214.513 8 -10514956.340 9  20402919.338    20402923.972    20402919.133
       197.000         381.000
  -1349430.589 8  -1051510.584 8  20584900.248    20584908.466    20584900.572
       274.000         273.000
  12929538.717 6  10074958.279 6  23889704.649    23889710.071    23889705.060
        27.000          10.000
  10697539.529 6   8335771.543 5  24151981.483    24151987.524    24151981.922
        22.000           7.000
   -462446.351 6   -360352.087 5  24432587.540    24432595.655    24432587.894
        14.000           4.000
         -.53615         -.22714  25201217.696    25201222.659    25201218.000
         8.000           2.000
  -6282305.303 7  -4895290.434 6  22913447.377    22913454.884    22913447.991
        39.000          28.000
 03 10 28  1 49  0.0000000  0 10G27G11G13G 1G31G20G 3G 8G 7G28
  -5560841.081 7  -4333080.352 7  22305757.623    22305764.888    22305757.809
        48.000          43.000
  -2948236.099 7  -2297303.585 6  23435472.426    23435481.367    23435472.673
        46.000          20.000
 -13525638.872 8 -10539442.851 9  20396939.558    20396944.036    20396939.382
       195.000         373.000
  -1314382.271 8  -1024200.176 8  20591569.617    20591577.908    20591569.883
       271.000         274.000
    766395.884 8    597205.576 8  21576711.248    21576718.127    21576711.749
       167.000         136.000
  13006005.497 6  10134542.738 6  23904255.966    23904261.113    23904256.646
        28.000          10.000
  10785939.417 6   8404654.672 5  24168802.909    24168809.628    24168803.420
        22.000           8.000
   -496771.871 6   -387099.811 4  24426055.799    24426064.117    24426056.356
        13.000           3.000
   -105478.773 5    -82191.199 4  25181145.178    25181150.266    25181145.883
         9.000           2.000
  -6317842.303 7  -4922981.683 6  22906684.696    22906692.548    22906685.143
        33.000          23.000
 03 10 28  1 49 30.0000000  0 10G31G27G11G13G 1G20G 3G 8G 7G28
    816388.582 8    636161.027 8  21586224.598    21586231.411    21586225.148
       166.000         137.000
  -5596042.001 7  -4360509.564 7  22299058.875    22299066.149    22299059.177
        49.000          42.000
  -2977328.494 7  -2319972.833 6  23429936.258    23429944.948    23429936.282
        47.000          20.000
 -13556554.835 8 -10563533.037 9  20391056.177    20391060.813    20391056.036
       195.000         382.000
  -1278821.839 8   -996490.723 8  20598336.558    20598344.699    20598336.901
       272.000         272.000
  13082313.073 6  10194003.102 6  23918776.870    23918782.906    23918777.453
        28.000          11.000
  10874556.479 6   8473707.027 5  24185666.669    24185672.953    24185666.654
        24.000           9.000
   -531288.510 6   -413996.094 4  24419487.764    24419495.910    24419489.142
        13.000           3.000
   -211026.856 6   -164436.626 5  25161060.699    25161066.641    25161061.420
        11.000           4.000
  -6353049.499 7  -4950415.518 6  22899984.542    22899992.742    22899985.044
        36.000          27.000
 03 10 28  1 50  0.0000000  0 10G27G11G13G 1G31G20G 3G 8G 7G28
  -5631288.192 7  -4387974.044 7  22292351.777    22292358.891    22292352.246
        49.000          40.000
  -3006440.045 7  -2342656.957 6  23424396.187    23424404.779    23424396.193
        47.000          18.000
 -13586927.123 8 -10587199.516 9  20385276.373    20385281.013    20385276.125
       196.000         381.000
  -1242716.238 8   -968356.445 8  20605207.175    20605215.367    20605207.449
       269.000         274.000
    866828.622 8    675465.062 8  21595822.824    21595829.810    21595823.259
       163.000         137.000
  13158493.226 6  10253364.299 6  23933273.636    23933279.606    23933274.345
        29.000          11.000
  10963421.958 6   8542952.948 5  24202577.263    24202583.052    24202577.468
        25.000           9.000
   -565962.959 6   -441015.176 5  24412889.314    24412898.860    24412890.085
        13.000           4.000
   -316609.283 6   -246709.216 4  25140969.505    25140973.975    25140970.111
        10.000           1.000
  -6387894.784 7  -4977567.415 6  22893353.362    22893361.495    22893353.922
        38.000          31.000
 03 10 28  1 50 30.0000000  0  9G27G11G13G 1G31G20G 3G 8G28
  -5666604.072 7  -4415492.828 7  22285631.216    22285638.390    22285631.617
        50.000          38.000
  -3035593.839 7  -2365374.038 6  23418848.450    23418856.922    23418848.415
        50.000          18.000
 -13616778.895 8 -10610460.238 9  20379595.445    20379599.989    20379595.242
       208.000         409.000
  -1206090.984 8   -939817.248 8  20612176.559    20612185.012    20612176.811
       264.000         276.000
    917689.653 8    715097.137 8  21605501.056    21605508.227    21605501.561
       159.000         134.000
  13234519.167 6  10312605.386 6  23947740.742    23947746.195    23947741.474
        27.000          10.000
  11052508.733 6   8612371.309 5  24219529.310    24219535.733    24219529.577
        26.000           9.000
   -600821.168 6   -468177.409 5  24406256.413    24406266.500    24406257.234
        14.000           7.000
  -6422403.634 7  -5004457.138 6  22886786.188    22886794.162    22886786.497
        36.000          27.000
 03 10 28  1 51  0.0000000  0 10G27G11G13G 1G31G20G 3G 8G 7G28
  -5701989.944 7  -4443066.165 7  22278897.365    22278904.479    22278897.604
        53.000          37.000
  -3064788.752 7  -2388123.164 6  23413292.703    23413300.809    23413292.580
        51.000          17.000
 -13646110.052 8 -10633315.575 9  20374013.812    20374018.195    20374013.536
       185.000         340.000
  -1168947.954 8   -910874.570 8  20619244.708    20619253.020    20619244.952
       270.000         276.000
    968969.039 8    755055.201 8  21615259.174    21615266.129    21615259.588
       161.000         130.000
  13310387.725 6  10371723.920 6  23962177.664    23962183.301    23962178.387
        25.000          10.000
  11141813.433 6   8681959.477 5  24236523.001    24236529.722    24236523.003
        26.000           9.000
   -635865.298 6   -495484.822 5  24399587.827    24399597.060    24399588.686
        13.000           4.000
         -.50216         -.62514  25100752.934    25100761.376    25100754.737
        10.000           2.000
  -6456577.737 7  -5031085.973 6  22880282.844    22880290.300    22880283.162
        35.000          23.000
 03 10 28  1 51 30.0000000  0 10G27G11G13G 1G31G20G 3G 8G 7G28
  -5737441.295 7  -4470690.535 7  22272151.205    22272158.165    22272151.256
        55.000          36.000
  -3094019.242 7  -2410900.033 6  23407730.079    23407738.529    23407729.923
        50.000          17.000
 -13674914.954 8 -10655760.771 9  20368532.410    20368536.649    20368532.163
       218.000         429.000
  -1131284.330 8   -881526.230 8  20626411.839    20626419.889    20626412.121
       268.000         267.000
   1020668.968 8    795340.962 8  21625097.453    21625104.136    21625097.951
       164.000         126.000
  13386100.474 6  10430721.085 6  23976585.185    23976591.130    23976585.749
        26.000          12.000
  11231337.356 6   8751718.488 5  24253558.715    24253565.559    24253559.083
        26.000           9.000
   -671091.014 6   -522933.451 5  24392884.615    24392894.673    24392885.249
        13.000           7.000
   -105743.740 6    -82398.297 4  25080632.563    25080638.981    25080633.041
        11.000           2.000
  -6490414.172 7  -5057451.583 6  22873843.895    22873851.179    22873844.413
        39.000          27.000
 03 10 28  1 52  0.0000000  0 10G27G11G13G 1G31G20G 3G 8G 7G28
  -5772962.448 7  -4498369.311 7  22265391.802    22265398.652    22265392.268
        56.000          37.000
  -3123288.587 7  -2433707.242 6  23402159.879    23402168.959    23402159.749
        45.000          19.000
 -13703197.977 8 -10677799.678 9  20363150.502    20363154.687    20363150.386
       193.000         369.000
  -1093105.975 8   -851776.806 8  20633676.876    20633684.894    20633677.151
       261.000         259.000
   1072783.067 8    835949.436 8  21635014.440    21635021.036    21635015.006
       165.000         124.000
  13461650.198 6  10489591.155 6  23990961.534    23990967.546    23990962.081
        24.000          12.000
  11321073.275 6   8821642.656 6  24270635.491    24270641.876    24270636.004
        27.000          10.000
   -706504.205 6   -550528.149 5  24386145.479    24386155.194    24386146.166
        13.000           6.000
   -211539.679 6   -164837.263 4  25060501.595    25060506.200    25060502.279
        11.000           2.000
  -6523919.140 7  -5083559.027 7  22867467.954    22867475.440    22867468.449
        43.000          34.000
 03 10 28  1 52 30.0000000  0 10G27G11G13G 1G31G20G 3G 8G 7G28
  -5808564.587 7  -4526111.186 7  22258616.974    22258623.895    22258617.181
        56.000          38.000
  -3152606.322 7  -2456552.164 6  23396581.061    23396590.111    23396581.061
        46.000          20.000
 -13730968.426 8 -10699439.214 9  20357866.072    20357870.420    20357865.866
       204.000         417.000
  -1054425.527 8   -821636.098 8  20641037.444    20641045.566    20641037.757
       263.000         261.000
   1125297.964 8    876870.230 8  21645007.427    21645014.201    21645007.992
       162.000         123.000
  13537023.113 6  10548323.471 6  24005304.483    24005310.156    24005305.278
        23.000          12.000
  11411006.935 6   8891720.926 6  24287749.334    24287755.719    24287749.831
        28.000          10.000
   -742116.664 6   -578277.892 5  24379368.347    24379378.853    24379368.670
        14.000           8.000
   -317397.858 5   -247324.855 4  25040357.153    25040363.746    25040357.625
         9.000           3.000
  -6557105.485 7  -5109418.413 6  22861152.884    22861160.357    22861153.411
        36.000          27.000
 03 10 28  1 53  0.0000000  0 10G27G11G13G 1G31G20G 3G 8G 7G28
  -5844215.349 7  -4553890.944 7  22251832.638    22251839.793    22251833.113
        56.000          40.000
  -3181939.599 7  -2479409.207 6  23390999.348    23391008.078    23390999.341
        49.000          19.000
 -13758193.578 8 -10720653.931 9  20352685.544    20352690.118    20352685.369
       191.000         390.000
  -1015212.495 8   -791080.371 8  20648499.364    20648507.438    20648499.649
       265.000         262.000
   1178243.457 8    918126.568 8  21655082.489    21655089.359    21655082.976
       164.000         125.000
  13612248.594 6  10606940.955 6  24019618.991    24019624.917    24019619.378
        23.000          14.000
  11501167.326 6   8961975.882 6  24304906.570    24304912.070    24304907.002
        28.000          10.000
   -777898.258 6   -606159.488 5  24372559.056    24372569.707    24372558.974
        15.000           9.000
   -423283.629 6   -329833.536 5  25020207.044    25020214.561    25020207.740
        10.000           4.000
  -6589941.830 7  -5135004.839 6  22854904.060    22854911.287    22854904.281
        38.000          27.000
 03 10 28  1 53 30.0000000  0 10G27G11G13G 1G31G20G 3G 8G 7G28
  -5879896.084 7  -4581694.073 7  22245042.751    22245049.965    22245043.192
        54.000          42.000
  -3211268.064 7  -2502262.492 6  23385418.086    23385426.588    23385418.099
        50.000          17.000
 -13784854.359 8 -10741429.204 9  20347612.497    20347617.396    20347612.223
       191.000         397.000
   -975449.718 8   -760096.233 8  20656065.801    20656073.822    20656066.097
       261.000         253.000
   1231635.981 8    959731.233 8  21665242.731    21665249.634    21665243.253
       165.000         126.000
  13687342.488 6  10665455.817 6  24033908.509    24033914.277    24033908.891
        20.000          10.000
  11591570.135 6   9032419.722 6  24322109.322    24322114.740    24322109.787
        28.000          10.000
   -813831.193 6   -634159.121 5  24365721.423    24365731.119    24365720.888
        16.000           7.000
   -529177.435 6   -412348.351 5  25000056.843    25000064.144    25000057.073
        10.000           4.000
  -6622411.185 7  -5160305.411 7  22848724.861    22848732.342    22848725.090
        42.000          34.000
 03 10 28  1 54  0.0000000  0 10G27G11G13G 1G31G20G 3G 8G 7G28
  -5915620.820 7  -4609531.515 7  22238244.690    22238251.598    22238245.195
        53.000          44.000
  -3240604.664 7  -2525122.062 6  23379835.591    23379843.770    23379835.726
        52.000          17.000
 -13810963.368 8 -10761774.485 9  20342644.624    20342649.555    20342644.336
       202.000         435.000
   -935152.850 8   -728695.877 8  20663733.991    20663741.868    20663734.314
       267.000         255.000
   1285459.261 8   1001671.534 8  21675484.978    21675491.747    21675485.441
       161.000         125.000
  13762288.009 6  10723854.931 6  24048170.457    24048176.359    24048171.073
        22.000          12.000
  11682198.340 6   9103039.180 5  24339355.214    24339360.413    24339355.299
        26.000           8.000
   -849930.184 6   -662288.024 5  24358851.902    24358862.297    24358851.429
        16.000           9.000
   -635091.888 6   -494879.129 5  24979902.737    24979909.909    24979903.032
        10.000           5.000
  -6654529.705 7  -5185332.741 6  22842612.744    22842620.159    22842613.220
        37.000          26.000
 03 10 28  1 54 30.0000000  0 10G27G11G13G 1G31G20G 3G 8G 7G28
  -5951378.164 7  -4637394.340 7  22231440.259    22231447.323    22231440.714
        53.000          48.000
  -3269936.603 7  -2547978.024 6  23374253.857    23374261.893    23374253.890
        53.000          17.000
 -13836509.173 8 -10781681.124 9  20337784.193    20337789.221    20337783.994
       192.000         393.000
   -894312.601 8   -696872.150 8  20671505.552    20671513.298    20671505.805
       267.000         252.000
   1339722.190 8   1043954.425 8  21685810.743    21685817.404    21685811.222
       157.000         121.000
  13837093.594 6  10782144.884 6  24062405.564    24062411.457    24062406.254
        21.000          13.000
  11773060.011 6   9173840.578 5  24356645.095    24356650.827    24356645.508
        23.000           9.000
   -886185.829 6   -690539.087 6  24351952.761    24351962.755    24351953.401
        17.000          10.000
   -741014.590 6   -577416.323 5  24959746.092    24959752.113    24959746.520
        10.000           4.000
  -6686287.442 7  -5210078.877 6  22836569.466    22836576.492    22836570.010
        35.000          24.000
 03 10 28  1 55  0.0000000  0 10G27G11G13G 1G31G20G 3G 8G 7G28
  -5987159.468 7  -4665275.815 7  22224631.162    22224638.670    22224631.368
        54.000          49.000
  -3299254.294 7  -2570822.836 6  23368674.738    23368682.710    23368674.883
        55.000          18.000
 -13861481.434 8 -10801140.500 9  20333032.380    20333037.603    20333032.125
       199.000         419.000
   -852922.078 8   -664619.643 8  20679381.715    20679389.486    20679382.046
       257.000         239.000
   1394431.047 8   1086584.802 8  21696221.315    21696228.060    21696221.722
       157.000         119.000
  13911765.244 6  10840330.412 6  24076615.786    24076621.271    24076616.666
        21.000          13.000
  11864160.902 6   9244828.384 6  24373980.614    24373986.627    24373980.721
        21.000          10.000
   -922590.005 6   -718905.790 6  24345025.225    24345035.538    24345025.902
        17.000          10.000
   -846935.196 6   -659951.714 5  24939590.592    24939596.454    24939590.274
        11.000           4.000
  -6717677.103 7  -5234538.202 6  22830596.239    22830603.544    22830596.783
        44.000          30.000
 03 10 28  1 55 30.0000000  0 10G27G11G13G 1G31G20G 3G 8G 7G28
  -6023020.862 7  -4693219.716 7  22217806.983    22217814.328    22217807.413
        55.000          50.000
  -3328612.942 7  -2593699.578 6  23363088.045    23363095.986    23363088.123
        56.000          20.000
 -13885935.623 8 -10820195.948 9  20328379.030    20328384.282    20328378.793
       194.000         412.000
   -811039.159 8   -631983.370 8  20687351.470    20687359.246    20687351.739
       263.000         248.000
   1449527.265 8   1129517.009 8  21706705.826    21706712.547    21706706.284
       160.000         120.000
  13986244.349 6  10898365.992 6  24090788.375    24090794.447    24090789.050
        19.000          13.000
  11955441.560 6   9315956.245 6  24391350.567    24391357.086    24391350.890
        20.000          11.000
   -959200.086 6   -747432.800 5  24338058.244    24338068.086    24338059.151
        18.000           8.000
   -952908.284 6   -742527.864 5  24919423.358    24919429.689    24919423.939
        11.000           4.000
  -6748757.471 7  -5258756.755 6  22824681.774    22824689.280    22824682.012
        43.000          29.000
 03 10 28  1 56  0.0000000  0 10G27G11G13G 1G31G20G 3G 8G 7G28
  -6058922.324 7  -4721194.850 7  22210975.512    22210982.266    22210976.001
        57.000          49.000
  -3357971.084 7  -2616575.953 6  23357501.175    23357509.160    23357501.058
        54.000          20.000
 -13909831.372 8 -10838816.135 9  20323832.034    20323837.092    20323831.848
       194.000         413.000
   -768625.956 8   -598933.989 8  20695422.456    20695430.089    20695422.741
       253.000         233.000
   1505048.467 8   1172780.356 8  21717271.278    21717277.855    21717271.815
       165.000         119.000
  14060568.028 6  10956280.296 6  24104932.326    24104937.952    24104932.774
        21.000          13.000
  12046938.831 6   9387252.894 6  24408762.071    24408768.640    24408762.384
        18.000          10.000
   -995977.079 6   -776089.783 6  24331059.756    24331069.357    24331060.865
        17.000          10.000
  -1058892.623 6   -825112.646 4  24899255.678    24899262.158    24899256.135
        10.000           3.000
  -6779488.962 7  -5282703.282 6  22818833.889    22818841.269    22818834.260
        40.000          26.000
 03 10 28  1 56 30.0000000  0 10G27G11G13G 1G31G20G 3G 8G 7G28
  -6094861.080 7  -4749199.029 7  22204136.549    22204143.186    22204136.851
        58.000          49.000
  -3387324.628 7  -2639448.787 6  23351915.346    23351923.396    23351915.206
        54.000          21.000
 -13933165.418 8 -10856998.559 9  20319391.640    20319396.837    20319391.371
       193.000         410.000
   -725681.090 8   -565470.252 8  20703594.485    20703602.072    20703594.832
       249.000         232.000
   1560995.045 8   1216375.177 8  21727917.507    21727923.998    21727918.103
       167.000         118.000
  14134737.044 6  11014074.427 6  24119045.748    24119051.174    24119046.559
        19.000          10.000
  12138652.634 6   9458718.257 6  24426214.662    24426221.286    24426215.008
        17.000          12.000
  -1032919.676 6   -804875.814 6  24324029.362    24324039.339    24324030.293
        17.000          11.000
  -1164883.229 6   -907701.857 4  24879084.643    24879090.803    24879085.716
        10.000           3.000
  -6809870.752 7  -5306377.231 6  22813052.188    22813059.489    22813052.472
        42.000          28.000
 03 10 28  1 57  0.0000000  0 10G27G11G13G 1G31G20G 3G 8G 7G28
  -6130840.913 7  -4777235.205 7  22197289.427    22197296.575    22197289.412
        58.000          49.000
  -3416676.347 7  -2662320.067 6  23346329.622    23346337.998    23346329.587
        54.000          23.000
 -13955941.625 8 -10874746.314 9  20315057.585    20315062.912    20315057.375
       198.000         431.000
   -682210.526 8   -531596.771 8  20711866.342    20711874.051    20711866.647
       263.000         251.000
   1617360.443 8   1260296.360 8  21738643.367    21738649.896    21738643.882
       169.000         116.000
  14208743.791 6  11071742.105 6  24133128.207    24133134.805    24133129.084
        20.000          14.000
  12230575.469 6   9530346.533 6  24443706.869    24443714.018    24443707.040
        17.000          12.000
  -1070033.417 6   -833795.281 6  24316966.104    24316976.322    24316966.522
        18.000          12.000
  -1270883.405 6   -990298.174 5  24858913.023    24858918.619    24858914.344
        11.000           5.000
  -6839909.001 7  -5329783.462 6  22807335.933    22807342.721    22807336.247
        42.000          27.000
 03 10 28  1 57 30.0000000  0 10G27G11G13G 1G31G20G 3G 8G 7G28
  -6166862.652 7  -4805304.064 7  22190434.757    22190441.856    22190435.422
        59.000          50.000
  -3446025.722 7  -2685189.511 6  23340744.634    23340752.779    23340744.809
        55.000          22.000
 -13978160.184 8 -10892059.618 9  20310829.774    20310835.072    20310829.592
       197.000         427.000
   -638217.271 8   -497316.166 8  20720237.763    20720245.522    20720238.029
       248.000         238.000
   1674141.517 8   1304541.424 8  21749448.561    21749454.920    21749449.051
       170.000         113.000
  14282584.985 6  11129280.717 6  24147180.425    24147185.990    24147180.864
        19.000          12.000
  12322703.604 6   9602134.757 6  24461238.395    24461245.258    24461238.849
        16.000          12.000
  -1107319.546 6   -862849.150 6  24309870.613    24309880.811    24309870.904
        18.000          11.000
  -1376893.572 6  -1072902.824 5  24838740.456    24838746.018    24838741.295
        13.000           7.000
  -6869606.073 7  -5352923.857 6  22801684.688    22801691.535    22801685.159
        44.000          27.000
 03 10 28  1 58  0.0000000  0 10G27G11G13G 1G31G20G 3G 8G 7G28
  -6202933.182 7  -4833410.923 7  22183570.868    22183577.711    22183571.522
        58.000          50.000
  -3475379.177 7  -2708062.191 6  23335158.687    23335166.677    23335158.895
        54.000          22.000
 -13999826.938 8 -10908942.747 9  20306706.705    20306711.849    20306706.441
       199.000         430.000
   -593709.752 8   -462634.706 8  20728706.947    20728714.713    20728707.302
       246.000         241.000
   1731328.816 8   1349103.030 8  21760330.779    21760337.191    21760331.292
       165.000         110.000
  14356250.987 6  11186682.879 6  24161198.472    24161204.230    24161199.310
        17.000          12.000
  12415026.776 6   9674074.957 6  24478807.314    24478813.534    24478807.449
        15.000          12.000
  -1144786.753 6   -892044.214 6  24302740.779    24302751.096    24302740.795
        19.000          11.000
  -1482918.659 6  -1155519.067 4  24818563.406    24818567.207    24818563.923
        13.000           3.000
  -6898970.990 7  -5375805.550 6  22796096.713    22796104.033    22796097.093
        39.000          26.000
 03 10 28  1 58 30.0000000  0 10G27G11G13G 1G31G20G 3G 8G 7G28
  -6239057.934 7  -4861560.015 7  22176696.267    22176703.309    22176696.537
        58.000          51.000
  -3504740.532 7  -2730941.006 6  23329571.234    23329579.319    23329571.228
        53.000          23.000
 -14020947.185 8 -10925399.971 9  20302687.516    20302692.609    20302687.284
       197.000         428.000
   -548695.873 8   -427558.703 8  20737272.723    20737280.248    20737273.014
       247.000         232.000
   1788914.243 8   1393974.877 8  21771288.727    21771295.071    21771289.246
       157.000         107.000
  14429733.794 6  11243942.329 6  24175181.682    24175187.118    24175182.076
        19.000          12.000
  12507536.347 6   9746160.413 6  24496411.017    24496417.596    24496411.594
        15.000          12.000
  -1182441.024 6   -921384.945 6  24295575.186    24295585.344    24295575.166
        20.000          12.000
  -1588963.058 6  -1238150.621 5  24798383.380    24798390.587    24798383.572
        13.000           8.000
  -6928010.743 7  -5398433.831 6  22790570.145    22790577.351    22790570.724
        45.000          30.000
 03 10 28  1 59  0.0000000  0 10G27G11G13G 1G31G20G 3G 8G 7G28
  -6275253.305 7  -4889764.133 7  22169808.468    22169815.489    22169808.561
        60.000          52.000
  -3534125.326 7  -2753838.221 6  23323979.434    23323987.520    23323979.356
        54.000          24.000
 -14041537.247 8 -10941444.057 9  20298769.129    20298774.383    20298768.889
       195.000         431.000
   -503193.871 8   -392102.291 8  20745931.197    20745938.710    20745931.386
       255.000         241.000
   1846878.836 8   1439142.181 8  21782319.078    21782325.260    21782319.647
       153.000         106.000
  14503013.990 6  11301043.902 6  24189126.063    24189132.167    24189126.760
        21.000          13.000
  12600212.629 6   9818375.775 6  24514046.744    24514052.564    24514047.052
        15.000          11.000
  -1220300.111 6   -950885.205 6  24288370.438    24288380.345    24288370.924
        21.000          12.000
  -1695041.793 6  -1320809.161 5  24778197.160    24778203.844    24778197.946
        14.000           7.000
  -6956743.778 7  -5420823.208 6  22785102.542    22785109.953    22785103.108
        40.000          31.000
 03 10 28  1 59 30.0000000  0 10G27G11G13G 1G31G20G 3G 8G 7G28
  -6311511.576 7  -4918017.271 7  22162908.833    22162915.883    22162909.290
        63.000          52.000
  -3563524.843 7  -2776746.966 6  23318384.948    23318393.150    23318384.667
        54.000          25.000
 -14061589.013 8 -10957068.704 9  20294953.405    20294958.546    20294953.167
       197.000         432.000
   -457197.989 8   -356260.955 8  20754683.614    20754691.113    20754683.876
       253.000         241.000
   1905227.523 8   1484608.760 8  21793422.358    21793428.649    21793422.845
       150.000         106.000
  14576096.438 6  11357991.299 6  24203033.225    24203039.035    24203033.678
        18.000          12.000
  12693059.990 6   9890724.438 6  24531714.791    24531721.135    24531715.158
        14.000          11.000
  -1258358.075 6   -980540.632 6  24281128.624    24281138.180    24281128.882
        20.000          11.000
  -1801145.452 6  -1403487.061 5  24758005.350    24758011.494    24758006.402
        13.000           6.000
  -6985164.001 7  -5442968.763 6  22779694.535    22779701.080    22779694.911
        41.000          26.000
 03 10 28  2  0  0.0000000  0 10G27G11G13G 1G31G20G 3G 8G 7G28
  -6347795.077 7  -4946290.062 7  22156004.461    22156011.216    22156004.946
        66.000          52.000
  -3592900.026 7  -2799636.802 6  23312795.014    23312803.176    23312795.068
        51.000          24.000
 -14081064.403 8 -10972244.230 9  20291247.347    20291252.350    20291247.070
       197.000         431.000
   -410672.759 8   -320007.103 8  20763536.831    20763544.197    20763537.102
       259.000         250.000
   1963995.484 8   1530402.049 8  21804605.381    21804611.776    21804605.844
       148.000         104.000
  14649016.173 6  11414811.856 6  24216909.711    24216915.478    24216909.962
        20.000          13.000
  12786113.172 6   9963233.475 6  24549422.114    24549427.667    24549422.867
        14.000          10.000
  -1296577.878 6  -1010322.183 6  24273855.539    24273865.345    24273855.700
        20.000          12.000
  -1907235.263 6  -1486154.246 5  24737817.424    24737823.037    24737818.081
        14.000           6.000
  -7013235.577 7  -5464842.496 6  22774352.560    22774359.065    22774352.851
        47.000          31.000
 03 10 28  2  0 30.0000000  0 10G27G11G13G 1G31G20G 3G 8G 7G28
  -6384124.898 7  -4974598.942 7  22149090.974    22149097.529    22149091.108
        71.000          50.000
  -3622270.513 7  -2822522.855 6  23307206.046    23307214.083    23307206.089
        51.000          24.000
 -14099984.405 8 -10986986.995 9  20287646.873    20287651.904    20287646.551
       198.000         431.000
   -363642.004 8   -283359.530 8  20772486.328    20772493.668    20772486.598
       253.000         231.000
   2023158.883 8   1576503.469 8  21815863.864    21815870.129    21815864.453
       151.000         104.000
  14721749.254 6  11471486.921 6  24230750.363    24230756.286    24230750.965
        21.000          12.000
  12879347.403 6  10035883.573 5  24567164.173    24567169.592    24567164.677
        13.000           9.000
  -1334981.879 6  -1040247.239 6  24266547.135    24266556.841    24266548.003
        20.000          11.000
  -2013331.105 6  -1568826.268 5  24717628.008    24717634.647    24717628.682
        14.000           9.000
  -7040982.309 7  -5486463.374 6  22769072.495    22769079.273    22769072.747
        43.000          31.000
 03 10 28  2  1  0.0000000  0 10G27G11G13G 1G31G20G 3G 8G 7G28
  -6420494.064 7  -5002938.496 7  22142170.253    22142176.556    22142170.546
        74.000          47.000
  -3651628.450 7  -2845399.185 6  23301619.597    23301627.484    23301619.729
        48.000          24.000
 -14118341.559 8 -11001291.178 9  20284153.753    20284158.614    20284153.529
       199.000         437.000
   -316100.119 8   -246313.560 8  20781532.908    20781540.269    20781533.232
       253.000         240.000
   2082722.064 8   1622916.409 8  21827198.437    21827204.666    21827199.038
       155.000         105.000
  14794299.931 6  11528019.808 6  24244556.683    24244561.890    24244557.406
        23.000          12.000
  12972766.399 6  10108677.667 5  24584940.786    24584946.917    24584941.348
        13.000           9.000
  -1373564.235 6  -1070311.357 6  24259205.423    24259214.797    24259206.413
        19.000          11.000
  -2119424.744 6  -1651496.988 5  24697439.423    24697445.074    24697439.956
        15.000           8.000
  -7068398.913 7  -5507827.156 6  22763855.563    22763862.331    22763856.069
        43.000          26.000
 03 10 28  2  1 30.0000000  0 10G27G11G13G 1G31G20G 3G 8G 7G28
  -6456903.210 7  -5031309.193 7  22135241.775    22135248.196    22135242.258
        72.000          43.000
  -3680973.436 7  -2868265.360 6  23296035.330    23296043.169    23296035.513
        47.000          25.000
 -14136136.590 8 -11015157.327 9  20280767.321    20280772.163    20280767.063
       197.000         437.000
   -268050.525 8   -208871.999 8  20790676.424    20790683.363    20790676.733
       251.000         222.000
   2142681.641 8   1669638.244 8  21838608.329    21838614.526    21838608.874
       158.000         103.000
  14866664.516 6  11584407.528 5  24258326.711    24258332.754    24258327.461
        18.000           9.000
  13066366.223 6  10181612.670 5  24602752.182    24602758.486    24602752.122
        14.000           8.000
  -1412326.714 6  -1100515.854 6  24251829.080    24251838.472    24251829.955
        18.000          10.000
  -2225518.726 6  -1734169.611 5  24677251.933    24677258.175    24677252.214
        14.000           5.000
  -7095487.545 7  -5528935.172 6  22758700.820    22758707.782    22758701.018
        42.000          28.000
 03 10 28  2  2  0.0000000  0 10G27G11G13G 1G31G20G 3G 8G 7G28
  -6493347.086 7  -5059706.939 7  22128306.478    22128313.036    22128306.609
        72.000          42.000
  -3710299.096 7  -2891116.429 6  23290454.763    23290462.810    23290454.817
        46.000          25.000
 -14153364.262 8 -11028581.378 9  20277488.642    20277493.724    20277488.378
       193.000         439.000
   -219489.925 8   -171032.147 8  20799916.956    20799923.661    20799917.166
       262.000         219.000
   2203040.151 8   1716670.950 7  21850093.989    21850100.116    21850094.372
       154.000          99.000
  14938845.946 6  11640652.541 6  24272062.692    24272068.834    24272063.333
        23.000          13.000
  13160148.866 6  10254690.165 5  24620597.885    24620605.193    24620598.015
        15.000           8.000
  -1451265.122 6  -1130857.380 6  24244418.760    24244428.808    24244419.830
        18.000          10.000
  -2331600.557 6  -1816831.554 5  24657065.769    24657072.056    24657066.372
        15.000           7.000
  -7122245.061 7  -5549785.211 7  22753608.875    22753615.826    22753609.293
        45.000          32.000
 03 10 28  2  2 30.0000000  0 10G27G11G13G 1G31G20G 3G 8G 7G28
  -6529845.116 7  -5088146.900 7  22121361.054    22121367.403    22121361.493
        71.000          42.000
  -3739623.983 7  -2913967.031 6  23284874.457    23284882.403    23284874.497
        46.000          26.000
 -14170043.286 8 -11041577.922 9  20274314.772    20274319.816    20274314.516
       190.000         442.000
   -170440.316 8   -132811.296 8  20809250.313    20809257.148    20809250.514
       258.000         222.000
   2263775.297 8   1763997.123 7  21861651.210    21861657.420    21861651.634
       147.000          97.000
  15010822.062 6  11696737.608 6  24285759.527    24285765.435    24285760.231
        23.000          11.000
  13254091.474 6  10327892.272 5  24638474.915    24638481.351    24638474.964
        16.000           6.000
  -1490399.938 6  -1161351.873 6  24236971.536    24236981.315    24236971.752
        18.000          10.000
  -2437689.829 6  -1899498.944 5  24636877.598    24636885.024    24636878.639
        15.000           8.000
  -7148692.853 7  -5570394.755 6  22748576.375    22748582.769    22748576.376
        44.000          27.000
 03 10 28  2  3  0.0000000  0 10G27G11G13G 1G31G20G 3G 8G 7G28
  -6566397.451 7  -5116629.171 7  22114405.379    22114411.744    22114405.781
        71.000          45.000
  -3768946.881 7  -2936815.968 6  23279294.478    23279302.614    23279294.612
        46.000          28.000
 -14186174.219 8 -11054147.387 9  20271245.077    20271250.017    20271244.736
       190.000         440.000
   -120904.227 8    -94211.418 8  20818676.468    20818683.142    20818676.699
       265.000         232.000
   2324884.070 8   1811614.434 7  21873279.740    21873286.021    21873280.183
       142.000          96.000
  15082589.587 6  11752659.963 5  24299416.520    24299422.909    24299417.117
        19.000           8.000
  13348190.726 6  10401216.449 5  24656380.743    24656387.697    24656381.084
        17.000           6.000
  -1529732.721 6  -1192000.520 6  24229486.598    24229496.450    24229486.546
        19.000          10.000
  -2543786.269 6  -1982171.918 5  24616688.886    24616696.726    24616689.388
        16.000           8.000
  -7174833.942 7  -5590764.677 6  22743601.381    22743608.534    22743601.501
        43.000          29.000
 03 10 28  2  3 30.0000000  0 10G27G11G13G 1G31G20G 3G 8G 7G28
  -6602977.997 7  -5145133.430 7  22107444.311    22107450.855    22107444.497
        74.000          48.000
  -3798240.896 7  -2959642.527 6  23273719.992    23273728.137    23273720.215
        45.000          28.000
 -14201731.003 8 -11066269.467 9  20268284.660    20268289.522    20268284.327
       190.000         437.000
    -70858.011 8    -55214.110 8  20828199.825    20828206.422    20828200.004
       254.000         209.000
   2386389.733 8   1859541.013 7  21884983.836    21884990.286    21884984.272
       139.000          98.000
  15154172.371 6  11808438.456 6  24313038.771    24313045.220    24313039.424
        24.000          12.000
  13442469.252 6  10474680.319 5  24674321.749    24674328.417    24674322.165
        17.000           5.000
  -1569238.685 6  -1222784.173 5  24221968.546    24221978.858    24221968.723
        19.000           9.000
  -2649862.082 6  -2064828.563 5  24596503.778    24596510.569    24596504.141
        17.000           8.000
  -7200643.678 7  -5610876.143 6  22738690.230    22738696.503    22738690.443
        39.000          24.000
 03 10 28  2  4  0.0000000  0 10G27G11G13G 1G31G20G 3G 8G 7G28
  -6639554.181 7  -5173634.282 7  22100484.149    22100490.800    22100484.383
        76.000          52.000
  -3827471.908 7  -2982419.806 6  23268157.168    23268165.553    23268157.222
        44.000          30.000
 -14216681.069 8 -11077918.780 9  20265439.713    20265444.574    20265439.472
       189.000         437.000
    -20271.325 8    -15795.671 8  20837825.903    20837832.582    20837826.079
       260.000         215.000
   2448322.022 8   1907800.031 7  21896769.011    21896775.573    21896769.344
       137.000          99.000
  15225599.786 6  11864095.793 6  24326630.965    24326637.988    24326631.735
        20.000          11.000
  13536956.087 6  10548306.512 5  24692302.067    24692307.731    24692302.045
        19.000           5.000
  -1608886.643 6  -1253678.590 5  24214423.938    24214433.467    24214424.332
        20.000           9.000
  -2755884.021 6  -2147443.332 5  24576328.536    24576334.658    24576329.147
        16.000           6.000
  -7226091.726 7  -5630705.684 6  22733847.499    22733854.351    22733847.650
        46.000          28.000
 03 10 28  2  4 30.0000000  0 10G27G11G13G 1G31G20G 3G 8G 7G28
  -6676179.989 7  -5202173.812 7  22093514.355    22093521.125    22093514.663
        78.000          55.000
  -3856693.441 7  -3005189.853 6  23262596.466    23262604.851    23262596.329
        40.000          28.000
 -14231078.048 8 -11089137.122 9  20262700.063    20262704.714    20262699.852
       188.000         434.000
     30799.211 8     23999.724 8  20847544.243    20847550.833    20847544.458
       269.000         220.000
   2510624.101 8   1956347.197 8  21908624.679    21908631.111    21908624.971
       137.000         100.000
  15296815.427 6  11919588.176 6  24340183.357    24340189.773    24340184.106
        18.000          10.000
  13631593.734 6  10622050.214 5  24710311.337    24710316.383    24710311.609
        19.000           5.000
  -1648731.439 6  -1284726.466 5  24206842.020    24206851.279    24206842.788
        19.000           9.000
  -2861904.630 6  -2230057.033 5  24556153.614    24556160.304    24556154.313
        17.000           9.000
  -7251234.009 7  -5650296.833 7  22729062.727    22729070.288    22729062.943
        48.000          37.000
 03 10 28  2  5  0.0000000  0 10G27G11G13G 1G31G20G 3G 8G 7G28
  -6712831.902 7  -5230733.675 7  22086539.764    22086546.364    22086539.903
        78.000          57.000
  -3885880.628 7  -3027933.121 6  23257042.244    23257050.343    23257042.402
        41.000          28.000
 -14244898.735 8 -11099906.405 9  20260069.993    20260074.681    20260069.710
       186.000         441.000
     82374.554 8     64188.445 8  20857358.719    20857365.019    20857358.948
       273.000         212.000
   2573316.471 8   2005198.481 8  21920554.764    21920560.973    21920555.241
       141.000         101.000
  15367840.144 6  11974931.885 5  24353699.386    24353705.575    24353699.942
        20.000           8.000
  13726402.415 6  10695927.197 5  24728352.749    24728357.679    24728352.949
        21.000           4.000
  -1688750.755 6  -1315910.197 5  24199226.327    24199235.455    24199227.338
        20.000           9.000
  -2967899.035 6  -2312650.174 5  24535983.752    24535990.136    24535984.367
        17.000           9.000
  -7276049.576 7  -5669633.400 6  22724340.444    22724347.630    22724340.729
        42.000          30.000
 03 10 28  2  5 30.0000000  0 10G27G11G13G 1G31G20G 3G 8G 7G28
  -6749523.335 7  -5259324.343 7  22079557.570    22079564.172    22079557.824
        76.000          58.000
  -3915045.483 7  -3050658.875 6  23251492.542    23251500.396    23251492.454
        42.000          29.000
 -14258156.414 8 -11110236.980 9  20257546.982    20257551.947    20257546.668
       184.000         454.000
    134439.092 8    104758.270 8  20867266.071    20867272.488    20867266.243
       265.000         206.000
   2636383.098 8   2054341.395 8  21932555.972    21932562.076    21932556.422
       146.000         101.000
  15438658.011 6  12030114.538 5  24367175.638    24367181.430    24367176.380
        22.000           9.000
  13821365.314 6  10769924.332 5  24746424.084    24746428.068    24746424.802
        22.000           4.000
  -1728959.109 6  -1347241.277 5  24191575.016    24191584.420    24191575.717
        18.000           9.000
  -3073879.493 6  -2395232.593 5  24515816.744    24515821.935    24515817.091
        17.000           6.000
  -7300554.288 7  -5688727.949 6  22719677.343    22719684.089    22719677.423
        46.000          30.000
 03 10 28  2  6  0.0000000  0 10G27G11G13G 1G31G20G 3G 8G 7G28
  -6786257.914 7  -5287948.619 7  22072567.017    22072573.896    22072567.274
        73.000          57.000
  -3944190.983 7  -3073369.552 6  23245946.144    23245954.263    23245946.030
        42.000          31.000
 -14270855.032 8 -11120131.925 9  20255130.334    20255135.453    20255130.033
       184.000         462.000
    186986.584 8    145704.433 8  20877265.597    20877271.943    20877265.851
       255.000         192.000
   2699817.158 8   2103770.622 8  21944626.922    21944633.154    21944627.401
       149.000         101.000
  15509261.892 6  12085130.379 5  24380611.405    24380617.715    24380611.964
        23.000           9.000
  13916475.617 6  10844036.338 4  24764522.715    24764526.289    24764522.823
        22.000           3.000
  -1769361.341 6  -1378723.406 5  24183886.588    24183894.933    24183887.161
        18.000           9.000
  -3179847.882 6  -2477805.364 5  24495650.956    24495657.493    24495651.320
        17.000           7.000
  -7324753.872 7  -5707584.870 6  22715072.435    22715078.958    22715073.006
        43.000          28.000
 03 10 28  2  6 30.0000000  0 10G27G11G13G 1G31G20G 3G 8G 7G28
  -6823035.609 7  -5316606.490 7  22065568.303    22065575.169    22065568.440
        74.000          55.000
  -3973316.311 7  -3096064.561 6  23240403.578    23240411.921    23240403.720
        42.000          31.000
 -14282994.772 8 -11129591.381 9  20252820.409    20252825.117    20252820.187
       187.000         461.000
    240014.798 8    187025.233 8  20887356.638    20887362.808    20887356.961
       267.000         210.000
   2763615.620 8   2153483.801 7  21956767.146    21956773.490    21956767.580
       143.000          99.000
  15579649.333 6  12139977.559 5  24394005.262    24394011.924    24394006.055
        21.000           9.000
  14011729.741 6  10918260.417 4  24782648.656    24782651.813    24782648.729
        22.000           2.000
  -1809958.341 6  -1410357.221 5  24176160.751    24176169.950    24176161.349
        19.000           9.000
  -3285803.131 6  -2560367.699 5  24475488.651    24475495.144    24475489.078
        17.000           8.000
  -7348649.680 7  -5726204.738 7  22710525.035    22710531.271    22710525.415
        51.000          37.000
 03 10 28  2  7  0.0000000  0 10G27G11G13G 1G31G20G 3G 8G 7G28
  -6859823.233 7  -5345272.108 7  22058568.013    22058574.528    22058568.237
        75.000          52.000
  -4002387.122 7  -3118717.139 6  23234871.809    23234879.988    23234872.021
        42.000          29.000
 -14294542.894 8 -11138589.840 9  20250622.826    20250627.509    20250622.525
       189.000         461.000
    293553.942 8    228744.152 8  20897544.441    20897550.876    20897544.624
       262.000         210.000
   2827808.790 8   2203504.541 7  21968982.591    21968988.887    21968983.052
       140.000          97.000
  15649851.118 6  12194680.149 5  24407364.062    24407370.813    24407364.454
        17.000           8.000
  14107157.327 6  10992619.678 4  24800808.148    24800811.260    24800808.256
        21.000           2.000
  -1850718.550 6  -1442118.318 6  24168404.496    24168414.072    24168404.352
        20.000          11.000
  -3391711.153 6  -2642893.230 6  24455334.728    24455341.705    24455335.476
        17.000          10.000
  -7372212.184 7  -5744565.198 7  22706041.322    22706048.551    22706041.144
        44.000          33.000
 03 10 28  2  7 30.0000000  0 10G27G11G13G 1G31G20G 3G 8G 7G28
  -6896640.009 7  -5373960.447 7  22051562.079    22051568.377    22051562.415
        77.000          52.000
  -4031421.451 7  -3141341.173 7  23229346.758    23229354.850    23229346.832
        45.000          32.000
 -14305518.656 8 -11147142.305 9  20248534.123    20248538.948    20248533.854
       189.000         470.000
    347582.032 8    270843.931 8  20907825.572    20907831.990    20907825.725
       250.000         202.000
   2892374.318 8   2253815.428 7  21981269.070    21981275.201    21981269.540
       139.000          95.000
  15719845.097 6  12249220.855 6  24420684.242    24420690.259    24420684.252
        22.000          10.000
  14202735.548 6  11067096.324 4  24818996.018    24818998.657    24818996.190
        20.000           2.000
  -1891662.172 6  -1474022.256 6  24160613.078    24160622.452    24160612.430
        20.000          10.000
  -3497590.614 6  -2725396.859 6  24435186.683    24435193.612    24435187.303
        17.000          10.000
  -7395462.072 7  -5762681.948 6  22701616.782    22701624.411    22701617.197
        43.000          29.000
 03 10 28  2  8  0.0000000  0 10G27G11G13G 1G31G20G 3G 8G 7G28
  -6933488.204 7  -5402673.264 7  22044549.869    22044556.478    22044550.187
        79.000          53.000
  -4060420.708 7  -3163937.972 6  23223828.252    23223836.459    23223828.198
        42.000          31.000
 -14315924.532 8 -11155250.701 9  20246553.846    20246558.583    20246553.537
       187.000         469.000
    402094.710 8    313321.396 8  20918199.150    20918205.398    20918199.443
       245.000         200.000
   2957307.084 8   2304412.471 7  21993625.301    21993631.362    21993625.649
       137.000          93.000
  15789626.061 6  12303595.463 5  24433963.335    24433969.433    24433963.521
        20.000           8.000
  14298459.021 6  11141686.133 4  24837211.613    24837214.728    24837212.020
        19.000           2.000
  -1932792.620 6  -1506071.874 6  24152785.990    24152795.549    24152786.286
        19.000          10.000
  -3603441.991 6  -2807878.685 6  24415044.450    24415050.895    24415044.637
        18.000          10.000
  -7418403.973 7  -5780558.653 7  22697251.221    22697258.285    22697251.663
        48.000          35.000
 03 10 28  2  8 30.0000000  0 10G27G11G13G 1G31G20G 3G 8G 7G28
  -6970358.944 7  -5431403.641 7  22037533.574    22037540.170    22037533.843
        78.000          54.000
  -4089374.821 7  -3186499.650 6  23218318.428    23218327.036    23218318.384
        43.000          31.000
 -14325752.131 8 -11162908.491 9  20244683.570    20244688.263    20244683.264
       182.000         466.000
    457097.628 8    356180.771 8  20928665.813    20928672.214    20928665.972
       245.000         207.000
   3022612.863 8   2355300.171 7  22006052.342    22006058.554    22006052.750
       138.000          92.000
  15859200.506 6  12357809.278 6  24447202.467    24447209.316    24447202.781
        19.000          10.000
  14394332.842 6  11216393.097 4  24855455.382    24855459.730    24855455.906
        17.000           2.000
  -1974102.312 6  -1538261.214 6  24144925.450    24144934.018    24144926.100
        21.000          10.000
  -3709256.043 6  -2890331.973 6  24394909.112    24394915.741    24394909.608
        18.000          10.000
  -7441031.339 7  -5798190.293 7  22692945.467    22692951.917    22692945.708
        50.000          34.000
 03 10 28  2  9  0.0000000  0 10G27G11G13G 1G31G20G 3G 8G 7G28
  -7007236.906 7  -5460139.637 7  22030515.844    22030522.424    22030516.095
        76.000          53.000
  -4118267.054 7  -3209012.905 7  23212820.370    23212828.968    23212820.439
        45.000          33.000
 -14334986.354 8 -11170103.913 9  20242926.188    20242931.092    20242925.958
       178.000         470.000
    512603.759 8    399432.255 8  20939228.082    20939234.689    20939228.219
       233.000         207.000
   3088303.861 8   2406488.039 7  22018552.911    22018559.029    22018553.333
       139.000          90.000
  15928581.156 6  12411872.113 5  24460404.658    24460411.695    24460405.395
        16.000           7.000
  14490368.940 6  11291226.505 4  24873730.498    24873733.980    24873730.931
        15.000           2.000
  -2015576.832 6  -1570578.942 6  24137033.117    24137041.755    24137034.301
        20.000          10.000
  -3815015.601 6  -2972742.984 6  24374784.400    24374791.673    24374784.896
        18.000          10.000
  -7463331.264 7  -5815566.842 6  22688701.776    22688708.273    22688702.133
        46.000          29.000
 03 10 28  2  9 30.0000000  0 10G27G11G13G 1G31G20G 3G 8G 7G28
  -7044142.033 7  -5488896.802 7  22023492.772    22023499.477    22023493.076
        75.000          51.000
  -4147117.020 7  -3231493.287 7  23207330.178    23207338.926    23207330.249
        46.000          34.000
 -14343647.631 8 -11176852.886 9  20241277.911    20241282.888    20241277.643
       174.000         479.000
    568590.285 8    443058.111 8  20949882.059    20949888.526    20949882.255
       217.000         187.000
   3154356.881 8   2457958.003 7  22031122.392    22031128.530    22031122.907
       143.000          91.000
  15997744.820 6  12465765.877 5  24473566.213    24473573.003    24473566.875
        20.000           8.000
  14586543.806 6  11366168.041 4  24892031.377    24892036.148    24892031.544
        13.000           3.000
  -2057237.361 6  -1603041.514 6  24129105.426    24129114.446    24129106.306
        21.000          11.000
  -3920738.914 6  -3055125.622 5  24354666.494    24354673.502    24354667.293
        18.000           8.000
  -7485326.173 7  -5832705.569 7  22684516.210    22684522.816    22684516.639
        50.000          33.000
 03 10 28  2 10  0.0000000  0 10G27G11G13G 1G31G20G 3G 8G 7G28
  -7081041.253 7  -5517649.357 7  22016470.990    22016477.406    22016471.119
        74.000          49.000
  -4175890.808 7  -3253914.377 6  23201854.670    23201863.105    23201854.707
        44.000          31.000
 -14351703.550 8 -11183130.157 9  20239744.871    20239749.792    20239744.552
       172.000         478.000
    625087.537 8    487082.023 8  20960633.161    20960639.598    20960633.450
       235.000         213.000
   3220801.898 8   2509733.418 7  22043766.554    22043772.633    22043766.924
       148.000          90.000
  16066721.698 6  12519514.002 5  24486692.517    24486699.166    24486692.945
        19.000           7.000
  14682886.865 6  11441240.646 4  24910364.179    24910369.617    24910364.935
        12.000           3.000
  -2099052.021 6  -1635624.209 6  24121148.211    24121156.799    24121148.478
        22.000          11.000
  -4026391.658 6  -3137453.202 6  24334561.569    24334569.921    24334561.879
        18.000          11.000
  -7506985.328 7  -5849582.613 7  22680394.381    22680401.265    22680394.588
        52.000          36.000
 03 10 28  2 10 30.0000000  0 10G27G11G13G 1G31G20G 3G 8G 7G28
  -7117950.065 7  -5546409.388 7  22009447.508    22009453.759    22009447.897
        73.000          48.000
  -4204602.487 7  -3276287.013 6  23196391.067    23196399.018    23196391.025
        46.000          31.000
 -14359169.789 8 -11188947.941 9  20238324.068    20238328.991    20238323.807
       172.000         481.000
    682076.895 8    531489.268 8  20971477.809    20971484.461    20971477.936
       224.000         202.000
   3287620.394 8   2561799.855 7  22056481.682    22056487.551    22056482.151
       152.000          89.000
  16135494.188 6  12573102.907 6  24499779.133    24499786.308    24499779.403
        17.000          10.000
  14779379.219 6  11516429.577 5  24928726.013    24928732.249    24928726.847
        11.000           4.000
  -2141037.522 6  -1668340.064 6  24113158.025    24113167.281    24113158.135
        22.000          11.000
  -4131988.301 6  -3219737.137 6  24314468.430    24314476.020    24314468.904
        17.000          10.000
  -7528326.960 7  -5866212.429 7  22676333.170    22676340.076    22676333.436
        51.000          35.000
 03 10 28  2 11  0.0000000  0 10G 1G27G11G13G31G20G 3G 8G 7G28
    739531.761 8    576259.261 8  20982411.125    20982417.789    20982411.307
       229.000         211.000
  -7154892.357 7  -5575195.521 7  22002417.342    22002423.984    22002417.565
        74.000          50.000
  -4233275.297 7  -3298629.457 6  23190934.867    23190942.687    23190934.886
        45.000          29.000
 -14366070.833 8 -11194325.313 9  20237010.807    20237015.797    20237010.523
       173.000         484.000
   3354785.182 8   2614136.130 7  22069262.708    22069268.345    22069263.213
       150.000          86.000
  16204035.512 6  12626511.719 5  24512822.358    24512829.212    24512822.965
        17.000           8.000
  14875993.389 6  11591713.425 5  24947111.506    24947117.354    24947111.557
        10.000           4.000
  -2183218.923 6  -1701208.549 6  24105130.903    24105140.108    24105130.899
        23.000          11.000
  -4237551.034 6  -3301994.310 6  24294380.996    24294388.525    24294381.580
        18.000          11.000
  -7549377.337 7  -5882615.333 7  22672327.483    22672334.152    22672327.686
        52.000          35.000
 03 10 28  2 11 30.0000000  0 10G 1G27G11G13G31G20G 3G 8G 7G28
    797445.967 8    621387.114 8  20993431.947    20993438.549    20993432.213
       221.000         196.000
  -7191871.466 7  -5604010.336 7  21995380.493    21995387.136    21995380.758
        74.000          52.000
  -4261911.111 7  -3320942.976 6  23185485.644    23185493.386    23185485.864
        46.000          29.000
 -14372410.506 8 -11199265.253 9  20235804.456    20235809.211    20235804.125
       174.000         479.000
   3422289.806 8   2666737.209 7  22082108.377    22082114.028    22082108.882
       146.000          85.000
  16272339.525 6  12679735.659 5  24525820.025    24525827.087    24525820.904
        17.000           7.000
  14972722.714 5  11667087.006 5  24965517.910    24965524.553    24965518.656
         9.000           5.000
  -2225600.657 6  -1734233.176 6  24097065.944    24097075.196    24097066.145
        23.000          12.000
  -4343081.958 6  -3384226.503 6  24274298.330    24274307.370    24274298.628
        17.000          10.000
  -7570141.913 7  -5898795.510 7  22668375.940    22668382.632    22668376.394
        49.000          32.000
 03 10 28  2 12  0.0000000  0 10G 1G27G11G13G31G20G 3G 8G 7G28
    855842.425 8    666890.760 8  21004544.568    21004551.091    21004544.811
       219.000         184.000
  -7228861.637 7  -5632833.766 7  21988341.742    21988347.946    21988342.247
        75.000          56.000
  -4290483.445 7  -3343206.999 6  23180048.264    23180056.158    23180048.547
        45.000          31.000
 -14378164.032 8 -11203748.458 9  20234709.478    20234714.140    20234709.188
       173.000         472.000
   3490156.684 8   2719620.559 7  22095022.844    22095028.692    22095023.303
       138.000          85.000
  16340429.056 6  12732792.483 5  24538777.019    24538783.361    24538777.505
        18.000           6.000
  15069589.148 6  11742567.424 5  24983951.100    24983956.844    24983951.612
        10.000           4.000
  -2268158.078 6  -1767394.636 6  24088967.778    24088976.516    24088968.032
        24.000          11.000
  -4448553.219 6  -3466411.418 5  24254228.066    24254235.684    24254228.567
        17.000           9.000
  -7590598.163 7  -5914735.588 7  22664483.457    22664490.248    22664483.985
        51.000          34.000
 03 10 28  2 12 30.0000000  0 10G 1G27G11G13G31G20G 3G 8G 7G28
    914741.590 8    712786.084 8  21015752.659    21015759.446    21015752.810
       221.000         188.000
  -7265839.335 7  -5661647.469 7  21981304.822    21981311.447    21981305.000
        75.000          61.000
  -4318967.977 7  -3365402.706 6  23174627.764    23174635.768    23174627.726
        44.000          30.000
 -14383308.253 8 -11207756.885 9  20233730.457    20233735.227    20233730.170
       174.000         471.000
   3558406.332 8   2772802.169 7  22108010.075    22108016.109    22108010.517
       133.000          84.000
  16408325.183 6  12785698.610 5  24551697.313    24551704.191    24551697.737
        20.000           9.000
  15166612.918 5  11818170.430 5  25002414.671    25002420.211    25002414.391
         9.000           5.000
  -2310868.791 6  -1800675.465 6  24080839.861    24080848.795    24080840.523
        25.000          12.000
  -4553941.220 6  -3548531.232 6  24234172.945    24234180.634    24234173.445
        18.000          11.000
  -7610724.410 7  -5930418.426 7  22660653.666    22660660.683    22660654.072
        51.000          35.000
 03 10 28  2 13  0.0000000  0 10G 1G27G11G13G31G20G 3G 8G 7G28
    974069.731 8    759015.710 8  21027042.412    21027049.269    21027042.622
       236.000         216.000
  -7302875.617 7  -5690506.830 7  21974257.096    21974263.896    21974257.051
        75.000          65.000
  -4347434.979 7  -3387584.804 7  23169210.654    23169218.902    23169210.460
        46.000          32.000
 -14387914.817 8 -11211346.365 9  20232853.883    20232858.660    20232853.568
       175.000         473.000
   3626964.185 8   2826223.939 7  22121056.115    22121062.149    22121056.627
       129.000          81.000
  16475953.866 6  12838396.191 5  24564566.910    24564574.002    24564567.452
        17.000           8.000
  15263719.037 5  11893837.645 5  25020892.708    25020898.394    25020892.629
         9.000           6.000
  -2353805.033 6  -1834132.042 6  24072669.233    24072678.020    24072670.188
        25.000          12.000
  -4659316.398 6  -3630641.155 6  24214120.390    24214128.632    24214120.848
        18.000          14.000
  -7630594.265 7  -5945901.404 7  22656872.566    22656879.470    22656872.972
        53.000          35.000
 03 10 28  2 13 30.0000000  0 10G 1G27G11G13G31G20G 3G 8G 7G28
   1033863.821 8    805608.261 8  21038421.217    21038427.860    21038421.461
       214.000         165.000
  -7339929.857 7  -5719380.177 7  21967205.759    21967212.573    21967206.030
        75.000          67.000
  -4375842.801 7  -3409720.806 6  23163804.832    23163812.981    23163804.715
        45.000          28.000
 -14391943.770 8 -11214485.766 9  20232087.132    20232091.895    20232086.859
       175.000         473.000
   3695867.637 8   2879915.009 7  22134168.101    22134173.980    22134168.527
       130.000          80.000
  16543353.465 6  12890915.383 6  24577392.510    24577399.731    24577393.008
        18.000          11.000
  15360944.555 6  11969597.870 5  25039394.411    25039399.963    25039394.213
        10.000           5.000
  -2396927.259 6  -1867733.448 6  24064463.270    24064471.771    24064463.730
        26.000          13.000
  -4764638.256 6  -3712710.220 6  24194078.293    24194085.960    24194078.824
        19.000          12.000
  -7650169.829 7  -5961155.040 7  22653147.212    22653154.239    22653147.345
        53.000          34.000
 03 10 28  2 14  0.0000000  0 10G 1G27G11G13G31G20G 3G 8G 7G28
   1094118.179 8    852559.679 8  21049887.216    21049893.852    21049887.348
       238.000         197.000
  -7377005.641 7  -5748270.326 7  21960150.503    21960157.019    21960150.754
        78.000          66.000
  -4404193.378 7  -3431811.969 6  23158409.876    23158417.966    23158409.913
        48.000          30.000
 -14395399.605 8 -11217178.587 9  20231429.487    20231434.230    20231429.219
       175.000         473.000
   3765109.801 8   2933870.006 7  22147344.566    22147350.276    22147345.035
       130.000          78.000
  16610517.186 6  12943250.681 5  24590173.571    24590180.260    24590174.005
        19.000           6.000
  15458282.375 6  12045445.614 5  25057916.953    25057922.105    25057917.683
        10.000           4.000
  -2440240.464 6  -1901483.793 6  24056220.758    24056229.300    24056220.790
        26.000          13.000
  -4869908.347 6  -3794739.140 6  24174046.566    24174054.335    24174047.156
        19.000          12.000
  -7669457.257 7  -5976184.161 6  22649476.837    22649483.674    22649477.041
        49.000          31.000
 03 10 28  2 14 30.0000000  0 10G 1G27G11G13G31G20G 3G 8G 7G28
   1154837.891 8    899873.703 8  21061441.770    21061448.461    21061441.991
       203.000         159.000
  -7414094.357 7  -5777170.531 7  21953092.877    21953099.288    21953093.255
        82.000          65.000
  -4432477.866 7  -3453851.710 6  23153027.474    23153035.476    23153027.407
        46.000          27.000
 -14398274.732 8 -11219418.903 9  20230882.481    20230887.074    20230882.210
       177.000         478.000
   3834696.017 8   2988093.092 7  22160586.458    22160591.903    22160586.945
       133.000          76.000
  16677450.991 6  12995406.831 5  24602910.433    24602916.033    24602911.000
        16.000           4.000
  15555737.799 6  12121384.988 5  25076462.904    25076467.142    25076463.223
        12.000           5.000
  -2483737.078 6  -1935377.028 6  24047943.024    24047951.805    24047943.074
        27.000          13.000
  -4975115.642 6  -3876718.782 6  24154025.655    24154034.064    24154026.333
        17.000          12.000
  -7688450.817 7  -5990984.266 7  22645862.562    22645869.480    22645862.865
        53.000          35.000
 03 10 28  2 15  0.0000000  0 10G 1G27G11G13G31G20G 3G 8G 7G28
   1216025.272 8    947552.208 8  21073085.399    21073092.158    21073085.684
       223.000         186.000
  -7451191.021 7  -5806076.939 7  21946033.570    21946039.970    21946033.845
        84.000          65.000
  -4460690.178 7  -3475835.278 6  23147658.518    23147666.573    23147658.626
        46.000          29.000
 -14400564.422 8 -11221203.031 9  20230446.710    20230451.280    20230446.431
       176.000         479.000
   3904628.144 8   3042585.723 7  22173893.894    22173899.362    22173894.381
       131.000          74.000
  16744157.562 6  13047385.867 5  24615603.833    24615610.911    24615604.705
        14.000           5.000
  15653311.999 6  12197416.901 5  25095030.498    25095035.374    25095030.836
        11.000           5.000
  -2527412.851 6  -1969409.817 6  24039631.625    24039640.630    24039631.560
        26.000          13.000
  -5080253.790 6  -3958644.108 6  24134017.782    24134026.075    24134018.088
        18.000          12.000
  -7707147.746 7  -6005553.255 7  22642304.727    22642311.792    22642305.238
        52.000          37.000
 03 10 28  2 15 30.0000000  0 10G 1G27G11G13G31G20G 3G 8G 7G28
   1277667.046 8    995584.678 8  21084815.548    21084822.427    21084815.765
       230.000         210.000
  -7488305.177 7  -5834996.990 7  21938970.884    21938977.092    21938971.013
        85.000          66.000
  -4488838.659 7  -3497768.879 6  23142301.799    23142309.909    23142301.899
        45.000          28.000
 -14402279.408 8 -11222539.340 9  20230120.225    20230124.922    20230119.926
       173.000         481.000
   3974893.074 8   3097337.681 7  22187264.535    22187270.343    22187264.930
       122.000          75.000
  16810624.565 6  13099178.223 6  24628253.087    24628260.300    24628253.584
        18.000          10.000
  15750991.540 6  12273530.916 5  25113617.976    25113623.317    25113618.861
        12.000           6.000
  -2571279.043 6  -2003590.986 6  24031284.005    24031292.692    24031284.624
        27.000          14.000
  -5185332.419 6  -4040523.183 6  24114021.830    24114030.129    24114022.352
        18.000          13.000
  -7725560.511 7  -6019900.808 7  22638800.786    22638807.839    22638801.313
        50.000          36.000
 03 10 28  2 16  0.0000000  0 10G 1G27G11G13G31G20G 3G 8G 7G28
   1339767.226 8   1043974.216 8  21096632.909    21096639.870    21096633.137
       225.000         196.000
  -7525429.576 7  -5863925.022 7  21931906.321    21931912.502    21931906.641
        84.000          66.000
  -4516915.679 7  -3519646.744 7  23136958.787    23136966.603    23136958.679
        47.000          32.000
 -14403413.710 8 -11223423.168 9  20229904.352    20229909.138    20229904.106
       169.000         484.000
   4045494.555 8   3152351.882 7  22200699.599    22200705.538    22200699.982
       116.000          76.000
  16876856.308 6  13150787.236 5  24640856.729    24640863.836    24640857.356
        19.000           9.000
  15848780.256 6  12349729.984 5  25132226.720    25132231.403    25132227.269
        13.000           5.000
  -2615329.191 6  -2037915.492 6  24022901.550    24022909.954    24022902.349
        28.000          15.000
  -5290342.830 6  -4122349.086 6  24094038.651    24094046.831    24094038.937
        18.000          13.000
  -7743684.574 7  -6034023.408 7  22635351.526    22635358.561    22635351.588
        48.000          32.000
 03 10 28  2 16 30.0000000  0 10G 1G27G11G13G31G20G 3G 8G 7G28
   1402337.344 8   1092730.009 8  21108539.538    21108546.499    21108539.768
       209.000         181.000
  -7562549.865 7  -5892849.838 7  21924842.336    21924848.796    21924842.723
        84.000          67.000
  -4544905.937 7  -3541457.084 6  23131632.474    23131639.886    23131632.352
        48.000          30.000
 -14403953.516 8 -11223843.754 9  20229801.379    20229806.268    20229801.022
       167.000         479.000
   4116443.562 8   3207636.875 7  22214200.886    22214206.656    22214201.375
       112.000          77.000
  16942864.422 6  13202222.118 5  24653417.916    24653423.904    24653418.244
        17.000           6.000
  15946688.699 6  12426022.373 5  25150858.335    25150862.325    25150858.384
        13.000           4.000
  -2659550.526 6  -2072373.453 6  24014486.236    24014494.920    24014486.818
        28.000          14.000
  -5395269.055 6  -4204108.970 6  24074071.596    24074079.397    24074072.354
        18.000          14.000
  -7761508.228 7  -6047911.939 7  22631960.024    22631966.597    22631960.356
        50.000          34.000
 03 10 28  2 17  0.0000000  0 10G 1G27G11G13G31G20G 3G 8G 7G28
   1465358.729 8   1141837.440 8  21120532.387    21120539.110    21120532.634
       214.000         162.000
  -7599681.435 7  -5921783.455 7  21917776.306    21917782.737    21917776.416
        87.000          65.000
  -4572823.803 7  -3563211.008 6  23126319.672    23126327.108    23126319.493
        50.000          31.000
 -14403915.055 8 -11223813.743 9  20229808.788    20229813.324    20229808.526
       170.000         470.000
   4187721.386 8   3263178.084 7  22227764.516    22227770.212    22227764.952
       108.000          76.000
  17008631.209 6  13253468.900 4  24665931.829    24665937.844    24665932.748
        13.000           3.000
  16044698.044 6  12502393.384 5  25169507.835    25169513.315    25169508.317
        13.000           5.000
  -2703959.212 6  -2106977.404 6  24006035.280    24006043.724    24006035.593
        28.000          14.000
  -5500126.491 6  -4285815.584 6  24054117.268    24054125.365    24054118.299
        18.000          15.000
  -7779049.222 7  -6061580.031 7  22628622.017    22628628.729    22628622.533
        55.000          41.000
 03 10 28  2 17 30.0000000  0 10G 1G27G11G13G31G20G 3G 8G 7G28
   1528854.780 8   1191314.857 8  21132615.391    21132622.181    21132615.595
       243.000         208.000
  -7636797.863 7  -5950705.268 7  21910713.422    21910719.375    21910713.815
        89.000          62.000
  -4600642.256 7  -3584887.555 7  23121025.908    23121033.464    23121026.000
        53.000          34.000
 -14403273.076 8 -11223313.448 9  20229930.997    20229935.468    20229930.699
       169.000         470.000
   4259350.939 8   3318993.367 7  22241394.954    22241400.752    22241395.449
       104.000          75.000
  17074180.206 6  13304545.999 5  24678406.090    24678412.400    24678406.668
        14.000           5.000
  16142831.028 6  12578860.718 5  25188182.486    25188186.918    25188182.841
        13.000           4.000
  -2748530.136 6  -2141707.843 6  23997553.547    23997562.068    23997553.464
        28.000          14.000
  -5604888.082 6  -4367447.901 6  24034182.447    24034189.977    24034183.088
        18.000          14.000
  -7796284.664 7  -6075010.202 7  22625342.041    22625349.248    22625341.944
        47.000          33.000
 03 10 28  2 18  0.0000000  0 10G 1G27G11G13G31G20G 3G 8G 7G28
   1592829.786 8   1241165.335 8  21144789.470    21144796.637    21144789.708
       213.000         181.000
  -7673891.259 7  -5979609.138 7  21903654.553    21903660.536    21903654.869
        89.000          61.000
  -4628351.691 7  -3606479.044 7  23115752.844    23115760.313    23115752.896
        52.000          32.000
 -14402020.580 8 -11222337.433 9  20230169.225    20230173.985    20230168.976
       172.000         478.000
   4331336.751 8   3375086.258 7  22255093.369    22255099.113    22255093.816
       105.000          74.000
  17139516.761 6  13355457.593 5  24690839.440    24690845.825    24690839.800
        19.000           8.000
  16241091.876 6  12655427.696 4  25206880.617    25206885.318    25206880.741
        14.000           3.000
  -2793256.429 6  -2176559.401 6  23989042.312    23989050.757    23989042.178
        27.000          15.000
  -5709542.643 6  -4448996.275 6  24014267.055    24014274.143    24014267.449
        20.000          16.000
  -7813208.314 7  -6088197.169 7  22622121.531    22622128.257    22622121.854
        52.000          37.000
 03 10 28  2 18 30.0000000  0 10G27G11G13G 1G31G20G 3G 8G 7G28
  -7710958.407 7  -6008492.548 7  21896600.834    21896607.034    21896601.109
        89.000          63.000
  -4655948.728 7  -3627982.923 7  23110501.149    23110508.453    23110501.221
        57.000          36.000
 -14400155.789 8 -11220884.303 9  20230524.324    20230528.736    20230524.115
       178.000         478.000
   1657283.581 8   1291388.801 8  21157054.843    21157062.020    21157055.090
       229.000         191.000
   4403678.476 8   3431456.489 7  22268859.354    22268865.167    22268859.797
       104.000          72.000
  17204641.146 6  13406203.787 5  24703232.312    24703238.440    24703232.540
        19.000           6.000
  16339480.070 6  12732093.910 4  25225602.865    25225607.780    25225603.257
        14.000           3.000
  -2838135.868 6  -2211530.254 6  23980501.894    23980510.327    23980502.212
        28.000          15.000
  -5814087.850 6  -4530459.743 6  23994371.750    23994378.875    23994372.169
        19.000          14.000
  -7829820.485 7  -6101141.503 7  22618960.155    22618966.606    22618960.531
        50.000          36.000
 03 10 28  2 19  0.0000000  0 10G27G11G13G 1G31G20G 3G 8G 7G28
  -7748049.108 7  -6037394.304 7  21889542.767    21889548.894    21889543.143
        88.000          65.000
  -4683482.448 7  -3649437.524 7  23105261.399    23105268.849    23105261.542
        54.000          32.000
 -14397729.459 8 -11218993.610 9  20230985.942    20230990.315    20230985.641
       179.000         476.000
   1722163.430 8   1341944.385 8  21169401.229    21169408.126    21169401.475
       203.000         149.000
   4476322.712 8   3488062.442 7  22282683.054    22282688.805    22282683.518
       104.000          69.000
  17269500.861 6  13456743.729 4  24715574.772    24715580.165    24715574.695
        16.000           3.000
  16437941.871 6  12808817.500 5  25244339.131    25244344.604    25244339.895
        14.000           4.000
  -2883219.592 6  -2246660.290 6  23971922.714    23971930.897    23971923.407
        28.000          16.000
  -5918572.529 6  -4611876.479 6  23974489.027    23974496.385    23974489.654
        19.000          15.000
  -7846173.676 7  -6113883.936 7  22615848.160    22615854.164    22615848.625
        49.000          34.000
 03 10 28  2 19 30.0000000  0 10G27G11G13G 1G31G20G 3G 8G 7G28
  -7785137.224 7  -6066294.041 7  21882484.860    21882491.186    21882485.030
        86.000          67.000
  -4710925.487 7  -3670821.419 7  23100038.923    23100046.125    23100038.689
        59.000          35.000
 -14394716.728 8 -11216645.984 9  20231559.199    20231563.743    20231558.962
       177.000         482.000
   1787492.303 8   1392849.977 8  21181832.988    21181839.786    21181833.179
       239.000         184.000
   4549292.326 8   3544921.939 7  22296569.013    22296574.537    22296569.513
       107.000          69.000
  17334119.687 6  13507096.090 4  24727870.762    24727876.332    24727871.442
        15.000           2.000
  16536499.749 6  12885615.953 4  25263093.641    25263098.774    25263094.454
        12.000           3.000
  -2928482.508 6  -2281929.959 6  23963309.289    23963317.569    23963309.680
        28.000          15.000
  -6022968.538 6  -4693224.066 6  23954622.666    23954630.814    23954623.207
        19.000          17.000
  -7862244.754 7  -6126406.542 7  22612789.677    22612795.799    22612789.954
        50.000          36.000
 03 10 28  2 20  0.0000000  0 10G27G11G13G 1G31G20G 3G 8G 7G28
  -7822210.998 7  -6095182.608 7  21875429.983    21875436.251    21875430.112
        88.000          70.000
  -4738265.453 7  -3692125.173 6  23094836.257    23094843.267    23094836.071
        58.000          31.000
 -14391106.821 8 -11213833.018 9  20232246.046    20232250.571    20232245.768
       176.000         484.000
   1853278.373 8   1444111.810 8  21194351.725    21194358.583    21194351.876
       222.000         162.000
   4622595.546 8   3602041.386 7  22310518.316    22310523.751    22310518.740
       107.000          70.000
  17398506.746 6  13557267.863 4  24740123.261    24740128.211    24740124.068
        14.000           3.000
  16635162.293 6  12962495.967 4  25281868.578    25281873.545    25281869.064
        13.000           2.000
  -2973913.744 6  -2317330.773 6  23954663.582    23954672.096    23954663.948
        29.000          16.000
  -6127262.737 6  -4774492.130 6  23934777.012    23934784.113    23934777.591
        19.000          16.000
  -7878024.305 7  -6138701.957 7  22609786.739    22609792.907    22609787.037
        51.000          38.000
 03 10 28  2 20 30.0000000  0 10G27G11G13G 1G31G20G 3G 8G 7G28
  -7859274.572 7  -6124063.217 7  21868377.126    21868383.357    21868377.459
        90.000          72.000
  -4765505.823 7  -3713351.337 6  23089652.355    23089659.344    23089652.492
        56.000          30.000
 -14386905.368 8 -11210559.111 9  20233045.399    20233049.967    20233045.123
       172.000         481.000
   1919513.993 8   1495723.898 8  21206956.042    21206962.944    21206956.276
       249.000         186.000
   4696224.373 8   3659414.553 7  22324529.122    22324534.751    22324529.387
       104.000          68.000
  17462654.819 6  13607253.430 4  24752330.166    24752335.450    24752330.713
        14.000           2.000
  16733921.018 6  13039450.895 4  25300662.108    25300666.613    25300662.675
        14.000           2.000
  -3019518.899 6  -2352867.145 6  23945984.928    23945993.543    23945984.875
        29.000          15.000
  -6231458.580 6  -4855683.520 6  23914948.802    23914956.271    23914949.392
        22.000          16.000
  -7893519.948 7  -6150776.208 7  22606837.613    22606844.103    22606837.906
        51.000          38.000
 03 10 28  2 21  0.0000000  0 10G27G11G13G 1G31G20G 3G 8G 7G28
  -7896310.771 7  -6152922.500 7  21861329.162    21861335.582    21861329.417
        90.000          73.000
  -4792628.053 7  -3734485.132 6  23084490.871    23084497.619    23084490.988
        58.000          31.000
 -14382096.182 8 -11206811.652 9  20233960.562    20233965.229    20233960.220
       173.000         485.000
   1986213.337 8   1547697.425 8  21219648.426    21219655.480    21219648.655
       243.000         192.000
   4770192.636 8   3717052.222 7  22338604.553    22338610.139    22338605.034
       100.000          66.000
  17526578.700 6  13657064.387 5  24764494.541    24764500.016    24764495.143
        18.000           4.000
  16832789.573 6  13116491.413 4  25319476.339    25319480.515    25319476.369
        13.000           1.000
  -3065281.926 6  -2388526.570 6  23937276.470    23937284.948    23937276.388
        31.000          15.000
  -6335537.945 6  -4936784.172 6  23895143.365    23895150.791    23895144.015
        21.000          17.000
  -7908717.315 7  -6162618.195 7  22603945.352    22603951.849    22603945.617
        50.000          37.000
 03 10 28  2 21 30.0000000  0  9G27G11G13G 1G31G20G 8G 7G28
  -7933316.002 7  -6181757.654 7  21854287.225    21854293.447    21854287.321
        88.000          72.000
  -4819628.046 7  -3755523.703 7  23079352.841    23079359.316    23079352.795
        58.000          32.000
 -14376677.445 8 -11202589.222 9  20234991.744    20234996.355    20234991.491
       174.000         484.000
   2053375.791 8   1600031.644 8  21232429.127    21232436.159    21232429.374
       245.000         206.000
   4844500.268 7   3774954.342 7  22352744.713    22352750.321    22352745.182
        97.000          66.000
  17590279.031 6  13706700.986 5  24776616.377    24776622.870    24776616.650
        16.000           6.000
  -3111200.044 7  -2424306.792 6  23928538.499    23928546.996    23928538.922
        32.000          15.000
  -6439496.109 6  -5017790.322 6  23875360.314    23875367.917    23875360.655
        21.000          17.000
  -7923615.947 7  -6174227.481 7  22601110.072    22601116.456    22601110.748
        48.000          33.000
