     2              Observation Data    G (GPS)             RINEX VERSION / TYPE
Globrin1.0          ROB                 2003/10/29          PGM / RUN BY / DATE
APPROX POSITION in ETRF2000 epoch 1989                      COMMENT
Original Sampling Rate : 10                                 COMMENT
BRUS                                                        MARKER NAME
13101M004                                                   MARKER NUMBER
C. Bruyninx         ROB                                     OBSERVER / AGENCY
RT919994505         ASHTECH Z-XII3T     1L01-1D04           REC # / TYPE / VERS
CR519994604         ASH701945B_M    NONE                    ANT # / TYPE
  4027894.0030   307045.6020  4919474.9120                  APPROX POSITION XYZ
        3.9702        0.0000        0.0000                  ANTENNA: DELTA H/E/N
     7    C1    L1    L2    P1    P2    D1    D2            # / TYPES OF OBSERV
     1     1                                                WAVELENGTH FACT L1/2
    30                                                      INTERVAL
  2003    10    28     0     0    0.000000                  TIME OF FIRST OBS
  2003    10    28    23    59   30.000000                  TIME OF LAST OBS
                                                            END OF HEADER
 03 10 28  0  0  0.0000000  0  7 11  3 23 14 20 31 28                 .000000624
  20502916.572   -22027593.239 9 -16656563.74048  20502915.9154   20502916.4204
      1169.024         910.928
  24005283.191    -4727764.634 9  -3427502.29045  24005281.2194   24005285.9514
     -3702.762       -2885.274
  23312918.322    -5644587.130 9  -4355959.64847  23312918.9294   23312921.2294
     -2893.065       -2254.331
  22077213.536   -11265067.221 9  -8318014.14647  22077213.4744   22077215.0394
       152.536         118.870
  22753662.689   -11383612.937 9  -8577913.06847  22753662.8144   22753665.6944
      3235.256        2520.968
  21336225.195   -17597269.713 9 -12915312.80748  21336223.8894   21336226.8524
     -2723.724       -2122.381
  23305118.950    -7476140.393 9  -5805568.56746  23305117.3534   23305118.6434
        20.334          15.831
 03 10 28  0  0 30.0000000  0  7 11  3 23 14 20 31 28                 .000000622
  20496276.212   -22062482.635 9 -16683750.27648  20496276.0774   20496277.1774
      1156.900         901.480
  24026432.631    -4616623.096 9  -3340898.54245  24026431.0074   24026436.2894
     -3706.682       -2888.320
  23329450.646    -5557710.811 9  -4288263.82047  23329449.8874   23329453.3904
     -2898.708       -2258.743
  22076402.476   -11269333.371 9  -8321338.41847  22076402.0564   22076402.2314
       131.802         102.695
  22735217.979   -11480543.025 9  -8653442.98346  22735217.2954   22735220.3534
      3226.711        2514.332
  21351812.269   -17515357.094 9 -12851484.83648  21351811.4624   21351814.3064
     -2737.160       -2132.857
  23305057.202    -7476459.312 9  -5805817.09546  23305056.5964   23305057.7614
          .912            .706
 03 10 28  0  1  0.0000000  0  7 11  3 23 14 20 31 28                 .000000622
  20489706.308   -22097008.167 9 -16710653.29148  20489706.1854   20489706.9394
      1144.765         892.022
  24047603.794    -4505366.809 9  -3254205.37445  24047602.1594   24047605.8064
     -3710.411       -2891.233
  23346014.489    -5470665.469 9  -4220436.28646  23346014.8914   23346017.9234
     -2904.358       -2263.125
  22075708.112   -11272978.343 9  -8324178.65647  22075707.9324   22075709.1424
       111.123          86.600
  22716820.544   -11577214.955 9  -8728771.73046  22716821.3524   22716823.7724
      3218.065        2507.583
  21367475.077   -17433043.394 9 -12787344.32048  21367475.6724   21367477.9284
     -2750.474       -2143.232
  23305106.305    -7476195.700 9  -5805611.67146  23305106.5224   23305108.8384
       -18.516         -14.412
 03 10 28  0  1 30.0000000  0  7 11  3 23 14 20 31 28                 .000000621
  20483205.981   -22131168.944 9 -16737272.07448  20483205.5824   20483206.4804
      1132.595         882.543
  24068797.697    -4393997.992 9  -3167424.48745  24068795.9954   24068801.1334
     -3714.109       -2894.110
  23362610.853    -5383452.927 9  -4152478.44146  23362609.3904   23362613.6794
     -2909.852       -2267.423
  22075134.268   -11276001.731 9  -8326534.50847  22075132.9444   22075134.0854
        90.413          70.459
  22698474.873   -11673627.215 9  -8803898.13747  22698474.6984   22698477.3284
      3209.378        2500.788
  21383215.548   -17350330.782 9 -12722892.96748  21383214.7414   21383217.2764
     -2763.729       -2153.554
  23305268.829    -7475349.760 9  -5804952.51246  23305268.4774   23305269.4894
       -37.923         -29.563
 03 10 28  0  2  0.0000000  0  7 11  3 23 14 20 31 28                 .000000622
  20476774.479   -22164964.059 9 -16763605.93348  20476774.6014   20476775.7664
      1120.361         873.005
  24090010.392    -4282518.685 9  -3080557.55245  24090010.4044   24090012.8054
     -3717.791       -2896.975
  23379237.582    -5296075.088 9  -4084391.82746  23379238.2054   23379240.4084
     -2915.369       -2271.713
  22074675.653   -11278403.426 9  -8328405.96347  22074675.9854   22074676.2244
        69.667          54.274
  22680178.972   -11769778.447 9  -8878821.15547  22680176.8214   22680181.5064
      3200.619        2494.001
  21399029.771   -17267221.171 9 -12658132.25648  21399030.2354   21399032.6644
     -2776.952       -2163.859
  23305539.769    -7473921.859 9  -5803839.86046  23305539.7064   23305541.9664
       -57.343         -44.682
 03 10 28  0  2 30.0000000  0  7 11  3 23 14 20 31 28                 .000000622
  20470413.760   -22198392.780 9 -16789654.29148  20470413.2964   20470414.7564
      1108.177         863.518
  24111243.572    -4170931.035 8  -2993606.16245  24111242.8524   24111249.2294
     -3721.351       -2899.747
  23395896.801    -5208533.842 9  -4016177.87546  23395895.9384   23395899.2274
     -2920.743       -2275.886
  22074337.290   -11280183.277 9  -8329792.84647  22074336.6674   22074338.4504
        48.963          38.152
  22661930.895   -11865667.166 9  -8953539.59347  22661930.9754   22661933.1564
      3191.874        2487.160
  21414920.560   -17183716.718 9 -12593063.87548  21414920.1454   21414923.3394
     -2790.032       -2174.047
  23305923.294    -7471912.487 9  -5802274.14246  23305920.7954   23305923.5674
       -76.670         -59.730
 03 10 28  0  3  0.0000000  0  7 11  3 23 14 20 31 28                 .000000621
  20464122.461   -22231454.307 9 -16815416.51448  20464122.2674   20464123.2794
      1095.899         853.949
  24132497.561    -4059236.999 8  -2906571.88945  24132498.5204   24132504.5184
     -3724.902       -2902.515
  23412586.227    -5120830.963 9  -3947837.96146  23412585.5954   23412588.4104
     -2926.097       -2280.082
  22074116.498   -11281341.216 9  -8330695.12347  22074116.5344   22074118.4874
        28.205          21.978
  22643735.646   -11961291.735 9  -9028052.22847  22643734.1454   22643736.9224
      3183.065        2480.301
  21430886.145   -17099819.419 9 -12527689.39248  21430886.1814   21430888.7464
     -2803.124       -2184.247
  23306414.201    -7469321.794 9  -5800255.41246  23306415.1064   23306417.5294
       -96.022         -74.824
 03 10 28  0  3 30.0000000  0  7 11  3 23 14 20 31 28                 .000000620
  20457900.945   -22264147.667 9 -16840891.86048  20457900.7644   20457901.9504
      1083.617         844.376
  24153772.363    -3947438.887 8  -2819456.50545  24153773.1834   24153777.4214
     -3728.313       -2905.182
  23429305.163    -5032968.207 9  -3879373.48246  23429305.7534   23429307.8484
     -2931.362       -2284.188
  22074015.363   -11281877.039 9  -8331112.63447  22074015.6254   22074015.3994
         7.494           5.842
  22625587.071   -12056650.618 9  -9102357.82347  22625587.8184   22625590.2454
      3174.221        2473.426
  21446925.873   -17015531.287 9 -12462010.35448  21446925.2674   21446928.3384
     -2816.103       -2194.366
  23307020.025    -7466150.296 9  -5797784.11446  23307017.8394   23307020.0674
      -115.354         -89.906
 03 10 28  0  4  0.0000000  0  7 11  3 23 14 20 31 28                 .000000620
  20451749.867   -22296471.963 9 -16866079.60848  20451749.3754   20451750.7524
      1071.331         834.800
  24175066.431    -3835538.665 9  -2732261.56145  24175067.2644   24175071.1254
     -3731.706       -2907.828
  23446055.260    -4944947.398 9  -3810785.84246  23446055.2264   23446058.5114
     -2936.646       -2288.304
  22074031.156   -11281790.615 9  -8331045.29247  22074031.0194   22074032.7714
       -13.250         -10.331
  22607493.171   -12151742.145 9  -9176455.06447  22607492.9084   22607495.1754
      3165.233        2466.421
  21463039.414   -16930854.568 9 -12396028.52248  21463038.6994   21463041.3624
     -2829.015       -2204.421
  23307731.888    -7462398.487 9  -5794860.63346  23307732.5144   23307734.4264
      -134.747        -105.001
 03 10 28  0  4 30.0000000  0  7 11  3 23 14 20 31 28                 .000000620
  20445669.407   -22328426.433 9 -16890979.19748  20445669.2404   20445669.9374
      1058.982         825.181
  24196382.361    -3723538.417 9  -2644988.66145  24196380.6704   24196384.9084
     -3735.000       -2910.384
  23462835.500    -4856770.468 9  -3742076.55246  23462835.3584   23462837.1404
     -2941.845       -2292.342
  22074165.471   -11281081.792 9  -8330492.95547  22074165.7154   22074167.1954
       -34.001         -26.493
  22589449.808   -12246565.096 9  -9250343.04647  22589448.2724   22589451.5834
      3156.254        2459.421
  21479225.451   -16845791.194 9 -12329745.40148  21479225.6444   21479228.2884
     -2841.846       -2214.425
  23308556.799    -7458066.733 9  -5791485.25346  23308557.0394   23308557.5294
      -154.026        -120.032
 03 10 28  0  5  0.0000000  0  7 11  3 23 14 20 31 28                 .000000621
  20439658.996   -22360010.239 9 -16915589.95148  20439658.6974   20439659.4824
      1046.614         815.539
  24217713.893    -3611440.160 9  -2557639.42045  24217713.4844   24217716.7714
     -3738.225       -2912.903
  23479643.165    -4768439.334 9  -3673247.09446  23479643.3834   23479646.2374
     -2946.950       -2296.329
  22074420.708   -11279750.569 9  -8329455.62147  22074419.4114   22074420.5914
       -54.757         -42.664
  22571455.322   -12341117.882 9  -9324020.52847  22571454.9434   22571457.9274
      3147.215        2452.359
  21495485.887   -16760343.342 9 -12263162.67848  21495485.9094   21495488.6924
     -2854.646       -2224.402
  23309492.632    -7453155.623 9  -5787658.40946  23309490.5974   23309494.1984
      -173.352        -135.083
 03 10 28  0  5 30.0000000  0  7 11  3 23 14 20 31 28                 .000000622
  20433719.053   -22391222.494 9 -16939911.18948  20433719.1314   20433720.2324
      1034.218         805.882
  24239063.157    -3499245.809 9  -2470215.29945  24239063.7044   24239066.2484
     -3741.376       -2915.362
  23496482.317    -4679955.744 9  -3604298.83746  23496482.4824   23496484.3034
     -2951.952       -2300.234
  22074791.051   -11277796.782 9  -8327933.19147  22074791.6204   22074792.3614
       -75.515         -58.842
  22553515.321   -12435398.973 9  -9397486.29547  22553514.6834   22553517.2384
      3138.136        2445.292
  21511819.029   -16674513.045 9 -12196281.94348  21511818.9324   21511822.0464
     -2867.350       -2234.295
  23310537.434    -7447665.594 9  -5783380.45946  23310536.2584   23310538.1764
      -192.645        -150.119
 03 10 28  0  6  0.0000000  0  7 11  3 23 14 20 31 28                 .000000623
  20427850.146   -22422062.522 9 -16963942.38348  20427850.4484   20427851.5504
      1021.738         796.159
  24260430.711    -3386957.451 9  -2382717.89845  24260429.7354   24260432.8334
     -3744.489       -2917.783
  23513348.519    -4591321.466 9  -3535233.16446  23513347.8434   23513350.3734
     -2956.985       -2304.148
  22075281.636   -11275220.652 9  -8325925.79947  22075280.9164   22075282.3874
       -96.266         -75.008
  22535625.805   -12529406.867 9  -9470739.16647  22535624.9904   22535627.9744
      3129.027        2438.200
  21528224.588   -16588302.467 9 -12129104.89548  21528224.6294   21528226.7924
     -2880.022       -2244.183
  23311691.567    -7441596.930 9  -5778651.64546  23311690.6854   23311692.6034
      -211.954        -165.155
 03 10 28  0  6 30.0000000  0  7 11  3 23 14 20 31 28                 .000000623
  20422053.571   -22452529.430 9 -16987682.82948  20422053.3184   20422053.6544
      1009.335         786.492
  24281816.998    -3274577.192 9  -2295148.88045  24281815.6074   24281819.4614
     -3747.581       -2920.189
  23530242.764    -4502538.276 9  -3466051.45646  23530242.1914   23530246.9424
     -2961.882       -2307.942
  22075890.967   -11272022.233 9  -8323433.53047  22075890.6204   22075891.1964
      -116.980         -91.146
  22517788.218   -12623140.049 9  -9543777.96347  22517787.2884   22517790.9524
      3119.854        2431.065
  21544701.276   -16501713.761 9 -12061633.21148  21544701.4044   21544704.0294
     -2892.570       -2253.957
  23312956.878    -7434950.705 9  -5773472.77346  23312956.0204   23312958.0544
      -231.171        -180.128
 03 10 28  0  7  0.0000000  0  7 11  3 23 14 20 31 28                 .000000623
  20416326.701   -22482622.381 9 -17011131.87348  20416326.7604   20416327.3454
       996.843         776.761
  24303218.613    -3162107.068 9  -2207509.86245  24303218.4604   24303220.8994
     -3750.453       -2922.423
  23547166.145    -4413608.010 9  -3396755.14646  23547165.1164   23547168.6914
     -2966.770       -2311.770
  22076617.130   -11268201.595 9  -8320456.40147  22076617.1754   22076617.9684
      -137.723        -107.324
  22500004.150   -12716596.922 9  -9616601.47547  22500004.5394   22500006.9174
      3110.603        2423.841
  21561250.812   -16414749.072 9 -11993868.53748  21561250.6864   21561253.1434
     -2905.080       -2263.694
  23314331.359    -7427727.140 9  -5767844.03546  23314330.7094   23314332.0654
      -250.433        -195.131
 03 10 28  0  7 30.0000000  0  7 11  3 23 14 20 31 28                 .000000623
  20410671.564   -22512340.309 9 -17034288.69148  20410671.3184   20410672.3274
       984.341         767.021
  24324636.918    -3049549.216 9  -2119802.47445  24324635.9464   24324640.7784
     -3753.374       -2924.704
  23564117.373    -4324532.429 9  -3327345.60546  23564117.2384   23564119.0954
     -2971.585       -2315.520
  22077463.792   -11263758.498 9  -8316994.23847  22077463.5364   22077463.8204
      -158.470        -123.473
  22482273.632   -12809776.146 9  -9689208.62547  22482273.1394   22482276.2614
      3101.317        2416.618
  21577871.770   -16327410.444 9 -11925812.49448  21577870.9434   21577873.2714
     -2917.511       -2273.380
  23315815.442    -7419926.767 9  -5761765.83646  23315815.9304   23315816.9414
      -269.644        -210.104
 03 10 28  0  8  0.0000000  0  7 11  3 23 14 20 31 28                 .000000623
  20405088.040   -22541682.814 9 -17057152.98148  20405088.0544   20405088.5364
       971.813         757.254
  24346071.815    -2936905.631 8  -2032028.30345  24346071.9524   24346075.6494
     -3756.251       -2926.944
  23581094.069    -4235313.427 9  -3257824.30646  23581093.1314   23581097.0994
     -2976.327       -2319.220
  22078426.710   -11258693.218 9  -8313047.26447  22078426.4164   22078427.5534
      -179.228        -139.664
  22464594.068   -12902676.339 9  -9761598.36747  22464593.4704   22464597.5774
      3091.975        2409.339
  21594561.371   -16239700.191 9 -11857466.86748  21594561.6404   21594563.7014
     -2929.874       -2283.020
  23317408.727    -7411550.410 9  -5755238.80446  23317407.7034   23317410.2364
      -288.831        -225.061
 03 10 28  0  8 30.0000000  0  7 11  3 23 14 20 31 28                 .000000621
  20399575.936   -22570648.893 9 -17079723.94848  20399575.6174   20399576.4204
       959.229         747.452
  24367525.386    -2824178.298 9  -1944188.85045  24367523.7414   24367528.1244
     -3758.914       -2929.019
  23598099.452    -4145952.783 9  -3188192.62746  23598098.4794   23598101.4444
     -2981.007       -2322.860
  22079508.904   -11253006.019 9  -8308615.65847  22079508.3634   22079509.6354
      -199.950        -155.802
  22446969.333   -12995295.712 9  -9833769.27247  22446969.4574   22446972.1094
      3082.628        2402.051
  21611322.241   -16151620.310 9 -11788833.20248  21611321.7854   21611325.4454
     -2942.152       -2292.584
  23319111.864    -7402598.603 9  -5748263.38046  23319113.0614   23319113.1314
      -307.962        -239.978
 03 10 28  0  9  0.0000000  0  8 11  3 23 14 20  7 31 28              .000000623
  20394135.555   -22599237.763 9 -17102000.99048  20394135.4554   20394136.0084
       946.686         737.677
  24388991.213    -2711369.411 9  -1856285.88145  24388990.6864   24388994.1264
     -3761.609       -2931.119
  23615131.030    -4056452.313 9  -3118451.99746  23615130.6364   23615133.3114
     -2985.647       -2326.476
  22080709.551   -11246696.944 9  -8303699.49047  22080709.2864   22080710.1244
      -220.655        -171.937
  22429397.684   -13087632.873 9  -9905720.29347  22429397.9884   22429400.4804
      3073.206        2394.701
          .000            .000 1          .00011          .0004           .0001
          .000            .000
  21628154.496   -16063172.999 9 -11719913.25948  21628153.8784   21628156.4774
     -2954.313       -2302.070
  23320927.380    -7393072.071 9  -5740840.11446  23320924.5404   23320925.9184
      -327.108        -254.886
 03 10 28  0  9 30.0000000  0  7 11  3 23 14 20 31 28                 .000000621
  20388767.175   -22627448.432 9 -17123983.33248  20388767.3484   20388767.7334
       934.039         727.821
  24410471.053    -2598481.181 8  -1768321.00945  24410472.6544   24410475.4134
     -3764.213       -2933.159
  23632187.700    -3966813.700 9  -3048603.75546  23632187.9174   23632190.9034
     -2990.260       -2330.076
  22082028.812   -11239766.273 9  -8298298.96547  22082027.8334   22082028.9784
      -241.365        -188.080
  22411880.844   -13179686.677 9  -9977450.50247  22411880.6974   22411883.4974
      3063.749        2387.332
  21645053.836   -15974360.411 9 -11650708.65848  21645053.3454   21645056.8964
     -2966.488       -2311.550
  23322845.184    -7382971.535 9  -5732969.57746  23322845.5824   23322847.1164
      -346.293        -269.847
 03 10 28  0 10  0.0000000  0  7 11  3 23 14 20 31 28                 .000000621
  20383471.375   -22655280.397 9 -17145670.57648  20383470.7824   20383471.2804
       921.379         717.960
  24431968.680    -2485515.290 8  -1680295.67045  24431969.3064   24431973.8744
     -3766.771       -2935.150
  23649272.516    -3877038.828 9  -2978649.31646  23649271.6644   23649274.6504
     -2994.780       -2333.595
  22083464.998   -11232214.133 9  -8292414.17747  22083465.6114   22083465.8484
      -262.114        -204.254
  22394417.635   -13271455.479 9 -10048958.62547  22394417.2804   22394420.5324
      3054.175        2379.864
  21662023.679   -15885184.804 9 -11581221.19948  21662023.4244   21662026.2844
     -2978.576       -2320.967
  23324880.231    -7372297.736 9  -5724652.33746  23324878.5714   23324879.5004
      -365.336        -284.685
 03 10 28  0 10 30.0000000  0  8 11  3 23 14 20  7 31 28              .000000621
  20378246.780   -22682732.668 9 -17167061.96148  20378246.5744   20378247.4624
       908.727         708.101
  24453481.478    -2372473.920 8  -1592211.52645  24453481.1284   24453483.9184
     -3769.341       -2937.151
  23666381.214    -3787129.343 9  -2908589.96846  23666380.5794   23666382.6794
     -2999.210       -2337.060
  22085021.184   -11224040.884 9  -8286045.40247  22085020.5124   22085021.4544
      -282.808        -220.361
  22377010.104   -13362937.743 9 -10120243.48247  22377008.8024   22377012.3844
      3044.620        2372.434
          .000            .00011     -2022.53112          .0005   25017956.3311
          .000        2598.646
  21679062.479   -15795648.265 9 -11511452.50048  21679062.4464   21679064.4364
     -2990.550       -2330.300
  23327017.447    -7361051.405 9  -5715888.95846  23327018.6514   23327020.5284
      -384.445        -299.577
 03 10 28  0 11  0.0000000  0  8 11  3 23 14 20  7 31 28              .000000621
  20373094.985   -22709804.509 9 -17188156.90348  20373095.1454   20373095.9864
       896.019         698.197
  24475003.001    -2259359.317 8  -1504070.27845  24475003.3504   24475009.9734
     -3771.734       -2939.020
  23683515.977    -3697086.825 9  -2838426.96446  23683516.3674   23683518.2104
     -3003.602       -2340.483
  22086693.877   -11215246.588 9  -8279192.71247  22086694.0844   22086695.5064
      -303.514        -236.502
  22359656.615   -13454132.083 9 -10191303.98547  22359655.2874   22359658.1974
      3034.982        2364.931
          .000            .000 1    -82551.272 4          .0004   24998284.802
          .000        2596.192
  21696168.317   -15705753.080 9 -11441404.31648  21696168.0734   21696170.5814
     -3002.478       -2339.594
  23329267.770    -7349233.159 9  -5706679.94446  23329266.6364   23329268.8004
      -403.500        -314.427
 03 10 28  0 11 30.0000000  0  8 11  3 23 14 20  7 31 28              .000000621
  20368016.536   -22736495.196 9 -17208954.84948  20368016.1344   20368017.0164
       883.325         688.310
  24496544.856    -2146173.408 8  -1415873.49645  24496543.7674   24496549.4084
     -3774.068       -2940.832
  23700675.678    -3606913.246 9  -2768161.82746  23700675.4884   23700677.8794
     -3007.954       -2343.866
  22088485.645   -11205831.631 9  -8271856.36347  22088485.7694   22088486.8144
      -324.173        -252.594
  22342355.783   -13545037.278 9 -10262139.16847  22342356.7794   22342360.1044
      3025.342        2357.409
          .000            .000 1   -160392.15115          .0004   24979281.0841
          .000        2593.200
  21713343.148   -15615501.394 9 -11371078.35448  21713342.2274   21713345.0274
     -3014.313       -2348.807
  23331625.759    -7336843.835 9  -5697025.95646  23331625.7254   23331627.0044
      -422.505        -329.229
 03 10 28  0 12  0.0000000  0  8 11  3 23 14 20  7 31 28              .000000622
  20363009.067   -22762803.936 9 -17229455.16948  20363009.4744   20363010.5734
       870.562         678.358
  24518098.195    -2032918.124 8  -1327622.65845  24518096.3094   24518098.5754
     -3776.360       -2942.607
  23717859.698    -3516610.316 9  -2697795.91846  23717860.0724   23717862.5764
     -3012.241       -2347.203
  22090395.944   -11195796.224 9  -8264036.55847  22090394.9964   22090396.4004
      -344.873        -268.743
  22325114.296   -13635651.688 9 -10332747.78447  22325113.5764   22325116.2784
      3015.598        2349.817
  24959978.079     -325123.604 8   -239435.90955          .0004   24959975.1275
      3323.919        2590.058
  21730585.066   -15524895.375 9 -11300476.28648  21730584.2964   21730587.2344
     -3026.118       -2358.014
  23334092.377    -7323884.421 9  -5686927.69746  23334092.0594   23334092.7964
      -441.511        -344.037
 03 10 28  0 12 30.0000000  0  8 11  3 23 14 20  7 31 28              .000000624
  20358076.846   -22788729.974 9 -17249657.28049  20358076.2274   20358077.2904
       857.791         668.404
  24539662.841    -1919595.765 8  -1239319.52945  24539659.4354   24539666.1214
     -3778.495       -2944.280
  23735068.955    -3426179.792 9  -2627330.58646  23735067.9644   23735070.1304
     -3016.437       -2350.451
  22092422.273   -11185140.850 9  -8255733.66347  22092422.8414   22092423.8944
      -365.506        -284.820
  22307926.739   -13725973.765 9 -10403128.60447  22307925.4774   22307928.5634
      3005.844        2342.205
  24941014.466     -424780.038 9   -317090.14745  24941012.9625   24941019.0984
      3319.890        2586.927
  21747893.110   -15433937.359 9 -11229599.94647  21747893.4094   21747895.9494
     -3037.805       -2367.124
  23336665.222    -7310355.703 9  -5676385.83746  23336665.4534   23336667.5084
      -460.406        -358.761
 03 10 28  0 13  0.0000000  0  8 11  3 23 14 20  7 31 28              .000000625
  20353215.303   -22814272.573 9 -17269560.61048  20353215.3304   20353216.5644
       845.009         658.448
  24561238.855    -1806208.142 8  -1150965.59845  24561237.1594   24561239.6164
     -3780.642       -2945.956
  23752300.267    -3335623.365 9  -2556767.13346  23752300.4854   23752302.3734
     -3020.638       -2353.740
  22094569.257   -11173865.725 9  -8246947.84047  22094568.2084   22094569.6224
      -386.192        -300.926
  22290794.957   -13816002.293 9 -10473280.68147  22290794.3664   22290796.1284
      2996.011        2334.543
  24922073.769     -524315.114 9   -394649.97245  24922071.4814   24922075.8634
      3315.788        2583.729
  21765267.269   -15342629.496 9 -11158450.98347  21765267.3404   21765270.6114
     -3049.400       -2376.159
  23339350.514    -7296258.306 9  -5665400.88146  23339349.9994   23339349.9984
      -479.376        -373.524
 03 10 28  0 13 30.0000000  0  8 11  3 23 14 20  7 31 28              .000000625
  20348428.479   -22839430.822 9 -17289164.44149  20348428.1994   20348429.1554
       832.159         648.435
  24582825.689    -1692757.311 8  -1062562.34745  24582825.4424   24582830.6294
     -3782.710       -2947.572
  23769555.822    -3244942.742 9  -2486106.90346  23769555.3124   23769557.6734
     -3024.729       -2356.940
  22096831.840   -11161971.450 9  -8237679.57447  22096831.5384   22096832.7734
      -406.812        -317.003
  22273717.775   -13905735.854 9 -10543202.91047  22273718.1424   22273720.3494
      2986.189        2326.895
  24903156.060     -623726.918 9   -472113.72545  24903153.5794   24903157.1364
      3311.642        2580.507
  21782711.421   -15250973.952 9 -11087031.10847  21782709.7294   21782712.1914
     -3060.991       -2385.169
  23342139.650    -7281593.479 9  -5653973.73546  23342139.6784   23342139.9634
      -498.309        -388.281
 03 10 28  0 14  0.0000000  0  8 11  3 23 14 20  7 31 28              .000000624
  20343714.296   -22864203.666 9 -17308467.96248  20343714.0654   20343714.9514
       819.310         638.423
  24604424.483    -1579245.524 8   -974111.65845  24604426.8654   24604430.0144
     -3784.777       -2949.178
  23786836.479    -3154139.761 9  -2415351.32946  23786834.3584   23786837.6524
     -3028.785       -2360.105
  22099213.628   -11149458.413 9  -8227929.15647  22099213.0654   22099214.1384
      -427.416        -333.052
  22256701.246   -13995172.937 9 -10612894.12647  22256700.0464   22256701.2084
      2976.279        2319.173
  24884262.152     -723013.171 8   -549479.67645  24884259.4864   24884264.0664
      3307.415        2577.218
  21800217.903   -15158973.042 9 -11015342.10647  21800217.1784   21800219.8544
     -3072.436       -2394.098
  23345037.739    -7266361.900 9  -5642104.99846  23345037.2984   23345038.8724
      -517.166        -402.985
 03 10 28  0 14 30.0000000  0  8 11  3 23 14 20  7 31 28              .000000625
  20339073.114   -22888590.669 9 -17327470.83848  20339073.1434   20339074.1974
       806.467         628.410
  24626038.944    -1465674.589 8   -885614.81845  24626037.2714   24626041.8414
     -3786.719       -2950.687
  23804137.654    -3063216.124 9  -2344501.73546  23804136.8424   23804139.4684
     -3032.744       -2363.193
  22101711.658   -11136326.867 9  -8217696.76047  22101711.7044   22101712.6154
      -448.011        -349.114
  22239738.926   -14084312.154 9 -10682353.22547  22239737.3074   22239738.9684
      2966.321        2311.411
  24865394.531     -822171.805 8   -626746.19445  24865393.8654   24865392.5934
      3303.113        2573.854
  21817788.454   -15066629.067 9 -10943385.77647  21817789.1124   21817792.8884
     -3083.834       -2402.982
  23348046.098    -7250564.516 9  -5629795.34746  23348043.4964   23348044.3894
      -535.995        -417.642
 03 10 28  0 15  0.0000000  0  8 11  3 23 14 20  7 31 28              .000000631
  20334505.945   -22912591.020 9 -17346172.42148  20334506.0654   20334507.0434
       793.554         618.350
  24647662.195    -1352046.754 8   -797073.70445  24647662.2894   24647666.0654
     -3788.542       -2952.114
  23821462.980    -2972173.331 9  -2273559.30946  23821462.6574   23821464.5674
     -3036.705       -2366.254
  22104328.541   -11122577.347 9  -8206982.84447  22104328.4354   22104329.6034
      -468.620        -365.164
  22222831.596   -14173152.045 9 -10751579.09147  22222831.4594   22222833.3344
      2956.334        2303.644
  24846549.984     -921200.660 8   -703911.53145  24846548.3694   24846549.8794
      3298.766        2570.463
  21835427.765   -14973944.120 9 -10871163.76747  21835427.0364   21835429.6174
     -3095.163       -2411.814
  23351157.639    -7234202.402 9  -5617045.64846  23351157.6734   23351158.8354
      -554.830        -432.346
 03 10 28  0 15 30.0000000  0  8 11  3 23 14 20  7 31 28              .000000631
  20330012.341   -22936204.254 9 -17364572.33848  20330012.1144   20330013.6224
       780.617         608.272
  24669293.676    -1238364.205 8   -708489.92745  24669292.6454   24669300.1604
     -3790.347       -2953.515
  23838810.201    -2881013.205 9  -2202525.46046  23838808.8614   23838812.3154
     -3040.605       -2369.290
  22107063.331   -11108210.230 9  -8195787.69347  22107063.1794   22107062.5014
      -489.178        -381.162
  22205983.418   -14261691.502 9 -10820570.84847  22205982.7314   22205984.0854
      2946.271        2295.795
  24827729.250    -1020097.469 8   -780973.96145  24827728.7964   24827730.8174
      3294.317        2567.000
  21853130.609   -14880920.560 9 -10798677.90347  21853129.3184   21853131.1194
     -3106.407       -2420.571
  23354376.818    -7217276.538 9  -5603856.66046  23354377.5264   23354378.6674
      -573.579        -446.947
 03 10 28  0 16  0.0000000  0  8 11  3 23 14 20  7 31 28              .000000631
  20325593.521   -22959429.139 9 -17382669.66448  20325593.2374   20325594.1334
       767.680         598.193
  24690937.620    -1124628.960 8   -619865.07345  24690937.0204   24690940.0444
     -3792.078       -2954.869
  23856179.574    -2789737.458 9  -2131401.51246  23856179.6584   23856181.1944
     -3044.432       -2372.289
  22109912.866   -11093226.311 9  -8184111.88847  22109912.9204   22109915.3304
      -509.753        -397.212
  22189192.289   -14349928.827 9 -10889327.19047  22189191.2094   22189193.8994
      2936.198        2287.936
  24808933.215    -1118860.362 8   -857932.03445  24808933.2854   24808935.4254
      3289.818        2563.488
  21870893.764   -14787560.632 9 -10725929.91647  21870894.6854   21870897.1294
     -3117.595       -2429.288
  23357706.584    -7199787.974 9  -5590229.22046  23357705.4614   23357707.4794
      -592.342        -461.561
 03 10 28  0 16 30.0000000  0  8 11  3 23 14 20  7 31 28              .000000630
  20321247.816   -22982265.321 9 -17400464.07448  20321247.6884   20321248.5064
       754.727         588.094
  24712590.462    -1010843.073 8   -531200.74245  24712590.4934   24712596.0064
     -3793.674       -2956.106
  23873569.580    -2698347.659 9  -2060188.68446  23873569.8594   23873572.4214
     -3048.188       -2375.226
  22112882.899   -11077625.875 9  -8171955.70247  22112882.0224   22112884.0324
      -530.263        -413.188
  22172459.021   -14437862.922 9 -10957847.25647  22172457.8954   22172460.6514
      2926.105        2280.098
  24790166.402    -1217486.995 8   -934783.95845  24790165.9554   24790168.8894
      3285.274        2559.957
  21888723.905   -14693866.562 9 -10652921.56847  21888724.1074   21888726.2014
     -3128.701       -2437.950
  23361138.877    -7181737.521 9  -5576163.91446  23361138.7754   23361142.7044
      -611.052        -476.144
 03 10 28  0 17  0.0000000  0  8 11  3 23 14 20  7 31 28              .000000629
  20316976.685   -23004711.779 9 -17417954.82448  20316976.2094   20316977.2074
       741.686         577.937
  24734253.367     -897008.300 8   -442498.36745  24734253.3954   24734254.9944
     -3795.232       -2957.326
  23890982.287    -2606845.686 9  -1988888.43946  23890981.4924   23890984.3524
     -3051.913       -2378.114
  22115968.268   -11061409.701 9  -8159319.72347  22115968.2744   22115969.3294
      -550.800        -429.192
  22155784.163   -14525492.405 9 -11026129.95147  22155782.4774   22155784.6804
      2915.902        2272.130
  24771424.192    -1315975.232 8  -1011528.04745  24771424.6144   24771426.1964
      3280.611        2556.320
  21906618.376   -14599840.605 9 -10579654.61947  21906617.5744   21906618.8204
     -3139.718       -2446.530
  23364682.789    -7163126.331 9  -5561661.68646  23364681.8884   23364683.8844
      -629.721        -490.698
 03 10 28  0 17 30.0000000  0  8 11  3 23 14 20  7 31 28              .000000629
  20312778.178   -23026767.840 9 -17435141.34848  20312778.5504   20312779.9964
       728.663         567.792
  24755923.073     -783126.825 8   -353759.58645  24755923.9584   24755930.2074
     -3796.766       -2958.515
  23908414.776    -2515233.155 9  -1917502.05546  23908414.5704   23908417.2624
     -3055.606       -2380.988
  22119171.318   -11044578.274 9  -8146204.31647  22119170.0474   22119172.4424
      -571.293        -445.148
  22139165.368   -14612815.591 9 -11094173.96047  22139165.8544   22139167.7914
      2905.661        2264.156
  24752708.674    -1414322.962 8  -1088162.65045  24752709.2094   24752712.4914
      3275.826        2552.590
  21924570.056   -14505485.121 9 -10506130.87347  21924571.5254   21924574.2904
     -3150.685       -2455.075
  23368329.881    -7143955.552 9  -5546723.41846  23368331.1474   23368331.8274
      -648.357        -505.216
 03 10 28  0 18  0.0000000  0  8 11  3 23 14 20  7 31 28              .000000628
  20308656.310   -23048432.696 9 -17452023.04148  20308656.0284   20308657.2804
       715.628         557.628
  24777603.182     -669200.611 8   -264985.91945  24777602.2954   24777606.9024
     -3798.330       -2959.734
  23925869.264    -2423511.719 9  -1846030.80446  23925869.6254   23925871.1784
     -3059.203       -2383.801
  22122491.850   -11027132.213 9  -8132609.98347  22122491.9554   22122491.8454
      -591.756        -461.119
  22122607.417   -14699831.282 9 -11161978.35647  22122607.1364   22122609.0194
      2895.392        2256.144
  24734023.361    -1512528.099 8  -1164686.10545  24734021.7644   24734024.4424
      3271.101        2548.913
  21942589.005   -14410802.317 9 -10432352.07847  21942589.2484   21942592.2094
     -3161.538       -2463.542
  23372084.722    -7124226.134 9  -5531349.87046  23372084.7394   23372086.4664
      -666.930        -519.687
 03 10 28  0 18 30.0000000  0  8 11  3 23 14 20  7 31 28              .000000629
  20304608.266   -23069705.910 9 -17468599.56748  20304607.9554   20304609.2544
       702.542         547.432
  24799291.019     -555231.855 8   -176179.15445  24799288.8254   24799294.0404
     -3799.793       -2960.882
  23943343.862    -2331683.002 9  -1774475.95946  23943343.2954   23943346.3944
     -3062.716       -2386.554
  22125928.172   -11009072.186 9  -8118537.22647  22125927.6484   22125929.2644
      -612.260        -477.094
  22106108.568   -14786538.222 9 -11229542.18247  22106107.1844   22106109.2644
      2885.050        2248.074
  24715364.620    -1610588.327 8  -1241096.66045  24715359.7654   24715364.9214
      3266.184        2545.080
  21960669.978   -14315794.513 9 -10358320.04547  21960668.7334   21960672.3624
     -3172.356       -2471.969
  23375947.034    -7103939.425 9  -5515542.05746  23375945.6904   23375947.5414
      -685.552        -534.194
 03 10 28  0 19  0.0000000  0  8 11  3 23 14 20  7 31 28              .000000623
  20300634.634   -23090586.523 9 -17484870.17548  20300634.6024   20300635.7744
       689.490         537.264
  24820984.492     -441222.617 8    -87340.82445  24820984.7474   24820986.0074
     -3800.905       -2961.742
  23960837.016    -2239748.775 9  -1702838.91246  23960836.5334   23960839.8974
     -3066.201       -2389.237
  22129481.319   -10990398.893 9  -8103986.60947  22129481.5064   22129482.1404
      -632.646        -492.977
  22089667.687   -14872935.106 9 -11296864.38547  22089666.3304   22089669.1144
      2874.737        2240.052
  24696731.204    -1708501.577 8  -1317392.66545  24696728.3414   24696732.2154
      3261.359        2541.313
  21978809.666   -14220464.082 9 -10284036.62447  21978809.5764   21978812.7624
     -3183.007       -2480.275
  23379911.267    -7083096.515 9  -5499300.83546  23379910.6214   23379911.9374
      -704.000        -548.580
 03 10 28  0 19 30.0000000  0  8 11  3 23 14 20  7 31 28              .000000622
  20296735.757   -23111074.054 9 -17500834.48548  20296735.6374   20296737.0184
       676.336         527.020
  24842687.735     -327174.757 8      1527.58855  24842685.5534           .0005
     -3802.311       -2962.852
  23978352.053    -2147710.580 9  -1631120.83946  23978352.3414   23978353.8504
     -3069.686       -2391.966
  22133151.994   -10971113.037 9  -8088958.66347  22133151.1594   22133152.2194
      -653.092        -508.903
  22073284.692   -14959020.541 9 -11363943.92347  22073284.7934   22073286.6234
      2864.291        2231.915
  24678123.372    -1806265.671 8  -1393572.46945  24678124.0684   24678129.4954
      3256.243        2537.329
  21997009.814   -14124813.201 9 -10209503.48747  21997010.8884   21997014.0044
     -3193.697       -2488.591
  23383984.359    -7061698.385 9  -5482626.97846  23383982.4364   23383984.5204
      -722.537        -563.028
 03 10 28  0 20  0.0000000  0  8 11  3 23 14 20  7 31 28              .000000621
  20292911.881   -23131167.583 9 -17516491.76948  20292912.2394   20292913.3784
       663.200         516.775
  24864398.131     -213090.473 7     90424.41255  24864395.2694           .0005
     -3803.381       -2963.663
  23995887.252    -2055570.200 9  -1559323.13446  23995886.0964   23995888.1154
     -3073.021       -2394.561
  22136938.220   -10951215.115 9  -8073453.78547  22136937.7634   22136938.4394
      -673.489        -524.787
  22056963.185   -15044792.983 9 -11430779.56047  22056962.7114   22056965.8214
      2853.856        2223.780
  24659548.877    -1903878.281 8  -1469634.27245  24659549.6144   24659554.6554
      3251.222        2533.424
  22015272.977   -14028844.112 9 -10134722.39747  22015273.4494   22015276.5804
     -3204.281       -2496.836
  23388161.726    -7039746.464 9  -5465521.61046  23388160.7854   23388161.6434
      -740.922        -577.344
 03 10 28  0 20 30.0000000  0  8 11  3 23 14 20  7 31 28              .000000621
  20289163.715   -23150866.269 9 -17531841.38748  20289163.6484   20289164.7214
       650.019         506.509
  24886112.204      -98971.761 7    179348.08354  24886108.2644           .0005
     -3804.653       -2964.664
  24013439.061    -1963329.104 9  -1487446.95546  24013438.1594   24013441.9794
     -3076.372       -2397.178
  22140840.142   -10930706.195 9  -8057472.79347  22140839.6714   22140841.6724
      -693.817        -540.642
  22040702.033   -15130251.415 9 -11497370.53647  22040700.3884   22040703.4044
      2843.359        2215.604
  24641002.535    -2001337.390 8  -1545576.44745  24641002.7844   24641006.6784
      3246.045        2529.384
  22033596.960   -13932559.373 9 -10059695.35747  22033596.1794   22033599.8434
     -3214.742       -2504.984
  23392445.178    -7017241.750 9  -5447985.47146  23392443.4724   23392444.9054
      -759.375        -591.712
 03 10 28  0 21  0.0000000  0  8 11  3 23 14 20  7 31 28              .000000621
  20285490.144   -23170169.530 9 -17546882.88948  20285490.3414   20285491.5804
       636.824         496.229
  24907835.239       15179.113 7    268296.78955          .0005           .0005
     -3805.624       -2965.402
  24031009.948    -1870988.930 9  -1415493.59446  24031010.6074   24031013.4114
     -3079.671       -2399.756
  22144860.372   -10909586.983 9  -8041016.25847  22144859.2224   22144860.3424
      -714.148        -556.475
  22024498.093   -15215394.338 9 -11563715.62847  22024497.9494   22024500.8404
      2832.813        2207.386
  24622488.049    -2098640.688 8  -1621397.21145  24622486.4334   24622490.8694
      3240.791        2525.292
  22051977.607   -13835961.073 9  -9984423.99047  22051977.8424   22051981.2924
     -3225.151       -2513.106
  23396832.870    -6994185.473 9  -5430019.54346  23396830.2364   23396831.9704
      -777.722        -606.017
 03 10 28  0 21 30.0000000  0  8 11  3 23 14 20  7 31 28              .000000620
  20281892.908   -23189076.855 9 -17561615.87548  20281892.5464   20281893.5364
       623.626         485.942
  24929563.172      129360.424 7    357269.23654  24929560.2024           .0005
     -3806.286       -2965.943
  24048601.456    -1778551.290 9  -1343464.27146  24048600.2974   24048603.4774
     -3082.848       -2402.221
  22148993.404   -10887857.991 9  -8024084.57347  22148993.3834   22148994.7574
      -734.444        -572.293
  22008357.517   -15300220.637 9 -11629814.02347  22008356.3674   22008358.8174
      2822.256        2199.153
  24604001.200    -2195786.140 8  -1697094.95945  24604000.4004   24604004.9934
      3235.511        2521.177
  22070418.535   -13739051.595 9  -9908910.12447  22070418.8964   22070421.6374
     -3235.479       -2521.156
  23401322.686    -6970579.089 9  -5411624.98346  23401324.0674   23401324.5294
      -796.020        -620.282
 03 10 28  0 22  0.0000000  0  8 11  3 23 14 20  7 31 28              .000000620
  20278370.704   -23207587.190 9 -17576039.52048  20278370.3264   20278371.1284
       610.367         475.607
  24951298.610      243570.081 7     40874.69542          .0004           .0004
     -3807.230       -2966.673
  24066210.558    -1686017.821 9  -1271360.27946  24066209.3624   24066210.9364
     -3086.047       -2404.723
  22153244.605   -10865520.225 9  -8006678.50947  22153244.3844   22153245.6084
      -754.732        -588.111
  21992275.037   -15384728.756 9 -11695664.47147  21992274.4734   21992277.4854
      2811.586        2190.850
  24585546.046    -2292771.382 8  -1772667.86245  24585545.9124   24585549.9884
      3230.097        2516.954
  22088920.494   -13641833.256 9  -9833155.58947  22088920.5884   22088921.7944
     -3245.742       -2529.156
  23405921.828    -6946423.985 9  -5392802.82146  23405920.0494   23405921.2424
      -814.350        -634.558
 03 10 28  0 22 30.0000000  0  8 11  3 23 14 20  7 31 28              .000000621
  20274923.340   -23225700.004 9 -17590153.40149  20274923.2504   20274924.7544
       597.127         465.294
  24973037.477      357805.908 7    129863.65954          .0004           .0005
     -3808.220       -2966.045
  24083836.104    -1593390.158 9  -1199182.88846  24083834.4144   24083838.4224
     -3089.144       -2407.126
  22157611.813   -10842574.452 9  -7988798.67947  22157611.0694   22157611.8814
      -774.990        -603.882
  21976254.474   -15468917.410 9 -11761265.96747  21976254.1684   21976256.9284
      2800.969        2182.572
  24567122.799    -2389594.327 8  -1848114.32345  24567120.3274   24567123.9184
      3224.685        2512.737
  22107479.004   -13544308.444 9  -9757162.26747  22107478.5914   22107480.4474
     -3255.928       -2537.085
  23410621.665    -6921721.158 9  -5373553.87346  23410622.5354   23410621.7394
      -832.546        -648.729
 03 10 28  0 23  0.0000000  0  8 11  3 23 14 20  7 31 28              .000000620
  20271552.024   -23243414.717 9 -17603957.07749  20271551.9384   20271553.6634
       583.813         454.923
  24994776.903      472065.827 7    218855.29854          .0004           .0005
     -3809.160       -2966.774
  24101480.591    -1500669.855 9  -1126933.31146  24101479.6304   24101482.6534
     -3092.223       -2409.523
  22162092.953   -10819021.498 9  -7970445.71547  22162092.2714   22162094.4134
      -795.206        -619.648
  21960294.579   -15552785.398 9 -11826617.59647  21960294.9464   21960297.3074
      2790.222        2174.204
  24548729.733    -2486252.680 9  -1923432.49245  24548728.1844   24548731.3894
      3219.170        2508.443
  22126093.101   -13446479.515 9  -9680931.94647  22126093.7724   22126096.8714
     -3266.022       -2544.943
  23415423.887    -6896472.209 9  -5353879.36546  23415423.8794   23415428.3994
      -850.748        -662.930
 03 10 28  0 23 30.0000000  0  8 11  3 23 14 20  7 31 28              .000000620
  20268257.336   -23260730.764 9 -17617450.11449  20268257.4414   20268258.5204
       570.523         444.562
  25016529.752      586347.95117     33479.08752          .0005           .0005
     -3809.691       -2968.590
  24119141.806    -1407858.482 9  -1054612.73846  24119141.8424   24119142.7924
     -3095.239       -2411.880
  22166690.054   -10794862.328 9  -7951620.39247  22166690.3514   22166691.3964
      -815.404        -635.382
  21944397.899   -15636331.519 9 -11891718.43047  21944396.8484   21944399.1274
      2779.483        2165.819
  24530368.686    -2582744.278 9  -1998620.75445  24530366.6514   24530369.5444
      3213.597        2504.096
  22144766.322   -13348348.759 9  -9604466.44047  22144767.2494   22144770.1764
     -3276.033       -2552.766
  23420334.012    -6870678.188 9  -5333780.13946  23420332.9214   23420335.5794
      -868.884        -677.062
 03 10 28  0 24  0.0000000  0  8 11  3 23 14 20  7 31 28              .000000619
  20265039.044   -23277647.492 9 -17630631.97949  20265038.7574   20265039.2704
       557.212         434.192
  25038272.055      700650.25317    122533.38554          .0005           .0005
     -3810.510       -2968.442
  24136820.519    -1314957.639 9   -982222.47146  24136821.1534   24136822.1754
     -3098.131       -2414.143
  22171404.196   -10770097.988 9  -7932323.50147  22171403.2744   22171404.0824
      -835.558        -651.082
  21928559.927   -15719554.301 9 -11956567.28947  21928559.5454   21928562.1974
      2768.666        2157.394
  24512036.761    -2679066.913 9  -2073677.37145  24512036.1934   24512039.2994
      3207.879        2499.647
  22163498.971   -13249918.523 9  -9527767.57947  22163498.0894   22163501.0924
     -3286.009       -2560.522
  23425345.069    -6844340.651 9  -5313257.39946  23425347.3604   23425347.4644
      -886.931        -691.105
 03 10 28  0 24 30.0000000  0  8 11  3 23 14 20  7 31 28              .000000619
  20261895.978   -23294163.973 9 -17643501.97249  20261895.6354   20261896.1754
       543.879         423.803
  25060034.347      814970.82217    211591.06554          .0005           .0005
     -3811.117       -2968.925
  24154515.914    -1221968.982 9   -909763.76346  24154515.4814   24154518.4204
     -3101.056       -2416.408
  22176229.763   -10744729.209 9  -7912555.61047  22176230.3414   22176231.6694
      -855.680        -666.751
  21912784.683   -15802452.663 9 -12021163.38447  21912784.8334   21912786.7054
      2757.869        2148.996
  24493740.519    -2775218.425 9  -2148600.63945  24493738.4844   24493742.6064
      3202.169        2495.195
  22182286.598   -13151191.175 9  -9450837.21547  22182286.1024   22182288.2034
     -3295.836       -2568.189
  23430460.414    -6817460.932 9  -5292312.18446  23430459.9444   23430462.6494
      -905.010        -705.193
 03 10 28  0 25  0.0000000  0  8 11  3 23 14 20  7 31 28              .000000619
  20258827.488   -23310279.505 9 -17656059.53349  20258828.0284   20258829.4714
       530.495         413.374
  25081792.813      929307.28217     26069.66852          .0005           .0005
     -3811.391       -2969.916
  24172226.021    -1128894.107 9   -837237.89846  24172226.4244   24172229.7594
     -3103.947       -2418.664
  22181173.477   -10718756.958 9  -7892317.46647  22181172.2204   22181173.8994
      -875.804        -682.440
  21897072.686   -15885025.242 9 -12085505.61947  21897071.4544   21897073.5454
      2746.982        2140.506
  24475474.404    -2871196.476 9  -2223388.74745  24475473.7474   24475477.7044
      3196.378        2490.685
  22201128.988   -13052169.111 9  -9373677.18047  22201129.5094   22201131.5004
     -3305.624       -2575.816
  23435680.031    -6790040.500 9  -5270945.61946  23435679.7414   23435680.1904
      -922.974        -719.198
 03 10 28  0 25 30.0000000  0  8 11  3 23 14 20  7 31 28              .000000619
  20255838.301   -23325993.572 9 -17668304.25749  20255837.9824   20255839.4154
       517.104         402.940
  25103547.198     1043658.05217    115107.45354          .0005           .0005
     -3811.845       -2965.320
  24189954.407    -1035734.595 9   -764646.04946  24189952.9244   24189956.6614
     -3106.701       -2420.816
  22186229.878   -10692182.171 9  -7871609.85247  22186229.3904   22186230.5754
      -895.857        -698.064
  21881421.302   -15967270.670 9 -12149592.91147  21881420.8944   21881423.0524
      2736.053        2131.988
  24457245.588    -2966998.920 9  -2298040.02945  24457244.6094   24457246.8024
      3190.477        2486.088
  22220027.135   -12952854.513 9  -9296289.20747  22220027.8674   22220031.1074
     -3315.352       -2583.391
  23440998.315    -6762080.634 9  -5249158.71446  23440998.7744   23441000.8254
      -940.976        -733.220
 03 10 28  0 26  0.0000000  0  8 11  3 23 14 20  7 31 28              .000000620
  20252924.847   -23341305.585 9 -17680235.70348  20252924.6764   20252925.3324
       503.674         392.472
  25125316.866     1158020.56917    204073.02754          .0005           .0005
     -3812.319       -2965.698
  24207697.160     -942492.077 9   -691989.55046  24207697.6684   24207699.9014
     -3109.421       -2422.935
  22191401.680   -10665005.968 9  -7850433.57647  22191401.2544   22191402.4294
      -915.881        -713.675
  21865832.636   -16049187.991 9 -12213424.52647  21865831.9474   21865834.9614
      2725.086        2123.445
  24439047.514    -3062623.380 9  -2372552.61245  24439049.5254   24439051.5634
      3184.490        2481.417
  22238984.599   -12853249.918 9  -9218675.27247  22238983.1434   22238984.7604
     -3324.969       -2590.896
  23446422.854    -6733582.940 9  -5226952.72146  23446421.9154   23446423.4974
      -958.894        -747.180
 03 10 28  0 26 30.0000000  0  7 11 23 14 20  7 31 28                 .000000620
  20250087.584   -23356214.627 9 -17691853.12649  20250087.6654   20250088.3504
       490.246         382.010
  24225458.417     -849167.894 9   -619269.41846  24225457.6714   24225458.0214
     -3112.103       -2425.021
  22196687.002   -10637229.401 9  -7828789.48347  22196686.6294   22196688.0384
      -935.879        -729.254
  21850307.392   -16130775.938 9 -12276999.48947  21850306.7724   21850309.1464
      2714.090        2114.886
  24420886.687    -3158067.831 9  -2446924.89345  24420886.6834   24420887.6124
      3178.496        2476.748
  22257990.734   -12753357.609 9  -9140837.13547  22257990.3034   22257993.9994
     -3334.520       -2598.315
  23451945.544    -6704549.123 9  -5204328.98146  23451946.4274   23451948.6184
      -976.716        -761.078
 03 10 28  0 27  0.0000000  0  7 11 23 14 20  7 31 28                 .000000620
  20247326.581   -23370720.274 9 -17703156.21448  20247326.5304   20247327.8614
       476.791         371.522
  24243232.395     -755763.639 9   -546486.88046  24243231.1064   24243232.4784
     -3114.788       -2427.117
  22202086.772   -10608853.384 9  -7806678.29247  22202086.7564   22202087.7604
      -955.844        -744.822
  21834844.396   -16212033.056 9 -12340316.67847  21834843.5904   21834846.6234
      2703.051        2106.279
  24402761.431    -3253329.949 9  -2521155.11045  24402758.7534   24402760.9424
      3172.359        2471.965
  22277052.843   -12653180.012 9  -9062776.69047  22277053.4164   22277056.9914
     -3343.962       -2605.669
  23457574.401    -6674980.396 9  -5181288.40246  23457573.9604   23457575.4384
      -994.539        -774.971
 03 10 28  0 27 30.0000000  0  7 11 23 14 20  7 31 28                 .000000621
  20244643.567   -23384821.769 9 -17714144.38748  20244643.6794   20244644.7164
       463.316         361.031
  24261022.279     -662280.923 9   -473643.19046  24261020.1744   24261023.3164
     -3117.316       -2429.076
  22207600.651   -10579879.260 9  -7784101.05847  22207600.2544   22207600.9344
      -975.738        -760.320
  21819442.832   -16292958.197 9 -12403375.17347  21819443.9614   21819447.1294
      2691.962        2097.627
  24384667.953    -3348407.471 9  -2595241.46745  24384664.9714   24384667.4254
      3166.185        2467.155
  22296172.199   -12552719.415 9  -8984495.73247  22296170.8824   22296173.7684
     -3353.361       -2612.999
  23463300.993    -6644878.293 9  -5157832.23346  23463301.0974   23463303.3014
     -1012.253        -788.765
 03 10 28  0 28  0.0000000  0  7 11 23 14 20  7 31 28                 .000000622
  20242037.728   -23398518.576 9 -17724817.22149  20242037.5454   20242038.1544
       449.787         350.485
  24278825.709     -568721.252 9   -400739.55545  24278824.0364   24278826.0604
     -3119.956       -2431.142
  22213227.417   -10550307.905 9  -7761058.44047  22213227.3534   22213228.7384
      -995.665        -775.853
  21804109.160   -16373550.130 9 -12466174.05047  21804107.9554   21804110.7984
      2680.813        2088.943
  24366610.933    -3443298.146 9  -2669182.25145  24366609.2424   24366610.1184
      3159.870        2462.233
  22315343.334   -12451978.231 9  -8905996.12847  22315342.1124   22315344.4394
     -3362.724       -2620.296
  23469129.602    -6614244.578 9  -5133961.81946  23469130.5644   23469132.2694
     -1029.976        -802.587
 03 10 28  0 28 30.0000000  0  7 11 23 14 20  7 31 28                 .000000622
  20239508.263   -23411809.967 9 -17735174.15049  20239508.2224   20239508.9814
       436.295         339.969
  24296643.265     -475086.149 9   -327777.12245  24296641.6824   24296645.3144
     -3122.378       -2433.036
  22218968.250   -10520140.439 9  -7737551.31347  22218968.0684   22218968.7774
     -1015.510        -791.302
  21788836.349   -16453807.681 9 -12528712.33847  21788835.5724   21788837.7974
      2669.674        2080.264
  24348588.493    -3537999.718 9  -2742975.70345  24348587.5084   24348589.3134
      3153.545        2457.311
  22334563.759   -12350958.860 9  -8827279.76647  22334565.0464   22334567.7584
     -3371.925       -2627.475
  23475061.297    -6583080.572 9  -5109678.19146  23475061.2854   23475062.4884
     -1047.601        -816.307
 03 10 28  0 29  0.0000000  0  7 11 23 14 20  7 31 28                 .000000621
  20237055.320   -23424695.450 9 -17745214.76448  20237055.3014   20237056.5404
       422.762         329.420
  24314475.889     -381377.220 9   -254757.19245  24314473.9954   24314476.4764
     -3124.838       -2434.938
  22224822.138   -10489378.018 9  -7713580.58447  22224822.0614   22224823.1204
     -1035.307        -806.728
  21773626.681   -16533729.426 9 -12590988.94647  21773626.3384   21773629.5744
      2658.457        2071.523
  24330605.044    -3632509.972 9  -2816620.07245  24330603.1994   24330604.1924
      3147.163        2452.343
  22353840.135   -12249663.770 9  -8748348.55047  22353840.3764   22353843.8394
     -3381.053       -2634.583
  23481092.984    -6551387.951 9  -5084982.62746  23481092.4094   23481094.6384
     -1065.203        -830.014
 03 10 28  0 29 30.0000000  0  7 11 23 14 20  7 31 28                 .000000622
  20234680.944   -23437174.457 9 -17754938.65548  20234681.1174   20234682.1604
       409.155         318.826
  24332320.717     -287595.959 8   -181680.91145  24332320.6794   24332323.9534
     -3127.232       -2436.789
  22230789.320   -10458021.887 9  -7689147.24247  22230788.7614   22230789.0114
     -1055.112        -822.176
  21758482.908   -16613314.403 9 -12653003.17047  21758482.3364   21758484.9164
      2647.190        2062.740
  24312655.520    -3726826.683 9  -2890113.62645  24312655.5914   24312656.6334
      3140.604        2447.226
  22373168.978   -12148095.287 9  -8669204.29047  22373168.0844   22373171.2624
     -3390.156       -2641.683
  23487224.364    -6519168.340 9  -5059876.46346  23487223.8444   23487223.7554
     -1082.791        -843.716
 03 10 28  0 30  0.0000000  0  7 11 23 14 20  7 31 28                 .000000621
  20232385.037   -23449246.210 9 -17764345.21749  20232384.6164   20232384.9364
       395.601         308.266
  24350179.694     -193743.840 9   -108549.37445  24350182.1424   24350182.8954
     -3129.595       -2438.646
  22236868.009   -10426073.171 9  -7664252.11947  22236867.8824   22236869.7754
     -1074.799        -837.507
  21743402.661   -16692561.534 9 -12714754.12947  21743402.3394   21743404.6624
      2635.917        2053.957
  24294742.823    -3820947.587 8  -2963454.60145  24294743.1584   24294745.5974
      3134.052        2442.117
  22392548.848   -12046255.640 9  -8589848.75347  22392548.3794   22392551.3724
     -3399.159       -2648.682
  23493454.210    -6486423.428 9  -5034360.93046  23493455.2794   23493454.6954
     -1100.274        -857.350
 03 10 28  0 30 30.0000000  0  7 11 23 14 20  7 31 28                 .000000621
  20230164.506   -23460910.249 9 -17773434.08648  20230164.2814   20230165.0814
       381.961         297.632
  24368054.247      -99822.476 9    -35363.87345  24368054.2644   24368055.5404
     -3131.848       -2440.403
  22243061.926   -10393532.998 9  -7638896.13947  22243060.3424   22243062.3854
     -1094.557        -852.906
  21728387.312   -16771469.447 9 -12776240.76847  21728386.1344   21728388.4564
      2624.571        2045.137
  24276872.196    -3914870.342 9  -3036641.16345  24276871.3504   24276874.4514
      3127.432        2436.959
  22411979.766   -11944147.417 9  -8510283.93847  22411979.4144   22411981.2884
     -3408.071       -2655.639
  23499787.646    -6453154.684 9  -5008437.27246  23499785.9164   23499786.9754
     -1117.652        -870.896
 03 10 28  0 31  0.0000000  0  7 11 23 14 20  7 31 28                 .000000622
  20228022.205   -23472165.958 9 -17782204.77448  20228022.2234   20228023.4604
       368.385         287.052
  24385938.934       -5833.254 8     37874.47845  24385938.1964   24385941.1874
     -3134.098       -2442.163
  22249365.277   -10360402.755 9  -7613080.37947  22249364.6084   22249366.4724
     -1114.149        -868.163
  21713434.533   -16850036.983 9 -12837462.18447  21713435.3174   21713437.7944
      2613.230        2036.276
  24259036.485    -4008592.770 9  -3109671.61945  24259035.0844   24259039.1804
      3120.754        2431.755
  22431459.011   -11841773.022 9  -8430511.69247  22431458.8864   22431462.8264
     -3416.883       -2662.527
  23506217.325    -6419363.985 9  -4982106.87046  23506216.0124   23506217.2884
     -1135.015        -884.424
 03 10 28  0 31 30.0000000  0  7 11 23 14 20  7 31 28                 .000000621
  20225958.711   -23483012.856 9 -17790656.91348  20225958.8874   20225959.2154
       354.761         276.437
  24403834.811       88222.326 8    111164.53445  24403833.8484   24403838.8814
     -3136.267       -2443.838
  22255781.800   -10326683.484 9  -7586805.62147  22255781.1554   22255783.3344
     -1133.766        -883.450
  21698550.516   -16928263.081 9 -12898417.55147  21698549.5434   21698551.6984
      2601.841        2027.409
  24241238.628    -4102112.460 8  -3182544.09345  24241239.7224   24241243.4294
      3113.856        2426.375
  22450990.679   -11739134.780 9  -8350533.85847  22450990.6724   22450994.4624
     -3425.624       -2669.314
  23512746.202    -6385052.877 9  -4955370.94346  23512744.2314   23512746.1534
     -1152.365        -897.957
 03 10 28  0 32  0.0000000  0  7 11 23 14 20  7 31 28                 .000000620
  20223973.355   -23493450.170 9 -17798789.88548  20223972.6604   20223973.0184
       341.094         265.791
  24421745.826      182342.768 8    184505.12745  24421745.1874   24421749.7314
     -3138.384       -2445.489
  22262310.282   -10292376.553 9  -7560072.93347  22262309.6164   22262311.2494
     -1153.368        -898.715
  21683729.509   -17006146.430 9 -12959105.83247  21683728.3794   21683731.1594
      2590.386        2018.484
  24223483.650    -4195427.247 9  -3255256.90745  24223481.6164   24223486.1024
      3107.036        2421.068
  22470574.521   -11636235.116 9  -8270352.34047  22470572.7734   22470575.5054
     -3434.329       -2676.086
  23519373.782    -6350223.038 9  -4928230.81446  23519373.7664   23519375.2894
     -1169.644        -911.409
 03 10 28  0 32 30.0000000  0  7 11 23 14 20  7 31 28                 .000000620
  20222064.398   -23503477.452 9 -17806603.35149  20222064.0364   20222065.3214
       327.369         255.094
  24439669.057      276526.754 8    257895.24645  24439668.0104   24439671.7324
     -3140.492       -2447.128
  22268949.770   -10257483.298 9  -7532883.38347  22268949.6864   22268951.5484
     -1172.876        -913.925
  21668973.694   -17083685.886 9 -13019526.13847  21668973.0584   21668975.8374
      2578.898        2009.530
  24205764.038    -4288534.892 8  -3327808.34645  24205764.9034   24205766.9584
      3100.089        2415.658
  22490205.008   -11533076.364 9  -8189968.92947  22490203.2284   22490206.0144
     -3442.906       -2682.798
  23526100.251    -6314876.368 9  -4900687.98346  23526101.4904   23526101.5614
     -1186.842        -924.804
 03 10 28  0 33  0.0000000  0  7 11 23 14 20  7 31 28                 .000000620
  20220233.947   -23513094.005 9 -17814096.76049  20220234.1584   20220234.9654
       313.692         244.434
  24457604.344      370772.631 8    331333.59945  24457603.0554   24457606.5804
     -3142.567       -2448.762
  22275701.169   -10222004.989 9  -7505237.93647  22275701.4684   22275702.6244
     -1192.340        -929.088
  21654283.947   -17160880.331 9 -13079677.61248  21654283.4744   21654286.2484
      2567.410        2000.582
  24188085.405    -4381433.175 8  -3400196.61945  24188087.3584   24188088.6574
      3093.122        2410.217
  22509881.088   -11429661.123 9  -8109385.65147  22509881.6714   22509884.9434
     -3451.448       -2689.435
  23532924.544    -6279014.542 9  -4872743.69046  23532923.4244   23532924.6504
     -1203.947        -938.160
 03 10 28  0 33 30.0000000  0  7 11 23 14 20  7 31 28                 .000000619
  20218482.869   -23522299.103 9 -17821269.54749  20218482.3674   20218483.5674
       299.970         233.742
  24475548.809      465078.951 8    404819.04045  24475551.4054   24475553.4044
     -3144.559       -2450.299
  22282563.784   -10185943.026 9  -7477137.69847  22282563.2474   22282565.3634
     -1211.773        -944.241
  21639660.583   -17237728.571 9 -13139559.31048  21639660.0894   21639662.3264
      2555.822        1991.546
  24170449.479    -4474119.623 9  -3472419.82545  24170448.9674   24170452.5154
      3085.961        2404.643
  22529609.686   -11325991.607 9  -8028604.22247  22529608.6884   22529613.6334
     -3459.860       -2696.002
  23539845.235    -6242639.353 9  -4844399.41346  23539846.9864   23539846.6374
     -1221.105        -951.505
 03 10 28  0 34  0.0000000  0  7 11 23 14 20  7 31 28                 .000000619
  20216809.436   -23531092.563 9 -17828121.59249  20216808.9704   20216810.2054
       286.228         223.034
  24493505.640      559444.419 8    478350.56645  24493506.4134   24493511.2114
     -3146.544       -2451.856
  22289537.132   -10149298.660 9  -7448583.64847  22289536.8144   22289537.3804
     -1231.198        -959.395
  21625102.987   -17314229.643 9 -13199170.47748  21625102.1644   21625104.8524
      2544.220        1982.502
  24152853.813    -4566592.128 9  -3544476.33346  24152851.9964   24152855.6774
      3078.824        2399.082
  22549386.010   -11222070.292 9  -7947626.60047  22549385.3304   22549388.4624
     -3468.220       -2702.513
  23546864.025    -6205752.685 9  -4815656.55746  23546864.1634   23546867.0934
     -1237.983        -964.649
 03 10 28  0 34 30.0000000  0  7 11 23 14 20  7 31 28                 .000000619
  20215214.610   -23539473.507 9 -17834652.21849  20215214.4304   20215215.2394
       272.471         212.320
  24511475.178      653867.494 8    551926.97345  24511475.2694   24511478.3754
     -3148.430       -2453.317
  22296620.092   -10112073.324 9  -7419576.88947  22296619.7234   22296622.3264
     -1250.497        -974.432
  21610612.219   -17390382.294 9 -13258510.17448  21610611.1094   21610613.2364
      2532.603        1973.453
  24135297.413    -4658848.296 9  -3616364.27046  24135296.2704   24135300.1744
      3071.589        2393.445
  22569209.102   -11117899.615 9  -7866454.67247  22569207.9984   22569211.3514
     -3476.520       -2708.996
  23553983.341    -6168356.094 9  -4786516.36646  23553981.9894   23553982.5004
     -1255.060        -977.989
 03 10 28  0 35  0.0000000  0  7 11 23 14 20  7 31 28                 .000000620
  20213698.000   -23547441.556 9 -17840861.09648  20213698.0844   20213699.1704
       258.720         201.599
  24529452.895      748346.687 8    625547.11045  24529452.9214   24529453.6034
     -3150.207       -2454.704
  22303814.834   -10074268.487 9  -7390118.57247  22303814.4754   22303815.6684
     -1269.813        -989.464
  21596186.448   -17466185.477 9 -13317577.54848  21596185.9374   21596188.3514
      2520.915        1964.353
  24117784.122    -4750885.881 9  -3688081.86146  24117783.3264   24117786.1464
      3064.250        2387.724
  22589079.881   -11013482.013 9  -7785090.35047  22589079.0394   22589081.7094
     -3484.650       -2715.311
  23561194.619    -6130451.609 9  -4756980.39046  23561193.8944   23561196.6974
     -1271.968        -991.120
 03 10 28  0 35 30.0000000  0  7 11 23 14 20  7 31 28                 .000000620
  20212260.970   -23554996.131 9 -17846747.78949  20212260.8634   20212261.6684
       244.926         190.860
  24547442.137      842880.575 8    699209.87245  24547442.6764   24547444.4544
     -3152.140       -2456.206
  22311118.697   -10035885.685 9  -7360209.88147  22311118.4024   22311120.4314
     -1289.049       -1004.451
  21581828.115   -17541638.003 9 -13376371.66448  21581827.8634   21581830.2004
      2509.223        1955.240
  24100310.348    -4842702.538 9  -3759627.29646  24100310.2914   24100313.6184
      3056.816        2381.936
  22608995.443   -10908819.893 9  -7703535.46347  22608995.1924   22608997.9244
     -3492.791       -2721.650
  23568503.747    -6092040.934 9  -4727050.03746  23568502.4284   23568505.1524
     -1288.782       -1004.249
 03 10 28  0 36  0.0000000  0  7 11 23 14 20  7 31 28                 .000000619
  20210901.875   -23562136.861 9 -17852311.99848  20210901.8164   20210902.4594
       231.075         180.058
  24565441.886      937467.600 8    772914.04445  24565442.5344   24565447.2174
     -3153.812       -2457.513
  22318531.989    -9996926.028 9  -7329851.70447  22318532.1404   22318533.5684
     -1308.275       -1019.446
  21567537.215   -17616738.828 9 -13434891.73348  21567537.0494   21567538.6214
      2497.466        1946.071
  24082880.371    -4934296.113 9  -3830998.91246  24082882.0774   24082883.8434
      3049.368        2376.137
  22628957.070   -10803915.668 9  -7621791.93547  22628957.1964   22628961.5434
     -3500.914       -2727.973
  23575910.119    -6053126.206 9  -4696726.88646  23575909.8464   23575910.2034
     -1305.506       -1017.284
 03 10 28  0 36 30.0000000  0  7 11 23 14 20  7 31 28                 .000000620
  20209621.649   -23568862.997 9 -17857553.14248  20209621.7124   20209622.6454
       217.278         169.312
  24583450.915     1032106.570 8    846658.69445  24583451.1454   24583453.7824
     -3155.510       -2458.838
  22326055.479    -9957391.217 9  -7299045.35947  22326055.1734   22326057.1584
     -1327.381       -1034.309
  21553313.602   -17691486.722 9 -13493136.80948  21553312.7654   21553314.8974
      2485.720        1936.925
  24065495.267    -5025664.194 9  -3902194.82846  24065493.7054   24065496.9114
      3041.850        2370.272
  22648966.965   -10698771.832 9  -7539861.70447  22648965.1384   22648968.8694
     -3508.788       -2734.110
  23583408.797    -6013709.239 9  -4666012.34246  23583410.6704   23583411.1974
     -1322.267       -1030.323
 03 10 28  0 37  0.0000000  0  7 11 23 14 20  7 31 28                 .000000620
  20208421.179   -23575174.087 9 -17862470.88148  20208420.9654   20208421.4874
       203.440         158.530
  24601470.665     1126795.939 8    920442.62245  24601469.7994   24601470.4454
     -3157.130       -2460.102
  22333688.674    -9917282.610 9  -7267791.89047  22333687.2214   22333689.5584
     -1346.503       -1049.223
  21539156.680   -17765880.667 9 -13551106.07648  21539156.0274   21539158.2104
      2473.889        1927.708
  24048150.963    -5116804.502 9  -3973213.26545  24048151.4204   24048153.6574
      3034.191        2364.301
  22669020.202   -10593390.748 9  -7457746.60447  22669019.2194   22669021.9864
     -3516.636       -2740.234
  23591004.989    -5973791.616 9  -4634907.72846  23591006.2184   23591005.9604
     -1338.949       -1043.344
 03 10 28  0 37 30.0000000  0  7 11 23 14 20  7 31 28                 .000000621
  20207298.948   -23581069.652 9 -17867064.83449  20207298.7514   20207299.6384
       189.592         147.734
  24619498.618     1221534.388 8    994264.78745  24619498.7044   24619501.0974
     -3158.828       -2461.424
  22341429.147    -9876601.836 9  -7236092.59047  22341429.4384   22341430.5924
     -1365.562       -1064.060
  21525067.152   -17839919.674 9 -13608798.79048  21525066.9264   21525068.8094
      2462.034        1918.471
  24030853.231    -5207714.788 9  -4044052.46546  24030852.2984   24030853.4014
      3026.442        2358.269
  22689117.953   -10487774.858 9  -7375448.53147  22689117.2034   22689120.4314
     -3524.405       -2746.286
  23598697.807    -5933375.691 9  -4603414.79046  23598696.4854   23598698.6094
     -1355.504       -1056.234
 03 10 28  0 38  0.0000000  0  7 11 23 14 20  7 31 28                 .000000621
  20206256.165   -23586549.056 9 -17871334.49748  20206255.9674   20206256.9184
       175.718         136.923
  24637537.795     1316320.488 8   1068124.05745  24637536.1554   24637536.3334
     -3160.301       -2462.570
  22349279.700    -9835350.312 9  -7203948.52247  22349279.2354   22349280.5654
     -1384.508       -1078.846
  21511046.117   -17913602.695 9 -13666214.10748  21511045.4614   21511047.1034
      2450.154        1909.217
  24013595.567    -5298392.698 9  -4114710.60846  24013595.7584   24013597.5574
      3018.666        2352.211
  22709259.301   -10381926.618 9  -7292969.40147  22709260.0564   22709262.6114
     -3532.111       -2752.302
  23606481.164    -5892463.116 9  -4571534.91246  23606481.4774   23606482.4794
     -1372.033       -1069.104
 03 10 28  0 38 30.0000000  0  7 11 23 14 20  7 31 28                 .000000621
  20205292.065   -23591612.309 9 -17875279.88548  20205292.4044   20205293.2014
       161.826         126.100
  24655583.600     1411152.824 8   1142019.37845  24655583.6224   24655584.5904
     -3161.825       -2463.766
  22357238.102    -9793529.894 9  -7171361.18847  22357237.6084   22357237.9904
     -1403.445       -1093.595
  21497092.421   -17986928.466 9 -13723351.05248  21497091.7004   21497094.0784
      2438.244        1899.932
  23996385.490    -5388835.949 9  -4185185.85746  23996384.8084   23996387.6844
      3010.843        2346.104
  22729445.291   -10275848.441 9  -7210311.09747  22729444.5744   22729448.4704
     -3539.753       -2758.236
  23614360.833    -5851055.979 9  -4539269.59245  23614361.5594   23614363.0384
     -1388.517       -1081.960
 03 10 28  0 39  0.0000000  0  7 11 23 14 20  7 31 28                 .000000621
  20204409.698   -23596258.403 9 -17878900.22049  20204408.9404   20204409.3494
       147.903         115.246
  24673636.198     1506030.021 8   1215949.70045  24673635.4304   24673636.5114
     -3163.297       -2464.910
  22365304.019    -9751141.704 9  -7138331.43147  22365303.5624   22365304.8194
     -1422.384       -1108.356
  21483206.888   -18059895.989 9 -13780208.84048  21483206.5604   21483208.7724
      2426.279        1890.607
  23979219.627    -5479042.286 9  -4255476.48146  23979218.3264   23979221.9634
      3002.898        2339.907
  22749676.329   -10169542.726 9  -7127475.50047  22749675.3714   22749679.0374
     -3547.305       -2764.141
  23622335.790    -5809156.114 9  -4506620.34646  23622334.1604   23622336.2864
     -1404.851       -1094.689
 03 10 28  0 39 30.0000000  0  7 11 23 14 20  7 31 28                 .000000622
  20203603.881   -23600487.036 9 -17882195.25448  20203603.5644   20203604.8854
       134.023         104.432
  24691698.651     1600950.739 8   1289913.88345  24691697.3654   24691698.1634
     -3164.686       -2466.001
  22373477.945    -9708187.426 9  -7104860.55747  22373477.9784   22373478.5454
     -1441.208       -1123.021
  21469390.389   -18132504.326 9 -13836786.74848  21469389.6624   21469391.5194
      2414.283        1881.255
  23962099.477    -5569009.464 9  -4325580.74046  23962098.0134   23962101.7934
      2994.899        2333.692
  22769949.504   -10063012.015 9  -7044464.59047  22769948.1494   22769950.2454
     -3554.771       -2769.965
  23630402.274    -5766765.680 9  -4473588.84646  23630401.8374   23630403.2564
     -1421.207       -1107.436
 03 10 28  0 40  0.0000000  0  7 11 23 14 20  7 31 28                 .000000623
  20202878.328   -23604297.838 9 -17885164.71048  20202878.2484   20202879.8774
       120.055          93.555
  24709769.797     1695913.584 8   1363910.90645  24709768.5644   24709771.5674
     -3166.074       -2467.058
  22381757.821    -9664668.708 9  -7070949.86547  22381757.7264   22381759.6024
     -1460.021       -1137.693
  21455641.760   -18204752.366 9 -13893083.89348  21455641.5244   21455643.1454
      2402.250        1871.889
  23945025.604    -5658734.869 9  -4395496.66546  23945025.3534   23945027.8264
      2986.827        2327.403
  22790261.627    -9956258.661 9  -6961280.18747  22790261.4934   22790264.5844
     -3562.121       -2775.671
  23638561.323    -5723886.681 9  -4440176.66446  23638561.2624   23638561.6154
     -1437.428       -1120.070
 03 10 28  0 40 30.0000000  0  7 11 23 14 20  7 31 28                 .000000622
  20202233.652   -23607689.892 9 -17887807.87548  20202233.3274   20202234.0654
       106.067          82.650
  24727848.684     1790917.103 8   1437939.60445  24727846.8444   24727848.6124
     -3167.472       -2468.159
  22390148.453    -9620587.146 9  -7036600.58847  22390148.0054   22390148.7784
     -1478.750       -1152.278
  21441962.040   -18276639.211 9 -13949099.58848  21441961.4534   21441964.0484
      2390.190        1862.490
  23927997.042    -5748216.495 9  -4465222.61146  23927995.7694   23927999.7064
      2978.587        2320.975
  22810617.267    -9849285.201 9  -6877924.27447  22810617.2894   22810620.2294
     -3569.434       -2781.381
  23646815.213    -5680521.224 9  -4406385.41246  23646812.3624   23646814.9244
     -1453.618       -1132.683
 03 10 28  0 41  0.0000000  0  7 11 23 14 20  7 31 28                 .000000622
  20201668.506   -23610663.026 9 -17890124.60649  20201667.9254   20201668.4564
        92.092          71.758
  24745934.301     1885960.182 8   1511999.15745  24745936.0454   24745935.3724
     -3168.772       -2469.167
  22398643.568    -9575944.497 9  -7001814.10547  22398642.7114   22398643.5384
     -1497.449       -1166.841
  21428351.072   -18348163.623 9 -14004832.87948  21428351.0464   21428352.8864
      2378.067        1853.030
  23911014.609    -5837451.964 9  -4534756.75746  23911014.9864   23911018.5524
      2970.365        2314.570
  22831016.695    -9742094.020 9  -6794398.66247  22831015.3234   22831018.4834
     -3576.643       -2787.007
  23655158.419    -5636671.291 9  -4372216.66246  23655157.2364   23655159.2014
     -1469.759       -1145.276
 03 10 28  0 41 30.0000000  0  7 11 23 14 20  7 31 28                 .000000620
  20201181.167   -23613216.795 9 -17892114.56348  20201181.5294   20201182.1774
        78.122          60.877
  24764025.684     1981041.293 8   1586088.31945  24764025.7304   24764029.3864
     -3169.941       -2470.089
  22407244.743    -9530742.277 9  -6966591.58647  22407244.5024   22407245.6824
     -1516.056       -1181.335
  21414809.285   -18419324.821 9 -14060283.14448  21414808.6494   21414811.5374
      2365.982        1843.617
  23894079.863    -5926439.024 8  -4604097.33146  23894080.1854   23894084.8984
      2962.068        2308.106
  22851454.978    -9634687.524 9  -6710705.33947  22851454.7774   22851458.2784
     -3583.766       -2792.552
  23663591.307    -5592339.008 9  -4337672.05646  23663593.0004   23663595.6104
     -1485.755       -1157.734
 03 10 28  0 42  0.0000000  0  7 11 23 14 20  7 31 28                 .000000620
  20200775.305   -23615350.653 9 -17893777.29549  20200775.2224   20200776.1544
        64.113          49.958
  24782127.771     2076159.013 8   1660206.01745  24782130.7324   24782129.8644
     -3171.168       -2471.038
  22415952.044    -9484982.415 9  -6930934.55047  22415951.3984   22415952.7804
     -1534.587       -1195.784
  21401336.593   -18490121.560 9 -14115449.41948  21401336.8894   21401339.2134
      2353.810        1834.139
  23877193.091    -6015175.214 8  -4673242.37946  23877193.9054   23877199.3124
      2953.663        2301.547
  22871935.110    -9527068.237 9  -6626846.18646  22871933.6544   22871936.6734
     -3590.861       -2798.087
  23672122.386    -5547526.249 9  -4302753.00746  23672121.1814   23672125.0324
     -1501.742       -1170.191
 03 10 28  0 42 30.0000000  0  7 11 23 14 20  7 31 28                 .000000621
  20200449.905   -23617064.138 9 -17895112.47348  20200449.2824   20200450.3864
        50.114          39.056
  24800234.519     2171312.049 8   1734351.24345  24800233.2664   24800238.0994
     -3172.373       -2471.979
  22424765.814    -9438666.394 9  -6894844.13947  22424765.8734   22424766.5004
     -1553.109       -1210.209
  21387935.230   -18560552.772 9 -14170330.87448  21387934.7564   21387936.8154
      2341.628        1824.649
  23860360.722    -6103658.349 9  -4742190.24646  23860358.1614   23860361.6754
      2945.197        2294.955
  22892455.687    -9419238.601 9  -6542823.11746  22892453.8064   22892455.9514
     -3597.765       -2803.436
  23680741.214    -5502235.312 9  -4267461.36545  23680740.4554   23680739.7014
     -1517.601       -1182.537
 03 10 28  0 43  0.0000000  0  7 11 23 14 20  7 31 28                 .000000621
  20200203.813   -23618356.910 9 -17896119.85749  20200203.9434   20200204.4224
        36.087          28.127
  24818348.804     2266499.139 8   1808523.01755  24818350.5244   24818343.6995
     -3173.486       -2472.853
  22433685.234    -9391795.938 9  -6858321.70647  22433684.8564   22433686.0004
     -1571.555       -1224.567
  21374602.694   -18630617.727 9 -14224926.92948  21374602.0114   21374603.3604
      2329.371        1815.092
  23843569.639    -6191886.038 9  -4810939.11346  23843569.8844   23843571.9554
      2936.678        2288.321
  22913010.634    -9311201.017 9  -6458638.00846  22913012.2204   22913015.0884
     -3604.694       -2808.838
  23689449.215    -5456468.363 9  -4231798.79745  23689447.8544   23689450.6894
     -1533.464       -1194.906
 03 10 28  0 43 30.0000000  0  7 11 23 14 20  7 31 28                 .000000620
  20200038.305   -23619228.546 9 -17896799.07149  20200037.5164   20200038.3704
        22.060          17.190
  24836469.811     2361718.980 8   1882720.35345  24836470.7894   24836464.7194
     -3174.475       -2473.615
  22442710.067    -9344372.648 9  -6821368.49847  22442709.9984   22442710.2764
     -1589.970       -1238.926
  21361339.112   -18700315.376 9 -14279236.77048  21361338.6584   21361340.1524
      2317.135        1805.563
  23826829.520    -6279856.008 9  -4879487.15446  23826830.1124   23826832.7474
      2928.028        2281.580
  22933607.231    -9202957.929 9  -6374292.75646  22933608.8364   22933614.0534
     -3611.523       -2814.158
  23698247.222    -5410227.532 9  -4195766.97745  23698247.4524   23698249.7024
     -1549.223       -1207.188
 03 10 28  0 44  0.0000000  0  7 11 23 14 20  7 31 28                 .000000619
  20199952.025   -23619678.791 9 -17897149.91948  20199951.4794   20199952.6594
         7.978           6.219
  24854593.501     2456970.243 8   1956942.09755  24854596.1104           .0005
     -3175.621       -2474.507
  22451837.515    -9296398.389 9  -6783985.94547  22451837.4984   22451839.1284
     -1608.310       -1253.225
  21348145.258   -18769644.643 9 -14333259.56448  21348145.6634   21348147.5004
      2304.842        1795.978
  23810139.022    -6367565.932 9  -4947832.57246  23810138.2274   23810141.0534
      2919.334        2274.808
  22954247.317    -9094511.832 9  -6289789.34446  22954246.6564   22954249.8574
     -3618.195       -2819.351
  23707137.782    -5363514.744 9  -4159367.42846  23707136.7064   23707138.8724
     -1564.912       -1219.416
 03 10 28  0 44 30.0000000  0  7 11 23 14 20  7 31 28                 .000000621
  20199946.795   -23619706.932 9 -17897171.84649  20199946.8274   20199947.1504
        -6.090          -4.746
  24872727.862     2552251.637 8   2031187.34855  24872724.3884   24872728.4445
     -3176.525       -2475.225
  22461073.066    -9247875.122 9  -6746175.60147  22461071.8514   22461072.5814
     -1626.562       -1267.445
  21335024.054   -18838604.574 9 -14386994.57048  21335023.3704   21335024.9824
      2292.530        1786.381
  23793499.111    -6455013.505 9  -5015973.51246  23793497.7884   23793500.6604
      2910.546        2267.953
  22974921.534    -8985865.106 9  -6205129.57546  22974921.1304   22974925.0724
     -3624.899       -2824.598
  23716115.940    -5316332.474 9  -4122602.07646  23716115.3404   23716118.9934
     -1580.547       -1231.590
 03 10 28  0 45  0.0000000  0  7 11 23 14 20  7 31 28                 .000000621
  20200022.308   -23619312.793 9 -17896864.72849  20200021.9364   20200022.3354
       -20.179         -15.728
  24890863.223     2647561.812 8   2105455.02745  24890867.7524   24890864.9514
     -3177.575       -2476.037
  22470408.899    -9198804.511 9  -6707938.76447  22470409.7894   22470410.8674
     -1644.766       -1281.642
  21321970.898   -18907194.177 9 -14440440.98948  21321970.7504   21321972.6884
      2280.124        1776.726
  23776909.859    -6542196.301 9  -5083908.16346  23776908.0604   23776910.7004
      2901.660        2261.030
  22995634.278    -8877020.287 9  -6120315.45446  22995635.1984   22995637.0634
     -3631.407       -2829.652
  23725183.908    -5268682.917 9  -4085472.55645  23725182.0034   23725185.6554
     -1596.131       -1243.745
 03 10 28  0 45 30.0000000  0  7 11 23 14 20  7 31 28                 .000000621
  20200176.745   -23618495.751 9 -17896228.07549  20200176.8824   20200177.9084
       -34.315         -26.735
  24909004.317     2742899.477 8   2179744.12845  24909001.5694   24909007.5304
     -3178.371       -2476.658
  22479852.330    -9149188.378 9  -6669276.83747  22479851.9934   22479852.8704
     -1662.955       -1295.801
  21308990.415   -18975412.671 9 -14493598.25348  21308989.2494   21308991.1294
      2267.738        1767.065
  23760368.799    -6629112.186 9  -5151634.82346  23760367.7604   23760370.2704
      2892.712        2254.056
  23016383.578    -8767979.764 9  -6035348.85546  23016384.4514   23016387.5554
     -3637.952       -2834.758
  23734339.863    -5220568.049 9  -4047980.48246  23734340.1984   23734341.1324
     -1611.606       -1255.803
 03 10 28  0 46  0.0000000  0  7 11 23 14 20  7 31 28                 .000000621
  20200413.450   -23617255.417 9 -17895261.58849  20200413.2224   20200414.1934
       -48.406         -37.722
  24927152.439     2838263.515 8   2254053.80245  24927150.6304   24927154.3224
     -3179.215       -2477.309
  22489396.634    -9099028.494 9  -6630191.20347  22489396.3944   22489398.0224
     -1681.028       -1309.911
  21296079.413   -19043259.039 9 -14546465.55948  21296078.9454   21296080.8024
      2255.324        1757.390
  23743879.277    -6715758.858 9  -5219151.69146  23743880.5594   23743883.2804
      2883.700        2247.049
  23037169.990    -8658746.116 9  -5950231.74046  23037170.6314   23037173.0354
     -3644.335       -2839.723
  23743583.902    -5171990.150 9  -4010127.56846  23743584.1734   23743586.1414
     -1626.975       -1267.774
 03 10 28  0 46 30.0000000  0  7 11 23 14 20  7 31 28                 .000000621
  20200730.024   -23615591.659 9 -17893965.15149  20200729.7214   20200730.6384
       -62.545         -48.740
  24945306.346     2933652.450 8   2328382.81945  24945305.3544   24945302.7734
     -3180.048       -2477.960
  22499044.426    -9048326.717 9  -6590683.32947  22499044.7704   22499045.7304
     -1699.101       -1323.973
  21283239.437   -19110732.198 9 -14599042.03448  21283238.4824   21283241.0074
      2242.856        1747.681
  23727443.596    -6802133.886 9  -5286456.91846  23727442.9364   23727445.5014
      2874.608        2239.951
  23057993.183    -8549321.719 9  -5864965.98446  23057992.7534   23057996.5714
     -3650.692       -2844.687
  23752916.748    -5122951.667 9  -3971915.76346  23752915.5484   23752916.7394
     -1642.324       -1279.737
 03 10 28  0 47  0.0000000  0  7 11 23 14 20  7 31 28                 .000000623
  20201127.156   -23613503.870 9 -17892338.28349  20201126.8414   20201127.8484
       -76.674         -59.747
  24963463.158     3029065.001 7   2402730.23945  24963461.6384   24963465.7334
     -3180.807       -2478.547
  22508796.711    -8997084.875 9  -6550754.61647  22508795.5914   22508796.4034
     -1717.041       -1337.960
  21270470.284   -19177831.450 9 -14651327.15948  21270470.1504   21270472.1054
      2230.390        1737.956
  23711059.054    -6888235.053 9  -5353548.75046  23711059.3864   23711060.5404
      2865.490        2232.847
  23078851.896    -8439709.012 9  -5779553.49446  23078851.0554   23078853.5414
     -3656.882       -2849.524
  23762333.242    -5073454.735 9  -3933346.77645  23762333.7364   23762335.1124
     -1657.552       -1291.601
 03 10 28  0 47 30.0000000  0  7 11 23 14 20  7 31 28                 .000000622
  20201604.714   -23610991.749 9 -17890380.77949  20201604.7514   20201606.0954
       -90.802         -70.751
  24981616.376     3124500.055 7   2477095.16945  24981618.0694   24981623.1764
     -3181.571       -2479.146
  22518650.201    -8945304.839 9  -6510406.53647  22518649.2514   22518649.9794
     -1734.934       -1351.896
  21257774.094   -19244555.654 9 -14703320.02748  21257773.2304   21257774.8454
      2217.864        1728.209
  23694725.457    -6974059.919 9  -5420425.25846  23694725.9384   23694728.8224
      2856.194        2225.607
  23099745.914    -8329910.448 9  -5693996.21446  23099745.7434   23099749.1644
     -3663.032       -2854.301
  23771841.539    -5023501.621 9  -3894422.24245  23771841.3214   23771841.7294
     -1672.668       -1303.370
 03 10 28  0 48  0.0000000  0  7 11 23 14 20  7 31 28                 .000000623
  20202163.730   -23608055.045 9 -17888092.44549  20202163.6224   20202164.6504
      -104.994         -81.812
  24999789.013     3219956.265 7   2551476.56255  24999782.7984           .0005
     -3182.139       -2479.577
  22528604.716    -8892988.542 9  -6469640.58147  22528603.6674   22528606.3184
     -1752.802       -1365.831
  21245147.685   -19310904.038 9 -14755020.07448  21245147.3504   21245149.4404
      2205.319        1718.432
  23678447.949    -7059606.242 9  -5487084.74446  23678448.0744   23678450.2404
      2846.892        2218.351
  23120675.575    -8219928.605 9  -5608296.12046  23120674.7384   23120676.6054
     -3669.098       -2859.035
  23781434.258    -4973094.559 9  -3855144.04046  23781432.9854   23781434.5834
     -1687.729       -1315.106
 03 10 28  0 48 30.0000000  0  7 11 23 14 20  7 31 28                 .000000619
  20202803.742   -23604693.190 9 -17885472.84249  20202803.8254   20202804.4464
      -119.189         -92.877
  25017955.879     3315432.427 7   2625873.53254  25017947.5484           .0005
     -3182.866       -2480.162
  22538661.310    -8840137.707 9  -6428458.12647  22538661.6824   22538663.0024
     -1770.612       -1379.694
  21232593.296   -19376875.579 9 -14806426.46248  21232593.2644   21232595.2114
      2192.730        1708.619
  23662222.323    -7144871.735 9  -5553525.37346  23662220.9274   23662225.0184
      2837.423        2210.976
  23141637.721    -8109765.783 9  -5522454.95946  23141637.2684   23141640.5574
     -3675.086       -2863.686
  23791111.577    -4922235.905 9  -3815513.97046  23791112.1784   23791113.1064
     -1702.799       -1326.855
 03 10 28  0 49  0.0000000  0  7 11 23 14 20  7 31 28                 .000000619
  20203524.265   -23600905.917 9 -17882521.73149  20203524.2074   20203525.3254
      -133.351        -103.903
  25036121.115     3410927.10816   2700284.97554          .0005           .0005
     -3183.424       -2480.595
  22548821.060    -8786754.479 9  -6386860.80547  22548820.1124   22548823.1454
     -1788.282       -1393.447
  21220111.715   -19442469.594 9 -14857538.68748  21220111.3774   21220113.0784
      2180.152        1698.823
  23646049.805    -7229853.911 9  -5619745.24746  23646050.9954   23646053.7064
      2827.996        2203.636
  23162635.051    -7999424.499 9  -5436474.77046  23162634.9324   23162638.4694
     -3681.010       -2868.314
  23800875.272    -4870928.087 9  -3775533.86446  23800873.7404   23800876.3014
     -1717.762       -1338.514
 03 10 28  0 49 30.0000000  0  7 11 23 14 20  7 31 28                 .000000618
  20204325.942   -23596692.996 9 -17879238.92449  20204325.6424   20204326.8374
      -147.524        -114.950
  25054293.879     3506436.80717   2774708.13354          .0005           .0005
     -3183.818       -2480.887
  22559079.399    -8732840.796 9  -6344850.12147  22559078.9534   22559081.3064
     -1805.932       -1407.233
  21207702.275   -19507684.912 9 -14908355.80448  21207701.5504   21207703.3434
      2167.532        1688.991
  23629934.050    -7314550.646 9  -5685742.67046  23629933.0554   23629936.1984
      2818.461        2196.199
  23183666.310    -7888907.263 9  -5350357.47346  23183664.9954   23183669.3604
     -3686.843       -2872.856
  23810722.232    -4819173.377 8  -3735205.51345  23810721.0214   23810723.9954
     -1732.585       -1350.062
 03 10 28  0 50  0.0000000  0  7 11 23 14 20  7 31 28                 .000000618
  20205208.913   -23592054.006 9 -17875624.11949  20205208.8004   20205209.9604
      -161.732        -126.021
  25072478.165     3601964.58317     44063.27252          .0005           .0005
     -3184.456       -2481.394
  22569440.643    -8678398.640 9  -6302427.66247  22569440.2744   22569440.1354
     -1823.527       -1420.931
  21195364.425   -19572520.943 9 -14958877.38248  21195363.4644   21195365.1894
      2154.878        1679.132
  23613870.965    -7398959.503 9  -5751515.81646  23613870.7234   23613873.3924
      2808.837        2188.711
  23204730.081    -7778216.437 9  -5264104.90246  23204730.1704   23204732.5724
     -3692.566       -2877.307
  23820657.657    -4766974.094 9  -3694530.78445  23820657.4694   23820657.0824
     -1747.362       -1361.591
 03 10 28  0 50 30.0000000  0  7 11 23 14 20  7 31 28                 .000000618
  20206173.243   -23586988.717 9 -17871677.14349  20206172.7594   20206173.4414
      -175.963        -137.113
  25090665.422     3697507.27517    118540.90554          .0005           .0005
     -3184.857       -2482.965
  22579899.341    -8623429.820 9  -6259594.81347  22579898.8494   22579900.8964
     -1841.041       -1434.569
  21183097.861   -19636976.523 9 -15009102.49748  21183097.4984   21183099.8094
      2142.155        1669.209
  23597863.557    -7483078.252 9  -5817062.89946  23597862.7454   23597865.2324
      2799.057        2181.085
  23225826.311    -7667354.530 9  -5177719.02446  23225825.7094   23225829.0064
     -3698.266       -2881.777
  23830675.195    -4714332.542 9  -3653511.39145  23830674.0654   23830673.2354
     -1762.086       -1373.054
 03 10 28  0 51  0.0000000  0  7 11 23 14 20  7 31 28                 .000000618
  20207218.054   -23581496.662 9 -17867397.62149  20207217.9324   20207218.6974
      -190.188        -148.200
  25108850.687     3793063.66817    193038.63454          .0005           .0005
     -3185.494       -2483.489
  22590460.486    -8567936.277 9  -6216353.09547  22590460.8714   22590461.9194
     -1858.518       -1448.189
  21170905.082   -19701050.983 9 -15059030.65148  21170904.8224   21170906.4824
      2129.440        1659.303
  23581913.030    -7566904.559 9  -5882382.11046  23581912.4314   23581913.9284
      2789.273        2173.459
  23246955.654    -7556323.969 9  -5091201.74046  23246953.8484   23246957.6884
     -3703.816       -2886.087
  23840773.286    -4661251.034 9  -3612149.18145  23840772.8874   23840776.1064
     -1776.687       -1384.423
 03 10 28  0 51 30.0000000  0  6 11 14 20  7 31 28                    .000000620
  20208343.771   -23575577.729 9 -17862785.47149  20208343.7904   20208345.0714
      -204.429        -159.293
  22601120.300    -8511920.145 9  -6172704.16047  22601119.2264   22601121.1414
     -1875.900       -1461.743
  21158785.314   -19764743.609 9 -15108661.26648  21158784.9244   21158786.3984
      2116.714        1649.386
  23566017.366    -7650436.182 9  -5947471.67646  23566015.5604   23566019.4594
      2779.475        2165.822
  23268115.301    -7445127.209 9  -5004554.96446  23268115.0384   23268117.1174
     -3709.325       -2890.394
  23850958.792    -4607732.322 9  -3570446.29846  23850959.9074   23850961.2514
     -1791.220       -1395.752
 03 10 28  0 52  0.0000000  0  6 11 14 20  7 31 28                    .000000620
  20209551.621   -23569231.311 9 -17857840.22549  20209551.5234   20209552.7204
      -218.701        -170.415
  22611878.102    -8455383.570 9  -6128649.67747  22611877.7774   22611879.2724
     -1893.189       -1475.217
  21146737.624   -19828053.330 9 -15157993.50648  21146736.8444   21146738.6394
      2103.920        1639.409
  23550176.993    -7733670.758 9  -6012329.75646  23550176.3504   23550180.0824
      2769.504        2158.050
  23289306.235    -7333766.862 9  -4917780.69546  23289305.9464   23289308.8364
     -3714.711       -2894.591
  23861227.175    -4553778.560 9  -3528404.41946  23861226.5554   23861228.9114
     -1805.678       -1407.020
 03 10 28  0 52 30.0000000  0  6 11 14 20  7 31 28                    .000000620
  20210841.126   -23562457.322 9 -17852561.80749  20210840.9634   20210841.9064
      -232.958        -181.532
  22622735.724    -8398328.333 9  -6084191.06147  22622735.5184   22622736.7254
     -1910.502       -1488.708
  21134762.075   -19890979.244 9 -15207026.67548  21134761.9994   21134764.4734
      2091.099        1629.425
  23534396.284    -7816605.903 9  -6076954.54446  23534395.2914   23534399.2404
      2759.468        2150.233
  23310527.736    -7222245.182 9  -4830880.70446  23310527.9574   23310531.4694
     -3720.050       -2898.744
  23871575.196    -4499392.025 9  -3486025.40845  23871573.9504   23871577.1074
     -1820.095       -1418.258
 03 10 28  0 53  0.0000000  0  6 11 14 20  7 31 28                    .000000620
  20212211.590   -23555255.467 9 -17846949.96249  20212211.2474   20212212.0714
      -247.182        -192.610
  22633691.166    -8340756.572 9  -6039329.95047  22633691.1994   22633690.8474
     -1927.656       -1502.090
  21122861.154   -19953520.600 9 -15255760.20948  21122861.4764   21122863.2414
      2078.312        1619.466
  23518671.742    -7899239.409 9  -6141344.29546  23518671.8644   23518673.5494
      2749.393        2142.384
  23331779.928    -7110564.685 9  -4743856.98946  23331779.3534   23331782.3214
     -3725.311       -2902.832
  23882006.029    -4444575.614 9  -3443311.29445  23882005.7174   23882007.3354
     -1834.320       -1429.328
 03 10 28  0 53 30.0000000  0  6 11 14 20  7 31 28                    .000000620
  20213663.229   -23547625.281 9 -17841004.33649  20213663.0044   20213663.9184
      -261.481        -203.746
  22644745.775    -8282670.454 9  -5994068.03447  22644744.8394   22644745.2994
     -1944.787       -1515.425
  21111035.116   -20015676.614 9 -15304193.45148  21111033.7594   21111035.5584
      2065.438        1609.432
  23503004.472    -7981568.768 9  -6205497.06846  23503004.2054   23503005.6504
      2739.124        2134.381
  23353061.212    -6998727.874 9  -4656711.43846  23353062.4474   23353063.7234
     -3730.485       -2906.872
  23892521.105    -4389331.619 9  -3400264.02645  23892520.1314   23892521.8054
     -1848.568       -1440.439
 03 10 28  0 54  0.0000000  0  6 11 14 20  7 31 28                    .000000621
  20215196.546   -23539566.776 9 -17834724.99048  20215196.5714   20215197.3294
      -275.760        -214.879
  22655896.078    -8224071.871 9  -5948406.80947  22655895.3514   22655897.1314
     -1961.763       -1528.641
  21099279.230   -20077446.414 9 -15352325.75048  21099279.0244   21099280.9514
      2052.563        1599.404
  23487395.781    -8063592.047 9  -6269411.30746  23487395.3824   23487398.1564
      2729.026        2126.514
  23374374.433    -6886737.172 9  -4569445.98046  23374373.7414   23374375.0724
     -3735.537       -2910.812
  23903113.517    -4333662.189 9  -3356885.27545  23903114.3304   23903113.2834
     -1862.696       -1451.462
 03 10 28  0 54 30.0000000  0  6 11 14 20  7 31 28                    .000000622
  20216811.991   -23531079.614 9 -17828111.63449  20216811.8154   20216812.3244
      -290.052        -226.014
  22667142.790    -8164963.036 9  -5902347.98147  22667142.1054   22667143.4054
     -1978.746       -1541.863
  21087598.519   -20138829.311 9 -15400156.56748  21087598.0364   21087600.4484
      2039.641        1589.331
  23471847.461    -8145306.677 9  -6333085.03846  23471845.3004   23471847.8584
      2718.637        2118.416
  23395714.496    -6774595.026 9  -4482062.51946  23395713.5774   23395716.5134
     -3740.557       -2914.718
  23913788.082    -4277570.014 9  -3313177.07645  23913788.2104   23913787.5124
     -1876.755       -1462.406
 03 10 28  0 55  0.0000000  0  7 11 14 20  7  1 31 28                 .000000622
  20218508.282   -23522163.589 9 -17821164.09249  20218508.2514   20218509.4684
      -304.363        -237.161
  22678488.776    -8105346.045 9  -5855893.16147  22678488.7354   22678488.2354
     -1995.684       -1555.082
  21075992.079   -20199824.309 9 -15447685.15048  21075991.3374   21075993.2194
      2026.672        1579.228
  23456357.924    -8226710.346 9  -6396516.45946  23456356.0834   23456357.8304
      2708.215        2110.290
  25037133.446      -78731.944 8    -42826.32842          .0004           .0004
      3846.760        2997.474
  23417081.474    -6662304.027 9  -4394563.07846  23417079.7734   23417085.2394
     -3745.491       -2918.556
  23924539.980    -4221057.676 9  -3269141.49345  23924539.6654   23924542.2654
     -1890.777       -1473.334
 03 10 28  0 55 30.0000000  0  7 11 14 20  7  1 31 28                 .000000622
  20220286.132   -23512818.433 9 -17813882.15549  20220286.5344   20220287.9344
      -318.651        -248.297
  22689929.696    -8045223.022 9  -5809044.05647  22689929.2544   22689930.4434
     -2012.459       -1568.168
  21064459.524   -20260430.848 9 -15494911.02848  21064458.9444   21064460.2804
      2013.736        1569.152
  23440925.870    -8307800.841 9  -6459703.86746  23440924.1734   23440926.0784
      2697.766        2102.160
          .000            .000 1   -117764.89114          .0004   25018870.2231
          .000        2997.591
  23438478.402    -6549866.483 9  -4306949.43346  23438477.6894   23438479.1764
     -3750.318       -2922.330
  23935373.750    -4164127.555 9  -3224780.42745  23935374.0264   23935375.1914
     -1904.626       -1484.124
 03 10 28  0 56  0.0000000  0  7 11 14 20  7  1 31 28                 .000000622
  20222147.327   -23503043.776 9 -17806265.54649  20222146.8414   20222147.6024
      -332.987        -259.469
  22701465.659    -7984595.975 9  -5761802.20447  22701466.7214   22701467.5174
     -2029.279       -1581.258
  21052999.741   -20320648.019 9 -15541833.49848  21052999.1844   21053001.4564
      2000.750        1559.021
  23425553.773    -8388575.950 9  -6522645.51946  23425553.2684   23425555.6134
      2687.243        2093.954
          .000            .000 1   -117764.89114          .0004   25018870.2231
          .000        2997.591
  23459901.000    -6437284.809 9  -4219223.47546  23459899.8434   23459904.8884
     -3755.094       -2926.041
  23946287.872    -4106782.363 9  -3180095.87246  23946287.0584   23946287.8414
     -1918.378       -1494.837
 03 10 28  0 56 30.0000000  0  6 11 14 20  7 31 28                    .000000621
  20224088.967   -23492839.426 9 -17798314.10349  20224088.6014   20224089.4244
      -347.309        -270.634
  22713099.429    -7923467.240 9  -5714169.42947  22713098.4114   22713100.1664
     -2045.978       -1594.274
  21041614.572   -20380475.152 9 -15588452.05048  21041614.7394   21041616.4374
      1987.727        1548.882
  23410241.739    -8469033.189 9  -6585339.45646  23410241.3554   23410245.1034
      2676.528        2085.612
  23481350.572    -6324561.548 9  -4131387.21746  23481350.9514   23481354.1934
     -3759.807       -2929.727
  23957275.911    -4049024.315 9  -3135089.62945  23957276.3914   23957277.9894
     -1932.153       -1505.573
 03 10 28  0 57  0.0000000  0  7 11 14 20  7  1 31 28                 .000000620
  20226112.097   -23482205.181 9 -17790027.69449  20226111.7094   20226113.2524
      -361.668        -281.816
  22724826.223    -7861838.919 9  -5666147.36147  22724825.7754   22724827.2724
     -2062.589       -1607.209
  21030304.842   -20439911.541 9 -15634766.12248  21030304.4364   21030306.1994
      1974.676        1538.707
  23394993.522    -8549170.329 9  -6647783.99046  23394992.1424   23394995.9534
      2665.815        2077.269
  24949278.169      -77255.149 8    -42824.24742          .0004           .0004
      3847.707        2998.213
  23502827.094    -6211699.197 9  -4043442.55646  23502829.2324   23502831.1064
     -3764.389       -2933.281
  23968347.133    -3990856.132 9  -3089763.79345  23968347.8484   23968346.8304
     -1945.736       -1516.147
 03 10 28  0 57 30.0000000  0  7 11 14 20  7  1 31 28                 .000000620
  20228218.041   -23471140.859 9 -17781406.16249  20228217.8684   20228218.7374
      -375.998        -292.988
  22736648.066    -7799713.157 9  -5617737.65447  22736648.1144   22736649.2314
     -2079.149       -1620.138
  21019069.378   -20498956.238 9 -15680774.98048  21019069.0324   21019070.5594
      1961.616        1528.528
  23379804.932    -8628985.187 9  -6709977.38546  23379804.6584   23379806.2804
      2655.123        2068.932
          .000            .000 1   -107287.96014          .0004   24933541.4911
          .000        2998.207
  23524330.451    -6098700.233 9  -3955391.41546  23524330.7484   23524334.2794
     -3768.924       -2936.830
  23979494.884    -3932280.460 9  -3044120.42445  23979493.7394   23979490.7564
     -1959.316       -1526.737
 03 10 28  0 58  0.0000000  0  7 11 14 20  7  1 31 28                 .000000619
  20230405.450   -23459646.474 9 -17772449.51549  20230405.0264   20230406.0544
      -390.325        -304.147
  22748564.764    -7737092.148 9  -5568942.07047  22748563.8114   22748565.7674
     -2095.573       -1632.910
  21007908.455   -20557608.457 9 -15726478.01248  21007907.5864   21007909.3604
      1948.527        1518.339
  23364679.313    -8708475.350 9  -6771917.77346  23364677.8994   23364680.5414
      2644.235        2060.438
  24905345.578     -308122.571 8   -222725.49654          .0004           .0005
      3847.741        2998.330
  23545859.657    -5985566.910 9  -3867235.62346  23545860.3314   23545864.3754
     -3773.296       -2940.218
  23990715.651    -3873299.841 9  -2998161.50445  23990716.8384   23990716.6094
     -1972.731       -1537.200
 03 10 28  0 58 30.0000000  0  7 11 14 20  7  1 31 28                 .000000619
  20232674.207   -23447721.549 9 -17763157.38849  20232674.4024   20232675.4024
      -404.680        -315.338
  22760574.285    -7673977.950 9  -5519762.17447  22760573.8874   22760575.9474
     -2112.007       -1645.738
  20996821.700   -20615867.714 9 -15771874.84548  20996820.7124   20996823.0534
      1935.400        1508.105
  23349612.656    -8787638.566 9  -6833603.37246  23349613.1654   23349617.0464
      2633.290        2051.912
          .000            .000 1    -35342.99042          .0004           .0004
          .000        2998.163
  23567413.649    -5872301.852 9  -3778977.17746  23567414.2604   23567417.1004
     -3777.678       -2943.647
  24002018.124    -3813916.666 9  -2951888.90445  24002019.1994   24002019.4294
     -1986.128       -1547.633
 03 10 28  0 59  0.0000000  0  7 11 14 20  7  1 31 28                 .000000620
  20235025.466   -23435366.099 9 -17753529.79049  20235025.2214   20235026.1444
      -419.029        -326.524
  22772678.777    -7610372.924 9  -5470199.80947  22772677.5614   22772678.8314
     -2128.339       -1658.459
  20985810.047   -20673733.158 9 -15816964.79748  20985809.8014   20985811.7014
      1922.288        1497.875
  23334612.749    -8866472.547 9  -6895032.46346  23334612.2214   23334614.3864
      2622.289        2043.349
          .000            .000 1    -63825.50212          .0004   24876425.3491
          .000        2998.092
  23588992.363    -5758907.443 9  -3690617.90946  23588992.4114   23588994.9734
     -3781.961       -2946.986
  24013393.920    -3754133.865 9  -2905304.94645  24013394.3684   24013394.4134
     -1999.421       -1557.980
 03 10 28  0 59 30.0000000  0  7 11 14 20  7  1 31 28                 .000000620
  20237458.730   -23422579.753 9 -17743566.42049  20237458.7304   20237459.3394
      -433.405        -337.717
  22784874.334    -7546279.229 9  -5420256.67146  22784874.0914   22784876.3534
     -2144.583       -1671.103
  20974874.373   -20731203.908 9 -15861747.19248  20974873.6154   20974875.2004
      1909.084        1487.592
  23319672.684    -8944975.065 9  -6956203.25746  23319674.0614   23319676.6354
      2611.152        2034.664
  24839451.045     -654402.132 9   -215224.76055          .0004           .0005
      3847.176        2997.780
  23610595.053    -5645386.132 9  -3602159.76846  23610593.9054   23610597.6924
     -3786.154       -2950.246
  24024846.069    -3693953.834 9  -2858411.44145  24024842.8724   24024844.9964
     -2012.597       -1568.261
 03 10 28  1  0  0.0000000  0  7 11 14 20  7  1 31 28                 .000000620
  20239974.393   -23409362.314 9 -17733267.12949  20239974.1084   20239975.0494
      -447.792        -348.932
  22797164.151    -7481699.242 9  -5369934.61147  22797163.6364   22797164.8114
     -2160.770       -1683.711
  20964013.655   -20788279.533 9 -15906221.70248  20964012.5394   20964014.1404
      1895.919        1477.337
  23304797.313    -9023143.826 9  -7017113.97546  23304798.0264   23304801.8444
      2600.029        2025.993
  24817490.762     -769813.011 8   -305155.11645          .0005   24817496.5774
      3846.811        2997.518
  23632220.705    -5531740.397 9  -3513604.69046  23632220.6614   23632224.6904
     -3790.257       -2953.445
  24036372.519    -3633379.120 9  -2811210.38845  24036372.0924   24036371.2044
     -2025.713       -1578.491
 03 10 28  1  0 30.0000000  0  7 11 14 20  7  1 31 28                 .000000620
  20242571.078   -23395713.593 9 -17722631.75449  20242571.1864   20242572.3464
      -462.124        -360.100
  22809545.644    -7416635.147 9  -5319235.31147  22809545.9074   22809546.2684
     -2176.842       -1696.229
  20953226.722   -20844959.116 9 -15950387.59648  20953226.3154   20953228.1684
      1882.732        1467.063
  23289988.025    -9100976.520 9  -7077762.83246  23289987.0064   23289990.5844
      2588.861        2017.305
  24795531.277     -885212.155 8   -395076.51445  24795530.6724   24795530.9014
      3846.458        2997.239
  23653868.384    -5417972.686 9  -3424954.55846  23653869.1024   23653872.8954
     -3794.260       -2956.564
  24047973.963    -3572412.578 8  -2763703.97645  24047973.5334   24047975.4264
     -2038.709       -1588.607
 03 10 28  1  1  0.0000000  0  7 11 14 20  7  1 31 28                 .000000619
  20245250.085   -23381633.535 9 -17711660.22849  20245250.1534   20245251.3194
      -476.519        -371.321
  22822019.776    -7351089.165 9  -5268160.50647  22822017.8974   22822020.0434
     -2192.890       -1708.759
  20942516.710   -20901242.116 9 -15994244.46848  20942516.0644   20942517.9584
      1869.504        1456.752
  23275240.388    -9178470.890 9  -7138148.06146  23275240.6694   23275243.6524
      2577.450        2008.417
  24773576.548    -1000596.897 9   -484986.75755  24773572.1195   24773575.0585
      3845.922        2996.829
  23675539.887    -5304085.420 9  -3336211.24946  23675540.7124   23675543.2394
     -3798.222       -2959.657
  24059649.389    -3511056.722 9  -2715894.26345  24059649.3334   24059649.9674
     -2051.646       -1598.693
 03 10 28  1  1 30.0000000  0  7 11 14 20  7  1 31 28                 .000000619
  20248012.073   -23367122.044 9 -17700352.57249  20248011.9484   20248012.8134
      -490.937        -382.548
  22834583.023    -7285063.635 9  -5216712.05446  22834583.1074   22834584.5694
     -2208.813       -1721.145
  20931881.914   -20957127.808 9 -16037791.77448  20931881.4264   20931883.2414
      1856.218        1446.403
  23260559.034    -9255624.707 9  -7198267.90346  23260558.3234   23260562.2604
      2566.055        1999.527
  24751619.042    -1115964.886 8   -574883.83845  24751616.6844   24751621.9874
      3845.227        2996.278
  23697236.262    -5190081.068 9  -3247376.68446  23697235.8864   23697238.5084
     -3802.110       -2962.677
  24071400.585    -3449314.248 9  -2667783.25145  24071399.6854   24071397.7254
     -2064.513       -1608.709
 03 10 28  1  2  0.0000000  0  7 11 14 20  7  1 31 28                 .000000620
  20250856.089   -23352179.085 9 -17688708.71349  20250855.6894   20250856.4334
      -505.285        -393.731
  22847239.023    -7218560.664 9  -5164891.55147  22847238.2154   22847238.7054
     -2224.698       -1733.537
  20921323.732   -21012615.362 9 -16081028.81648  20921322.6414   20921324.5624
      1842.959        1436.073
  23245942.489    -9332435.523 9  -7258120.47646  23245942.7004   23245946.2114
      2554.665        1990.651
  24729669.376    -1231313.791 8   -664765.99145  24729670.8584   24729670.1264
      3844.659        2995.831
  23718952.274    -5075962.077 9  -3158452.83846  23718952.4224   23718954.1854
     -3805.851       -2965.592
  24083220.490    -3387187.825 8  -2619373.05845  24083220.0274   24083222.1644
     -2077.245       -1618.624
 03 10 28  1  2 30.0000000  0  7 11 14 20  7  1 31 28                 .000000620
  20253781.058   -23336804.559 9 -17676728.56149  20253781.0304   20253782.1834
      -519.678        -404.944
  22859983.359    -7151582.622 9  -5112700.85446  22859983.7414   22859983.4634
     -2240.510       -1745.854
  20910839.766   -21067704.372 9 -16123955.29948  20910839.0484   20910841.1654
      1829.647        1425.696
  23231392.365    -9408901.384 9  -7317704.28246  23231391.2854   23231394.5884
      2543.063        1981.608
  24707723.614    -1346640.701 8   -754631.17045  24707719.8254   24707725.3824
      3843.762        2995.149
  23740690.270    -4961730.837 9  -3069441.52246  23740690.1854   23740690.9514
     -3809.571       -2968.493
  24095116.949    -3324679.895 9  -2570665.62845  24095115.5634   24095117.6714
     -2089.962       -1628.540
 03 10 28  1  3  0.0000000  0  7 11 14 20  7  1 31 28                 .000000621
  20256788.446   -23320998.352 9 -17664412.05249  20256788.4844   20256790.1114
      -534.078        -416.163
  22872819.366    -7084131.911 9  -5060141.84547  22872818.5084   22872819.9634
     -2256.202       -1758.082
  20900432.170   -21122393.998 9 -16166570.58948  20900432.0184   20900433.9824
      1816.336        1415.334
  23216906.416    -9485019.791 9  -7377017.31846  23216906.9824   23216909.4824
      2531.451        1972.560
  24685778.073    -1461943.574 8   -844477.59545  24685779.1234   24685782.7904
      3842.988        2994.532
  23762449.570    -4847389.750 9  -2980344.57446  23762448.0514   23762449.9364
     -3813.173       -2971.307
  24107081.895    -3261793.522 8  -2521663.30845  24107082.0724   24107081.2084
     -2102.505       -1638.321
 03 10 28  1  3 30.0000000  0  7 11 14 20  7  1 31 28                 .000000623
  20259879.321   -23304760.133 9 -17651758.90349  20259879.1724   20259880.0584
      -548.481        -427.383
  22885745.377    -7016210.928 9  -5007216.40947  22885743.9814   22885745.3194
     -2271.824       -1770.261
  20890101.764   -21176683.635 9 -16208874.17448  20890101.3054   20890102.9984
      1802.972        1404.910
  23202490.166    -9560788.545 9  -7436057.90346  23202489.0254   23202491.5474
      2519.751        1963.438
  24663843.346    -1577219.666 8   -934302.95545  24663841.3234   24663850.5614
      3842.053        2993.809
  23784227.030    -4732941.415 9  -2891164.07246  23784225.8294   23784231.1264
     -3816.699       -2974.062
  24119121.971    -3198531.306 9  -2472368.03545  24119120.0974   24119119.8544
     -2115.006       -1648.063
 03 10 28  1  4  0.0000000  0  7 11 14 20  7  1 31 28                 .000000622
  20263051.512   -23288089.734 9 -17638768.97549  20263051.4134   20263052.2634
      -562.892        -438.613
  22898757.508    -6947821.773 9  -4953926.16746  22898757.6734   22898758.3264
     -2287.415       -1782.397
  20879847.061   -21230572.820 9 -16250865.71648  20879846.4814   20879848.4924
      1789.607        1394.496
  23188137.917    -9636205.396 9  -7494824.27646  23188137.3014   23188140.3874
      2507.958        1954.240
  24641914.396    -1692466.622 8  -1024105.78845  24641913.2844   24641921.8264
      3841.148        2993.102
  23806024.989    -4618388.216 9  -2801901.90146  23806024.3274   23806029.3584
     -3820.138       -2976.731
  24131231.440    -3134895.728 9  -2422781.83445  24131231.6044   24131230.7214
     -2127.378       -1657.703
 03 10 28  1  4 30.0000000  0  7 11 14 20  7  1 31 28                 .000000622
  20266305.853   -23270987.281 9 -17625442.38949  20266305.7334   20266306.3654
      -577.288        -449.834
  22911860.983    -6878966.909 9  -4900273.02646  22911860.5744   22911860.8874
     -2302.900       -1794.435
  20869669.459   -21284060.768 9 -16292544.60548  20869667.9744   20869669.9184
      1776.245        1384.085
  23173852.762    -9711268.188 9  -7553314.76046  23173851.6604   23173855.7704
      2496.154        1945.056
  24619989.271    -1807681.998 8  -1113884.05145  24619987.5864   24619992.0684
      3839.878        2992.110
  23827843.797    -4503732.490 9  -2712559.79746  23827842.2134   23827848.4364
     -3823.561       -2979.407
  24143412.916    -3070889.631 9  -2372907.02145  24143411.1184   24143411.0564
     -2139.676       -1667.282
 03 10 28  1  5  0.0000000  0  7 11 14 20  7  1 31 28                 .000000622
  20269642.618   -23253452.620 9 -17611779.01549  20269642.6274   20269643.2354
      -591.702        -461.072
  22925052.046    -6809648.654 9  -4846258.79646  22925051.7004   22925052.9164
     -2318.289       -1806.466
  20859566.296   -21337146.767 9 -16333910.30148  20859565.4504   20859568.1924
      1762.830        1373.642
  23159636.461    -9785974.657 9  -7611527.59246  23159636.4994   23159638.5054
      2484.293        1935.818
  24598073.063    -1922863.325 9  -1203635.62945  24598071.3464   24598076.2814
      3838.775        2991.252
  23849681.660    -4388976.668 9  -2623139.69946  23849681.4084   23849685.5384
     -3826.810       -2981.940
  24155659.625    -3006515.763 8  -2322745.56045  24155658.9144   24155662.6354
     -2151.848       -1676.768
 03 10 28  1  5 30.0000000  0  7 11 14 20  7  1 31 28                 .000000629
  20273061.573   -23235485.598 9 -17597778.72649  20273061.5014   20273062.5404
      -606.101        -472.285
  22938330.537    -6739869.307 9  -4791885.27346  22938330.0354   22938330.7174
     -2333.615       -1818.396
  20849540.313   -21389830.436 9 -16374962.52348  20849540.3594   20849542.5794
      1749.401        1363.173
  23145489.226    -9860322.580 9  -7669461.02746  23145488.3674   23145492.0274
      2472.235        1926.410
  24576160.435    -2038008.033 9  -1293358.76845  24576159.7204   24576165.2654
      3837.463        2990.235
  23871537.143    -4274123.288 9  -2533643.60446  23871538.0844   23871541.4894
     -3830.063       -2984.470
  24167982.060    -2941776.994 9  -2272299.84745  24167980.6074   24167980.2124
     -2163.991       -1686.221
 03 10 28  1  6  0.0000000  0  7 11 14 20  7  1 31 28                 .000000629
  20276562.837   -23217086.313 9 -17583441.61849  20276562.7454   20276563.7584
      -620.518        -483.517
  22951695.653    -6669631.214 9  -4737154.26646  22951695.6754   22951696.9024
     -2348.888       -1830.322
  20839592.532   -21442110.855 9 -16415700.51948  20839592.0384   20839594.0644
      1735.937        1352.680
  23131410.437    -9934309.645 9  -7727113.29246  23131409.2224   23131412.3904
      2460.208        1917.054
  24554257.147    -2153113.643 8  -1383051.42345  24554255.5014   24554262.1884
      3836.121        2989.183
  23893411.517    -4159174.770 9  -2444073.35946  23893412.2744   23893413.9884
     -3833.207       -2986.912
  24180367.622    -2876675.982 8  -2221571.76645  24180369.1874   24180365.8714
     -2176.062       -1695.638
 03 10 28  1  6 30.0000000  0  7 11 14 20  7  1 31 28                 .000000629
  20280146.420   -23198254.720 9 -17568767.66248  20280146.2234   20280147.1694
      -634.942        -494.757
  22965147.321    -6598936.912 9  -4682067.79546  22965147.6614   22965149.2844
     -2364.075       -1842.135
  20829720.610   -21493987.602 9 -16456123.94648  20829720.3384   20829721.9304
      1722.494        1342.204
  23117400.486   -10007933.676 9  -7784482.65746  23117399.9254   23117402.6614
      2448.061        1907.582
  24532361.800    -2268177.492 9  -1472711.53745  24532358.3014   24532362.5394
      3834.736        2988.102
  23915302.196    -4044133.479 9  -2354430.76246  23915302.4404   23915306.5144
     -3836.229       -2989.271
  24192823.376    -2811215.500 8  -2170563.52145  24192823.6314   24192824.8984
     -2187.963       -1704.918
 03 10 28  1  7  0.0000000  0  7 11 14 20  7  1 31 28                 .000000628
  20283812.349   -23178991.101 9 -17553757.05148  20283811.9524   20283812.5704
      -649.320        -505.964
  22978688.152    -6527788.802 9  -4626627.71946  22978687.4844   22978688.5454
     -2379.166       -1853.907
  20819925.672   -21545460.084 9 -16496232.34248  20819924.9834   20819927.2364
      1709.001        1331.690
  23103460.536   -10081192.401 9  -7841567.38846  23103459.3084   23103462.2384
      2435.869        1898.099
  24510471.677    -2383197.094 8  -1562337.13445  24510471.4874   24510476.3714
      3833.235        2986.940
  23937210.915    -3929001.860 9  -2264717.83246  23937211.2404   23937214.7734
     -3839.221       -2991.602
  24205350.359    -2745398.307 9  -2119277.42445  24205349.1204   24205351.7494
     -2199.862       -1714.174
 03 10 28  1  7 30.0000000  0  7 11 14 20  7  1 31 28                 .000000629
  20287560.998   -23159295.047 9 -17538409.54549  20287560.3284   20287561.0524
      -663.731        -517.187
  22992313.669    -6456189.157 9  -4570835.79646  22992311.9134   22992313.6884
     -2394.141       -1865.564
  20810207.379   -21596527.784 9 -16536025.35548  20810207.2884   20810209.3694
      1695.514        1321.187
  23089589.699   -10154083.660 9  -7898365.78146  23089588.5164   23089589.8474
      2423.572        1888.511
  24488592.808    -2498170.027 8  -1651926.42845  24488592.1774   24488597.7364
      3831.638        2985.688
  23959138.966    -3813782.345 9  -2174936.45246  23959136.5754   23959140.7604
     -3842.072       -2993.810
  24217941.110    -2679227.136 8  -2067715.57145  24217940.0814   24217942.9694
     -2211.547       -1723.285
 03 10 28  1  8  0.0000000  0  7 11 14 20  7  1 31 28                 .000000630
  20291390.168   -23139166.361 9 -17522724.90749  20291390.3134   20291391.8354
      -678.172        -528.446
  23006021.662    -6384140.596 9  -4514694.06146  23006021.9964   23006022.6824
     -2409.079       -1877.207
  20800567.351   -21647189.977 9 -16575502.38348  20800566.5594   20800568.4544
      1681.986        1310.635
  23075790.055   -10226605.229 9  -7954876.07646  23075788.0994   23075790.0824
      2411.195        1878.853
  24466725.082    -2613093.819 9  -1741477.41045  24466723.1334   24466727.9464
      3829.928        2984.358
  23981081.637    -3698477.327 9  -2085088.40646  23981078.8454   23981082.9624
     -3844.887       -2996.016
  24230600.237    -2612704.780 9  -2015880.07945  24230599.9694   24230601.2214
     -2223.249       -1732.402
 03 10 28  1  8 30.0000000  0  7 11 14 20  7  1 31 28                 .000000630
  20295302.353   -23118605.184 9 -17506703.23749  20295302.9204   20295304.1624
      -692.585        -539.673
  23019818.280    -6311645.326 9  -4458204.22946  23019818.6934   23019817.6214
     -2423.947       -1888.797
  20791003.956   -21697446.221 9 -16614663.08248  20791003.0364   20791005.0094
      1668.419        1300.065
  23062059.121   -10298754.934 9  -8011096.61946  23062059.3404   23062060.0394
      2398.762        1869.171
  24444864.197    -2727965.798 9  -1830988.03045  24444864.0174   24444868.0724
      3828.182        2982.998
  24003037.523    -3583089.247 9  -1995175.63045  24003035.6514   24003038.8064
     -3847.617       -2998.148
  24243327.531    -2545834.192 9  -1963773.13645  24243326.2654   24243325.3804
     -2234.791       -1741.393
 03 10 28  1  9  0.0000000  0  7 11 14 20  7  1 31 28                 .000000630
  20299298.551   -23097611.357 9 -17490344.44749  20299298.1874   20299298.6794
      -707.030        -550.939
  23033699.091    -6238705.748 9  -4401368.18946  23033697.7554   23033698.6404
     -2438.695       -1900.279
  20781517.108   -21747295.915 9 -16653506.97748  20781517.1534   20781518.9574
      1654.874        1289.510
  23048399.165   -10370530.504 9  -8067025.63946  23048400.0024   23048401.9084
      2386.257        1859.430
  24423014.890    -2842783.630 8  -1920456.39645  24423015.7244   24423019.5534
      3826.299        2981.528
  24025010.739    -3467620.581 9  -1905200.06746  24025010.3224   24025013.5944
     -3850.294       -3000.230
  24256117.950    -2478617.984 8  -1911396.84745  24256116.0354   24256115.7474
     -2246.274       -1750.349
 03 10 28  1  9 30.0000000  0  7 11 14 20  7  1 31 28                 .000000630
  20303376.246   -23076184.911 9 -17473648.53549  20303375.9164   20303376.6124
      -721.405        -562.133
  23047661.728    -6165324.352 9  -4344187.89646  23047661.9794   23047663.5334
     -2453.363       -1911.717
  20772109.060   -21796738.453 9 -16692033.63148  20772108.7134   20772110.6384
      1641.304        1278.938
  23034812.950   -10441929.889 9  -8122661.51446  23034812.7814   23034815.8174
      2373.684        1849.615
  24401177.448    -2957544.750 9  -2009880.66345  24401176.2074   24401180.6734
      3824.423        2980.068
  24046999.074    -3352073.733 9  -1815163.62346  24046996.7464   24047000.8384
     -3852.845       -3002.215
  24268972.676    -2411058.872 8  -1858753.45845  24268970.3774   24268972.5774
     -2257.656       -1759.207
 03 10 28  1 10  0.0000000  0  7 11 14 20  7  1 31 28                 .000000630
  20307534.983   -23054326.286 9 -17456615.85148  20307534.9274   20307536.2164
      -735.820        -573.369
  23061709.402    -6091503.527 9  -4286665.17246  23061709.4904   23061711.5864
     -2467.995       -1923.103
  20762778.358   -21845773.429 9 -16730242.68548  20762777.7824   20762779.5854
      1627.707        1268.341
  23021297.280   -10512950.765 9  -8178002.44946  23021297.2454   23021300.7774
      2361.022        1839.754
  24379349.904    -3072246.755 8  -2099258.78545  24379347.8134   24379353.8504
      3822.423        2978.508
  24069001.243    -3236451.067 9  -1725068.08045  24068998.2714   24069000.1854
     -3855.325       -3004.146
  24281895.036    -2343160.090 9  -1805845.34145  24281893.9704   24281894.4244
     -2268.873       -1767.958
 03 10 28  1 10 30.0000000  0  7 11 14 20  7  1 31 28                 .000000629
  20311776.708   -23032035.142 9 -17439246.10749  20311776.6934   20311777.9094
      -750.249        -584.615
  23075840.277    -6017245.855 9  -4228802.03946  23075839.9844   23075841.1514
     -2482.512       -1934.426
  20753524.765   -21894400.340 9 -16768133.79648  20753524.1424   20753526.0114
      1614.086        1257.723
  23007855.912   -10583591.026 9  -8233046.81246  23007855.3284   23007858.3454
      2348.275        1829.830
  24357533.227    -3186887.005 8  -2188588.77745  24357530.9054   24357539.2934
      3820.291        2976.849
  24091015.844    -3120754.986 9  -1634915.23345  24091014.8834   24091017.5084
     -3857.706       -3005.996
  24294880.551    -2274924.192 9  -1752674.56645  24294878.1824   24294880.7604
     -2280.131       -1776.731
 03 10 28  1 11  0.0000000  0  7 11 14 20  7  1 31 28                 .000000629
  20316101.310   -23009311.662 9 -17421539.48449  20316101.3344   20316102.2164
      -764.654        -595.835
  23090053.577    -5942553.724 9  -4170600.38946  23090053.7384   23090053.7844
     -2496.942       -1945.675
  20744349.813   -21942618.584 9 -16805706.46448  20744348.8104   20744350.3974
      1600.463        1247.118
  22994486.657   -10653848.419 9  -8287792.84146  22994485.4184   22994489.4354
      2335.517        1819.890
  24335728.944    -3301463.109 8  -2277868.86245  24335731.3364   24335737.4604
      3818.124        2975.167
  24113045.112    -3004987.939 9  -1544707.22446  24113045.1974   24113050.1864
     -3860.082       -3007.847
  24307928.275    -2206354.159 9  -1699243.49945  24307926.9894   24307928.3484
     -2291.214       -1785.359
 03 10 28  1 11 30.0000000  0  7 11 14 20  7  1 31 28                 .000000627
  20320507.944   -22986155.613 9 -17403495.78949  20320507.7514   20320508.4174
      -779.058        -607.060
  23104349.740    -5867429.681 9  -4112062.15746  23104348.8544   23104351.1794
     -2511.313       -1956.871
  20735251.471   -21990427.637 9 -16842960.25748  20735251.0224   20735253.0914
      1586.826        1236.489
  22981190.424   -10723720.796 9  -8342238.83846  22981189.9714   22981193.5704
      2322.650        1809.875
  24313937.574    -3415972.572 8  -2367096.97145  24313940.2264   24313943.7794
      3815.867        2973.393
  24135086.973    -2889152.288 8  -1454445.71645  24135087.3244   24135092.5514
     -3862.288       -3009.569
  24321039.115    -2137452.663 8  -1645554.10345  24321037.7974   24321040.9834
     -2302.169       -1793.887
 03 10 28  1 12  0.0000000  0  7 11 14 20  7  1 31 28                 .000000626
  20324996.003   -22962567.373 9 -17385115.34548  20324996.1684   20324996.9224
      -793.495        -618.303
  23118725.814    -5791876.110 9  -4053189.24046  23118725.4024   23118728.1154
     -2525.630       -1968.025
  20726231.361   -22037826.972 9 -16879894.78748  20726231.0064   20726233.0224
      1573.123        1225.813
  22967967.067   -10793205.956 9  -8396383.11346  22967967.0314   22967969.9334
      2309.696        1799.750
  24292163.132    -3530412.724 9  -2456271.13245  24292164.7054   24292167.9664
      3813.479        2971.550
  24157142.634    -2773250.460 9  -1364132.57145  24157142.2394   24157145.8734
     -3864.460       -3011.280
  24334212.002    -2068222.556 8  -1591608.57945  24334209.5564   24334213.1144
     -2313.146       -1802.441
 03 10 28  1 12 30.0000000  0  7 11 14 20  7  1 31 28                 .000000626
  20329566.789   -22938546.769 9 -17366397.99148  20329566.5074   20329568.0864
      -807.886        -629.522
  23133186.057    -5715895.348 9  -3993983.46546  23133186.5464   23133186.4714
     -2539.805       -1979.061
  20717289.890   -22084816.306 9 -16916509.83448  20717289.3384   20717291.2754
      1559.479        1215.178
  22954819.153   -10862301.815 9  -8450224.04446  22954818.0804   22954821.3714
      2296.676        1789.629
  24270397.447    -3644781.108 8  -2545389.28745  24270399.8814   24270403.3844
      3811.025        2969.624
  24179210.339    -2657284.903 8  -1273769.80245  24179211.2314   24179215.7514
     -3866.532       -3012.876
  24347449.053    -1998666.671 9  -1537409.15645  24347449.5624   24347452.0184
     -2323.959       -1810.884
 03 10 28  1 13  0.0000000  0  7 11 14 20  7  1 31 28                 .000000626
  20334220.689   -22914093.925 9 -17347343.83149  20334220.7834   20334221.3944
      -822.319        -640.774
  23147724.914    -5639490.185 9  -3934446.97346  23147724.8374   23147725.8554
     -2553.900       -1990.053
  20708425.944   -22131394.855 9 -16952804.79348  20708425.5414   20708427.7534
      1545.754        1204.481
  22941745.603   -10931006.220 9  -8503759.94546  22941744.7514   22941747.6514
      2283.539        1779.388
  24248649.525    -3759075.073 8  -2634449.47045  24248650.5714   24248653.7594
      3808.463        2967.631
  24201288.267    -2541257.941 8  -1183359.24046  24201289.5674   24201294.3874
     -3868.538       -3014.438
  24360746.674    -1928788.131 9  -1482958.39645  24360745.8984   24360747.0134
     -2334.645       -1819.205
 03 10 28  1 13 30.0000000  0  7 11 14 20  7  1 31 28                 .000000625
  20338955.870   -22889209.010 9 -17327952.98449  20338956.0464   20338957.2524
      -836.707        -651.980
  23162343.508    -5562663.084 9  -3874581.70946  23162343.5364   23162345.3714
     -2567.911       -2000.962
  20699640.613   -22177562.282 9 -16988779.40848  20699640.1494   20699642.4094
      1532.062        1193.820
  22928745.665   -10999316.973 9  -8556989.10146  22928745.6514   22928748.2784
      2270.448        1769.176
  24226912.139    -3873292.127 8  -2723449.79545  24226915.3914   24226918.7754
      3805.960        2965.680
  24223379.321    -2425171.972 8  -1092902.68545  24223380.4324   24223384.7314
     -3870.455       -3015.925
  24374106.389    -1858589.615 9  -1428258.27945  24374104.0894   24374108.1824
     -2345.328       -1827.520
 03 10 28  1 14  0.0000000  0  7 11 14 20  7  1 31 28                 .000000625
  20343772.357   -22863892.113 9 -17308225.52948  20343772.9934   20343774.5324
      -851.127        -663.212
  23177044.790    -5485416.584 9  -3814389.62746  23177044.2214   23177044.7164
     -2581.847       -2011.829
  20690933.697   -22223318.105 9 -17024433.29248  20690933.1634   20690935.2174
      1518.314        1183.103
  22915821.675   -11067232.039 9  -8609909.93047  22915821.6504   22915825.1754
      2257.148        1758.820
  24205193.978    -3987429.817 8  -2812388.19745  24205195.8504   24205200.6434
      3803.183        2963.516
  24245479.298    -2309029.421 8  -1002401.95245  24245479.7964   24245484.9744
     -3872.341       -3017.407
  24387521.990    -1788074.268 8  -1373311.41245  24387522.9244   24387526.0774
     -2355.752       -1835.648
 03 10 28  1 14 30.0000000  0  7 11 14 20  7  1 31 28                 .000000625
  20348672.466   -22838143.293 9 -17288161.50948  20348672.8074   20348674.0824
      -865.488        -674.408
  23191822.498    -5407753.088 9  -3753872.60146  23191823.1064   23191823.6914
     -2595.693       -2022.624
  20682305.088   -22268661.989 9 -17059766.18748  20682304.4614   20682306.3564
      1504.595        1172.409
  22902974.562   -11134749.170 9  -8662520.65947  22902973.9934   22902976.5694
      2243.934        1748.515
  24183491.408    -4101485.763 8  -2901262.90045  24183492.1874   24183494.8914
      3800.526        2961.450
  24267594.605    -2192832.699 9   -911859.06045  24267593.4404   24267597.4994
     -3874.082       -3018.769
  24400999.285    -1717244.707 8  -1318119.72045  24400998.7124   24401001.8844
     -2366.246       -1843.828
 03 10 28  1 15  0.0000000  0  7 11 14 20  7  1 31 28                 .000000626
  20353655.193   -22811962.670 9 -17267761.02649  20353655.2344   20353656.3764
      -879.917        -685.648
  23206680.476    -5329675.046 9  -3693032.59246  23206680.3724   23206682.8854
     -2609.491       -2033.360
  20673754.781   -22313593.203 9 -17094777.52548  20673754.4224   20673756.4604
      1490.803        1161.664
  22890202.608   -11201866.266 9  -8714819.69847  22890202.5334   22890205.0954
      2230.533        1738.057
  24161804.636    -4215457.391 8  -2990071.97745  24161803.3974   24161806.6464
      3797.611        2959.178
  24289714.894    -2076584.234 8   -821275.90545  24289715.4564   24289716.7754
     -3875.792       -3020.096
  24414541.167    -1646104.023 9  -1262685.49645  24414541.9424   24414539.8504
     -2376.541       -1851.836
 03 10 28  1 15 30.0000000  0  7 11 14 20  7  1 31 28                 .000000627
  20358720.130   -22785350.271 9 -17247024.09848  20358719.5574   20358720.1234
      -894.272        -696.837
  23221617.321    -5251185.012 9  -3631871.53046  23221616.7274   23221619.0794
     -2623.167       -2044.021
  20665283.552   -22358111.715 9 -17129467.27248  20665283.1674   20665284.6454
      1477.064        1150.965
  22877507.194   -11268581.251 9  -8766805.41247  22877506.3404   22877510.2794
      2217.098        1727.610
  24140133.997    -4329342.103 9  -3078813.25045  24140132.7764   24140136.3784
      3794.718        2956.919
  24311843.628    -1960286.119 8   -730654.08345  24311845.7244   24311849.0564
     -3877.400       -3021.343
  24428134.828    -1574654.943 8  -1207010.87945  24428133.3384   24428136.3544
     -2386.737       -1859.799
 03 10 28  1 16  0.0000000  0  7 11 14 20  7  1 31 28                 .000000627
  20363865.813   -22758306.169 9 -17225950.85049  20363865.8424   20363867.0574
      -908.684        -708.055
  23236630.460    -5172285.582 9  -3570391.42446  23236629.9684   23236632.5644
     -2636.746       -2054.590
  20656890.306   -22402216.722 9 -17163834.80648  20656889.7544   20656891.8374
      1463.248        1140.197
  22864889.251   -11334892.014 9  -8818476.13047  22864888.3264   22864890.1714
      2203.569        1717.048
  24118479.490    -4443137.344 8  -3167484.85045  24118477.2714   24118481.0904
      3791.665        2954.541
  24333986.764    -1843941.164 9   -639995.60945  24333986.7964   24333988.4594
     -3878.897       -3022.519
  24441786.814    -1502900.362 8  -1151098.29045  24441786.8014   24441792.0294
     -2396.864       -1867.686
 03 10 28  1 16 30.0000000  0  7 11 14 20  7  1 31 28                 .000000628
  20369094.079   -22730830.761 9 -17204541.50049  20369093.9194   20369095.4334
      -923.037        -719.250
  23251722.021    -5092979.307 9  -3508594.32846  23251721.3974   23251723.2944
     -2650.265       -2065.147
  20648575.397   -22445908.007 9 -17197879.97848  20648575.4294   20648577.6424
      1449.487        1129.467
  22852347.236   -11400796.387 9  -8869830.19547  22852348.0184   22852348.4834
      2190.035        1706.506
  24096841.424    -4556840.630 9  -3256084.76945  24096839.5294   24096844.0274
      3788.508        2952.082
  24356134.284    -1727551.513 8   -549302.39945  24356132.6134   24356138.6864
     -3880.346       -3023.643
  24455501.206    -1430843.309 8  -1094950.03845  24455499.4924   24455505.9134
     -2406.877       -1875.484
 03 10 28  1 17  0.0000000  0  7 11 14 20  7  1 31 28                 .000000628
  20374405.846   -22702924.233 9 -17182796.14149  20374404.7964   20374405.9434
      -937.414        -730.456
  23266892.488    -5013268.725 9  -3446482.17946  23266891.1404   23266891.1384
     -2663.765       -2075.659
  20640340.816   -22489185.107 9 -17231602.39348  20640340.0984   20640342.1314
      1435.651        1118.688
  22839884.892   -11466292.391 9  -8920866.04347  22839883.2764   22839885.5144
      2176.343        1695.840
  24075221.698    -4670449.428 9  -3344611.06545  24075220.3334   24075225.8114
      3785.336        2949.608
  24378291.180    -1611119.548 9   -458576.29245  24378290.5444   24378294.6834
     -3881.790       -3024.764
  24469268.816    -1358486.827 8  -1038568.59145  24469270.5924   24469274.2574
     -2416.912       -1883.300
 03 10 28  1 17 30.0000000  0  7 11 14 20  7  1 31 28                 .000000629
  20379797.477   -22674586.136 9 -17160714.48849  20379797.4284   20379798.1364
      -951.803        -741.667
  23282136.722    -4933156.475 9  -3384057.05446  23282136.2674   23282136.9894
     -2677.103       -2086.055
  20632183.796   -22532047.596 9 -17265001.74548  20632183.7984   20632185.6804
      1421.828        1107.925
  22827497.685   -11531377.895 9  -8971582.01747  22827497.1414   22827500.2924
      2162.667        1685.192
  24053622.625    -4783961.080 9  -3433061.67345  24053620.3514   24053625.4714
      3782.055        2947.052
  24400454.819    -1494647.654 9   -367818.96445  24400454.9284   24400456.8604
     -3883.069       -3025.773
  24483095.381    -1285833.833 8   -981955.97145  24483094.4314   24483099.1244
     -2426.636       -1890.884
 03 10 28  1 18  0.0000000  0  7 11 14 20  7  1 31 28                 .000000629
  20385271.392   -22645816.962 9 -17138296.92749  20385271.4214   20385273.1224
      -966.144        -752.841
  23297455.368    -4852645.033 9  -3321320.86546  23297455.1084   23297458.2574
     -2690.338       -2096.371
  20624106.806   -22574494.972 9 -17298077.61148  20624106.4624   20624108.0904
      1407.974        1097.121
  22815192.721   -11596050.856 9  -9021976.54547  22815191.4454   22815193.4714
      2148.876        1674.447
  24032039.732    -4897373.151 9  -3521434.67345  24032038.1944   24032043.2964
      3778.703        2944.442
  24422624.562    -1378138.272 8   -277032.42345  24422625.4234   24422628.1844
     -3884.309       -3026.740
  24496977.194    -1212887.178 8   -925114.43945  24496977.0714   24496982.2904
     -2436.464       -1898.543
 03 10 28  1 18 30.0000000  0  7 11 14 20  7  1 31 28                 .000000629
  20390828.499   -22616617.229 9 -17115543.88349  20390828.1564   20390829.4584
      -980.496        -764.026
  23312852.060    -4771736.874 9  -3258275.55546  23312852.6794   23312855.0024
     -2703.524       -2106.660
  20616108.377   -22616527.072 9 -17330829.89048  20616107.8734   20616109.6254
      1394.138        1086.336
  22802963.930   -11660309.100 9  -9072047.91047  22802963.6284   22802964.6974
      2135.014        1663.646
  24010478.092    -5010683.119 9  -3609728.10945  24010477.4824   24010481.1504
      3775.276        2941.772
  24444803.865    -1261593.692 9   -186218.50745  24444802.9384   24444807.0334
     -3885.334       -3027.528
  24510910.503    -1139649.526 8   -868046.26345  24510911.5914   24510916.5064
     -2446.065       -1906.028
 03 10 28  1 19  0.0000000  0  7 11 14 20  7  1 31 28                 .000000629
  20396466.758   -22586986.797 9 -17092455.25049  20396466.5164   20396468.0014
      -994.881        -775.232
  23328325.649    -4690434.596 9  -3194923.13446  23328324.9494   23328324.4154
     -2716.597       -2116.848
  20608188.974   -22658143.508 9 -17363258.26548  20608188.6844   20608190.0554
      1380.267        1075.531
  22790814.574   -11724150.605 9  -9121794.54547  22790814.4234   22790817.4964
      2121.075        1652.803
  23988936.368    -5123888.298 9  -3697939.91045  23988935.4624   23988938.0424
      3771.700        2938.987
  24466987.741    -1145016.368 9    -95379.07945  24466986.6854   24466990.0724
     -3886.515       -3028.451
  24524901.089    -1066124.028 8   -810753.69645  24524902.6944   24524909.7744
     -2455.628       -1913.477
 03 10 28  1 19 30.0000000  0  7 11 14 20  7  1 31 28                 .000000630
  20402187.919   -22556926.064 9 -17069031.31749  20402187.5364   20402188.2514
     -1009.183        -786.369
  23343870.713    -4608740.905 9  -3131265.69946  23343870.3894   23343870.8074
     -2729.595       -2126.947
  20600348.714   -22699343.870 9 -17395362.46048  20600348.4944   20600350.3554
      1366.423        1064.755
  22778745.587   -11787573.255 9  -9171214.77647  22778745.2164   22778747.9524
      2107.102        1641.899
  23967413.378    -5236986.339 9  -3786068.20545  23967411.7364   23967416.1394
      3768.143        2936.210
  24489176.848    -1028408.512 9     -4515.81445  24489177.3264   24489178.8704
     -3887.412       -3029.155
  24538953.605     -992313.848 8   -753239.41145  24538952.0284   24538955.6074
     -2465.037       -1920.803
 03 10 28  1 20  0.0000000  0  7 11 14 20  7  1 31 28                 .000000630
  20407989.993   -22526434.755 9 -17045271.85249  20407989.4964   20407990.6364
     -1023.561        -797.581
  23359489.599    -4526658.257 9  -3067305.19446  23359489.2414   23359491.7344
     -2742.552       -2137.062
  20592588.797   -22740127.704 9 -17427142.07948  20592587.9844   20592589.4584
      1352.502        1053.899
  22766756.080   -11850575.175 9  -9220307.19447  22766756.9764   22766759.7644
      2093.008        1630.918
  23945911.657    -5349974.659 9  -3874111.02445  23945911.8064   23945915.5554
      3764.391        2933.290
  24511371.009     -911772.603 8     86369.29645  24511371.1914   24511373.7814
     -3888.325       -3029.859
  24553051.355     -918221.733 8   -695505.39945  24553050.3114   24553053.8094
     -2474.430       -1928.133
 03 10 28  1 20 30.0000000  0  7 11 14 20  7  1 31 28                 .000000629
  20413873.692   -22495513.674 9 -17021177.52049  20413873.6134   20413874.7514
     -1037.865        -808.722
  23375183.110    -4444189.291 9  -3003043.67646  23375183.4004   23375183.9044
     -2755.363       -2147.043
  20584906.365   -22780494.754 9 -17458596.91848  20584905.7354   20584907.9144
      1338.622        1043.081
  22754847.933   -11913154.183 9  -9269070.06347  22754848.3954   22754851.2104
      2078.938        1619.955
  23924432.720    -5462850.684 9  -3962066.34046  23924431.5614   23924436.4534
      3760.608        2930.346
  24533572.698     -795110.964 9    177274.41545  24533572.1444   24533575.3934
     -3889.108       -3030.475
  24567201.054     -843850.632 8   -637553.90545  24567201.3574   24567203.7674
     -2483.765       -1935.397
 03 10 28  1 21  0.0000000  0  7 11 14 20  7  1 31 28                 .000000629
  20419840.146   -22464162.620 9 -16996748.14249  20419839.8684   20419840.4744
     -1052.217        -819.908
  23390950.217    -4361336.646 9  -2938483.15046  23390949.6814   23390950.6454
     -2768.143       -2156.988
  20577303.598   -22820444.502 9 -17489726.58848  20577303.6804   20577305.8144
      1324.684        1032.221
  22743019.808   -11975308.383 9  -9317501.90647  22743018.9564   22743023.8194
      2064.694        1608.868
  23902972.976    -5575611.862 9  -4049932.13645  23902973.8314   23902978.1334
      3756.769        2927.347
  24555776.721     -678426.058 8    268197.69845  24555775.4384   24555779.1464
     -3889.848       -3031.059
  24581410.431     -769203.525 8   -579387.42545  24581407.8794   24581407.9084
     -2492.847       -1942.468
 03 10 28  1 21 30.0000000  0  7 11 14 20  7  1 31 28                 .000000626
  20425887.325   -22432381.828 9 -16971983.87849  20425887.3074   20425888.2574
     -1066.519        -831.054
  23406787.641    -4278102.877 9  -2873625.66946  23406787.7694   23406789.2754
     -2780.786       -2166.843
  20569782.121   -22859976.768 9 -17520530.93248  20569781.1804   20569782.8254
      1310.774        1021.383
  22731273.176   -12037035.719 9  -9365601.12347  22731273.9354   22731277.7284
      2050.425        1597.712
  23881537.400    -5688255.624 9  -4137706.47045  23881538.6744   23881543.7164
      3752.810        2924.273
  24577983.988     -561720.044 8    359137.46445  24577984.4504   24577988.2734
     -3890.506       -3031.557
  24595665.444     -694283.777 8   -521008.37745  24595664.5654   24595667.6774
     -2501.821       -1949.476
 03 10 28  1 22  0.0000000  0  7 11 14 20  7  1 31 28                 .000000625
  20432017.637   -22400171.691 9 -16946885.07049  20432017.2404   20432017.6714
     -1080.827        -842.198
  23422699.181    -4194490.438 9  -2808473.07946  23422697.9944   23422699.8614
     -2793.406       -2176.675
  20562338.594   -22899091.192 9 -17551009.69348  20562337.7934   20562339.5274
      1296.832        1010.523
  22719609.106   -12098334.198 9  -9413366.16547  22719608.9714   22719612.5674
      2036.098        1586.565
  23860125.020    -5800779.515 9  -4225387.40045  23860126.8894   23860129.1434
      3748.747        2921.096
  24600196.895     -444995.329 8    450091.74045  24600196.0214   24600199.2404
     -3891.086       -3032.021
  24609972.000     -619094.010 8   -462418.94445  24609972.9944   24609978.5124
     -2510.776       -1956.444
 03 10 28  1 22 30.0000000  0  7 11 14 20  7  1 31 28                 .000000624
  20438228.288   -22367532.589 9 -16921452.01349  20438228.0104   20438228.6924
     -1095.110        -853.333
  23438683.759    -4110501.966 9  -2743027.52646  23438682.8614   23438683.1334
     -2805.840       -2186.364
  20554974.013   -22937787.255 9 -17581162.45748  20554973.9564   20554975.6384
      1282.904         999.663
  22708026.119   -12159201.799 9  -9460795.45747  22708025.6014   22708029.8524
      2021.704        1575.363
  23838736.414    -5913181.121 9  -4312973.00746  23838736.2854   23838741.3174
      3744.679        2917.931
  24622410.972     -328254.276 8    541058.75545  24622410.8384   24622415.1774
     -3891.589       -3032.405
  24624331.685     -543637.077 8   -403621.45945  24624331.5084   24624336.8204
     -2519.669       -1963.373
 03 10 28  1 23  0.0000000  0  7 11 14 20  7  1 31 28                 .000000626
  20444520.603   -22334464.581 9 -16895684.71949  20444520.1754   20444521.1024
     -1109.406        -864.476
  23454735.942    -4026140.310 9  -2677291.17246  23454735.1784   23454737.2324
     -2818.251       -2196.027
  20547690.557   -22976064.818 9 -17610989.11048  20547689.8804   20547692.0354
      1268.955         988.793
  22696527.863   -12219636.462 9  -9507887.40347  22696525.8034   22696529.8914
      2007.281        1564.123
  23817372.646    -6025457.608 9  -4400461.15146  23817372.1494   23817375.7094
      3740.422        2914.616
  24644629.807     -211499.233 8    632036.73145  24644628.4304   24644632.4454
     -3892.021       -3032.738
  24638741.527     -467916.104 8   -344618.23445  24638740.6024   24638741.7554
     -2528.343       -1970.121
 03 10 28  1 23 30.0000000  0  7 11 14 20  7  1 31 28                 .000000626
  20450894.693   -22300967.861 9 -16869583.39349  20450894.6104   20450895.3014
     -1123.712        -875.622
  23470858.133    -3941407.874 9  -2611265.89946  23470858.1034   23470860.2814
     -2830.618       -2205.690
  20540486.475   -23013923.673 9 -17640489.49148  20540485.8834   20540487.5384
      1254.972         977.889
  22685108.924   -12279636.200 9  -9554640.45547  22685107.8144   22685111.4114
      1992.694        1552.742
  23796031.330    -6137606.487 9  -4487849.86945  23796030.1794   23796033.1334
      3736.142        2911.282
  24666847.935      -94732.451 8    723023.79745  24666848.7014   24666853.0944
     -3892.390       -3033.029
  24653201.944     -391934.223 9   -285411.52845  24653202.5624   24653198.5494
     -2537.035       -1976.921
 03 10 28  1 24  0.0000000  0  7 11 14 20  7  1 31 28                 .000000626
  20457350.054   -22267042.942 9 -16843148.41349  20457350.0344   20457351.1914
     -1137.979        -886.739
  23487054.110    -3856307.352 9  -2544953.80046  23487051.9524   23487053.4404
     -2842.799       -2215.159
  20533361.835   -23051363.673 9 -17669663.49948  20533361.2404   20533363.0264
      1241.003         967.018
  22673774.708   -12339199.136 9  -9601053.12247  22673775.8234   22673777.7294
      1978.132        1541.380
  23774715.481    -6249625.283 9  -4575137.21846  23774714.1524   23774718.8104
      3731.753        2907.852
  24689071.354       22043.655 8    814018.11145  24689070.7594   24689073.3774
     -3892.675       -3033.258
  24667711.019     -315694.364 9   -226003.80645  24667709.7664   24667710.6734
     -2545.561       -1983.550
 03 10 28  1 24 30.0000000  0  7 11 14 20  7  1 31 28                 .000000627
  20463887.883   -22232690.074 9 -16816379.97449  20463887.7274   20463888.4774
     -1152.223        -897.837
  23503318.028    -3770841.477 9  -2478357.00146  23503318.3744   23503317.5184
     -2854.910       -2224.607
  20526316.668   -23088384.311 9 -17698510.77348  20526316.2464   20526318.1534
      1227.020         956.117
  22662523.179   -12398323.319 9  -9647123.91747  22662523.4414   22662526.5834
      1963.461        1529.965
  23753424.308    -6361511.481 9  -4662321.20746  23753422.2844   23753426.2564
      3727.325        2904.403
  24711293.366      138826.749 8    905017.87445  24711294.8194   24711296.1924
     -3892.851       -3033.395
  24682261.601     -239199.518 8   -166397.47045  24682264.1274   24682266.8074
     -2554.072       -1990.186
 03 10 28  1 25  0.0000000  0  7 11 14 20  7  1 31 28                 .000000628
  20470505.711   -22197909.597 9 -16789278.34849  20470505.9414   20470507.1524
     -1166.481        -908.947
  23519648.913    -3685012.556 9  -2411477.32246  23519648.4444   23519650.5114
     -2866.975       -2234.000
  20519351.435   -23124985.218 9 -17727030.92948  20519350.7644   20519353.1044
      1213.038         945.219
  22651356.866   -12457006.718 9  -9692851.24747  22651356.7124   22651359.1654
      1948.721        1518.486
  23732158.208    -6473262.378 9  -4749399.81045  23732156.6174   23732160.0414
      3722.740        2900.843
  24733518.985      255614.561 8    996021.34445  24733519.9574   24733520.8564
     -3892.985       -3033.501
  24696869.326     -162452.648 8   -106594.83345  24696869.5884   24696872.4654
     -2562.423       -1996.693
 03 10 28  1 25 30.0000000  0  7 11 14 20  7  1 31 28                 .000000628
  20477205.739   -22162701.659 9 -16761843.61549  20477205.7954   20477207.0524
     -1180.718        -920.036
  23536050.391    -3598823.388 9  -2344316.93846  23536050.1494   23536051.0314
     -2878.937       -2243.316
  20512466.297   -23161166.300 9 -17755223.97448  20512466.4504   20512468.2954
      1199.031         934.313
  22640274.984   -12515247.522 9  -9738233.69547  22640273.6704   22640275.8204
      1933.956        1506.979
  23710918.261    -6584875.576 9  -4836371.11246  23710917.5454   23710920.5064
      3718.120        2897.231
  24755742.035      372404.716 8   1087026.67845  24755742.3804   24755748.2724
     -3893.054       -3033.551
  24711524.194      -85456.747 8    -46598.14145  24711521.9154   24711521.1904
     -2570.625       -2003.083
 03 10 28  1 26  0.0000000  0  7 11 14 20  7  1 31 28                 .000000629
  20483987.485   -22127066.408 9 -16734075.91249  20483987.3744   20483987.9824
     -1194.986        -931.160
  23552519.782    -3512276.848 9  -2276878.05946  23552519.8024   23552520.2524
     -2890.807       -2252.593
  20505661.861   -23196927.253 9 -17783089.64648  20505661.2344   20505663.2694
      1185.008         923.385
  22629276.449   -12573043.657 9  -9783269.64047  22629275.8484   22629277.7144
      1919.088        1495.384
  23689706.418    -6696348.591 9  -4923233.16446  23689704.6064   23689709.4644
      3713.404        2893.561
  24777966.668      489194.893 8   1178031.96245  24777968.0204   24777972.3164
     -3892.971       -3033.483
  24726219.645       -8215.053 8     13590.21745  24726219.3564   24726218.4844
     -2578.784       -2009.446
 03 10 28  1 26 30.0000000  0  7 11 14 20  7  1 31 28                 .000000628
  20490849.634   -22091004.359 9 -16705975.63549  20490849.4684   20490850.3694
     -1209.184        -942.219
  23569056.672    -3425375.197 9  -2209162.48946  23569055.9874   23569057.6704
     -2902.626       -2261.775
  20498936.000   -23232267.830 9 -17810627.76148  20498936.1834   20498938.0184
      1170.972         912.447
  22618362.009   -12630393.222 9  -9827957.59647  22618362.2784   22618364.3974
      1904.194        1483.787
  23668518.146    -6807678.901 9  -5009983.97246  23668518.8134   23668523.4664
      3708.545        2889.779
  24800191.395      605982.889 8   1269035.55345  24800192.5424   24800194.2174
     -3892.957       -3033.478
  24740965.855       69269.745 8     73967.97445  24740964.6024   24740965.4254
     -2586.857       -2015.727
 03 10 28  1 27  0.0000000  0  7 11 14 20  7  1 31 28                 .000000627
  20497792.848   -22054516.184 9 -16677543.30149  20497792.7214   20497793.9184
     -1223.376        -953.279
  23585660.419    -3338121.261 9  -2141172.40946  23585660.7294   23585660.8074
     -2914.276       -2270.866
  20492292.083   -23267187.690 9 -17837838.02848  20492291.5854   20492292.9334
      1156.996         901.551
  22607534.992   -12687294.401 9  -9872296.19047  22607534.5714   22607536.8334
      1889.141        1472.084
  23647360.540    -6918863.821 9  -5096621.58746  23647362.2764   23647365.2194
      3703.754        2886.035
  24822414.620      722766.248 8   1360035.53645  24822413.0174   24822417.5624
     -3892.698       -3033.269
  24755755.909      146994.339 8    134532.47245  24755756.1384   24755756.5634
     -2594.792       -2021.909
 03 10 28  1 27 30.0000000  0  7 11 14 20  7  1 31 28                 .000000624
  20504817.756   -22017601.781 9 -16648778.83349  20504817.6714   20504818.3614
     -1237.586        -964.354
  23602331.149    -3250517.667 9  -2072909.85446  23602330.4694   23602332.4044
     -2925.937       -2279.952
  20485726.371   -23301686.867 9 -17864720.50048  20485726.1254   20485727.9584
      1142.958         890.619
  22596792.730   -12743745.254 9  -9916283.86247  22596791.4234   22596794.7174
      1874.181        1460.406
  23626230.313    -7029900.730 9  -5183143.83046  23626232.0564   23626235.7954
      3698.712        2882.119
  24844636.672      839542.740 8   1451030.19945  24844636.2174   24844640.3594
     -3892.479       -3033.098
  24770592.687      224955.909 8    195281.70445  24770591.7324   24770590.4714
     -2602.606       -2028.006
 03 10 28  1 28  0.0000000  0  7 11 14 20  7  1 31 28                 .000000623
  20511923.454   -21980261.673 9 -16619682.63949  20511923.2354   20511924.1714
     -1251.783        -975.413
  23619067.655    -3162566.998 9  -2004376.87246  23619066.9104   23619068.7134
     -2937.456       -2288.921
  20479242.134   -23335764.997 9 -17891274.90448  20479241.4894   20479243.1714
      1128.896         879.660
  22586136.277   -12799743.962 9  -9959919.21547  22586135.8424   22586138.3434
      1859.035        1448.617
  23605132.097    -7140787.263 9  -5269548.87246  23605132.2044   23605134.3734
      3693.670        2878.181
  24866856.211      956309.991 8   1542017.65345  24866856.1724   24866861.2894
     -3892.090       -3032.792
  24785470.930      303151.365 8    256213.17345  24785472.9094   24785472.5534
     -2610.395       -2034.064
 03 10 28  1 28 30.0000000  0  7 11 14 20  7  1 31 28                 .000000624
  20519109.276   -21942496.353 9 -16590255.13649  20519109.4074   20519110.7564
     -1265.942        -986.442
  23635869.319    -3074271.861 9  -1935575.47946  23635870.1364   23635871.4554
     -2948.900       -2297.849
  20472837.576   -23369421.631 9 -17917500.83548  20472836.9204   20472838.6434
      1114.860         868.724
  22575566.820   -12855288.540 9 -10003200.70547  22575565.7914   22575568.6194
      1843.902        1436.807
  23584061.026    -7251520.775 9  -5355834.74146  23584059.0994   23584061.4964
      3688.497        2874.148
  24889075.316     1073065.880 8   1632996.19245  24889073.2924   24889078.3384
     -3891.637       -3032.449
  24800396.429      381577.583 8    317324.42945  24800395.9314   24800392.0314
     -2618.053       -2040.036
 03 10 28  1 29  0.0000000  0  7 11 14 20  7  1 31 28                 .000000625
  20526377.188   -21904305.990 9 -16560496.42448  20526377.0004   20526378.0834
     -1280.111        -997.485
  23652737.910    -2985635.134 9  -1866507.90646  23652737.1524   23652737.5424
     -2960.222       -2306.663
  20466513.196   -23402656.971 9 -17943398.49848  20466512.8344   20466514.1084
      1100.797         857.763
  22565083.499   -12910377.175 9 -10046126.90047  22565083.1704   22565085.2024
      1828.647        1424.929
  23563018.235    -7362098.860 9  -5441999.43246  23563016.9014   23563020.5234
      3683.305        2870.102
  24911291.851     1189807.938 9   1723964.06445  24911289.9594   24911293.4844
     -3891.138       -3032.061
  24815364.146      460231.744 8    378613.37845  24815359.2144   24815363.5014
     -2625.571       -2045.903
 03 10 28  1 29 30.0000000  0  8 11 25 14 20  7  1 31 28              .000000626
  20533725.467   -21865690.933 9 -16530406.78948  20533725.0304   20533726.2594
     -1294.265       -1008.518
  24328154.909      -72114.156 8    -44140.35742          .0004           .0004
      2151.564        1676.519
  23669668.883    -2896659.204 9  -1797176.00246  23669668.4384   23669669.0774
     -2971.481       -2315.437
  20460269.315   -23435470.447 9 -17968967.42648  20460268.3914   20460269.6964
      1086.739         846.804
  22554686.957   -12965008.008 9 -10088696.38647  22554686.5824   22554689.8394
      1813.357        1413.006
  23542004.980    -7472518.894 9  -5528040.96546  23542004.4154   23542008.3104
      3677.971        2865.947
  24933500.811     1306533.917 8   1814919.36945  24933500.8744   24933506.2394
     -3890.635       -3031.666
  24830376.116      539110.659 8    440077.42345  24830372.3994   24830374.4834
     -2632.949       -2051.651
 03 10 28  1 30  0.0000000  0  8 11 25 14 20  7  1 31 28              .000000625
  20541154.041   -21826651.654 9 -16499986.59248  20541153.8084   20541155.2314
     -1308.406       -1019.536
  24315900.424     -136508.544 8    -94317.39945          .0005   24315903.4834
      2141.270        1668.525
  23686663.830    -2807346.839 9  -1727581.96946  23686664.8944   23686663.6964
     -2982.690       -2324.186
  20454105.181   -23467862.175 9 -17994207.74749  20454104.6324   20454105.6994
      1072.677         835.848
  22544378.003   -13019179.211 9 -10130907.70647  22544378.2854   22544381.9054
      1798.006        1401.042
  23521022.408    -7582778.510 9  -5613957.49946  23521021.0324   23521025.5984
      3672.647        2861.799
  24955709.526     1423241.609 8   1905860.36145  24955709.9724   24955715.1294
     -3889.956       -3031.138
  24845425.509      618211.311 8    501714.23545  24845424.2684   24845428.4434
     -2640.412       -2057.455
 03 10 28  1 30 30.0000000  0  8 11 25 14 20  7  1 31 28              .000000623
  20548664.078   -21787188.571 9 -16469236.18648  20548663.8224   20548665.0074
     -1322.506       -1030.525
  24303702.445     -200593.106 8   -144253.37045  24303704.9364   24303705.9684
      2130.921        1660.454
  23703721.208    -2717700.705 9  -1657727.81646  23703721.3264   23703724.0334
     -2993.719       -2332.773
  20448021.710   -23499831.783 9 -18019119.12549  20448020.7404   20448022.4154
      1058.628         824.897
  22534158.342   -13072888.894 9 -10172759.40847  22534157.4124   22534160.2764
      1782.603        1389.034
  23500072.563    -7692875.025 9  -5699747.00646  23500073.2674   23500076.4514
      3667.112        2857.495
  24977914.523     1539928.635 8   1996785.26945  24977914.8334   24977917.9024
     -3889.225       -3030.563
  24860520.527      697530.612 8    563521.44745  24860521.0054   24860518.7654
     -2647.543       -2063.016
 03 10 28  1 31  0.0000000  0  8 11 25 14 20  7  1 31 28              .000000624
  20556253.764   -21747301.907 9 -16438155.70148  20556253.7594   20556254.8254
     -1336.618       -1041.521
  24291567.652     -264364.922 8   -193945.64645  24291566.8294   24291571.3744
      2120.454        1652.295
  23720844.744    -2627723.544 9  -1587615.74746  23720845.5384   23720846.5154
     -3004.797       -2341.407
  20442017.720   -23531379.244 9 -18043701.53349  20442017.2574   20442019.0354
      1044.536         813.926
  22524026.378   -13126135.422 9 -10214250.20447  22524025.3604   22524028.9694
      1767.124        1376.995
  23479154.452    -7802806.025 9  -5785407.48846  23479152.0064   23479157.1434
      3661.557        2853.151
  25000116.435     1656592.696 8   2087692.37545  25000116.9244   25000118.0914
     -3888.447       -3029.966
  24875656.164      777065.451 8    625496.57445  24875655.8514   24875656.1474
     -2654.711       -2068.607
 03 10 28  1 31 30.0000000  0  8 11 25 14 20  7  1 31 28              .000000625
  20563924.322   -21706992.354 9 -16406745.68248  20563924.2034   20563925.5724
     -1350.696       -1052.492
  24279492.305     -327821.686 8   -243392.36845  24279491.5254   24279494.9664
      2109.909        1644.088
  23738031.061    -2537417.831 9  -1517247.65846  23738029.4254   23738030.7484
     -3015.604       -2349.825
  20436095.177   -23562504.257 9 -18067954.76649  20436094.4944   20436096.2774
      1030.476         802.970
  22513981.340   -13178916.809 9 -10255378.54247  22513981.8754   22513984.0284
      1751.612        1364.901
  23458265.126    -7912568.910 9  -5870936.95046  23458264.6444   23458269.5294
      3655.983        2848.816
  25022311.994     1773231.667 8   2178579.86145  25022308.2764   25022317.0814
     -3887.514       -3029.230
  24890829.340      856813.007 8    687637.50445  24890828.1914   24890832.7624
     -2661.743       -2074.080
 03 10 28  1 32  0.0000000  0  8 11 25 14 20  7  1 31 28              .000000625
  20571676.057   -21666260.613 9 -16375006.68148  20571675.8624   20571676.4804
     -1364.788       -1063.472
  24267475.380     -390960.803 8   -292591.59745  24267477.7594   24267481.6894
      2099.361        1635.868
  23755277.991    -2446786.236 9  -1446625.63646  23755276.3574   23755276.5824
     -3026.444       -2358.281
  20430252.269   -23593206.748 9 -18091878.77248  20430251.8404   20430253.8254
      1016.345         791.961
  22504027.183   -13231231.249 9 -10296143.04447  22504026.5144   22504029.4574
      1735.992        1352.727
  23437410.965    -8022161.026 9  -5956333.38546  23437411.3244   23437414.3184
      3650.195        2844.310
  25044501.952     1889843.137 8   2269445.88845  25044502.2084   25044505.3544
     -3886.651       -3028.556
  24906044.393      936770.120 8    749941.67345  24906045.3954   24906047.1764
     -2668.769       -2079.556
 03 10 28  1 32 30.0000000  0  8 11 25 14 20  7  1 31 28              .000000625
  20579507.486   -21625106.647 9 -16342938.66848  20579507.1564   20579507.7404
     -1378.837       -1074.416
  24255523.910     -453779.548 8   -341541.26045  24255525.2404   24255527.3254
      2088.611        1627.497
  23772584.918    -2355831.433 9  -1375751.77746  23772585.4284   23772584.5694
     -3037.196       -2366.646
  20424490.409   -23623486.385 9 -18115473.29848  20424489.9904   20424491.5604
      1002.268         780.988
  22494161.051   -13283077.136 9 -10336542.44247  22494160.4004   22494162.8484
      1720.321        1340.522
  23416589.323    -8131579.860 9  -6041594.81346  23416589.4704   23416593.9304
      3644.371        2839.784
  25066685.732     2006424.907 8   2360288.82745  25066685.2354   25066688.8434
     -3885.651       -3027.786
  24921300.971     1016933.741 8    812406.79245  24921300.1314   24921304.1794
     -2675.546       -2084.842
 03 10 28  1 33  0.0000000  0  8 11 25 14 20  7  1 31 28              .000000626
  20587417.734   -21583530.891 9 -16310541.97048  20587418.1464   20587419.7874
     -1392.881       -1085.363
  24243633.702     -516275.850 8   -390239.63445  24243631.5314   24243631.3764
      2077.852        1619.112
  23789953.747    -2264556.213 9  -1304628.23046  23789953.6304   23789954.2594
     -3047.844       -2374.943
  20418808.501   -23653343.187 9 -18138738.32549  20418808.1454   20418810.0534
       988.184         770.013
  22484384.225   -13334452.628 9 -10376575.28347  22484384.4414   22484386.6484
      1704.646        1328.288
  23395800.828    -8240823.005 9  -6126719.28946  23395800.7224   23395805.0834
      3638.465        2835.167
  25088865.089     2122974.690 8   2451106.82045  25088864.4234   25088864.7754
     -3884.475       -3026.866
  24936592.951     1097300.879 8    875030.51745  24936592.9804   24936596.1004
     -2682.245       -2090.066
 03 10 28  1 33 30.0000000  0  8 11 25 14 20  7  1 31 28              .000000626
  20595410.375   -21541534.000 9 -16277817.12648  20595410.2244   20595411.3744
     -1406.924       -1096.305
  24231798.017     -578446.624 8   -438684.32245  24231796.8094   24231801.9564
      2066.888        1610.564
  23807382.485    -2172963.150 9  -1233257.00646  23807383.3814   23807385.5194
     -3058.393       -2383.158
  20413207.707   -23682777.125 9 -18161673.84248  20413207.4244   20413208.7384
       974.077         759.018
  22474698.291   -13385355.917 9 -10416240.18347  22474696.9894   22474700.2004
      1688.895        1316.022
  23375046.392    -8349888.032 9  -6211704.97546  23375047.1164   23375051.4574
      3632.515        2830.532
  25111038.474     2239490.265 8   2541898.12845  25111037.9464   25111038.9784
     -3883.301       -3025.941
  24951924.694     1177868.423 8    937810.38945  24951924.4084   24951928.7164
     -2688.894       -2095.237
 03 10 28  1 34  0.0000000  0  8 11 25 14 20  7  1 31 28              .000000625
  20603482.657   -21499116.345 9 -16244764.41348  20603482.4884   20603483.2884
     -1420.944       -1107.223
  24220030.465     -640289.791 8   -486873.79245  24220031.0384   24220034.1324
      2055.946        1602.033
  23824871.445    -2081054.926 9  -1161640.19746  23824872.4974   23824874.6364
     -3068.869       -2391.325
  20407687.355   -23711788.068 9 -18184279.75549  20407686.4184   20407688.3104
       959.957         748.019
  22465101.103   -13435785.321 9 -10455535.81847  22465100.8184   22465103.7564
      1673.056        1303.696
  23354327.851    -8458772.175 9  -6296549.76346  23354325.5494   23354329.1084
      3626.393        2825.751
  25133203.997     2355969.402 8   2632661.12855  25133203.1914           .0005
     -3881.952       -3024.910
  24967292.589     1258633.324 8   1000744.02445  24967291.2244   24967294.3664
     -2695.439       -2100.351
 03 10 28  1 34 30.0000000  0  8 11 25 14 20  7  1 31 28              .000000625
  20611634.201   -21456278.620 9 -16211384.38448  20611633.7904   20611635.0274
     -1434.931       -1118.132
  24208327.270     -701802.565 8   -534805.77645  24208323.7044   24208329.3534
      2044.898        1593.437
  23842422.185    -1988834.079 9  -1089779.78946  23842421.9394   23842422.7174
     -3079.214       -2399.384
  20402247.063   -23740375.715 9 -18206555.86049  20402246.7514   20402248.1474
       945.862         737.038
  22455595.789   -13485739.080 9 -10494460.81647  22455595.0784   22455598.2424
      1657.180        1291.302
  23333642.116    -8567472.885 9  -6381251.55246  23333640.9634   23333645.9954
      3620.255        2820.983
  25155361.957     2472409.763 7   2723393.92355  25155362.6514           .0005
     -3880.618       -3023.858
  24982702.626     1339592.449 8   1063829.05545  24982699.7804   24982702.0064
     -2701.862       -2105.357
 03 10 28  1 35  0.0000000  0  8 11 25 14 20  7  1 31 28              .000000625
  20619864.824   -21413021.215 9 -16177677.34848  20619864.9404   20619866.6564
     -1448.909       -1129.021
  24196684.733     -762982.697 8   -582478.56545  24196685.1754   24196687.6704
      2033.743        1584.733
  23860031.119    -1896303.452 9  -1017678.01746  23860029.8974   23860030.6174
     -3089.486       -2407.390
  20396888.247   -23768540.011 9 -18228502.05149  20396887.4654   20396888.8924
       931.771         726.054
  22446180.401   -13535215.465 9 -10533013.85147  22446179.5724   22446183.7664
      1641.215        1278.870
  23312991.806    -8675987.691 9  -6465808.51846  23312992.3264   23312994.9704
      3614.045        2816.127
  25177511.458     2588809.235 7   2814094.81254  25177512.8494           .0005
     -3879.418       -3022.921
  24998143.829     1420742.934 8   1127063.13945  24998147.4914   24998145.1114
     -2708.173       -2110.265
 03 10 28  1 35 30.0000000  0  8 11 25 14 20  7  1 31 28              .000000626
  20628176.996   -21369344.555 9 -16143643.60648  20628176.9944   20628178.2134
     -1462.883       -1139.899
  24185106.904     -823827.471 8   -629890.00445  24185106.6044   24185108.7944
      2022.567        1576.031
  23877697.417    -1803465.649 9   -945336.88846  23877697.5234   23877697.4594
     -3099.667       -2415.331
  20391608.538   -23796280.855 9 -18250118.27949  20391608.0074   20391609.9064
       917.626         715.038
  22436856.773   -13584212.761 9 -10571193.55747  22436856.2964   22436859.4084
      1625.230        1266.414
  23292378.162    -8784314.115 9  -6550218.70746  23292377.5724   23292381.0704
      3607.722        2811.208
  25199651.379     2705165.471 8   2904761.96154          .0005           .0005
     -3877.752       -3021.630
  25013619.556     1502081.659 8   1190443.92945  25013619.0024   25013624.6264
     -2714.456       -2115.153
 03 10 28  1 36  0.0000000  0  8 11 25 14 20  7  1 31 28              .000000625
  20636568.334   -21325249.091 9 -16109283.50148  20636567.9184   20636569.0474
     -1476.821       -1150.768
  24173591.273     -884334.237 8   -677038.08945  24173592.6124   24173594.1194
      2011.226        1567.184
  23895420.717    -1710323.206 9   -872758.34646  23895419.2364   23895421.1114
     -3109.831       -2423.251
  20386409.780   -23823598.154 9 -18271404.46049  20386409.9434   20386411.5174
       903.510         704.033
  22427624.838   -13632729.334 9 -10608998.67747  22427623.1234   22427626.8524
      1609.162        1253.897
  23271798.892    -8892449.667 9  -6634480.15446  23271799.7604   23271804.4544
      3601.307        2806.207
  25221787.166     2821476.234 7   2995393.71355  25221786.0954           .0005
     -3876.249       -3020.452
  25029135.475     1583605.499 8   1253968.94545  25029134.0194   25029136.7214
     -2720.460       -2119.834
 03 10 28  1 36 30.0000000  0  8 11 25 14 20  7  1 31 28              .000000625
  20645038.586   -21280735.627 9 -16074597.70948  20645038.4304   20645039.6544
     -1490.766       -1161.639
  24162142.051     -944500.914 8   -723921.15445  24162143.2014   24162142.7154
      1999.882        1558.349
  23913204.112    -1616878.863 9   -799944.59746  23913201.9564   23913203.4514
     -3119.842       -2431.055
  20381293.407   -23850491.841 9 -18292360.58449  20381292.0234   20381293.7894
       889.398         693.040
  22418484.117   -13680763.587 9 -10646427.95647  22418482.9154   22418486.0614
      1593.059        1241.353
  23251259.191    -9000391.861 9  -6718590.92346  23251259.4694   23251263.0324
      3594.827        2801.161
  25243911.101     2937739.343 8   3085988.29245  25243916.9894   25243915.7884
     -3874.711       -3019.252
  25044680.550     1665311.187 8   1317635.67545  25044681.0104   25044686.5794
     -2726.601       -2124.619
 03 10 28  1 37  0.0000000  0  8 11 25 14 20  7  1 31 28              .000000625
  20653588.809   -21235804.472 9 -16039586.44248  20653588.8184   20653590.0264
     -1504.653       -1172.453
  24150758.042    -1004324.703 8   -770537.04045  24150756.1904   24150761.0714
      1988.423        1549.414
  23931039.917    -1523135.480 9   -726897.80846  23931040.9544   23931043.4374
     -3129.714       -2438.734
  20376255.820   -23876961.878 9 -18312986.59549  20376255.2324   20376256.6684
       875.283         682.035
  22409434.928   -13728313.717 9 -10683480.01047  22409433.8414   22409436.5364
      1576.941        1228.764
  23230758.184    -9108138.156 9  -6802549.05446  23230754.5394   23230759.6904
      3588.277        2796.057
  25266025.529     3053952.578 7   3176544.06354  25266023.4684           .0005
     -3872.947       -3017.885
  25060263.811     1747196.116 8   1381442.06145  25060262.2044   25060266.5554
     -2732.439       -2129.161
 03 10 28  1 37 30.0000000  0  8 11 25 14 20  7  1 31 28              .000000626
  20662218.232   -21190456.102 9 -16004250.08648  20662217.9254   20662219.2824
     -1518.582       -1183.309
  24139440.810    -1063803.323 8   -816883.99945  24139440.8664   24139441.8514
      1976.855        1540.401
  23948938.212    -1429095.445 9   -653619.86946  23948937.1884   23948937.5024
     -3139.511       -2446.377
  20371299.266   -23903008.359 9 -18333282.53849  20371298.5964   20371300.2804
       861.126         671.005
  22400479.242   -13775378.048 9 -10720153.51647  22400478.3154   22400481.2084
      1560.692        1216.124
  23210292.025    -9215686.103 9  -6886352.63746  23210288.6374   23210294.0254
      3581.578        2790.841
  25288130.387     3170113.718 7   3267059.29854  25288132.0925           .0005
     -3871.139       -3016.485
  25075881.400     1829256.977 8   1445385.53245  25075879.9254   25075883.6054
     -2738.204       -2133.666
 03 10 28  1 38  0.0000000  0  8 11 25 14 20  7  1 31 28              .000000626
  20670927.197   -21144691.123 9 -15968589.09048  20670927.0314   20670928.3024
     -1532.439       -1194.110
  24128187.491    -1122934.284 8   -862960.00945  24128188.5984   24128187.8014
      1965.235        1531.349
  23966887.626    -1334761.686 9   -580113.04546  23966886.9264   23966888.0614
     -3149.305       -2454.004
  20366422.629   -23928631.033 9 -18353248.26349  20366422.6324   20366424.5134
       847.022         660.013
  22391616.150   -13821955.205 9 -10756447.40747  22391615.3214   22391617.4854
      1544.423        1203.438
  23189862.708    -9323033.102 9  -6969999.59646  23189862.2684   23189868.2734
      3574.839        2785.590
  25310222.170     3286220.559 7   3357532.15654  25310219.8904           .0005
     -3869.376       -3015.093
  25091526.933     1911490.715 8   1509463.73745  25091530.6654   25091530.2134
     -2743.990       -2138.175
 03 10 28  1 38 30.0000000  0  8 11 25 14 20  7  1 31 28              .000000625
  20679715.360   -21098510.340 9 -15932604.07448  20679715.0874   20679716.3734
     -1546.289       -1204.896
  24117002.049    -1181714.932 8   -908763.03745  24117003.2794   24117001.8094
      1953.494        1522.205
  23984893.774    -1240136.838 9   -506379.39045  23984893.8524   23984895.0044
     -3158.988       -2461.556
  20361628.551   -23953829.860 9 -18372883.70249  20361627.8344   20361629.3264
       832.894         649.010
  22382845.549   -13868043.346 9 -10792360.24247  22382845.2184   22382847.9954
      1528.121        1190.743
  23169473.836    -9430176.660 9  -7053488.03846  23169474.5104   23169477.8124
      3568.024        2780.279
  25332307.238     3402270.91917     55089.94452          .0005           .0005
     -3867.444       -3013.593
  25107211.290     1993894.372 8   1573674.33945  25107209.1274   25107211.0724
     -2749.545       -2142.500
 03 10 28  1 39  0.0000000  0  8 11 25 14 20  7  1 31 28              .000000624
  20688581.513   -21051914.096 9 -15896295.32448  20688581.7034   20688582.9844
     -1560.117       -1215.676
  24105883.587    -1240143.118 8   -954291.44645  24105882.8454   24105885.8914
      1941.714        1513.024
  24002956.303    -1145223.402 9   -432420.88745  24002956.5564   24002956.5014
     -3168.538       -2469.001
  20356913.825   -23978604.862 9 -18392188.88949  20356913.1794   20356914.8274
       818.768         637.998
  22374167.987   -13913640.830 9 -10827890.75947  22374168.4254   22374169.8144
      1511.742        1177.988
  23149123.405    -9537114.264 9  -7136816.03046  23149124.5654   23149127.3974
      3561.123        2774.889
  25354386.472     3518262.47817    145420.23954          .0005           .0005
     -3865.234       -3009.579
  25122922.301     2076464.859 8   1638014.96945  25122920.2544   25122922.2614
     -2755.080       -2146.820
 03 10 28  1 39 30.0000000  0  8 11 25 14 20  7  1 31 28              .000000623
  20697528.001   -21004903.002 9 -15859663.31948  20697527.8954   20697529.1574
     -1573.960       -1226.461
  24094831.495    -1298216.251 8   -999543.18045  24094831.6814   24094836.2984
      1929.763        1503.712
  24021071.735    -1050024.124 9   -358239.63245  24021070.7364   24021072.3914
     -3178.086       -2476.436
  20352279.579   -24002955.952 9 -18411163.76849  20352279.0944   20352280.8964
       804.620         626.976
  22365584.848   -13958746.264 9 -10863037.84047  22365584.6734   22365587.5324
      1495.276        1165.146
  23128814.771    -9643843.343 9  -7219981.53046  23128814.6524   23128819.1384
      3554.106        2769.424
  25376445.086     3634193.02517    235686.93254          .0005           .0005
     -3863.631       -3008.338
  25138667.261     2159199.107 8   1702483.17445  25138668.9354   25138668.1614
     -2760.445       -2150.993
 03 10 28  1 40  0.0000000  0  8 11 25 14 20  7  1 31 28              .000000622
  20706553.136   -20957477.665 9 -15822708.52248  20706552.9564   20706553.7744
     -1587.750       -1237.212
  24083849.516    -1355931.974 8  -1044516.44945  24083850.7724   24083853.1884
      1917.792        1494.382
  24039240.053     -954541.563 9   -283837.64545  24039239.4744   24039241.1344
     -3187.431       -2483.709
  20347726.814   -24026882.989 9 -18429808.20949  20347726.0594   20347727.7404
       790.503         615.975
  22357095.364   -14003357.947 9 -10897800.19447  22357095.4004   22357098.2704
      1478.830        1152.335
  23108545.792    -9750361.472 9  -7302982.63646  23108545.6904   23108549.6144
      3547.052        2763.932
  25398499.869     3750060.38017     47478.59952          .0005           .0005
     -3861.298       -3008.804
  25154438.958     2242094.041 8   1767076.58945  25154438.9504   25154441.4734
     -2765.807       -2155.173
 03 10 28  1 40 30.0000000  0  8 11 25 14 20  7  1 31 28              .000000622
  20715656.099   -20909638.589 9 -15785431.32648  20715656.1344   20715657.3534
     -1601.551       -1247.962
  24072934.797    -1413287.985 8  -1089209.42945  24072934.1764   24072937.2064
      1905.840        1485.064
  24057464.566     -858778.386 9   -209216.96945  24057464.2734   24057464.8684
     -3196.765       -2490.978
  20343253.931   -24050386.000 9 -18448122.24649  20343253.6674   20343255.1724
       776.358         604.956
  22348700.618   -14047474.347 9 -10932176.59947  22348699.8814   22348702.7974
      1462.265        1139.423
  23088314.249    -9856666.156 9  -7385817.42346  23088314.9624   23088319.1184
      3539.907        2758.367
  25420530.377     3865862.52917    137727.32854          .0005           .0005
     -3858.986       -3007.649
  25170246.428     2325146.653 8   1831792.91345  25170244.5834   25170248.6784
     -2771.042       -2159.256
 03 10 28  1 41  0.0000000  0  8 11 25 14 20  7  1 31 28              .000000622
  20724838.182   -20861386.495 9 -15747832.30048  20724837.9934   20724839.5784
     -1615.271       -1258.652
  24062090.219    -1470281.603 8  -1133620.04945  24062090.4224   24062091.4004
      1893.662        1475.579
  24075740.712     -762737.275 9   -134379.75845  24075740.8334   24075740.4764
     -3205.957       -2498.146
  20338862.950   -24073465.213 9 -18466106.03749  20338862.0184   20338863.4524
       762.235         593.950
  22340400.984   -14091093.892 9 -10966165.85747  22340399.7384   22340402.6994
      1445.673        1126.491
  23068128.884    -9962754.858 9  -7468483.92246  23068127.3094   23068131.7184
      3532.641        2752.704
  25442551.154     3981597.228 7    227929.66954          .0004           .0005
     -3856.562       -3005.760
  25186078.797     2408353.885 8   1896629.70445  25186075.1624   25186079.0334
     -2776.114       -2163.208
 03 10 28  1 41 30.0000000  0  8 11 25 14 20  7  1 31 28              .000000623
  20734099.540   -20812722.118 9 -15709912.02148  20734099.0954   20734099.8234
     -1629.017       -1269.360
  24051312.690    -1526910.564 8  -1177746.46045  24051311.9714   24051312.4804
      1881.513        1466.110
  24094069.548     -666420.996 9    -59328.10045  24094068.6204   24094069.9514
     -3215.065       -2505.240
  20334550.909   -24096120.585 9 -18483759.56349  20334550.1654   20334552.1724
       748.108         582.944
  22332194.440   -14134215.075 9 -10999766.78147  22332193.2834   22332196.8914
      1429.046        1113.545
  23047981.429   -10068625.076 9  -7550980.15746  23047980.7634   23047986.6404
      3525.286        2746.965
  25464560.218     4097262.403 7     39884.30942          .0004           .0004
     -3854.298       -3003.350
  25201939.332     2491712.693 8   1961584.55145  25201939.1154   25201943.3224
     -2781.040       -2167.041
 03 10 28  1 42  0.0000000  0  8 11 25 14 20  7  1 31 28              .000000623
  20743437.076   -20763645.947 9 -15671670.86648  20743437.5214   20743438.8074
     -1642.731       -1280.059
  24040607.352    -1583172.513 8  -1221586.84145  24040608.5894   24040609.8724
      1869.217        1456.532
  24112450.327     -569832.224 9     15935.88045  24112448.8814   24112450.0704
     -3224.171       -2512.334
  20330319.613   -24118351.881 9 -18501082.63049  20330319.7994   20330321.8864
       733.960         571.910
  22324084.134   -14176836.396 9 -11032978.19847  22324082.9424   22324086.7444
      1412.352        1100.534
  23027876.019   -10174274.307 9  -7633304.18946  23027876.3504   23027880.6554
      3517.921        2741.224
  25486556.631     4212855.868 7    129948.85954          .0004           .0005
     -3852.034       -3001.109
  25217831.692     2575220.050 7   2026655.17155  25217828.7474           .0005
     -2785.996       -2170.902
 03 10 28  1 42 30.0000000  0  8 11 25 14 20  7  1 31 28              .000000623
  20752854.699   -20714158.543 9 -15633109.28248  20752854.8384   20752855.9354
     -1656.456       -1290.745
  24029970.655    -1639064.912 8  -1265139.33945  24029974.0494   24029974.9844
      1856.924        1446.948
  24130878.062     -472973.488 8     91410.20545  24130878.9994   24130880.9294
     -3233.170       -2519.355
  20326170.575   -24140159.208 9 -18518075.34049  20326170.0004   20326172.1754
       719.821         560.902
  22316069.057   -14218956.341 9 -11065798.93547  22316068.2794   22316071.0174
      1395.610        1087.485
  23007814.361   -10279699.986 9  -7715454.07746  23007816.0214   23007818.7704
      3510.404        2735.384
  25508538.571     4328375.378 7    219950.23454          .0004           .0005
     -3849.491       -2999.133
  25233748.799     2658872.853 7   2091839.20354  25233753.4594           .0005
     -2790.800       -2174.639
 03 10 28  1 43  0.0000000  0  8 11 25 14 20  7  1 31 28              .000000623
  20762350.165   -20664260.591 9 -15594227.76848  20762349.8694   20762351.3844
     -1670.104       -1301.384
  24019407.992    -1694585.812 8  -1308402.35345  24019404.5754   24019408.3394
      1844.456        1437.237
  24149361.468     -375847.495 8    167092.78345  24149360.5424   24149363.4084
     -3241.919       -2526.170
  20322100.839   -24161542.634 9 -18534737.73549  20322100.6894   20322103.0014
       705.706         549.896
  22308149.342   -14260573.469 9 -11098227.87147  22308148.8604   22308151.7834
      1378.829        1074.401
  22987796.892   -10384899.717 9  -7797427.85946  22987796.7324   22987800.1564
      3502.855        2729.494
  25530506.134     4443818.67317     32311.15552          .0005           .0005
     -3846.750       -2997.468
  25249699.429     2742668.057 8   2157134.13254  25249698.1865           .0005
     -2795.387       -2178.211
 03 10 28  1 43 30.0000000  0  8 11 25 14 20  7  1 31 28              .000000623
  20771923.595   -20613952.745 9 -15555026.86748  20771923.6074   20771924.5744
     -1683.776       -1312.032
  24008906.932    -1749732.763 8  -1351373.97745  24008907.6564   24008912.5354
      1831.948        1427.492
  24167894.230     -278456.940 8    242981.51345  24167895.3594   24167895.3254
     -3250.743       -2533.053
  20318112.709   -24182502.331 9 -18551069.98249  20318112.5264   20318114.6014
       691.564         538.877
  22300326.917   -14301686.225 9 -11130263.78447  22300325.3694   22300329.0484
      1361.979        1061.276
  22967823.121   -10489871.119 9  -7879223.72546  22967822.2494   22967824.2484
      3495.201        2723.531
  25552465.036     4559183.69416    122271.00354          .0005           .0005
     -3844.011       -2999.531
  25265673.374     2826602.675 8   2222537.68254  25265668.0995           .0005
     -2800.077       -2181.869
 03 10 28  1 44  0.0000000  0  8 11 25 14 20  7  1 31 28              .000000625
  20781574.325   -20563235.764 9 -15515507.14848  20781574.4124   20781575.6464
     -1697.368       -1322.629
  23998492.618    -1804503.349 8  -1394052.29045  23998491.8334   23998488.9884
      1819.416        1417.727
  24186480.527     -180804.425 9    319074.37745  24186477.8324   24186479.2894
     -3259.429       -2539.810
  20314204.446   -24203038.117 9 -18567071.89949  20314204.2674   20314206.5314
       677.485         527.912
  22292598.988   -14342293.220 9 -11161905.59847  22292598.3584   22292601.3494
      1345.145        1048.171
  22947891.879   -10594611.653 9  -7960839.70246  22947888.4174   22947893.4674
      3487.464        2717.502
  25574397.809     4674468.14116    212228.73154          .0005           .0005
     -3840.575       -2996.852
  25281666.567     2910673.760 7     16928.60852          .0005           .0005
     -2804.539       -2185.356
 03 10 28  1 44 30.0000000  0  8 11 25 14 20  7  1 31 28              .000000627
  20791303.616   -20512110.374 9 -15475669.19848  20791303.2914   20791304.6184
     -1710.958       -1333.217
  23988137.236    -1858895.304 8  -1436435.51845  23988136.0504   23988140.6434
      1806.733        1407.842
  24205111.115      -82892.515 8    395369.36145  24205110.9214   24205110.0774
     -3268.075       -2546.552
  20310377.989   -24223150.112 9 -18582743.58349  20310377.2644   20310379.4304
       663.354         516.903
  22284968.453   -14382392.995 9 -11193152.18247  22284967.7764   22284969.8504
      1328.188        1034.950
  22928002.513   -10699118.834 9  -8042273.84246  22928001.5264   22928004.9304
      3479.676        2711.443
  25596321.596     4789670.36216     24763.70952          .0005           .0005
     -3838.508       -2991.046
  25297691.345     2994878.082 7     82594.03954          .0004           .0005
     -2808.892       -2192.866
 03 10 28  1 45  0.0000000  0  8 11 25 14 20  7  1 31 28              .000000626
  20801110.425   -20460577.057 9 -15435513.38748  20801110.0574   20801111.5234
     -1724.566       -1343.811
  23977860.624    -1912906.164 8  -1478521.85945  23977861.9784   23977863.9784
      1794.000        1397.912
  24223789.829       15275.966 8    471864.28545  24223792.0424   24223790.5124
     -3276.494       -2553.104
  20306630.721   -24242838.431 9 -18598085.12149  20306630.4794   20306632.8244
       649.241         505.903
  22277434.442   -14421984.109 9 -11224002.39647  22277433.5454   22277436.7524
      1311.223        1021.727
  22908159.304   -10803390.152 9  -8123524.19546  22908159.3744   22908164.8564
      3471.755        2705.278
  25618225.296     4904788.00517    114402.94554          .0005           .0005
     -3835.529       -2983.911
  25313739.765     3079212.72817    148433.21154          .0005           .0005
     -2813.142       -2196.184
 03 10 28  1 45 30.0000000  0  8 11 25 14 20  7  1 31 28              .000000626
  20810993.433   -20408636.706 9 -15395040.40348  20810993.9594   20810994.9514
     -1738.126       -1354.382
  23967657.988    -1966533.839 8  -1520309.61945  23967656.2004   23967656.3794
      1781.152        1387.912
  24242519.647      113698.716 8    548557.31945  24242520.3114   24242520.9494
     -3284.946       -2559.699
  20302965.230   -24262103.067 9 -18613096.51749  20302964.8604   20302966.7754
       635.088         494.875
  22269998.461   -14461065.114 9 -11254455.13147  22269997.7164   22269999.7904
      1294.173        1008.440
  22888364.296   -10907423.181 9  -8204588.87646  22888364.8584   22888367.2834
      3463.773        2699.051
  25640116.311     5019818.95417    203892.93354          .0005           .0005
     -3832.905       -2981.880
  25329808.286     3163674.71817     11585.85352          .0005           .0005
     -2817.668       -2195.589
 03 10 28  1 46  0.0000000  0  8 11 25 14 20  7  1 31 28              .000000626
  20820954.695   -20356289.941 9 -15354250.71048  20820954.8244   20820956.5724
     -1751.687       -1364.946
  23957523.525    -2019775.793 8  -1561796.87245  23957523.0174   23957527.2904
      1768.327        1377.914
  24261297.843      212372.595 8    625446.08445  24261296.8704   24261298.1504
     -3293.280       -2566.198
  20299380.573   -24280944.159 9 -18627777.88749  20299379.7434   20299381.4304
       620.973         483.881
  22262657.303   -14499634.734 9 -11284509.38547  22262657.3414   22262660.2204
      1277.125         995.172
  22868612.871   -11011215.558 9  -8285466.03446  22868613.4764   22868614.9454
      3455.720        2692.778
  25661983.896     5134760.49816     17230.17852          .0005           .0005
     -3829.824       -2984.278
  25345907.801     3248260.96917     77466.96154          .0005           .0005
     -2821.815       -2195.787
 03 10 28  1 46 30.0000000  0  7 11 25 14 20  7  1 28                 .000000626
  20830994.164   -20303537.483 9 -15313144.90848  20830993.6704   20830994.8064
     -1765.179       -1375.456
  23947466.675    -2072630.055 8  -1602981.98745  23947467.8914   23947470.5664
      1755.280        1367.750
  24280122.676      311295.198 8    702528.65045  24280122.6814   24280123.5804
     -3301.550       -2572.630
  20295875.598   -24299361.715 9 -18642129.21149  20295874.5484   20295876.8504
       606.848         472.874
  22255415.850   -14537691.580 9 -11314164.06447  22255415.4844   22255417.8644
      1260.015         981.840
  22848908.734   -11114764.799 9  -8366153.71746  22848908.4464   22848911.3654
      3447.524        2686.384
  25362028.166     3332968.16617    143381.91354          .0005           .0005
     -2825.656       -2198.786
 03 10 28  1 47  0.0000000  0  7 11 25 14 20  7  1 28                 .000000626
  20841108.661   -20250380.037 9 -15271723.52948  20841108.8274   20841109.9984
     -1778.675       -1385.983
  23937482.208    -2125094.223 8  -1643863.11445  23937482.2754   23937486.2044
      1742.318        1357.649
  24298991.344      410463.843 8    779802.92045  24298991.9394   24298993.2994
     -3309.649       -2578.952
  20292451.232   -24317355.821 9 -18656150.57649  20292450.8034   20292452.4204
       592.732         461.871
  22248270.595   -14575234.271 9 -11343418.10147  22248271.4754   22248273.2974
      1242.818         968.429
  22829250.699   -11218068.373 9  -8446649.97346  22829249.8204   22829253.3344
      3439.337        2679.986
  25378169.257     3417793.610 7      6146.40052          .0005           .0005
     -2829.354       -2204.731
 03 10 28  1 47 30.0000000  0  7 11 25 14 20  7  1 28                 .000000625
  20851301.392   -20196818.406 9 -15229987.21248  20851301.2934   20851302.8794
     -1792.096       -1396.431
  23927574.218    -2177166.041 9  -1684438.56745  23927574.0124   23927575.8514
      1729.228        1347.451
  24317909.915      509875.986 8    857266.90845  24317909.4874   24317914.8334
     -3317.781       -2585.285
  20289107.488   -24334926.392 9 -18669841.92549  20289106.8864   20289109.0414
       578.649         450.894
  22241226.103   -14612261.474 9 -11372270.48647  22241225.1334   22241228.0324
      1225.648         955.042
  22809637.937   -11321123.920 9  -8526952.98246  22809639.7454   22809642.1584
      3431.038        2673.523
  25394332.121     3502734.329 7     72326.76244          .0004           .0004
     -2833.163       -2206.684
 03 10 28  1 48  0.0000000  0  7 11 25 14 20  7  1 28                 .000000625
  20861570.065   -20142853.263 9 -15187936.46248  20861570.2534   20861572.0694
     -1805.562       -1406.937
  23917740.545    -2228843.170 9  -1724706.47545  23917741.0934   23917741.8984
      1715.907        1337.070
  24336873.070      609528.922 8    934918.52945  24336873.9234   24336872.6844
     -3325.759       -2591.498
  20285844.062   -24352073.818 9 -18683203.55749  20285844.1944   20285845.9084
       564.525         439.884
  22234277.458   -14648771.858 9 -11400720.12047  22234277.3374   22234280.1544
      1208.406         941.615
  22790075.202   -11423928.798 9  -8607060.69446  22790076.7914   22790078.3374
      3422.612        2666.964
  25410517.395     3587787.29317    138572.66154          .0005           .0005
     -2836.924       -2209.640
 03 10 28  1 48 30.0000000  0  6 11 25 14 20  7  1                    .000000625
  20871916.134   -20088485.562 9 -15145572.04048  20871916.0044   20871917.8354
     -1818.948       -1417.361
  23907981.931    -2280123.226 8  -1764664.88345  23907982.3344   23907982.9894
      1702.664        1326.749
  24355883.029      709419.977 8   1012755.71045  24355881.9404   24355884.8644
     -3333.624       -2597.630
  20282662.584   -24368798.079 9 -18696235.45849  20282661.9364   20282663.5914
       550.429         428.911
  22227429.774   -14684764.164 9 -11428766.08147  22227428.9954   22227430.9594
      1191.105         928.132
  22770560.614   -11526480.680 9  -8686971.21147  22770559.9414   22770564.9194
      3414.160        2660.363
 03 10 28  1 49  0.0000000  0  6 11 25 14 20  7  1                    .000000625
  20882338.583   -20033715.829 9 -15102894.34348  20882338.5214   20882340.4694
     -1832.388       -1427.831
  23898299.295    -2331004.430 8  -1804312.49045  23898298.1414   23898301.2204
      1689.367        1316.387
  24374936.369      809546.623 8   1090776.44745  24374935.6234   24374936.5824
     -3341.534       -2603.793
  20279560.733   -24385099.244 9 -18708937.65549  20279559.8664   20279561.5274
       536.290         417.895
  22220678.266   -14720236.920 9 -11456407.19147  22220677.9144   22220681.0134
      1173.746         914.598
  22751094.115   -11628777.186 9  -8766682.75046  22751094.0854   22751097.6124
      3405.579        2653.695
 03 10 28  1 49 30.0000000  0  6 11 25 14 20  7  1                    .000000624
  20892837.758   -19978544.652 9 -15059903.84448  20892837.8404   20892839.0644
     -1845.713       -1438.215
  23888691.429    -2381484.624 8  -1843647.68345  23888690.2384   23888694.7644
      1675.928        1305.917
  24394034.435      909906.087 8   1168978.62145  24394033.0144   24394034.6384
     -3349.169       -2609.736
  20276538.755   -24400977.499 9 -18721310.32749  20276538.0284   20276539.7924
       522.224         406.933
  22214027.611   -14755189.150 9 -11483642.68947  22214027.3684   22214029.4314
      1156.416         901.096
  22731676.706   -11730815.876 9  -8846193.38746  22731677.1864   22731679.9194
      3396.965        2646.989
 03 10 28  1 50  0.0000000  0  6 11 25 14 20  7  1                    .000000624
  20903412.137   -19922973.252 9 -15016601.47548  20903412.2484   20903413.6884
     -1859.034       -1448.595
  23879162.219    -2431561.102 8  -1882668.28845  23879165.4164   23879164.7834
      1662.451        1295.418
  24413177.222     1010495.937 8   1247360.30345  24413173.7814   24413173.5664
     -3356.783       -2615.672
  20273597.146   -24416433.207 9 -18733353.74349  20273596.7974   20273598.9714
       508.138         395.958
  22207474.785   -14789619.382 9 -11510471.44547  22207474.6184   22207477.8514
      1138.943         887.481
  22712309.317   -11832594.335 9  -8925501.26646  22712309.9034   22712311.6564
      3388.260        2640.206
 03 10 28  1 50 30.0000000  0  6 11 25 14 20  7  1                    .000000624
  20914063.525   -19867002.301 9 -14972987.77648  20914063.3434   20914064.7764
     -1872.353       -1458.976
  23869711.318    -2481232.004 8  -1921372.87045  23869711.6104   23869713.4824
      1648.892        1284.851
  24432361.177     1111313.301 8   1325919.29445  24432359.0044   24432362.6094
     -3364.357       -2621.585
  20270737.349   -24431466.163 9 -18745067.74749  20270736.8014   20270738.0194
       494.060         384.986
  22201023.312   -14823526.463 9 -11536892.53847  22201022.5184   22201025.5264
      1121.522         873.908
  22692990.934   -11934110.019 9  -9004604.36447  22692991.1534   22692994.6734
      3379.425        2633.325
 03 10 28  1 51  0.0000000  0  7 11 25 13 14 20  7  1                 .000000624
  20924790.201   -19810632.422 9 -14929063.21348  20924790.2564   20924791.4244
     -1885.635       -1469.327
  23860337.560    -2530495.235 8  -1959759.80745  23860337.0784   23860338.1554
      1635.322        1274.272
          .000            .000 1   -120895.46514          .0004   25263220.4861
          .000        3118.410
  24451587.140     1212355.784 8   1404653.69445  24451586.8904   24451588.1444
     -3371.945       -2627.494
  20267957.010   -24446076.683 9 -18756452.56149  20267956.1654   20267957.7404
       479.964         373.991
  22194671.355   -14856909.063 9 -11562904.96847  22194670.4694   22194672.5864
      1103.994         860.249
  22673723.576   -12035360.508 9  -9083500.82947  22673723.7174   22673727.1174
      3370.574        2626.419
 03 10 28  1 51 30.0000000  0  8 11 25  4 13 14 20  7  1              .000000623
  20935593.288   -19753864.450 9 -14884828.45648  20935592.9094   20935594.3424
     -1898.913       -1479.671
  23851038.217    -2579348.625 8  -1997827.33045  23851039.8064   23851043.3584
      1621.523        1263.526
  24971094.911     -114523.716 8    -70339.24843          .0004           .0004
      3434.739        2676.573
          .000            .000 1   -195707.82614          .0004   25244914.2831
          .000        3118.130
  24470857.386     1313620.775 8   1483561.50645  24470853.8994   24470860.2214
     -3379.226       -2633.170
  20265256.898   -24460264.747 9 -18767508.19149  20265256.1374   20265257.6384
       465.871         363.020
  22188417.568   -14889766.213 9 -11588507.93347  22188417.2334   22188419.9744
      1086.409         846.551
  22654507.329   -12136343.403 9  -9162188.77646  22654507.3364   22654510.7744
      3361.559        2619.391
 03 10 28  1 52  0.0000000  0  7 11 25  4 14 20  7  1                 .000000623
  20946470.792   -19696699.370 9 -14840284.27648  20946471.0214   20946472.5944
     -1912.123       -1489.971
  23841823.388    -2627790.209 8  -2035573.98145  23841823.7094   23841824.4114
      1607.771        1252.806
  24951489.519     -217549.917 8   -150621.42754          .0004           .0005
      3433.696        2675.665
  24490171.017     1415105.681 8   1562640.61645  24490172.0704   24490168.6504
     -3386.454       -2638.796
  20262636.992   -24474030.682 9 -18778234.88749  20262636.6354   20262638.2934
       451.816         352.065
  22182265.155   -14922096.553 9 -11613700.40947  22182264.7864   22182268.3794
      1068.869         832.883
  22635342.878   -12237056.343 9  -9240666.38347  22635342.2594   22635346.4154
      3352.576        2612.409
 03 10 28  1 52 30.0000000  0  8 11 25  4 13 14 20  7  1              .000000623
  20957424.989   -19639137.677 9 -14795431.03648  20957424.7594   20957425.9004
     -1925.329       -1500.259
  23832682.713    -2675817.506 8  -2072997.81345  23832684.0114   23832684.5474
      1593.995        1242.073
  24931889.104     -320545.284 8   -230879.51154          .0004           .0005
      3432.938        2675.206
          .000            .00011     -2456.14212          .0005   25182543.0691
          .000        3116.140
  24509523.504     1516807.647 8   1641888.92455  24509523.5674   24509522.0605
     -3393.662       -2644.423
  20260097.120   -24487374.598 9 -18788632.74649  20260097.0624   20260098.8364
       437.755         341.107
  22176214.153   -14953898.964 9 -11638481.51147  22176213.5354   22176216.1804
      1051.284         819.186
  22616228.908   -12337496.854 9  -9318931.68447  22616230.3574   22616232.7994
      3343.456        2605.275
 03 10 28  1 53  0.0000000  0  8 11 25  4 13 14 20  7  1              .000000623
  20968454.300   -19581180.713 9 -14750269.78248  20968453.8834   20968455.4324
     -1938.500       -1510.517
  23823623.933    -2723428.726 8  -2110097.43145  23823624.2224   23823625.8284
      1580.033        1231.195
          .000            .00011          .00011          .0005           .0001
          .000            .000
          .000            .000 1    -94383.055 4          .0004   25160092.550
          .000        3115.990
  24528917.881     1618724.400 8   1721304.64555  24528915.2164           .0005
     -3400.800       -2649.979
  20257638.803   -24500296.747 9 -18798701.93949  20257638.2144   20257639.8804
       423.717         330.168
  22170262.860   -14985172.259 9 -11662850.30347  22170261.4984   22170265.4964
      1033.620         805.425
  22597167.182   -12437662.541 9  -9396982.83947  22597168.1564   22597171.3594
      3334.219        2598.086
 03 10 28  1 53 30.0000000  0  8 11 25  4 13 14 20  7  1              .000000623
  20979558.130   -19522829.060 9 -14704800.97348  20979557.7364   20979559.0384
     -1951.618       -1520.739
  23814642.140    -2770621.586 8  -2146871.02745  23814641.9614   23814644.8544
      1566.113        1220.349
          .000            .000 1    -82300.150 5          .0004   24893690.218
          .000        2672.816
          .000            .000 1   -139563.55015          .0004   25149061.9961
          .000        3117.490
  24548351.474     1720853.136 7   1800885.46854  24548350.6824           .0005
     -3407.905       -2655.521
  20255260.809   -24512797.254 9 -18808442.57649  20255259.8474   20255261.1844
       409.652         319.210
  22164413.185   -15015915.345 9 -11686805.96447  22164412.5964   22164415.3694
      1015.923         791.632
  22578160.773   -12537550.993 9  -9474817.99547  22578160.1344   22578163.3964
      3324.947        2590.870
 03 10 28  1 54  0.0000000  0  8 11 25  4 13 14 20  7  1              .000000625
  20990735.873   -19464083.781 9 -14659025.44748  20990736.1394   20990737.5194
     -1964.711       -1530.942
  23805742.288    -2817394.162 8  -2183317.12845  23805742.3314   23805743.4634
      1552.072        1209.405
  24873130.842     -236892.808 8   -166487.95355          .0004           .0005
      3429.259        2672.154
  25112922.782     -390155.905 8   -287547.57045          .0005   25112923.4394
      3997.649        3115.043
  24567828.930     1823191.268 8   1880629.37654  24567827.3084           .0005
     -3414.791       -2660.864
  20252961.509   -24524876.196 9 -18817854.72349  20252960.9504   20252962.6064
       395.619         308.274
  22158664.410   -15046127.080 9 -11710347.58847  22158663.8064   22158666.1114
       998.214         777.846
  22559207.021   -12637159.752 9  -9552435.18247  22559205.7264   22559208.4414
      3315.610        2583.579
 03 10 28  1 54 30.0000000  0  8 11 25  4 13 14 20  7  1              .000000626
  21001990.541   -19404945.202 9 -14612943.45748  21001990.3314   21001991.1564
     -1977.838       -1541.177
  23796920.224    -2863744.198 8  -2219434.01545  23796921.8004   23796923.9764
      1537.928        1198.386
  24853556.603     -339751.956 8   -246638.01945          .0005   24853557.4154
      3428.030        2671.190
  25090100.430     -510076.538 8   -380992.16845  25090100.4255   25090103.6094
      3997.067        3114.581
  24587341.003     1925736.254 7      6072.58152          .0005           .0005
     -3421.654       -2666.224
  20250742.712   -24536533.923 9 -18826938.65849  20250742.4624   20250743.8744
       381.555         297.307
  22153015.521   -15075806.481 9 -11733474.38247  22153015.2984   22153018.2344
       980.388         763.942
  22540304.093   -12736486.480 9  -9629832.59047  22540303.7224   22540307.7254
      3306.140        2576.220
 03 10 28  1 55  0.0000000  0  8 11 25  4 13 14 20  7  1              .000000626
  21013318.955   -19345414.615 9 -14566555.99848  21013318.4754   21013319.7584
     -1990.881       -1551.332
  23788183.800    -2909669.669 9  -2255220.06745  23788180.2974   23788183.0024
      1523.770        1187.352
  24833991.100     -442573.572 8   -326758.70145  24833990.4504   24833990.6274
      3426.684        2670.148
  25067285.442     -629975.576 8   -474419.94445  25067288.1704   25067286.7624
      3996.279        3113.989
  24606891.275     2028485.41217     86140.19954          .0005           .0005
     -3428.334       -2671.910
  20248604.595   -24547770.602 9 -18835694.50849  20248603.8724   20248605.9544
       367.551         286.404
  22147469.575   -15104952.295 9 -11756185.40847  22147468.5414   22147471.5884
       962.622         750.106
  22521457.525   -12835528.856 9  -9707008.44847  22521457.5384   22521459.5194
      3296.636        2568.798
 03 10 28  1 55 30.0000000  0  8 11 25  4 13 14 20  7  1              .000000625
  21024721.118   -19285493.030 9 -14519863.87948  21024721.2044   21024722.3714
     -2003.893       -1561.474
  23779521.486    -2955168.497 8  -2290673.69245  23779523.0954   23779526.8004
      1509.523        1176.256
  24814432.349     -545356.595 8   -406849.34545  24814434.0544   24814433.1254
      3425.491        2669.206
  25044471.056     -749850.642 8   -567829.06255  25044473.5105   25044476.8045
      3995.409        3113.298
  24626481.610     2131436.26917    166375.99554          .0005           .0005
     -3435.008       -2677.097
  20246546.120   -24558586.403 9 -18844122.41149  20246545.8834   20246547.7324
       353.502         275.455
  22142024.313   -15133563.663 9 -11778479.98547  22142024.5824   22142027.6604
       944.818         736.221
  22502663.920   -12934284.620 9  -9783960.97247  22502664.9044   22502668.2604
      3287.070        2561.363
 03 10 28  1 56  0.0000000  0  8 11 25  4 13 14 20  7  1              .000000625
  21036197.966   -19225181.129 9 -14472867.58948  21036197.8634   21036199.4124
     -2016.939       -1571.644
  23770950.262    -3000238.660 9  -2325793.29745  23770947.7274   23770949.0544
      1495.134        1165.042
  24794880.373     -648099.236 8   -486908.54845  24794880.1724   24794879.9834
      3424.042        2668.082
  25021667.066     -869699.560 8   -661217.81645  25021666.2894   25021669.0984
      3994.631        3112.704
  24646113.928     2234586.22117          .00011          .0001           .0001
     -3441.597            .000
  20244569.185   -24568981.415 9 -18852222.41349  20244568.1174   20244569.4374
       339.453         264.508
  22136682.712   -15161639.426 9 -11800357.19747  22136681.9504   22136684.5794
       926.905         722.261
  22483926.442   -13032751.357 9  -9860688.27147  22483926.5094   22483929.9354
      3277.346        2553.769
 03 10 28  1 56 30.0000000  0  8 11 25  4 13 14 20  7  1              .000000626
  21047750.086   -19164479.615 9 -14425567.72848  21047749.6034   21047750.5824
     -2029.870       -1581.719
  23762452.847    -3044878.585 8  -2360577.63945  23762453.2584   23762456.1194
      1480.800        1153.869
  24775337.142     -750800.282 8   -566935.31445  24775336.0904   24775335.8514
      3422.668        2667.012
  24998863.384     -989520.077 8   -754584.40645  24998863.5754   24998870.1874
      3993.404        3111.740
  24665782.236     2337932.629 7     79944.79043          .0004           .0004
     -3447.964       -2689.163
  20242670.071   -24578955.971 9 -18859994.80049  20242669.6884   20242671.3154
       325.478         253.616
  22131441.337   -15189178.561 9 -11821816.27747  22131441.0924   22131444.6404
       908.992         708.297
  22465244.884   -13130926.610 9  -9937188.45547  22465243.6784   22465247.8904
      3267.616        2546.172
 03 10 28  1 57  0.0000000  0  8 11 25  4 13 14 20  7  1              .000000627
  21059375.358   -19103389.551 9 -14377965.10348  21059374.7624   21059375.5534
     -2042.793       -1591.786
  23754040.804    -3089086.116 8  -2395025.03145  23754040.1584   23754041.9014
      1466.324        1142.592
  24755797.484     -853458.267 8   -646928.53445  24755798.9084   24755803.9134
      3421.156        2665.840
  24976066.730    -1109309.881 8   -847927.09045  24976067.8864   24976072.1204
      3992.409        3110.965
  24685486.892     2441472.990 7    160699.26554          .0004           .0005
     -3454.476       -2694.266
  20240852.060   -24588510.399 9 -18867439.80249  20240851.5994   20240853.2914
       311.487         242.719
  22126303.910   -15216180.128 9 -11842856.45247  22126302.9374   22126306.3794
       891.096         694.354
  22446616.108   -13228808.014 9 -10013459.64247  22446617.0904   22446620.4614
      3257.845        2538.582
 03 10 28  1 57 30.0000000  0  8 11 25  4 13 14 20  7  1              .000000627
  21071072.660   -19041911.889 9 -14330060.45348  21071072.7584   21071074.5974
     -2055.711       -1601.853
  23745711.568    -3132859.055 8  -2429133.78645  23745711.0144   23745714.1024
      1451.853        1131.311
  24736273.493     -956071.814 8   -726887.15845  24736274.6194   24736275.6994
      3419.686        2664.697
  24953280.852    -1229066.879 8   -941244.20345  24953276.7824   24953286.6654
      3991.406        3110.191
  24705222.402     2545204.941 7    241602.95054          .0004           .0005
     -3460.840       -2699.223
  20239113.053   -24597644.908 9 -18874557.60249  20239113.0504   20239115.1584
       297.487         231.807
  22121267.573   -15242643.119 9 -11863476.96647  22121267.5394   22121269.7914
       873.106         680.327
  22428047.846   -13326393.207 9 -10089500.05147  22428049.3314   22428051.9394
      3247.889        2530.822
 03 10 28  1 58  0.0000000  0  8 11 25  4 13 14 20  7  1              .000000628
  21082845.370   -18980047.871 9 -14281854.74448  21082845.0344   21082846.9824
     -2068.564       -1611.866
  23737465.429    -3176195.670 9  -2462902.55045  23737464.8654   23737465.8754
      1437.291        1119.959
  24716758.474    -1058639.496 8   -806810.02245  24716757.6484   24716758.2914
      3418.149        2663.497
  24930496.145    -1348788.613 8  -1034533.90945  24930497.6544   24930498.2084
      3990.099        3109.168
  24724997.514     2649125.45517     74901.10253          .0005           .0005
     -3467.229       -2701.145
  20237455.577   -24606359.835 9 -18881348.47449  20237454.7844   20237456.7244
       283.509         220.915
  22116334.700   -15268566.585 9 -11883677.07347  22116333.9554   22116337.2104
       855.105         666.314
  22409536.450   -13423679.883 9 -10165307.82547  22409535.9604   22409538.8064
      3237.889        2523.019
 03 10 28  1 58 30.0000000  0  8 11 25  4 13 14 20  7  1              .000000628
  21094691.969   -18917798.098 9 -14233348.44348  21094691.7954   21094692.3324
     -2081.421       -1621.887
  23729298.226    -3219093.542 8  -2496329.39845  23729300.1874   23729303.2534
      1422.557        1108.490
  24697246.924    -1161160.212 8   -886696.25145  24697246.6114   24697249.0524
      3416.576        2662.263
  24907721.054    -1468472.673 8  -1127794.12645  24907723.5044   24907725.0424
      3988.803        3108.155
  24744804.007     2753232.15817    156005.72154          .0005           .0005
     -3473.216       -2705.825
  20235876.769   -24614655.189 9 -18887812.38849  20235876.2104   20235878.1874
       269.509         210.007
  22111504.658   -15293949.496 9 -11903455.96647  22111504.2304   22111507.1864
       837.015         652.222
  22391080.694   -13520665.814 9 -10240881.25347  22391079.1024   22391082.7484
      3227.815        2515.176
 03 10 28  1 59  0.0000000  0  8 11 25  4 13 14 20  7  1              .000000620
  21106609.885   -18855163.423 9 -14184542.22148  21106610.0414   21106611.5204
     -2094.222       -1631.862
  23721222.315    -3261551.120 9  -2529413.23745  23721222.8264   23721223.3704
      1407.868        1097.039
  24677746.728    -1263632.112 8   -966544.46245  24677746.2874   24677748.5434
      3414.924        2660.976
  24884954.336    -1588116.937 8  -1221023.38945  24884953.2124   24884956.8714
      3987.439        3107.093
  24764646.403     2857522.14116    237253.14854          .0005           .0005
     -3479.410       -2710.636
  20234378.436   -24622531.279 9 -18893949.59249  20234377.9254   20234379.3714
       255.558         199.132
  22106777.708   -15318791.057 9 -11922813.03147  22106776.7614   22106780.4494
       819.021         638.203
  22372681.467   -13617348.483 9 -10316218.35747  22372680.6124   22372684.1454
      3217.673        2507.265
 03 10 28  1 59 30.0000000  0  8 11 25  4 13 14 20  7  1              .000000621
  21118602.267   -18792145.177 9 -14135437.10848  21118602.2234   21118603.4574
     -2107.010       -1641.828
  23713226.008    -3303566.377 8  -2562152.33045  23713226.0364   23713229.3564
      1393.069        1085.513
  24658254.930    -1366053.880 8  -1046353.62245  24658257.3104   24658258.9604
      3413.198        2659.634
  24862191.553    -1707719.226 8  -1314219.95245  24862195.1444   24862195.9074
      3985.999        3105.969
  24784533.390     2961994.21316     68589.32252          .0005           .0005
     -3485.445       -2715.946
  20232959.114   -24629988.369 9 -18899760.30449  20232958.7454   20232960.8484
       241.582         188.248
  22102152.922   -15343090.366 9 -11941747.56447  22102152.8784   22102156.3774
       800.904         624.090
  22354342.198   -13713725.559 9 -10391317.37947  22354342.1664   22354344.8174
      3207.438        2499.300
 03 10 28  2  0  0.0000000  0  8 11 25  4 13 14 20  7  1              .000000619
  21130666.758   -18728744.104 9 -14086033.69348  21130667.0644   21130668.5944
     -2119.763       -1651.761
  23705313.369    -3345137.724 8  -2594545.51445  23705313.4614   23705316.8184
      1378.255        1073.954
  24638774.642    -1468424.290 8  -1126122.80345  24638776.5654   24638778.3764
      3411.449        2658.272
  24839443.154    -1827277.020 8  -1407381.88845  24839444.5184   24839447.9674
      3984.529        3104.829
  24804445.751     3066644.45117    150140.96954          .0005           .0005
     -3491.502       -2720.851
  20231619.349   -24637026.746 9 -18905244.74749  20231619.0254   20231621.3024
       227.639         177.386
  22097632.767   -15366846.544 9 -11960258.87247  22097631.9264   22097635.2794
       782.817         609.999
  22336060.227   -13809794.753 9 -10466176.46447  22336059.5104   22336064.1384
      3197.171        2491.311
 03 10 28  2  0 30.0000000  0  8 11 25  4 13 14 20  7  1              .000000617
  21142804.991   -18664961.015 9 -14036332.59848  21142804.5244   21142806.1864
     -2132.446       -1661.640
  23697487.187    -3386262.976 8  -2626591.14945  23697490.8004   23697491.5034
      1363.414        1062.400
  24619306.629    -1570741.798 9  -1205850.72545  24619307.5764   24619307.6314
      3409.674        2656.893
  24816701.767    -1946788.048 8  -1500507.34745  24816701.2374   24816703.7444
      3982.947        3103.596
  24824391.734     3171469.82416    231828.96354          .0005           .0005
     -3497.015       -2725.150
  20230359.875   -24643646.699 9 -18910403.15349  20230359.4394   20230361.3674
       213.711         166.532
  22093215.296   -15390058.609 9 -11978346.20247  22093215.5134   22093217.7744
       764.627         595.803
  22317838.590   -13905553.705 9 -10540793.79147  22317837.6324   22317842.1064
      3186.752        2483.205
 03 10 28  2  1  0.0000000  0  8 11 25  4 13 14 20  7  1              .000000626
  21155015.043   -18600796.964 9 -13986334.67548  21155014.8304   21155016.0884
     -2145.136       -1671.543
  23689750.987    -3426940.532 9  -2658287.99945  23689749.6714   23689747.7604
      1348.475        1050.756
  24599845.906    -1673004.763 8  -1285536.13045  24599845.3914   24599848.4654
      3407.863        2655.477
  24793971.004    -2066250.167 8  -1593594.58745  24793970.1304   24793970.9454
      3981.258        3102.276
  24844376.634     3276469.76916     62133.69552          .0005           .0005
     -3502.732       -2729.403
  20229179.540   -24649848.566 9 -18915235.77749  20229179.2404   20229180.9814
       199.783         155.672
  22088902.664   -15412725.779 9 -11996008.93147  22088902.0254   22088904.7174
       746.484         581.673
  22299674.509   -14001000.086 9 -10615167.56847  22299674.5894   22299677.8414
      3176.334        2475.060
 03 10 28  2  1 30.0000000  0  8 11 25  4 13 14 20  7  1              .000000627
  21167296.172   -18536253.245 9 -13936040.88148  21167296.5354   21167298.2924
     -2157.782       -1681.386
  23682093.830    -3467168.172 9  -2689634.18645  23682093.8804   23682097.3304
      1333.416        1039.030
  24580395.314    -1775211.918 8  -1365178.05845  24580397.7984   24580398.8844
      3405.951        2653.989
  24771246.329    -2185661.035 8  -1686642.01145  24771245.8344   24771248.9364
      3979.514        3100.909
  24864385.946     3381640.49316    144169.56754          .0005           .0005
     -3508.722       -2737.151
  20228078.606   -24655632.735 9 -18919742.91649  20228078.5814   20228080.5464
       185.852         144.818
  22084693.727   -15434847.291 9 -12013246.47047  22084692.2954   22084695.2264
       728.293         567.506
  22281571.057   -14096131.764 9 -10689296.12747  22281571.2294   22281575.2164
      3165.781        2466.831
 03 10 28  2  2  0.0000000  0  8 11 25  4 13 14 20  7  1              .000000626
  21179651.869   -18471330.561 9 -13885451.80048  21179651.1344   21179652.6644
     -2170.395       -1691.214
  23674525.906    -3506944.179 9  -2720628.44445  23674525.1354   23674527.1324
      1318.299        1027.243
  24560956.037    -1877361.837 8  -1444775.40545  24560959.5594   24560960.3354
      3404.146        2652.579
  24748533.025    -2305018.638 9  -1779647.97245  24748532.3064   24748534.9124
      3977.629        3099.453
  24884430.328     3486980.42516    226344.85254          .0005           .0005
     -3514.112       -2741.344
  20227058.763   -24660999.260 9 -18923924.60949  20227057.3664   20227059.3694
       171.927         133.968
  22080587.277   -15456422.285 9 -12030058.17347  22080586.6814   22080589.3134
       710.050         553.277
  22263529.386   -14190946.319 9 -10763177.57147  22263528.6874   22263532.6454
      3155.177        2458.584
 03 10 28  2  2 30.0000000  0  7 11 25  4 13 20  7  1                 .000000625
  21192079.049   -18406030.032 9 -13834568.29348  21192077.9884   21192079.0464
     -2182.968       -1701.020
  23667040.406    -3546266.871 9  -2751269.43845  23667041.1964   23667043.8794
      1303.180        1015.464
  24541529.677    -1979452.919 8  -1524326.88045  24541531.1134   24541533.2044
      3402.095        2650.981
  24725830.503    -2424320.056 8  -1872610.06145  24725830.3664   24725832.1574
      3975.815        3098.037
  20226115.803   -24665948.589 9 -18927781.22549  20226115.5954   20226117.2424
       158.031         123.140
  22076585.109   -15477450.035 9 -12046443.42547  22076585.1494   22076587.4394
       691.766         539.039
  22245548.572   -14285441.563 9 -10836810.20747  22245547.3704   22245550.8604
      3144.468        2450.238
 03 10 28  2  3  0.0000000  0  7 11 25  4 13 20  7  1                 .000000625
  21204575.083   -18340352.741 9 -13783391.20748  21204575.2914   21204577.3734
     -2195.533       -1710.803
  23659646.399    -3585134.240 9  -2781555.70345  23659646.4464   23659646.8594
      1287.944        1003.590
  24522115.887    -2081483.734 8  -1603831.36845  24522115.7494   24522117.1274
      3399.977        2649.334
  24703139.247    -2543563.461 9  -1965526.90545  24703140.3774   24703144.0564
      3973.725        3096.412
  20225254.190   -24670480.964 9 -18931312.93349  20225253.3204   20225254.9384
       144.127         112.304
  22072688.948   -15497929.733 9 -12062401.65047  22072688.1424   22072690.6974
       673.504         524.799
  22227626.364   -14379615.138 9 -10910192.18847  22227626.4694   22227629.8954
      3133.705        2441.845
 03 10 28  2  3 30.0000000  0  7 11 25  4 13 20  7  1                 .000000631
  21217144.768   -18274299.453 9 -13731921.12448  21217144.7814   21217146.3634
     -2208.024       -1720.537
  23652333.636    -3623544.589 8  -2811485.85245  23652336.6494   23652338.8454
      1272.737         991.746
  24502711.137    -2183452.651 8  -1683287.66445  24502710.6754   24502713.6444
      3397.896        2647.705
  24680458.412    -2662746.536 8  -2058396.82345  24680458.7104   24680462.6994
      3971.698        3094.829
  20224469.949   -24674596.664 9 -18934519.98249  20224469.7334   20224471.9954
       130.272         101.514
  22068895.934   -15517860.617 9 -12077932.21247  22068894.3174   22068898.2724
       655.212         510.547
  22209768.193   -14473464.767 9 -10983321.75947  22209768.3444   22209770.9834
      3122.884        2433.422
 03 10 28  2  4  0.0000000  0  7 11 25  4 13 20  7  1                 .000000631
  21229785.478   -18207871.448 9 -13680159.06248  21229785.8714   21229787.6274
     -2220.492       -1730.258
  23645114.895    -3661496.072 9  -2841058.40845  23645113.4704   23645115.1424
      1257.365         979.752
  24483319.331    -2285358.483 9  -1762694.79345  24483319.2604   24483321.1224
      3395.767        2646.053
  24657790.457    -2781867.156 8  -2151218.09045  24657793.4654   24657791.3914
      3969.597        3093.187
  20223766.347   -24678296.123 9 -18937402.68549  20223765.9634   20223767.7294
       116.360          90.669
  22065208.262   -15537241.949 9 -12093034.55247  22065207.6084   22065209.7994
       636.863         496.252
  22191972.647   -14566988.218 9 -11056197.13547  22191971.9264   22191974.6804
      3111.995        2424.932
 03 10 28  2  4 30.0000000  0  7 11 25  4 13 20  7  1                 .000000630
  21242498.509   -18141069.619 9 -13628105.71948  21242498.0704   21242500.0014
     -2232.952       -1739.953
  23637977.916    -3698987.099 8  -2870272.17645  23637979.2524   23637981.3724
      1241.994         967.783
  24463937.864    -2387199.539 9  -1842051.47445  24463939.1664   24463940.8314
      3393.606        2644.368
  24635137.096    -2900922.520 8  -2243988.48545  24635135.3344   24635136.3634
      3967.387        3091.463
  20223142.214   -24681579.647 9 -18939961.27749  20223141.6174   20223142.9874
       102.518          79.885
  22061624.300   -15556073.076 9 -12107708.16247  22061623.1124   22061627.0594
       618.508         481.962
  22174236.151   -14660183.230 9 -11128816.59347  22174235.5174   22174239.7944
      3100.992        2416.364
 03 10 28  2  5  0.0000000  0  7 11 25  4 13 20  7  1                 .000000629
  21255280.786   -18073895.071 9 -13575761.93348  21255280.7024   21255282.3494
     -2245.357       -1749.639
  23630933.817    -3736015.883 9  -2899125.72245  23630933.7344   23630936.9514
      1226.559         955.758
  24444571.074    -2488974.350 8  -1921356.54945  24444572.2124   24444574.4134
      3391.453        2642.688
  24612493.325    -3019910.478 8  -2336706.34345  24612494.1274   24612496.3534
      3965.144        3089.720
  20222596.479   -24684447.546 9 -18942196.00249  20222595.4954   20222596.9434
        88.675          69.100
  22058145.662   -15574353.426 9 -12121952.58747  22058144.2974   22058148.3414
       600.149         467.642
  22156563.914   -14753047.688 9 -11201178.49147  22156564.4934   22156569.1434
      3089.929        2407.737
 03 10 28  2  5 30.0000000  0  7 11 25  4 13 20  7  1                 .000000628
  21268134.470   -18006348.838 9 -13523128.51448  21268134.2014   21268136.0004
     -2257.732       -1759.268
  23623975.349    -3772580.566 9  -2927617.70446  23623975.2364   23623977.9054
      1211.080         943.694
  24425218.457    -2590681.263 9  -2000608.66645  24425218.5084   24425220.3554
      3389.121        2640.873
  24589859.994    -3138828.856 8  -2429369.95445  24589861.3614   24589866.3134
      3962.719        3087.828
  20222129.250   -24686900.060 9 -18944107.04849  20222128.9034   20222130.1234
        74.854          58.329
  22054771.242   -15592082.116 9 -12135767.15247  22054770.7304   22054774.0444
       581.738         453.300
  22138958.066   -14845579.119 9 -11273280.88547  22138957.1314   22138960.5924
      3078.816        2399.077
 03 10 28  2  6  0.0000000  0  7 11 25  4 13 20  7  1                 .000000629
  21281059.248   -17938432.083 9 -13470206.38448  21281058.7734   21281060.1234
     -2270.057       -1768.878
  23617106.335    -3808679.729 9  -2955746.88445  23617106.4024   23617107.5514
      1195.506         931.559
  24405876.768    -2692319.029 8  -2079806.91545  24405877.5984   24405878.3304
      3386.728        2639.004
  24567247.272    -3257675.174 8  -2521977.46345  24567245.9264   24567250.6084
      3960.256        3085.910
  20221741.517   -24688937.863 9 -18945694.95049  20221740.8714   20221742.4784
        61.013          47.541
  22051503.414   -15609258.587 9 -12149151.41747  22051503.0754   22051505.2774
       563.331         438.965
  22121414.044   -14937775.431 9 -11345122.12847  22121412.3904   22121415.4114
      3067.603        2390.325
 03 10 28  2  6 30.0000000  0  7 11 25  4 13 20  7  1                 .000000628
  21294053.555   -17870145.942 9 -13416996.41748  21294053.4964   21294054.7394
     -2282.348       -1778.459
  23610323.759    -3844311.586 8  -2983511.94645  23610324.8474   23610326.0414
      1179.925         919.414
  24386549.778    -2793885.742 9  -2158949.78445  24386549.3724   24386551.8194
      3384.364        2637.166
  24544644.160    -3376447.192 8  -2614527.11645  24544646.1084   24544650.9454
      3957.805        3084.002
  20221432.583   -24690561.109 9 -18946959.82049  20221432.3774   20221433.6204
        47.216          36.787
  22048340.375   -15625882.256 9 -12162104.93647  22048339.5864   22048342.2914
       544.923         424.615
  22103932.583   -15029634.196 9 -11416700.36647  22103932.3824   22103935.9264
      3056.322        2381.548
 03 10 28  2  7  0.0000000  0  7 11 25  4 13 20  7  1                 .000000627
  21307117.551   -17801491.370 9 -13363499.36648  21307117.5204   21307119.0184
     -2294.621       -1788.018
  23603634.845    -3879474.320 9  -3010911.48146  23603634.5114   23603635.7984
      1164.210         907.172
  24367236.559    -2895379.942 9  -2238036.17845  24367236.3304   24367237.3994
      3381.946        2635.287
  24522054.883    -3495142.960 8  -2707017.20845  24522055.6284   24522060.8644
      3955.271        3082.026
  20221202.552   -24691770.065 9 -18947901.86549  20221201.8624   20221203.6974
        33.391          26.020
  22045281.633   -15641952.556 9 -12174627.24847  22045281.5774   22045284.5684
       526.462         410.225
  22086516.790   -15121153.320 9 -11488013.96547  22086517.6344   22086520.1544
      3044.957        2372.697
 03 10 28  2  7 30.0000000  0  7 11 25  4 13 20  7  1                 .000000627
  21320251.072   -17732469.661 9 -13309716.22548  21320251.0264   21320253.7144
     -2306.825       -1797.529
  23597032.239    -3914166.503 9  -3037944.32846  23597032.5584   23597035.3884
      1148.546         894.959
  24347934.973    -2996800.401 9  -2317065.09345  24347935.9114   24347937.7934
      3379.449        2633.334
  24499486.046    -3613759.720 8  -2799445.82545  24499488.1894   24499492.2584
      3952.572        3079.929
  20221051.512   -24692565.150 9 -18948521.41449  20221050.7784   20221052.2004
        19.609          15.275
  22042329.077   -15657468.789 9 -12186717.82547  22042328.7924   22042331.4064
       507.946         395.792
  22069167.439   -15212330.559 9 -11559061.13347  22069166.0404   22069169.4374
      3033.498        2363.765
 03 10 28  2  8  0.0000000  0  7 11 25  4 13 20  7  1                 .000000627
  21333456.414   -17663081.719 9 -13255647.71848  21333456.2534   21333457.7364
     -2319.024       -1807.030
  23590521.146    -3948386.684 9  -3064609.34946  23590520.2924   23590522.0874
      1132.738         882.650
  24328651.481    -3098145.607 9  -2396035.38445  24328651.1114   24328652.9964
      3376.884        2631.334
  24476929.653    -3732295.317 8  -2891811.33745  24476931.3754   24476933.5424
      3949.812        3077.785
  20220979.028   -24692946.705 9 -18948818.73449  20220978.3714   20220979.8154
         5.828           4.542
  22039482.546   -15672430.560 9 -12198376.35147  22039481.6904   22039484.2164
       489.467         381.405
  22051880.348   -15303163.677 9 -11629840.15847  22051880.5684   22051883.6154
      3022.020        2354.831
 03 10 28  2  8 30.0000000  0  7 11 25  4 13 20  7  1                 .000000627
  21346730.972   -17593328.615 9 -13201294.66848  21346729.9844   21346731.5214
     -2331.180       -1816.504
  23584098.837    -3982132.473 9  -3090904.76146  23584099.6444   23584102.1614
      1116.942         870.342
  24309379.275    -3199413.561 9  -2474945.47445  24309380.1054   24309381.0654
      3374.293        2629.318
  24454388.672    -3850747.660 8  -2984111.77645  24454390.5384   24454392.5004
      3947.024        3075.592
  20220984.181   -24692915.227 9 -18948794.19449  20220983.9054   20220985.8214
        -7.942          -6.195
  22036740.219   -15686837.208 9 -12209602.31847  22036740.2954   22036742.8694
       470.942         366.966
  22034662.454   -15393650.592 9 -11700349.41847  22034662.0804   22034665.1444
      3010.410        2345.785
 03 10 28  2  9  0.0000000  0  7 11 25  4 13 20  7  1                 .000000628
  21360072.056   -17523211.490 9 -13146657.96148  21360072.3474   21360074.2134
     -2343.307       -1825.950
  23577767.863    -4015402.716 9  -3116829.60546  23577767.3744   23577769.7464
      1101.058         857.966
  24290124.302    -3300603.049 9  -2553794.43445  24290125.1424   24290126.6294
      3371.649        2627.260
  24431869.845    -3969114.093 9  -3076345.28445  24431867.1554   24431871.3564
      3944.116        3073.345
  20221068.747   -24692470.967 9 -18948448.02949  20221068.4324   20221070.5294
       -21.677         -16.888
  22034105.061   -15700688.354 9 -12220395.41547  22034104.4094   22034106.7324
       452.438         352.554
  22017509.292   -15483788.946 9 -11770587.05947  22017509.8844   22017512.4774
      2998.748        2336.680
 03 10 28  2  9 30.0000000  0  7 11 25  4 13 20  7  1                 .000000628
  21373483.887   -17452731.485 9 -13091738.48048  21373484.0944   21373485.9284
     -2355.362       -1835.354
  23571527.099    -4048195.943 9  -3142382.72846  23571526.7924   23571528.8714
      1085.150         845.572
  24270884.687    -3401712.197 9  -2632580.78245  24270883.9524   24270885.7214
      3369.047        2625.235
  24409355.032    -4087392.288 8  -3168510.20045  24409357.4394   24409356.6674
      3941.082        3070.973
  20221232.475   -24691614.414 9 -18947780.59949  20221231.8244   20221233.6864
       -35.404         -27.591
  22031574.592   -15713983.343 9 -12230755.14247  22031574.3934   22031577.5544
       433.882         338.096
  22000423.212   -15573576.617 9 -11840551.45147  22000422.8044   22000426.7724
      2987.060        2327.581
 03 10 28  2 10  0.0000000  0  7 11 25  4 13 20  7  1                 .000000628
  21386965.266   -17381889.905 9 -13036537.27848  21386965.1264   21386966.8434
     -2367.405       -1844.728
  23565379.421    -4080510.409 9  -3167562.81546  23565378.0904   23565380.6974
      1069.163         833.117
  24251657.440    -3502739.788 9  -2711303.54245  24251658.9044   24251661.2184
      3366.238        2623.044
  24386866.760    -4205580.285 9  -3260604.65745  24386870.0714   24386869.6904
      3938.045        3068.606
  20221473.192   -24690345.924 9 -18946792.16849  20221473.0604   20221474.6694
       -49.138         -38.290
  22029150.567   -15726721.761 9 -12240681.18747  22029149.9714   22029153.1284
       415.324         323.629
  21983403.710   -15663011.516 9 -11910240.96347  21983403.7094   21983407.4544
      2975.227        2318.349
 03 10 28  2 10 30.0000000  0  7 11 25  4 13 20  7  1                 .000000628
  21400515.191   -17310687.836 9 -12981055.17148  21400515.0174   21400515.9414
     -2379.411       -1854.085
  23559320.942    -4112344.694 9  -3192368.73046  23559320.8004   23559321.5704
      1053.114         820.604
  24232448.589    -3603684.049 9  -2789961.43345  24232449.6204   24232452.8584
      3363.431        2620.859
  24364393.432    -4323675.446 8  -3352626.85045  24364397.2064   24364396.8734
      3934.885        3066.146
  20221793.216   -24688665.828 9 -18945483.00649  20221792.9624   20221794.5374
       -62.840         -48.963
  22026833.504   -15738903.080 9 -12250173.12847  22026832.2714   22026834.4594
       396.770         309.168
  21966453.248   -15752091.477 9 -11979653.90547  21966452.8014   21966456.1994
      2963.376        2309.124
 03 10 28  2 11  0.0000000  0  7 11 25  4 13 20  7  1                 .000000627
  21414132.236   -17239126.331 9 -12925292.96648  21414132.2204   21414133.9584
     -2391.376       -1863.409
  23553351.058    -4143697.331 9  -3216799.30346  23553354.2964   23553355.0014
      1037.022         808.053
  24213258.643    -3704543.372 9  -2868553.10245  24213257.2634   24213258.5354
      3360.597        2618.645
  24341939.100    -4441675.594 8  -3444575.03045  24341941.0834   24341940.8224
      3931.843        3063.783
  20222191.326   -24686574.548 9 -18943853.42649  20222190.4724   20222192.5604
       -76.565         -59.665
  22024621.441   -15750526.994 9 -12259230.72347  22024620.2084   22024623.0504
       378.138         294.660
  21949570.258   -15840814.393 9 -12048788.61547  21949569.0014   21949572.6164
      2951.474        2299.852
 03 10 28  2 11 30.0000000  0  7 11 25  4 13 20  7  1                 .000000627
  21427818.224   -17167206.605 9 -12869251.64148  21427817.9504   21427819.6584
     -2403.276       -1872.687
  23547479.692    -4174566.703 9  -3240853.31646  23547479.7824   23547482.1634
      1020.916         795.516
  24194082.663    -3805316.348 9  -2947077.50545  24194081.1874   24194083.2094
      3357.662        2616.360
  24319505.106    -4559578.341 9  -3536447.29045  24319505.2054   24319505.8134
      3928.483        3061.157
  20222667.603   -24684072.652 9 -18941903.89649  20222667.0714   20222668.5084
       -90.227         -70.310
  22022515.390   -15761593.115 9 -12267853.67747  22022514.3484   22022516.9704
       359.551         280.156
  21932754.273   -15929178.067 9 -12117643.39047  21932753.8064   21932757.8134
      2939.450        2290.475
 03 10 28  2 12  0.0000000  0  7 11 25  4 13 20  7  1                 .000000628
  21441572.139   -17094929.684 9 -12812931.97848  21441572.1364   21441573.7174
     -2415.154       -1881.934
  23541698.422    -4204951.345 9  -3264529.66446  23541697.4294   23541698.9934
      1004.749         782.918
  24174919.587    -3906000.886 9  -3025533.00145  24174920.9154   24174924.0634
      3354.713        2614.060
  24297088.092    -4677381.652 8  -3628242.07445  24297087.6764   24297088.5434
      3925.065        3058.491
  20223221.729   -24681160.565 9 -18939634.73949  20223221.0844   20223223.0354
      -103.887         -80.951
  22020515.150   -15772100.960 9 -12276041.61047  22020515.1384   22020517.7404
       340.962         265.697
  21916006.916   -16017180.284 9 -12186216.52447  21916007.5854   21916011.3034
      2927.367        2281.079
 03 10 28  2 12 30.0000000  0  7 11 25  4 13 20  7  1                 .000000628
  21455394.225   -17022296.830 9 -12756334.98548  21455393.9974   21455395.3124
     -2427.003       -1891.169
  23536008.619    -4234849.780 9  -3287827.11346  23536007.5264   23536010.0734
       988.520         770.274
  24155778.474    -4006595.853 9  -3103918.68845  24155779.3864   24155780.0464
      3351.679        2611.704
  24274689.355    -4795083.138 9  -3719957.44545  24274688.0734   24274690.6894
      3921.686        3055.853
  20223853.815   -24677838.655 9 -18937046.25749  20223853.2564   20223854.9054
      -117.551         -91.598
  22018622.581   -15782050.205 9 -12283794.28447  22018621.9344   22018624.4054
       322.337         251.173
  21899332.132   -16104819.001 9 -12254506.41747  21899330.8484   21899334.1034
      2915.208        2271.589
 03 10 28  2 13  0.0000000  0  7 11 25  4 13 20  7  1                 .000000628
  21469282.261   -16949309.442 9 -12699461.70648  21469282.3754   21469284.0974
     -2438.811       -1900.376
  23530410.423    -4264260.582 9  -3310744.60046  23530411.7434   23530414.1224
       972.181         757.531
  24136652.528    -4107099.591 9  -3182233.25645  24136654.0704   24136655.3984
      3348.604        2609.300
  24252313.252    -4912680.178 9  -3811591.54845  24252312.6734   24252313.6964
      3918.137        3053.093
  20224563.391   -24674107.206 9 -18934138.62849  20224563.1954   20224564.7214
      -131.219        -102.247
  22016835.073   -15791440.489 9 -12291111.38347  22016834.9674   22016837.6674
       303.671         236.639
  21882723.287   -16192092.019 9 -12322511.33647  21882722.9124   21882726.7154
      2902.970        2262.067
 03 10 28  2 13 30.0000000  0  7 11 25  4 13 20  7  1                 .000000627
  21483238.622   -16875968.575 9 -12642312.98948  21483238.1654   21483240.1494
     -2450.580       -1909.545
  23524907.897    -4293182.345 9  -3333281.01746  23524909.6964   23524910.1604
       955.904         744.863
  24117545.028    -4207510.343 9  -3260475.42245  24117546.2224   24117548.4004
      3345.457        2606.852
  24229953.368    -5030170.434 8  -3903142.38945  24229953.9744   24229955.6204
      3914.523        3050.278
  20225351.723   -24669966.660 9 -18930912.23249  20225350.9884   20225352.9174
      -144.838        -112.866
  22015155.043   -15800271.523 9 -12297992.71547  22015154.7954   22015156.9134
       285.036         222.103
  21866184.719   -16278997.314 9 -12390229.72247  21866185.7774   21866189.0804
      2890.686        2252.489
 03 10 28  2 14  0.0000000  0  7 11 25  4 13 20  7  1                 .000000628
  21497263.009   -16802275.275 9 -12584889.66948  21497262.5394   21497263.5154
     -2462.301       -1918.673
  23519498.394    -4321613.517 9  -3355435.16146  23519497.7874   23519498.7694
       939.497         732.076
  24098456.590    -4307826.461 9  -3338643.83845  24098456.1974   24098458.5084
      3342.305        2604.392
  24207618.210    -5147551.911 9  -3994608.34545  24207616.9774   24207618.4684
      3910.871        3047.431
  20226216.740   -24665417.532 9 -18927367.44949  20226216.4784   20226218.3664
      -158.452        -123.467
  22013580.583   -15808543.080 9 -12304438.08947  22013580.3684   22013583.2554
       266.386         207.587
  21849718.512   -16365532.727 9 -12457659.89247  21849718.1324   21849721.8774
      2878.330        2242.852
 03 10 28  2 14 30.0000000  0  7 11 25  4 13 20  7  1                 .000000629
  21511352.911   -16728230.815 9 -12527192.70948  21511352.7054   21511353.7054
     -2474.001       -1927.796
  23514180.619    -4349552.840 9  -3377206.05446  23514180.7674   23514182.5354
       923.112         719.299
  24079386.892    -4408046.353 9  -3416737.24146  24079385.7024   24079387.2594
      3339.063        2601.873
  24185302.925    -5264822.285 9  -4085987.88545  24185303.3654   24185303.6574
      3907.119        3044.512
  20227160.479   -24660460.436 9 -18923504.80049  20227159.7194   20227161.7054
      -172.031        -134.056
  22012113.193   -15816254.705 9 -12310447.13847  22012112.8584   22012115.6194
       247.729         193.028
  21833323.029   -16451696.125 9 -12524800.19347  21833321.4634   21833325.1684
      2865.894        2233.160
 03 10 28  2 15  0.0000000  0  7 11 25  4 13 20  7  1                 .000000629
  21525507.936   -16653836.454 9 -12469223.09248  21525508.3444   21525510.6824
     -2485.633       -1936.852
  23508957.144    -4376999.035 9  -3398592.66146  23508959.0634   23508960.5914
       906.668         706.500
  24060331.693    -4508168.295 9  -3494754.32645  24060332.5354   24060335.1624
      3335.719        2599.259
  24163003.926    -5381979.108 8  -4177278.92945  24163005.2324   24163009.2744
      3903.294        3041.522
  20228181.526   -24655095.609 9 -18919324.43249  20228181.3654   20228182.7384
      -185.628        -144.648
  22010753.142   -15823406.275 9 -12316019.79647  22010752.4894   22010754.8184
       229.031         178.471
  21816996.517   -16537485.421 9 -12591648.96047  21816996.7314   21817000.6944
      2853.370        2223.401
 03 10 28  2 15 30.0000000  0  7 11 25  4 13 20  7  1                 .000000627
  21539731.403   -16579093.593 9 -12410981.93048  21539731.8324   21539733.8504
     -2497.247       -1945.908
  23503829.560    -4403950.398 9  -3419593.70046  23503829.8194   23503831.6494
       890.091         693.580
  24041297.637    -4608190.899 9  -3572694.01046  24041298.4924   24041301.0524
      3332.381        2596.655
  24140732.217    -5499020.147 9  -4268479.64245  24140733.9384   24140737.9664
      3899.430        3038.512
  20229280.243   -24649323.495 9 -18914826.68649  20229279.6464   20229280.7264
      -199.208        -155.228
  22009498.259   -15829997.580 9 -12321155.87447  22009497.7514   22009500.8704
       210.321         163.872
  21800743.799   -16622898.620 9 -12658204.67547  21800743.7934   21800747.3664
      2840.773        2213.581
 03 10 28  2 16  0.0000000  0  7 11 25  4 13 20  7  1                 .000000626
  21554022.370   -16504003.486 9 -12352470.19148  21554021.6414   21554023.0664
     -2508.757       -1954.872
  23498794.917    -4430405.791 9  -3440208.26346  23498795.1694   23498796.2464
       873.598         680.715
  24022284.056    -4708112.143 9  -3650554.71345  24022284.2294   24022285.7124
      3329.080        2594.094
  24118480.906    -5615943.346 8  -4359588.63645  24118483.0154   24118486.3784
      3895.461        3035.419
  20230456.113   -24643144.660 9 -18910012.01649  20230455.1824   20230456.7014
      -212.711        -165.755
  22008350.791   -15836028.223 9 -12325855.08547  22008350.2124   22008353.2434
       191.700         149.381
  21784563.192   -16707933.745 9 -12724465.78747  21784562.4564   21784565.6224
      2828.208        2203.800
 03 10 28  2 16 30.0000000  0  7 11 25  4 13 20  7  1                 .000000626
  21568377.658   -16428567.044 9 -12293688.58648  21568377.1014   21568378.1474
     -2520.330       -1963.900
  23493854.998    -4456363.876 9  -3460435.32646  23493854.6934   23493857.1744
       856.967         667.758
  24003290.427    -4807930.663 9  -3728335.37545  24003290.4824   24003290.9514
      3325.515        2591.306
  24096255.246    -5732746.012 8  -4450603.70145  24096258.2294   24096258.2794
      3891.351        3032.227
  20231708.084   -24636559.776 9 -18904880.94049  20231707.9864   20231709.9034
      -226.273        -176.314
  22007309.539   -15841498.221 9 -12330117.41847  22007309.4264   22007312.2624
       172.989         134.800
  21768451.343   -16792588.600 9 -12790430.60447  21768452.1114   21768455.5324
      2815.468        2193.867
 03 10 28  2 17  0.0000000  0  7 11 25  4 13 20  7  1                 .000000626
  21582797.110   -16352785.719 9 -12234638.21948  21582796.9354   21582798.5994
     -2531.778       -1972.816
  23489010.116    -4481823.358 9  -3480273.88046  23489010.7774   23489013.5274
       840.338         654.805
  23984316.201    -4907644.597 9  -3806034.56445  23984315.1604   23984317.0554
      3322.064        2588.633
  24074053.509    -5849425.772 9  -4541522.96445  24074052.6774   24074058.2454
      3887.222        3029.005
  20233038.667   -24629568.875 9 -18899433.48249  20233038.5524   20233040.1564
      -239.779        -186.840
  22006375.410   -15846407.232 9 -12333942.63347  22006375.1764   22006377.7374
       154.302         120.247
  21752415.181   -16876861.297 9 -12856097.61347  21752415.4554   21752419.5264
      2802.685        2183.909
 03 10 28  2 17 30.0000000  0  7 11 25  4 13 20  7  1                 .000000627
  21597282.813   -16276660.744 9 -12175320.07748  21597283.2174   21597284.9434
     -2543.206       -1981.717
  23484261.299    -4506783.161 9  -3499723.05746  23484260.9724   23484263.1314
       823.661         641.826
  23965358.087    -5007252.478 9  -3883651.05845  23965359.0414   23965362.5474
      3318.463        2585.805
  24051874.085    -5965980.415 8  -4632344.73345  24051875.3284   24051878.5204
      3883.019        3025.722
  20234446.418   -24622172.620 9 -18893670.16449  20234445.7744   20234447.8424
      -253.280        -197.355
  22005547.786   -15850755.374 9 -12337330.78547  22005547.4104   22005550.4014
       135.582         105.646
  21736452.874   -16960749.731 9 -12921465.20248  21736452.7274   21736456.1954
      2789.866        2173.933
 03 10 28  2 18  0.0000000  0  7 11 25  4 13 20  7  1                 .000000625
  21611836.055   -16200193.029 9 -12115734.87448  21611835.1844   21611836.2944
     -2554.627       -1990.636
  23479607.251    -4531241.888 9  -3518781.78346  23479606.7754   23479608.9654
       806.884         628.751
  23946424.330    -5106752.393 9  -3961183.47246  23946426.1804   23946427.5254
      3314.910        2583.048
  24029717.705    -6082407.673 9  -4723067.22645  24029718.3924   24029721.6614
      3878.767        3022.421
  20235931.345   -24614371.527 9 -18887591.39649  20235930.6844   20235932.4424
      -266.778        -207.884
  22004826.269   -15854542.289 9 -12340281.64447  22004826.7684   22004830.0724
       116.882          91.066
  21720562.076   -17044251.889 9 -12986531.80048  21720562.4844   21720565.5974
      2776.970        2163.877
 03 10 28  2 18 30.0000000  0  7 11 25  4 13 20  7  1                 .000000626
  21626450.911   -16123384.286 9 -12055883.92848  21626450.7774   21626452.6354
     -2565.959       -1999.454
  23475047.104    -4555198.228 9  -3537449.04046  23475048.3944   23475049.5004
       790.161         615.715
  23927511.695    -5206142.667 9  -4038630.43146  23927512.3944   23927514.5244
      3311.186        2580.143
  24007590.908    -6198705.241 9  -4813688.76845  24007588.4024   24007591.2404
      3874.392        3019.009
  20237493.070   -24606165.959 9 -18881197.44449  20237492.3654   20237493.7314
      -280.261        -218.383
  22004212.962   -15857767.955 9 -12342795.15147  22004213.3784   22004215.9264
        98.179          76.498
  21704745.889   -17127365.799 9 -13051295.86647  21704745.9324   21704749.7994
      2763.966        2153.733
 03 10 28  2 19  0.0000000  0  7 11 25  4 13 20  7  1                 .000000625
  21641131.899   -16046235.761 9 -11995768.22548  21641131.6294   21641133.5424
     -2577.259       -2008.254
  23470584.997    -4578651.159 9  -3555724.04846  23470584.9624   23470586.4964
       773.378         602.633
  23908621.836    -5305421.624 9  -4115990.64946  23908621.1744   23908622.6864
      3307.449        2577.237
  23985482.357    -6314870.857 9  -4904207.37545  23985481.8744   23985485.8054
      3869.955        3015.545
  20239131.264   -24597556.561 9 -18874488.81649  20239130.5304   20239131.7284
      -293.686        -228.847
  22003706.620   -15860432.354 9 -12344871.31147  22003706.2074   22003709.2314
        79.466          61.917
  21689004.818   -17210089.411 9 -13115755.79648  21689004.6674   21689008.2224
      2750.932        2143.581
 03 10 28  2 19 30.0000000  0  7 11 25  4 13 20  7  1                 .000000626
  21655877.536   -15968748.570 9 -11935388.61948  21655877.3924   21655878.5584
     -2588.562       -2017.060
  23466218.207    -4601599.004 9  -3573605.44846  23466217.1954   23466219.3304
       756.514         589.496
  23889750.286    -5404587.555 9  -4193262.81646  23889749.7964   23889751.2774
      3303.624        2574.247
  23963402.803    -6430902.195 9  -4994621.35145  23963403.9174   23963405.1874
      3865.395        3011.997
  20240845.419   -24588543.870 9 -18867465.93449  20240844.9814   20240846.8604
      -307.133        -239.322
  22003306.553   -15862535.291 9 -12346509.96847  22003306.1204   22003308.4414
        60.734          47.319
  21673337.041   -17292420.764 9 -13179910.07848  21673337.4714   21673340.5234
      2737.806        2133.355
 03 10 28  2 20  0.0000000  0  7 11 25  4 13 20  7  1                 .000000627
  21670688.046   -15890923.971 9 -11874746.09648  21670687.0074   21670688.3454
     -2599.770       -2025.795
  23461949.048    -4624040.638 9  -3591092.43246  23461948.5364   23461949.4714
       739.611         576.316
  23870900.700    -5503638.880 9  -4270445.65146  23870900.1524   23870903.1474
      3299.799        2571.278
  23941350.956    -6546796.947 9  -5084929.01045  23941349.7474   23941351.1754
      3860.878        3008.481
  20242637.520   -24579128.357 9 -18860129.17949  20242636.9234   20242638.8404
      -320.576        -249.802
  22003013.389   -15864076.785 9 -12347711.13647  22003012.8574   22003015.6434
        42.006          32.719
  21657746.506   -17374357.918 9 -13243757.18848  21657745.5074   21657748.5074
      2724.633        2123.095
 03 10 28  2 20 30.0000000  0  7 11 25  4 13 20  7  1                 .000000627
  21685560.417   -15812763.427 9 -11813841.80948  21685560.5244   21685562.1434
     -2610.950       -2034.505
  23457772.580    -4645975.092 9  -3608184.19346  23457772.6564   23457775.7234
       722.678         563.114
  23852074.271    -5602573.922 9  -4347537.86846  23852073.6814   23852076.4794
      3295.883        2568.223
  23919323.556    -6662552.778 9  -5175128.30645  23919322.5264   23919325.3734
      3856.177        3004.814
  20244506.220   -24569310.551 9 -18852478.96349  20244505.5724   20244507.1694
      -333.964        -260.228
  22002826.733   -15865056.896 9 -12348474.86947  22002826.0704   22002828.8194
        23.298          18.160
  21642229.358   -17455898.735 9 -13307295.47048  21642228.8954   21642231.6874
      2711.386        2112.774
 03 10 28  2 21  0.0000000  0  7 11 25  4 13 20  7  1                 .000000627
  21700496.252   -15734268.463 9 -11752676.91848  21700497.1294   21700499.0374
     -2622.073       -2043.168
  23453695.662    -4667401.260 9  -3624879.89546  23453696.3454   23453697.4524
       705.759         549.942
  23833268.425    -5701390.672 9  -4424537.96846  23833270.2504   23833270.9694
      3291.925        2565.146
  23897322.483    -6778167.183 9  -5265217.39146  23897320.8854   23897323.7284
      3851.425        3001.111
  20246450.832   -24559090.984 9 -18844515.65749  20246450.0364   20246451.9844
      -347.344        -270.653
  22002746.779   -15865475.541 9 -12348801.08047  22002746.2764   22002749.2204
         4.600           3.590
  21626787.127   -17537041.243 9 -13370523.37248  21626787.5954   21626790.8454
      2698.094        2102.416
 03 10 28  2 21 30.0000000  0  7 11 25  4 13 20  7  1                 .000000627
  21715498.001   -15655440.029 9 -11691252.17848  21715498.0234   21715499.7994
     -2633.161       -2051.811
  23449715.820    -4688318.022 9  -3641178.66546  23449716.0974   23449717.6464
       688.678         536.628
  23814488.968    -5800087.653 9  -4501444.69346  23814488.6924   23814489.2354
      3287.877        2561.990
  23875349.081    -6893638.218 9  -5355194.83945  23875347.7454   23875348.8144
      3846.622        2997.383
  20248471.300   -24548469.964 9 -18836239.53549  20248470.7844   20248472.8734
      -360.737        -281.096
  22002774.070   -15865332.778 9 -12348689.84147  22002772.4664   22002776.6164
       -14.114         -10.993
  21611423.853   -17617783.584 9 -13433439.45248  21611422.8614   21611426.2534
      2684.729        2091.992
 03 10 28  2 22  0.0000000  0  7 11 25  4 13 20  7  1                 .000000628
  21730562.215   -15576279.442 9 -11629568.61848  21730561.9264   21730563.5224
     -2644.226       -2060.432
  23445834.474    -4708724.224 9  -3657079.59946  23445832.4704   23445835.3894
       671.686         523.386
  23795730.364    -5898662.918 9  -4578256.59546  23795730.2104   23795731.6494
      3283.785        2558.800
  23853400.890    -7008963.408 9  -5445058.59445  23853400.5784   23853404.2954
      3841.746        2993.576
  20250568.610   -24537448.149 9 -18827651.11549  20250568.5544   20250570.4694
      -374.072        -291.481
  22002908.562   -15864628.646 9 -12348141.17347  22002907.7474   22002909.9304
       -32.830         -25.589
  21596134.758   -17698123.700 9 -13496042.11648  21596134.2414   21596138.0134
      2671.265        2081.510
 03 10 28  2 22 30.0000000  0  7 11 25  4 13 20  7  1                 .000000628
  21745689.269   -15496788.247 9 -11567627.45948  21745688.8204   21745690.2594
     -2655.215       -2068.989
  23442045.384    -4728618.704 9  -3672581.78146  23442046.0014   23442048.8754
       654.577         510.074
  23776995.374    -5997114.888 9  -4654972.37446  23776996.6844   23776997.7174
      3279.629        2555.565
  23831484.014    -7124140.462 9  -5534806.90446  23831484.3344   23831488.3004
      3836.730        2989.666
  20252742.696   -24526026.021 9 -18818750.75849  20252741.9994   20252743.7434
      -387.413        -301.874
  22003148.646   -15863363.362 9 -12347155.24747  22003148.4934   22003151.6444
       -51.553         -40.155
  21580922.594   -17778059.871 9 -13558330.02148  21580922.9034   21580926.8314
      2657.767        2070.997
 03 10 28  2 23  0.0000000  0  7 11 25  4 13 20  7  1                 .000000627
  21760876.987   -15416967.740 9 -11505429.68148  21760877.4314   21760879.3884
     -2666.171       -2077.541
  23438358.750    -4748000.351 9  -3687684.32946  23438359.3004   23438361.1424
       637.517         496.759
  23758284.886    -6095441.829 9  -4731590.79246  23758283.6144   23758284.9504
      3275.458        2552.305
  23809594.929    -7239167.092 9  -5624438.03145  23809594.2944   23809597.9254
      3831.675        2985.720
  20254992.146   -24514204.145 9 -18809538.90749  20254991.7574   20254993.3524
      -400.715        -312.243
  22003496.879   -15861536.815 9 -12345731.97747  22003496.3104   22003498.7044
       -70.276         -54.765
  21565789.278   -17857590.265 9 -13620301.74248  21565788.8134   21565792.7734
      2644.200        2060.421
 03 10 28  2 23 30.0000000  0  7 11 25  4 13 20  7  1                 .000000627
  21776130.029   -15336819.070 9 -11442976.19048  21776129.6664   21776131.6034
     -2677.053       -2086.025
  23434768.848    -4766868.371 9  -3702386.67146  23434768.3744   23434769.9694
       620.357         483.397
  23739597.143    -6193641.879 9  -4808110.29846  23739597.8974   23739598.2224
      3271.229        2549.001
  23787735.137    -7354040.936 9  -5713950.10245  23787736.0404   23787738.4404
      3826.596        2981.763
  20257318.018   -24501983.226 9 -18800016.11849  20257317.2014   20257319.2854
      -414.008        -322.605
  22003950.402   -15859149.209 9 -12343871.50147  22003950.3284   22003952.9394
       -88.919         -69.282
  21550733.241   -17936712.925 9 -13681955.73748  21550732.8524   21550736.1214
      2630.643        2049.841
 03 10 28  2 24  0.0000000  0  7 11 25  4 13 20  7  1                 .000000627
  21791443.582   -15256343.804 9 -11380268.21848  21791443.5914   21791445.2434
     -2687.955       -2094.510
  23431276.189    -4785221.614 9  -3716687.88846  23431275.0394   23431277.7724
       603.176         470.023
  23720934.776    -6291713.228 9  -4884529.55146  23720935.9694   23720936.2144
      3266.887        2545.630
  23765902.642    -7468759.856 9  -5803341.42846  23765904.3844   23765908.2204
      3821.316        2977.641
  20259718.927   -24489363.486 9 -18790182.57449  20259718.8604   20259720.5764
      -427.291        -332.960
  22004511.961   -15856200.744 9 -12341573.99247  22004510.7884   22004514.4794
      -107.611         -83.865
  21535753.530   -18015425.882 9 -13743290.50048  21535754.1434   21535757.5564
      2616.919        2039.162
 03 10 28  2 24 30.0000000  0  7 11 25  4 13 20  7  1                 .000000625
  21806820.211   -15175543.378 9 -11317306.87647  21806819.7594   21806821.1074
     -2698.755       -2102.934
  23427880.546    -4803059.176 9  -3730587.27146  23427880.9224   23427882.4714
       586.020         456.635
  23702296.427    -6389654.282 9  -4960847.23446  23702296.7964   23702298.8004
      3262.528        2542.224
  23744102.748    -7583321.409 9  -5892610.13345  23744105.0334   23744106.9794
      3816.111        2973.586
  20262197.302   -24476345.666 9 -18780038.81849  20262196.6304   20262197.8934
      -440.540        -343.278
  22005179.230   -15852691.420 9 -12338839.47247  22005179.5424   22005182.2194
      -126.294         -98.415
  21520854.479   -18093727.303 9 -13804304.57548  21520853.6634   21520857.4204
      2603.169        2028.443
 03 10 28  2 25  0.0000000  0  7 11 25  4 13 20  7  1                 .000000624
  21822257.584   -15094418.770 9 -11254092.93547  21822257.0504   21822258.6654
     -2709.546       -2111.324
  23424585.540    -4820379.931 9  -3744083.94846  23424585.0014   23424587.5894
       568.721         443.158
  23683685.382    -6487463.210 9  -5037061.98346  23683684.8094   23683686.0754
      3258.007        2538.698
  23722334.984    -7697723.313 9  -5981754.45145  23722334.5514   23722336.8284
      3810.664        2969.350
  20264749.633   -24462930.203 9 -18769585.20149  20264748.9414   20264750.7324
      -453.801        -353.613
  22005954.118   -15848621.619 9 -12335668.19047  22005953.1604   22005956.6614
      -145.019        -113.006
  21506032.570   -18171615.200 9 -13864996.42748  21506032.2274   21506035.4244
      2589.355        2017.678
 03 10 28  2 25 30.0000000  0  7 11 25  4 13 20  7  1                 .000000624
  21837754.644   -15012971.702 9 -11190627.70847  21837755.3734   21837757.5184
     -2720.277       -2119.698
  23421387.082    -4837182.739 9  -3757177.06046  23421386.9984   23421389.1664
       551.438         429.688
  23665098.098    -6585138.181 9  -5113172.36146  23665097.6834   23665099.6824
      3253.566        2535.253
  23700595.434    -7811963.071 9  -6070772.42045  23700595.5864   23700597.7134
      3805.286        2965.149
  20267377.736   -24449117.708 9 -18758822.20849  20267377.1994   20267379.2494
      -467.026        -363.917
  22006835.139   -15843991.425 9 -12332060.26447  22006835.2984   22006837.2074
      -163.675        -127.542
  21491289.405   -18249087.796 9 -13925364.65448  21491289.8364   21491292.6504
      2575.481        2006.863
 03 10 28  2 26  0.0000000  0  7 11 25  4 13 20  7  1                 .000000624
  21853315.029   -14931203.470 9 -11126912.22247  21853315.3844   21853317.6274
     -2730.956       -2128.012
  23418288.833    -4853466.955 9  -3769866.04646  23418288.6034   23418291.3574
       534.132         416.202
  23646535.132    -6682677.353 9  -5189176.87946  23646537.2364   23646538.5504
      3249.051        2531.728
  23678887.548    -7926038.820 9  -6159662.56346  23678886.0634   23678889.9624
      3799.757        2960.834
  20270081.608   -24434908.818 9 -18747750.35449  20270081.1474   20270083.0044
      -480.251        -374.216
  22007822.515   -15838801.276 9 -12328015.98947  22007822.0654   22007825.6114
      -182.350        -142.100
  21476627.526   -18326143.235 9 -13985407.82548  21476626.4714   21476630.0434
      2561.535        1995.996
 03 10 28  2 26 30.0000000  0  7 11 25  4 13 20  7  1                 .000000623
  21868936.675   -14849115.288 9 -11062947.42547  21868936.0854   21868938.4634
     -2741.606       -2136.319
  23415289.109    -4869231.613 9  -3782150.17046  23415289.4024   23415291.2254
       516.794         402.691
  23628001.993    -6780078.906 9  -5265074.20746  23628002.6134   23628003.7524
      3244.424        2528.114
  23657209.160    -8039947.929 9  -6248422.87845  23657211.3174   23657213.3674
      3794.117        2956.446
  20272860.473   -24420304.091 9 -18736370.05249  20272860.1654   20272861.9634
      -493.423        -384.488
  22008917.514   -15833051.172 9 -12323535.40147  22008917.0494   22008919.8524
      -200.976        -156.603
  21462042.634   -18402779.689 9 -14045124.52248  21462042.7294   21462046.3634
      2547.531        1985.093
 03 10 28  2 27  0.0000000  0  7 11 25  4 13 20  7  1                 .000000624
  21884619.548   -14766708.582 9 -10998734.44947  21884618.2214   21884620.3244
     -2752.206       -2144.581
  23412388.578    -4884475.762 9  -3794028.71046  23412388.3504   23412390.3094
       499.484         389.215
  23609494.407    -6877341.203 9  -5340863.01946  23609492.1044   23609494.2904
      3239.719        2524.456
  23635566.564    -8153688.209 9  -6337051.68046  23635567.6334   23635569.5524
      3788.448        2952.035
  20275715.485   -24405304.061 9 -18724681.73049  20275714.9064   20275716.5164
      -506.601        -394.755
  22010117.415   -15826741.635 9 -12318618.88747  22010116.9944   22010119.7974
      -219.661        -171.156
  21447539.692   -18478995.462 9 -14104513.41448  21447539.4344   21447543.1514
      2533.478        1974.135
 03 10 28  2 27 30.0000000  0  7 11 25  4 13 20  7  1                 .000000623
  21900360.092   -14683985.008 9 -10934274.54947  21900359.9594   21900361.7474
     -2762.735       -2152.783
  23409586.306    -4899198.738 9  -3805501.16946  23409587.7474   23409587.9504
       482.023         375.602
  23591009.781    -6974462.396 9  -5416541.86646  23591011.1074   23591013.1844
      3235.027        2520.794
  23613955.949    -8267257.419 9  -6425547.10746  23613954.4814   23613957.7124
      3782.774        2947.620
  20278645.105   -24389909.329 9 -18712685.83349  20278644.3234   20278645.9764
      -519.751        -405.004
  22011425.192   -15819872.808 9 -12313266.55447  22011424.6464   22011427.9044
      -238.289        -185.678
  21433117.012   -18554788.616 9 -14163572.98848  21433116.4604   21433119.7944
      2519.356        1963.130
 03 10 28  2 28  0.0000000  0  7 11 25  4 13 20  7  1                 .000000623
  21916162.727   -14600945.870 9 -10869568.73947  21916161.7944   21916163.8184
     -2773.213       -2160.942
  23406883.992    -4913399.329 9  -3816566.55246  23406883.5434   23406885.1194
       464.670         362.074
  23572555.540    -7071440.639 9  -5492109.29846  23572557.3444   23572559.5624
      3230.182        2517.024
  23592377.439    -8380653.059 9  -6513907.32346  23592378.2364   23592379.1254
      3776.974        2943.100
  20281649.076   -24374120.335 9 -18700382.74049  20281648.6474   20281650.7884
      -532.862        -415.215
  22012839.230   -15812445.054 9 -12307478.71047  22012838.4044   22012840.5944
      -256.903        -200.189
  21418774.439   -18630157.367 9 -14222301.87148  21418774.6754   21418777.6454
      2505.205        1952.106
 03 10 28  2 28 30.0000000  0  7 11 25  4 13 20  7  1                 .000000623
  21932023.547   -14517592.378 9 -10804617.98147  21932023.4314   21932025.0974
     -2783.667       -2169.095
  23404281.412    -4927076.694 9  -3827224.24446  23404282.0104   23404283.1614
       447.182         348.459
  23554131.186    -7168274.065 9  -5567563.93246  23554131.4734   23554131.4514
      3225.384        2513.285
  23570832.690    -8493873.121 9  -6602130.72046  23570831.5934   23570834.7634
      3771.043        2938.464
  20284728.847   -24357937.861 9 -18687773.02349  20284728.2184   20284730.0704
      -545.981        -425.438
  22014357.750   -15804458.683 9 -12301255.55947  22014357.1524   22014360.9454
      -275.479        -214.660
  21404515.041   -18705099.886 9 -14280698.61648  21404513.6954   21404516.8654
      2490.950        1940.999
 03 10 28  2 29  0.0000000  0  7 11 25  4 13 20  7  1                 .000000624
  21947944.896   -14433926.149 9 -10739423.55547  21947944.4104   21947946.9184
     -2794.074       -2177.202
  23401779.391    -4940230.334 9  -3837473.80746  23401778.8574   23401780.1444
       429.666         334.801
  23535730.438    -7264960.909 9  -5642904.32946  23535732.0624   23535733.2914
      3220.428        2509.421
  23549320.746    -8606915.601 9  -6690215.74246  23549322.1074   23549324.4174
      3765.094        2933.840
  20287883.072   -24341362.234 9 -18674856.95649  20287882.5924   20287884.2494
      -559.023        -435.599
  22015984.192   -15795914.117 9 -12294597.46947  22015983.8354   22015986.6904
      -294.112        -229.177
  21390333.897   -18779614.325 9 -14338761.80048  21390333.3784   21390336.9454
      2476.669        1929.873
 03 10 28  2 29 30.0000000  0  7 11 25  4 13 20  7  1                 .000000624
  21963926.233   -14349948.678 9 -10673986.59147  21963925.5774   21963926.6444
     -2804.447       -2185.296
  23399375.652    -4952859.090 9  -3847314.39346  23399376.0044   23399378.2924
       412.160         321.159
  23517361.529    -7361499.411 9  -5718129.13246  23517360.7654   23517363.7594
      3215.500        2505.591
  23527844.005    -8719777.606 9  -6778160.11446  23527844.3684   23527845.3464
      3759.019        2929.100
  20291110.994   -24324394.437 9 -18661635.30549  20291111.0204   20291113.1114
      -572.119        -445.809
  22017714.828   -15786811.712 9 -12287504.68447  22017715.0444   22017718.4634
      -312.701        -243.661
  21376235.785   -18853699.103 9 -14396490.17348  21376236.2674   21376238.9934
      2462.319        1918.680
 03 10 28  2 30  0.0000000  0  7 11 25  4 13 20  7  1                 .000000624
  21979963.744   -14265661.203 9 -10608308.05847  21979964.0714   21979966.3644
     -2814.726       -2193.289
  23397072.067    -4964962.395 9  -3856745.51646  23397072.2464   23397074.0814
       394.695         307.558
  23499017.636    -7457887.494 9  -5793236.72046  23499018.3624   23499021.4794
      3210.443        2501.637
  23506400.986    -8832457.040 9  -6865962.25046  23506401.3224   23506403.3554
      3752.950        2924.370
  20294415.486   -24307034.856 9 -18648108.38149  20294414.7614   20294416.5694
      -585.175        -455.983
  22019554.608   -15777151.863 9 -12279977.54847  22019554.1834   22019557.1784
      -331.271        -258.135
  21362220.733   -18927352.543 9 -14453882.44048  21362220.3194   21362223.0444
      2447.911        1907.464
 03 10 28  2 30 30.0000000  0  7 11 25  4 13 20  7  1                 .000000624
  21996064.193   -14181065.422 9 -10542389.30147  21996062.4074   21996064.2794
     -2824.979       -2201.282
  23394870.093    -4976539.319 9  -3865766.47946  23394870.1324   23394870.9274
       377.132         293.863
  23480706.027    -7554123.481 9  -5868225.80146  23480705.4434   23480707.4434
      3205.305        2497.630
  23484994.156    -8944951.438 9  -6953620.22446  23484994.2024   23484997.3674
      3746.677        2919.490
  20297793.309   -24289283.962 9 -18634276.52649  20297793.1764   20297794.3394
      -598.190        -466.120
  22021497.931   -15766935.048 9 -12272016.40447  22021498.2824   22021501.1764
      -349.832        -272.589
  21348287.002   -19000572.780 9 -14510937.14848  21348286.5494   21348289.8624
      2433.438        1896.192
 03 10 28  2 31  0.0000000  0  7 11 25  4 13 20  7  1                 .000000624
  22012219.477   -14096162.458 9 -10476231.17947  22012219.1164   22012221.0774
     -2835.203       -2209.245
  23392765.834    -4987589.331 9  -3874376.86046  23392766.0174   23392767.7474
       359.586         280.202
  23462421.940    -7650205.525 9  -5943094.92446  23462422.4884   23462423.6524
      3200.191        2493.669
  23463623.617    -9057258.945 9  -7041132.51246  23463623.9264   23463626.9394
      3740.472        2914.649
  20301245.923   -24271142.370 9 -18620140.22749  20301245.1234   20301246.8734
      -611.223        -476.267
  22023549.697   -15756161.780 9 -12263621.66547  22023548.5114   22023550.9634
      -368.386        -287.042
  21334435.654   -19073358.079 9 -14567652.96648  21334435.8414   21334439.7354
      2418.921        1884.876
 03 10 28  2 31 30.0000000  0  7 11 25  4 13 20  7  1                 .000000624
  22028433.602   -14010953.894 9 -10409834.91447  22028433.7624   22028435.5024
     -2845.368       -2217.169
  23390764.031    -4998111.525 9  -3882575.95046  23390764.3664   23390767.1994
       341.948         266.461
  23444167.132    -7746131.736 9  -6017842.62946  23444168.2374   23444170.1634
      3194.922        2489.556
  23442288.943    -9169377.105 9  -7128497.29646  23442289.5894   23442291.1724
      3734.060        2909.655
  20304771.497   -24252610.749 9 -18605700.00248  20304770.8474   20304773.4514
      -624.223        -486.408
  22025705.942   -15744832.409 9 -12254793.59547  22025704.3394   22025706.9674
      -386.919        -301.503
  21320669.489   -19145706.679 9 -14624028.47848  21320668.4244   21320671.4144
      2404.290        1873.478
 03 10 28  2 32  0.0000000  0  7 11 25  4 13 20  7  1                 .000000625
  22044706.542   -13925441.017 9 -10343201.53447  22044706.5874   22044707.8734
     -2855.472       -2225.046
  23388862.178    -5008105.249 9  -3890363.26446  23388861.4324   23388864.3094
       324.338         252.713
  23425943.963    -7841900.430 9  -6092467.55446  23425943.9024   23425945.5714
      3189.645        2485.437
  23420991.927    -9281303.660 9  -7215712.77846  23420990.0694   23420989.8994
      3727.637        2904.652
  20308371.808   -24233689.890 9 -18590956.48349  20308371.5694   20308373.7584
      -637.183        -496.493
  22027964.943   -15732947.543 9 -12245532.66347  22027964.7914   22027968.1204
      -405.424        -315.915
  21306984.429   -19217616.958 9 -14680062.45748  21306984.5424   21306987.7364
      2389.668        1862.081
 03 10 28  2 32 30.0000000  0  7 11 25  4 13 20  7  1                 .000000626
  22061035.516   -13839625.629 9 -10276332.41547  22061036.3164   22061038.6074
     -2865.543       -2232.882
  23387061.523    -5017569.986 9  -3897738.39446  23387060.9944   23387063.6214
       306.716         238.988
  23407750.522    -7937509.435 9  -6166968.08146  23407749.6504   23407752.0904
      3184.320        2481.293
  23399727.076    -9393036.271 9  -7302777.10846  23399726.7494   23399729.8224
      3721.195        2899.633
  20312046.748   -24214380.279 9 -18575910.05848  20312046.4414   20312048.0694
      -650.125        -506.585
  22030334.039   -15720507.558 9 -12235839.19347  22030332.8344   22030335.6194
      -423.869        -330.291
  21293384.361   -19289087.322 9 -14735753.63748  21293384.1214   21293387.7284
      2374.999        1850.653
 03 10 28  2 33  0.0000000  0  7 11 25  4 13 20  7  1                 .000000625
  22077424.886   -13753509.182 9 -10209228.72747  22077424.5314   22077425.8234
     -2875.541       -2240.680
  23385360.801    -5026505.102 9  -3904700.81046  23385360.8064   23385362.7274
       289.023         225.213
  23389585.565    -8032957.099 9  -6241342.87946  23389585.7784   23389590.0604
      3178.864        2477.031
  23378500.968    -9504572.559 9  -7389688.47146  23378502.1504   23378505.0044
      3714.592        2894.487
  20315796.132   -24194682.329 9 -18560561.01649  20315794.9874   20315796.5924
      -663.070        -516.675
  22032805.931   -15707513.221 9 -12225713.73747  22032805.4874   22032808.5394
      -442.387        -344.725
  21279868.579   -19360115.946 9 -14791100.59948  21279868.3774   21279871.2964
      2360.252        1839.161
 03 10 28  2 33 30.0000000  0  7 11 25  4 13 20  7  1                 .000000624
  22093867.320   -13667092.871 9 -10141891.36547  22093867.8214   22093869.9224
     -2885.521       -2248.454
  23383760.544    -5034909.990 9  -3911250.05346  23383760.4284   23383762.8334
       271.288         211.403
  23371454.147    -8128241.359 9  -6315590.32246  23371454.7244   23371457.6534
      3173.388        2472.771
  23357315.307    -9615910.394 9  -7476445.17546  23357314.2724   23357317.8124
      3707.944        2889.300
  20319617.510   -24174596.812 9 -18544909.95648  20319617.0734   20319618.3624
      -675.966        -526.730
  22035385.660   -15693964.944 9 -12215156.65047  22035384.6214   22035386.7124
      -460.844        -359.093
  21266435.187   -19430701.346 9 -14846102.18848  21266435.7384   21266439.4004
      2345.433        1827.608
 03 10 28  2 34  0.0000000  0  7 11 25  4 13 20  7  1                 .000000623
  22110369.609   -13580378.398 9 -10074321.67447  22110369.4084   22110370.9054
     -2895.459       -2256.191
  23382262.652    -5042783.873 9  -3917385.53846  23382262.8094   23382265.3234
       253.578         197.603
  23353354.635    -8223360.395 9  -6389709.04646  23353354.2344   23353355.3364
      3167.836        2468.440
  23336165.735    -9727047.596 9  -7563045.57446  23336165.3544   23336169.0554
      3701.208        2884.047
  20323512.892   -24154124.480 9 -18528957.47849  20323512.5334   20323514.6834
      -688.889        -536.797
  22038068.306   -15679863.405 9 -12204168.44547  22038066.5474   22038069.5524
      -479.262        -373.446
  21253088.625   -19500841.944 9 -14900757.17048  21253088.0904   21253091.7704
      2330.573        1816.031
 03 10 28  2 34 30.0000000  0  7 11 25  4 13 20  7  1                 .000000623
  22126927.895   -13493367.329 9 -10006520.84647  22126927.3614   22126929.0604
     -2905.291       -2263.879
  23380865.800    -5050126.312 9  -3923106.88846  23380864.2664   23380867.9404
       235.895         183.801
  23335284.201    -8318312.358 9  -6463697.58746  23335284.8544   23335288.1194
      3162.254        2464.087
  23315055.897    -9837981.853 9  -7649487.80546  23315055.8214   23315059.7974
      3694.410        2878.755
  20327482.153   -24133265.978 9 -18512704.10649  20327481.5124   20327483.8304
      -701.698        -546.777
  22040857.171   -15665209.170 9 -12192749.56847  22040856.0134   22040858.1964
      -497.684        -387.807
  21239825.602   -19570536.110 9 -14955064.28548  21239825.6244   21239829.4074
      2315.689        1804.434
 03 10 28  2 35  0.0000000  0  7 11 25  4 13 20  7  1                 .000000623
  22143541.475   -13406060.986 9  -9938489.96947  22143541.3794   22143542.9544
     -2915.113       -2271.520
  23379571.631    -5056936.607 9  -3928413.62446  23379570.2334   23379571.3994
       218.150         169.968
  23317247.582    -8413095.303 9  -6537554.41446  23317248.4374   23317250.7384
      3156.565        2459.650
  23293983.437    -9948710.882 9  -7735770.10646  23293985.9754   23293987.8144
      3687.534        2873.394
  20331524.488   -24112021.864 9 -18496150.26948  20331524.4524   20331526.3954
      -714.567        -556.803
  22043749.421   -15650002.906 9 -12180900.56247  22043749.5064   22043751.6024
      -516.096        -402.154
  21226649.679   -19639782.012 9 -15009022.11648  21226648.9584   21226652.6014
      2300.718        1792.773
 03 10 28  2 35 30.0000000  0  7 11 25  4 13 20  7  1                 .000000623
  22160211.424   -13318460.788 9  -9870230.09447  22160210.6874   22160212.7364
     -2924.895       -2279.134
  23378375.189    -5063214.310 9  -3933305.33546  23378374.9014   23378377.1564
       200.348         156.125
  23299244.587    -8507707.484 9  -6611278.22846  23299244.6244   23299245.9744
      3150.922        2455.260
  23272954.434   -10059232.420 9  -7821890.77046  23272955.0724   23272956.5914
      3680.590        2867.993
  20335640.882   -24090392.595 9 -18479296.30249  20335640.3774   20335642.4214
      -727.398        -566.809
  22046747.478   -15634245.290 9 -12168621.91247  22046747.3964   22046750.8324
      -534.461        -416.473
  21213557.682   -19708578.142 9 -15062629.46348  21213557.4494   21213560.8694
      2285.649        1781.022
 03 10 28  2 36  0.0000000  0  7 11 25  4 13 20  7  1                 .000000623
  22176935.581   -13230568.487 9  -9801742.62547  22176936.4234   22176938.7664
     -2934.618       -2286.713
  23377281.440    -5068958.598 9  -3937781.42046  23377281.2444   23377284.8974
       182.585         142.283
  23281273.904    -8602146.838 9  -6684867.32146  23281274.1964   23281275.0804
      3145.055        2450.690
  23251961.673   -10169544.114 9  -7907847.89446  23251962.0684   23251965.5744
      3673.540        2862.494
  20339830.018   -24068379.023 9 -18462142.87749  20339829.6294   20339831.3394
      -740.172        -576.762
  22049851.317   -15617936.934 9 -12155914.11747  22049851.7834   22049854.4854
      -552.815        -430.770
  21200552.234   -19776923.013 9 -15115885.19148  21200551.8624   21200555.1764
      2270.603        1769.297
 03 10 28  2 36 30.0000000  0  7 11 25  4 13 20  7  1                 .000000622
  22193716.881   -13142385.290 9  -9733028.45147  22193716.6714   22193718.1224
     -2944.309       -2294.260
  23376289.562    -5074169.244 9  -3941841.63646  23376289.3744   23376291.2384
       164.786         128.393
  23263334.454    -8696411.358 9  -6758320.17846  23263335.5624   23263337.7994
      3139.215        2446.122
  23231011.106   -10279643.940 9  -7993639.94046  23231011.2404   23231013.5224
      3666.412        2856.946
  20344092.101   -24045981.704 9 -18444690.41149  20344091.5924   20344093.2584
      -752.961        -586.731
  22053059.145   -15601078.553 9 -12142777.72647  22053059.1274   22053062.1034
      -571.119        -445.026
  21187633.038   -19844814.876 9 -15168787.90548  21187632.5064   21187635.4194
      2255.471        1757.507
 03 10 28  2 37  0.0000000  0  7 11 25  4 13 20  7  1                 .000000622
  22210553.345   -13053912.809 9  -9664088.88447  22210552.6454   22210554.3364
     -2953.902       -2301.728
  23375400.515    -5078845.818 9  -3945485.72046  23375400.4764   23375402.7494
       146.968         114.525
  23245429.383    -8790499.379 9  -6831635.51546  23245430.9864   23245434.2654
      3133.279        2441.521
  23210101.749   -10389529.535 9  -8079265.03346  23210099.7834   23210102.2194
      3659.245        2851.368
  20348426.430   -24023201.384 9 -18426939.51348  20348425.9614   20348428.1734
      -765.723        -596.661
  22056371.688   -15583670.952 9 -12129213.37947  22056371.9224   22056375.1364
      -589.429        -459.296
  21174799.439   -19912252.231 9 -15221336.46648  21174799.5964   21174802.6144
      2240.281        1745.684
 03 10 28  2 37 30.0000000  0  7 11 25  4 13 20  7  1                 .000000623
  22227443.291   -12965152.434 9  -9594924.99647  22227442.9864   22227445.8014
     -2963.447       -2309.160
  23374613.125    -5082987.766 9  -3948713.21146  23374613.1114   23374613.9234
       129.154         100.659
  23227558.606    -8884408.875 9  -6904811.75546  23227560.7004   23227562.1754
      3127.327        2436.870
  23189231.711   -10499198.665 9  -8164721.50146  23189231.3674   23189232.6314
      3651.994        2845.705
  20352833.980   -24000038.468 9 -18408890.49849  20352833.8704   20352836.3444
      -778.461        -606.584
  22059788.358   -15565714.686 9 -12115221.50847  22059789.0094   22059791.9924
      -607.669        -473.507
  21162053.749   -19979233.656 9 -15273529.76248  21162053.1514   21162056.7764
      2225.098        1733.841
 03 10 28  2 38  0.0000000  0  7 11 25  4 13 20  7  1                 .000000623
  22244387.695   -12876106.280 9  -9525538.40347  22244388.1414   22244390.2914
     -2972.961       -2316.594
  23373927.270    -5086594.538 9  -3951523.68246  23373927.1844   23373928.2474
       111.322          86.742
  23209723.365    -8978137.867 9  -6977847.31946  23209724.0134   23209727.0874
      3121.256        2432.160
  23168404.385   -10608649.098 9  -8250007.50446  23168404.0134   23168406.1284
      3644.688        2840.001
  20357315.163   -23976493.868 9 -18390544.04848  20357314.4734   20357316.5154
      -791.177        -616.505
  22063311.512   -15547210.641 9 -12100802.77247  22063310.1824   22063313.3044
      -625.898        -487.718
  21149394.070   -20045757.567 9 -15325366.53248  21149393.5814   21149397.7804
      2209.824        1721.945
 03 10 28  2 38 30.0000000  0  7 11 25  4 13 20  7  1                 .000000623
  22261386.948   -12786775.605 9  -9455930.09347  22261386.9004   22261388.9154
     -2982.391       -2323.954
  23373340.100    -5089665.801 9  -3953916.86946  23373341.2284   23373344.1834
        93.449          72.826
  23191921.551    -9071684.304 9  -7050740.63246  23191924.1694   23191925.0734
      3115.161        2427.394
  23147617.895   -10717878.685 9  -8335121.42546  23147617.8344   23147620.5094
      3637.280        2834.249
  20361868.150   -23952568.176 9 -18371900.65849  20361867.6884   20361869.4804
      -803.855        -626.384
  22066935.951   -15528159.742 9 -12085957.93347  22066935.8104   22066938.3994
      -644.133        -501.926
  21136821.976   -20111822.314 9 -15376845.53548  21136822.5374   21136825.7614
      2194.470        1709.978
 03 10 28  2 39  0.0000000  0  7 11 25  4 13 20  7  1                 .000000621
  22278440.233   -12697161.877 9  -9386101.26547  22278439.9994   22278441.7264
     -2991.827       -2331.289
  23372859.320    -5092201.227 9  -3955892.50946  23372859.9004   23372861.7044
        75.592          58.911
  23174157.335    -9165046.459 9  -7123490.39346  23174157.6384   23174158.8244
      3108.990        2422.591
  23126872.559   -10826885.222 9  -8420061.56146  23126872.9834   23126875.7114
      3629.796        2828.414
  20366493.635   -23928262.144 9 -18352960.90049  20366493.0614   20366494.7704
      -816.542        -636.269
  22070665.294   -15508562.679 9 -12070687.50447  22070664.5354   22070667.7714
      -662.312        -516.086
  21124339.013   -20177426.520 9 -15427965.66148  21124337.6704   21124341.6404
      2179.122        1698.008
 03 10 28  2 39 30.0000000  0  7 11 25  4 13 20  7  1                 .000000621
  22295547.871   -12607266.606 9  -9316053.01947  22295547.7864   22295548.3714
     -3001.189       -2338.594
  23372478.565    -5094200.305 9  -3957450.22046  23372478.4524   23372479.9664
        57.688          44.928
  23156425.173    -9258222.426 9  -7196095.02346  23156426.1164   23156429.3654
      3102.798        2417.766
  23106173.652   -10935666.214 9  -8504825.94846  23106174.2854   23106176.1414
      3622.235        2822.527
  20371190.844   -23903576.373 9 -18333725.24249  20371190.3754   20371192.5674
      -829.201        -646.128
  22074498.085   -15488420.291 9 -12054992.16747  22074497.3434   22074500.7904
      -680.511        -530.269
  21111941.083   -20242568.564 9 -15478725.67948  21111941.8264   21111945.0814
      2163.688        1685.995
 03 10 28  2 40  0.0000000  0  7 11 25  4 13 20  7  1                 .000000622
  22312706.217   -12517091.128 9  -9245786.43347  22312706.4064   22312708.6004
     -3010.493       -2345.845
  23372200.915    -5095662.905 9  -3958589.90646  23372200.4674   23372202.2274
        39.804          31.025
  23138730.781    -9351210.012 9  -7268552.88046  23138731.7844   23138733.8754
      3096.451        2412.827
  23085518.181   -11044219.435 9  -8589412.83846  23085517.5694   23085518.6714
      3614.640        2816.620
  20375960.190   -23878511.568 9 -18314194.23549  20375959.7454   20375961.8484
      -841.797        -655.945
  22078434.770   -15467733.436 9 -12038872.55447  22078433.9684   22078437.0234
      -698.640        -544.401
  21099635.454   -20307247.132 9 -15529124.53148  21099634.4374   21099637.8944
      2148.222        1673.934
 03 10 28  2 40 30.0000000  0  7 11 25  4 13 20  7  1                 .000000623
  22329919.700   -12426637.447 9  -9175303.07147  22329919.3004   22329920.3814
     -3019.743       -2353.042
  23372024.533    -5096588.483 9  -3959311.13946  23372025.1684   23372026.3924
        21.896          17.060
  23121073.754    -9444007.456 9  -7340862.57346  23121072.6154   23121075.1944
      3090.137        2407.904
  23064903.939   -11152542.857 9  -8673820.64846  23064903.8584   23064905.9304
      3606.944        2810.611
  20380802.065   -23853068.280 9 -18294368.29249  20380801.6724   20380803.6404
      -854.406        -665.772
  22082474.660   -15446502.967 9 -12022329.33347  22082474.2744   22082477.2374
      -716.762        -558.520
  21087415.241   -20371460.806 9 -15579161.12848  21087414.6964   21087417.9654
      2132.681        1661.827
 03 10 28  2 41  0.0000000  0  7 11 25  4 13 20  7  1                 .000000623
  22347184.697   -12335907.045 9  -9104604.07047  22347185.3454   22347186.9864
     -3028.928       -2360.206
  23371950.194    -5096977.051 9  -3959613.89746  23371950.7944   23371952.6984
         4.020           3.149
  23103449.895    -9536612.769 9  -7413022.54246  23103450.3274   23103452.7034
      3083.654        2402.832
  23044336.243   -11260634.265 9  -8758047.71946  23044335.6844   23044335.0964
      3599.174        2804.550
  20385716.064   -23827247.200 9 -18274247.97449  20385715.6774   20385717.4144
      -866.972        -675.561
  22086617.928   -15424729.765 9 -12005363.20647  22086617.6464   22086620.6094
      -734.798        -572.570
  21075284.242   -20435208.177 9 -15628834.38248  21075284.5784   21075287.1084
      2117.133        1649.717
 03 10 28  2 41 30.0000000  0  7 11 25  4 13 20  7  1                 .000000622
  22364502.246   -12244901.165 9  -9033690.42047  22364503.0524   22364505.2224
     -3038.114       -2367.349
  23371978.075    -5096827.921 9  -3959497.69146  23371978.8984   23371980.6734
       -13.941         -10.873
  23085864.769    -9629023.837 9  -7485031.18446  23085865.3424   23085867.4044
      3077.119        2397.760
  23023808.659   -11368491.328 9  -8842092.14046  23023810.7264   23023812.4394
      3591.319        2798.433
  20390701.273   -23801048.959 9 -18253833.75349  20390700.7724   20390702.6034
      -879.554        -685.362
  22090863.580   -15402414.917 9 -11987975.03847  22090863.4284   22090867.0254
      -752.821        -586.598
  21063243.485   -20498487.727 9 -15678143.09048  21063242.2144   21063245.4814
      2101.511        1637.547
 03 10 28  2 42  0.0000000  0  7 11 25  4 13 20  7  1                 .000000623
  22381872.685   -12153621.642 9  -8962563.55347  22381872.8324   22381874.6844
     -3047.209       -2374.451
  23372110.251    -5096140.965 9  -3958962.41146  23372110.0034   23372110.8224
       -31.904         -24.864
  23068316.914    -9721238.865 9  -7556887.02946  23068316.8094   23068318.7714
      3070.535        2392.621
  23003330.331   -11476112.042 9  -8925952.39846  23003331.3404   23003332.9364
      3583.366        2792.242
  20395757.896   -23774474.301 9 -18233126.24049  20395757.4584   20395759.6314
      -892.104        -695.148
  22095214.197   -15379559.266 9 -11970165.45147  22095213.7494   22095216.2454
      -770.853        -600.662
  21051289.813   -20561297.979 9 -15727086.12148  21051290.2064   21051293.0374
      2085.829        1625.325
 03 10 28  2 42 30.0000000  0  7 11 25  4 13 20  7  1                 .000000623
  22399294.141   -12062070.057 9  -8891224.66947  22399294.1744   22399296.0604
     -3056.244       -2381.485
  23372343.044    -5094916.025 9  -3958007.90446  23372342.9464   23372343.4674
       -49.791         -38.797
  23050807.470    -9813255.791 9  -7628588.53546  23050807.3204   23050808.5154
      3063.908        2387.454
  22982895.006   -11583494.040 9  -9009626.65346  22982895.1024   22982897.3134
      3575.396        2785.993
  20400886.817   -23747524.010 9 -18212126.02149  20400886.0314   20400888.2124
      -904.621        -704.900
  22099665.577   -15356163.641 9 -11951935.12047  22099665.2844   22099668.2394
      -788.859        -614.687
  21039428.082   -20623637.583 9 -15775662.41048  21039427.7874   21039430.1834
      2070.116        1613.085
 03 10 28  2 43  0.0000000  0  7 11 25  4 13 20  7  1                 .000000622
  22416767.264   -11970247.914 9  -8819674.97347  22416766.7414   22416769.6114
     -3065.276       -2388.527
  23372676.951    -5093152.957 9  -3956634.06746  23372678.2684   23372679.5434
       -67.730         -52.769
  23033334.638    -9905072.684 9  -7700134.16246  23033334.5594   23033337.2574
      3057.189        2382.229
  22962507.193   -11690635.033 9  -9093113.13946  22962506.7004   22962510.0564
      3567.294        2779.722
  20406086.607   -23720198.674 9 -18190833.56449  20406086.3224   20406088.0934
      -917.094        -714.618
  22104220.546   -15332229.217 9 -11933284.92047  22104219.4814   22104223.1084
      -806.828        -628.703
  21027655.103   -20685505.285 9 -15823870.98148  21027654.6184   21027657.2534
      2054.373        1600.808
 03 10 28  2 43 30.0000000  0  7 11 25  4 13 20  7  1                 .000000621
  22434292.492   -11878156.681 9  -8747915.60047  22434291.9304   22434294.6174
     -3074.162       -2395.449
  23373115.498    -5090851.286 9  -3954840.54946  23373115.5834   23373117.1084
       -85.751         -66.812
  23015900.697    -9996687.394 9  -7771522.25746  23015902.1594   23015904.2834
      3050.404        2376.938
  22942167.844   -11797532.745 9  -9176410.02846  22942166.2154   22942167.5464
      3559.166        2773.377
  20411358.602   -23692499.075 9 -18169249.45949  20411357.9414   20411359.1394
      -929.546        -724.319
  22108876.967   -15307756.902 9 -11914215.60847  22108876.5614   22108880.2514
      -824.706        -642.615
  21015971.291   -20746899.685 9 -15871710.75648  21015971.4734   21015974.0904
      2038.569        1588.503
 03 10 28  2 44  0.0000000  0  7 11 25  4 13 20  7  1                 .000000621
  22451866.725   -11785798.048 9  -8675947.86647  22451867.2124   22451869.0904
     -3083.083       -2402.410
  23373656.665    -5088010.993 9  -3952627.34646  23373657.2244   23373658.3064
      -103.648         -80.774
  22998505.963   -10088098.165 9  -7842751.43346  22998506.7944   22998508.2824
      3043.656        2371.671
  22921869.657   -11904185.168 9  -9259515.77246  22921868.2994   22921872.4944
      3550.976        2767.000
  20416700.066   -23664425.698 9 -18147374.09548  20416699.3174   20416700.8754
      -941.996        -734.025
  22113635.684   -15282747.793 9 -11894728.00547  22113635.7024   22113639.1704
      -842.548        -656.524
  21004379.136   -20807819.530 9 -15919180.72348  21004378.6094   21004381.0244
      2022.736        1576.154
 03 10 28  2 44 30.0000000  0  7 11 25  4 13 20  7  1                 .000000622
  22469492.727   -11693173.771 9  -8603773.14647  22469492.5874   22469495.5114
     -3091.913       -2409.272
  23374300.596    -5084631.752 9  -3949994.16146  23374299.5464   23374301.3484
      -121.623         -94.772
  22981151.950   -10179302.884 9  -7913820.02346  22981151.4944   22981153.1964
      3036.681        2366.253
  22901621.575   -12010590.117 9  -9342428.70246  22901621.7494   22901624.1274
      3542.681        2760.518
  20422113.295   -23635979.425 9 -18125208.15249  20422112.6984   20422114.1504
      -954.440        -743.722
  22118498.828   -15257202.839 9 -11874822.88547  22118497.4674   22118500.0494
      -860.420        -670.457
  20992876.609   -20868263.420 9 -15966279.84148  20992876.4704   20992879.5634
      2006.838        1563.761
 03 10 28  2 45  0.0000000  0  7 11 25  4 13 20  7  1                 .000000621
  22487169.172   -11600285.729 9  -8531392.87047  22487168.9044   22487169.7294
     -3100.656       -2416.091
  23375045.364    -5080713.496 9  -3946940.97146  23375045.9354   23375047.0614
      -139.594        -108.760
  22963833.873   -10270299.488 9  -7984726.46946  22963834.5174   22963836.4564
      3029.706        2360.802
  22881420.063   -12116745.437 9  -9425147.10846  22881422.0274   22881423.3894
      3534.330        2754.029
  20427597.004   -23607160.934 9 -18102752.18549  20427596.4134   20427598.2774
      -966.830        -753.377
  22123459.981   -15231123.264 9 -11854501.14747  22123460.0954   22123463.5644
      -878.220        -684.340
  20981466.162   -20928229.995 9 -16013007.01648  20981465.2354   20981468.1544
      1990.898        1551.347
 03 10 28  2 45 30.0000000  0  7 11 25  4 13 20  7  1                 .000000622
  22504895.036   -11507134.865 9  -8458807.79847  22504894.9644   22504897.1404
     -3109.386       -2422.895
  23375893.422    -5076256.423 9  -3943467.91846  23375893.1064   23375895.3464
      -157.542        -122.765
  22946557.749   -10361086.190 9  -8055469.35046  22946558.8654   22946561.1754
      3022.756        2355.398
  22861268.488   -12222648.879 9  -9507669.24046  22861269.3764   22861271.7974
      3525.880        2747.459
  20433151.622   -23577970.952 9 -18080006.74648  20433151.1194   20433152.7034
      -979.201        -763.014
  22128525.883   -15204510.035 9 -11833763.57947  22128524.0384   22128527.1154
      -896.009        -698.188
  20970144.790   -20987717.958 9 -16059361.25248  20970144.5794   20970148.0784
      1974.942        1538.920
 03 10 28  2 46  0.0000000  0  7 11 25  4 13 20  7  1                 .000000621
  22522670.196   -11413723.016 9  -8386019.37147  22522670.3574   22522673.3624
     -3118.062       -2429.658
  23376843.461    -5071260.214 9  -3939574.79046  23376844.7574   23376845.2274
      -175.522        -136.757
  22929322.140   -10451660.897 9  -8126047.04646  22929322.5064   22929324.8664
      3015.632        2349.831
  22841163.814   -12328298.116 9  -9589993.28446  22841163.8224   22841166.4764
      3517.398        2740.827
  20438777.328   -23548409.964 9 -18056972.20049  20438776.9854   20438778.2974
      -991.535        -772.616
  22133689.946   -15177364.288 9 -11812611.07347  22133689.8304   22133692.5984
      -913.699        -711.972
  20958916.538   -21046726.033 9 -16105341.55248  20958916.0584   20958919.0954
      1958.920        1526.435
 03 10 28  2 46 30.0000000  0  7 11 25  4 13 20  7  1                 .000000621
  22540497.093   -11320052.079 9  -8313029.06247  22540496.8164   22540497.8214
     -3126.655       -2436.339
  23377897.350    -5065724.831 9  -3935261.49046  23377896.6434   23377898.8874
      -193.489        -150.768
  22912126.608   -10542021.541 9  -8196457.94546  22912128.1004   22912130.6564
      3008.465        2344.270
  22821106.738   -12433691.268 9  -9672117.80446  22821107.7844   22821112.0354
      3508.809        2734.155
  20444472.889   -23518479.033 9 -18033649.38949  20444472.2954   20444474.1504
     -1003.872        -782.239
  22138957.357   -15149687.304 9 -11791044.60747  22138956.7674   22138959.3794
      -931.449        -725.803
  20947779.262   -21105253.054 9 -16150947.00248  20947778.8204   20947781.6974
      1942.863        1513.924
 03 10 28  2 47  0.0000000  0  7 11 25  4 13 20  7  1                 .000000620
  22558369.635   -11226123.458 9  -8239837.95647  22558370.5194   22558370.5994
     -3135.261       -2443.072
  23379053.682    -5059650.144 9  -3930527.93446  23379053.6714   23379054.8774
      -211.494        -164.786
  22894973.420   -10632165.982 9  -8266700.36346  22894974.4234   22894976.3744
      3001.214        2338.606
  22801101.452   -12538826.163 9  -9754041.06146  22801103.4964   22801104.8104
      3500.157        2727.394
  20450239.115   -23488178.778 9 -18010038.80349  20450238.2324   20450239.9164
     -1016.186        -791.834
  22144324.710   -15121480.032 9 -11769064.92447  22144323.7054   22144327.5044
      -949.099        -739.556
  20936733.580   -21163297.349 9 -16196176.30248  20936733.4234   20936735.9974
      1926.754        1501.368
 03 10 28  2 47 30.0000000  0  7 11 25  4 13 20  7  1                 .000000622
  22576292.015   -11131938.701 9  -8166447.24347  22576292.1254   22576295.5144
     -3143.746       -2449.669
  23380312.947    -5053036.347 9  -3925374.33746  23380312.7984   23380314.4404
      -229.476        -178.800
  22877861.458   -10722092.377 9  -8336772.87546  22877861.2534   22877863.8074
      2993.894        2332.905
  22781147.301   -12643700.345 9  -9835761.17846  22781146.4934   22781147.3164
      3491.426        2720.594
  20456074.232   -23457509.755 9 -17986140.84848  20456073.9044   20456076.0974
     -1028.455        -801.393
  22149793.351   -15092743.586 9 -11746672.89947  22149792.7644   22149795.7044
      -966.675        -753.248
  20925779.976   -21220857.842 9 -16241028.60748  20925779.9314   20925782.9854
      1910.608        1488.787
 03 10 28  2 48  0.0000000  0  7 11 25  4 13 20  7  1                 .000000623
  22594264.985   -11037499.439 9  -8092858.23747  22594263.5574   22594266.4844
     -3152.232       -2456.291
  23381673.895    -5045883.252 9  -3919800.48646  23381673.3624   23381675.7484
      -247.439        -192.796
  22860791.239   -10811798.679 9  -8406673.89146  22860789.6374   22860792.7464
      2986.521        2327.159
  22761236.261   -12748311.687 9  -9917276.48746  22761236.5494   22761240.3784
      3482.624        2713.750
  20461979.931   -23426472.571 9 -17961956.03448  20461979.6454   20461982.0724
     -1040.696        -810.935
  22155362.091   -15063479.347 9 -11723869.60747  22155361.9864   22155365.5444
      -984.300        -766.996
  20914919.748   -21277933.309 9 -16285502.97448  20914919.0254   20914921.6394
      1894.402        1476.150
 03 10 28  2 48 30.0000000  0  7 11 25  4 13 20  7  1                 .000000622
  22612283.002   -10942807.550 9  -8019072.38547  22612283.4114   22612284.8924
     -3160.570       -2462.780
  23383136.178    -5038190.828 9  -3913806.37746  23383136.2314   23383139.2464
      -265.380        -206.787
  22843761.172   -10901282.776 9  -8476401.75046  22843762.3374   22843764.1284
      2979.102        2321.386
  22741380.747   -12852658.128 9  -9998585.37046  22741382.2084   22741383.5024
      3473.785        2706.857
  20467956.432   -23395068.121 9 -17937485.04448  20467956.2344   20467958.0704
     -1052.939        -820.472
  22161031.330   -15033688.492 9 -11700655.96247  22161030.7204   22161033.2104
     -1001.751        -780.589
  20904150.878   -21334522.674 9 -16329598.55848  20904150.1174   20904153.1344
      1878.202        1463.531
