     2.10           OBSERVATION DATA    G (GPS)             RINEX VERSION / TYPE
rinexwrt            gAGE                20100505 12:45:58UTCPGM / RUN BY / DATE
gAGE                                                        MARKER NAME
gAGE                gAGE                                    OBSERVER / AGENCY
Unknown             Unknown             Unknown             REC # / TYPE / VERS
Unknown             Unknown                                 ANT # / TYPE
  5436447.3690 -1496036.6390  2971380.3580                  APPROX POSITION XYZ
        0.0000        0.0000        0.0000                  ANTENNA: DELTA H/E/N
     1     1                                                WAVELENGTH FACT L1/2
     4    L1    L2    C1    P2                              # / TYPES OF OBSERV
  1998     9    29    11    23   20.9980000     GPS         TIME OF FIRST OBS
                                                            END OF HEADER
 98  9 29 11 23 20.9980000  0  4G 4G14G16G19
   3139903.998           0.000    20721041.565           0.000  
   5745229.003           0.000    23295869.389           0.000  
   1211563.998           0.000    20672990.265           0.000  
  -4642710.002           0.000    22327899.124           0.000  
 98  9 29 11 23 21.9980000  0  5G 4G14G16G18G19
   3136460.999           0.000    20720388.632           0.000  
   5745274.002           0.000    23295878.061           0.000  
   1210003.999           0.000    20672693.460           0.000  
   2910675.000           0.000    20011100.214           0.000  
  -4648217.001           0.000    22326851.166           0.000  
 98  9 29 11 23 22.9980000  0  5G 4G14G16G18G19
   3133014.999           0.000    20719734.020           0.000  
   5745319.000           0.000    23295886.437           0.000  
   1208443.999           0.000    20672396.509           0.000  
   2907961.998           0.000    20010583.739           0.000  
  -4653724.998           0.000    22325803.057           0.000  
 98  9 29 11 23 23.9980000  0  5G 4G14G16G18G19
   3129571.001           0.000    20719079.662           0.000  
   5745360.999           0.000    23295894.599           0.000  
   1206883.002           0.000    20672099.243           0.000  
   2905247.000           0.000    20010066.592           0.000  
  -4659233.998           0.000    22324754.693           0.000  
 98  9 29 11 23 24.9980000  0  4G 4G14G16G19
   3126125.999           0.000    20718426.762           0.000  
   5745404.001           0.000    23295902.638           0.000  
   1205320.002           0.000    20671801.899           0.000  
  -4664743.998           0.000    22323706.137           0.000  
 98  9 29 11 23 25.9980000  0  4G 4G14G16G19
   3122679.999           0.000    20717772.849           0.000  
   5745445.000           0.000    23295910.493           0.000  
   1203758.000           0.000    20671504.482           0.000  
  -4670255.001           0.000    22322657.429           0.000  
 98  9 29 11 23 26.9980000  0  4G 4G14G16G19
   3119234.998           0.000    20717118.596           0.000  
   5745486.000           0.000    23295918.325           0.000  
   1202195.000           0.000    20671207.043           0.000  
  -4675765.000           0.000    22321608.774           0.000  
 98  9 29 11 23 27.9980000  0  4G 4G14G16G19
   3115788.998           0.000    20716463.571           0.000  
   5745527.000           0.000    23295926.088           0.000  
   1200632.000           0.000    20670909.487           0.000  
  -4681275.998           0.000    22320560.050           0.000  
 98  9 29 11 23 28.9980000  0  4G 4G14G16G19
   3112345.000           0.000    20715808.168           0.000  
   5745567.001           0.000    23295933.792           0.000  
   1199068.002           0.000    20670611.914           0.000  
  -4686787.001           0.000    22319511.246           0.000  
 98  9 29 11 23 29.9980000  0  4G 4G14G16G19
   3108899.998           0.000    20715153.162           0.000  
   5745607.003           0.000    23295941.392           0.000  
   1197503.998           0.000    20670314.273           0.000  
  -4692299.002           0.000    22318462.438           0.000  
 98  9 29 11 23 30.9980000  0  4G 4G14G16G19
   3105453.998           0.000    20714497.525           0.000  
   5745646.999           0.000    23295948.930           0.000  
   1195940.000           0.000    20670016.557           0.000  
  -4697810.000           0.000    22317413.577           0.000  
 98  9 29 11 23 31.9980000  0  4G 4G14G16G19
   3102007.998           0.000    20713842.332           0.000  
   5745686.002           0.000    23295956.424           0.000  
   1194376.001           0.000    20669718.792           0.000  
  -4703322.001           0.000    22316364.692           0.000  
 98  9 29 11 23 32.9980000  0  4G 4G14G16G19
   3098563.002           0.000    20713186.910           0.000  
   5745724.001           0.000    23295963.755           0.000  
   1192810.999           0.000    20669420.861           0.000  
  -4708835.001           0.000    22315315.699           0.000  
 98  9 29 11 23 33.9980000  0  4G 4G14G16G19
   3095117.002           0.000    20712532.206           0.000  
   5745762.000           0.000    23295970.967           0.000  
   1191244.999           0.000    20669122.921           0.000  
  -4714348.001           0.000    22314266.629           0.000  
 98  9 29 11 23 34.9980000  0  4G 4G14G16G19
   3091669.998           0.000    20711883.558           0.000  
   5745798.002           0.000    23295977.966           0.000  
   1189678.998           0.000    20668824.799           0.000  
  -4719862.000           0.000    22313217.325           0.000  
 98  9 29 11 23 35.9980000  0  4G 4G14G16G19
   3088223.000           0.000    20711224.787           0.000  
   5745833.999           0.000    23295984.767           0.000  
   1188111.999           0.000    20668526.473           0.000  
  -4725375.998           0.000    22312167.892           0.000  
 98  9 29 11 23 36.9980000  0  4G 4G14G16G19
   3084777.000           0.000    20710571.140           0.000  
   5745868.998           0.000    23295991.304           0.000  
   1186542.998           0.000    20668228.051           0.000  
  -4730891.998           0.000    22311118.358           0.000  
 98  9 29 11 23 37.9980000  0  4G 4G14G16G19
   3081330.999           0.000    20709913.621           0.000  
   5745902.998           0.000    23295997.774           0.000  
   1184975.000           0.000    20667929.572           0.000  
  -4736407.999           0.000    22310068.811           0.000  
 98  9 29 11 23 38.9980000  0  4G 4G14G16G19
   3077884.001           0.000    20709257.844           0.000  
   5745936.998           0.000    23296004.175           0.000  
   1183405.999           0.000    20667631.046           0.000  
  -4741924.000           0.000    22309019.202           0.000  
 98  9 29 11 23 39.9980000  0  4G 4G14G16G19
   3074435.000           0.000    20708599.933           0.000  
   5745970.000           0.000    23296010.424           0.000  
   1181836.998           0.000    20667332.399           0.000  
  -4747440.000           0.000    22307969.362           0.000  
 98  9 29 11 23 40.9980000  0  4G 4G14G16G19
   3070986.000           0.000    20707942.105           0.000  
   5746003.001           0.000    23296016.633           0.000  
   1180268.002           0.000    20667033.736           0.000  
  -4752956.999           0.000    22306919.497           0.000  
 98  9 29 11 23 41.9980000  0  4G 4G14G16G19
   3067540.998           0.000    20707285.006           0.000  
   5746034.999           0.000    23296022.786           0.000  
   1178698.002           0.000    20666734.951           0.000  
  -4758475.002           0.000    22305869.590           0.000  
 98  9 29 11 23 42.9980000  0  5G 4G14G16G18G19
   3064093.001           0.000    20706627.126           0.000  
   5746067.002           0.000    23296028.803           0.000  
   1177126.999           0.000    20666436.136           0.000  
   3146417.000           0.000    20000247.647           0.000  
  -4763992.001           0.000    22304819.566           0.000  
 98  9 29 11 23 43.9980000  0  5G 4G14G16G18G19
   3060643.002           0.000    20705970.177           0.000  
   5746098.002           0.000    23296034.709           0.000  
   1175556.999           0.000    20666137.174           0.000  
   3143696.000           0.000    19999726.944           0.000  
  -4769509.998           0.000    22303769.470           0.000  
 98  9 29 11 23 44.9980000  0  5G 4G14G16G18G19
   3057195.000           0.000    20705314.701           0.000  
   5746129.001           0.000    23296040.535           0.000  
   1173984.998           0.000    20665838.165           0.000  
   3140974.002           0.000    19999210.093           0.000  
  -4775028.999           0.000    22302719.288           0.000  
 98  9 29 11 23 45.9980000  0  5G 4G14G16G18G19
   3053746.998           0.000    20704658.229           0.000  
   5746157.998           0.000    23296046.085           0.000  
   1172413.001           0.000    20665538.867           0.000  
   3138254.001           0.000    19998689.621           0.000  
  -4780548.999           0.000    22301668.824           0.000  
 98  9 29 11 23 46.9980000  0  5G 4G14G16G18G19
   3050296.999           0.000    20704002.334           0.000  
   5746187.001           0.000    23296051.507           0.000  
   1170840.001           0.000    20665239.501           0.000  
   3135531.998           0.000    19998172.623           0.000  
  -4786068.000           0.000    22300618.318           0.000  
 98  9 29 11 23 47.9980000  0  5G 4G14G16G18G19
   3046847.998           0.000    20703345.461           0.000  
   5746215.000           0.000    23296056.902           0.000  
   1169267.000           0.000    20664940.163           0.000  
   3132806.999           0.000    19997654.909           0.000  
  -4791588.998           0.000    22299567.765           0.000  
 98  9 29 11 23 48.9980000  0  5G 4G14G16G18G19
   3043400.001           0.000    20702689.304           0.000  
   5746242.999           0.000    23296062.182           0.000  
   1167694.000           0.000    20664640.659           0.000  
   3130085.999           0.000    19997137.819           0.000  
  -4797108.998           0.000    22298517.131           0.000  
 98  9 29 11 23 49.9980000  0  5G 4G14G16G18G19
   3039950.002           0.000    20702032.433           0.000  
   5746269.999           0.000    23296067.279           0.000  
   1166120.001           0.000    20664341.054           0.000  
   3127362.998           0.000    19996619.945           0.000  
  -4802631.000           0.000    22297466.382           0.000  
 98  9 29 11 23 51.9980000  0  5G 4G14G16G18G19
   3033049.999           0.000    20700717.024           0.000  
   5746320.999           0.000    23296076.983           0.000  
   1162968.998           0.000    20663741.337           0.000  
   3121916.999           0.000    19995585.267           0.000  
  -4813674.998           0.000    22295364.642           0.000  
 98  9 29 11 23 52.9980000  0  4G 4G14G16G19
   3029596.999           0.000    20700049.753           0.000  
   5746346.003           0.000    23296081.661           0.000  
   1161392.997           0.000    20663441.346           0.000  
  -4819199.002           0.000    22294313.680           0.000  
 98  9 29 11 23 55.9980000  0  4G14G16G18G19
   5746415.001           0.000    23296094.815           0.000  
   1156661.999           0.000    20662540.958           0.000  
   3111016.001           0.000    19993510.639           0.000  
  -4835770.998           0.000    22291160.220           0.000  
 98  9 29 11 24  9.9980000  0  4G14G16G18G19
   5746647.999           0.000    23296139.296           0.000  
   1134508.998           0.000    20658325.916           0.000  
   3147601.001           0.000    19986239.518           0.000  
  -4913181.002           0.000    22276430.505           0.000  
 98  9 29 11 24 10.9980000  0  4G14G16G18G19
   5746657.999           0.000    23296141.352           0.000  
   1132921.998           0.000    20658023.933           0.000  
   3144867.999           0.000    19985719.508           0.000  
  -4918715.001           0.000    22275377.460           0.000  
 98  9 29 11 24 11.9980000  0  4G14G16G18G19
   5746668.000           0.000    23296143.323           0.000  
   1131334.000           0.000    20657721.866           0.000  
   3142137.998           0.000    19985199.170           0.000  
  -4924249.000           0.000    22274324.422           0.000  
 98  9 29 11 24 12.9980000  0  4G14G16G18G19
   5746677.001           0.000    23296145.136           0.000  
   1129746.002           0.000    20657419.662           0.000  
   3139405.001           0.000    19984678.151           0.000  
  -4929785.001           0.000    22273271.276           0.000  
 98  9 29 11 24 13.9980000  0  4G14G16G18G19
   5746685.998           0.000    23296146.747           0.000  
   1128157.000           0.000    20657117.329           0.000  
   3136671.000           0.000    19984163.916           0.000  
  -4935319.999           0.000    22272217.974           0.000  
 98  9 29 11 24 14.9980000  0  4G14G16G18G19
   5746692.998           0.000    23296148.189           0.000  
   1126567.998           0.000    20656814.904           0.000  
   3133937.998           0.000    19983642.001           0.000  
  -4940856.998           0.000    22271164.587           0.000  
 98  9 29 11 24 15.9980000  0  4G14G16G18G19
   5746700.003           0.000    23296149.491           0.000  
   1124977.998           0.000    20656512.408           0.000  
   3131203.998           0.000    19983122.986           0.000  
  -4946393.998           0.000    22270111.124           0.000  
 98  9 29 11 24 16.9980000  0  4G14G16G18G19
   5746705.999           0.000    23296150.723           0.000  
   1123387.997           0.000    20656209.839           0.000  
   3128470.002           0.000    19982599.655           0.000  
  -4951930.998           0.000    22269057.545           0.000  
 98  9 29 11 24 17.9980000  0  4G14G16G18G19
   5746712.000           0.000    23296151.803           0.000  
   1121796.999           0.000    20655907.201           0.000  
   3125736.002           0.000    19982079.038           0.000  
  -4957469.001           0.000    22268003.861           0.000  
 98  9 29 11 24 18.9980000  0  4G14G16G18G19
   5746715.999           0.000    23296152.600           0.000  
   1120205.001           0.000    20655604.350           0.000  
   3122999.999           0.000    19981559.777           0.000  
  -4963007.998           0.000    22266949.977           0.000  
 98  9 29 11 24 19.9980000  0  4G14G16G18G19
   5746719.000           0.000    23296153.154           0.000  
   1118612.000           0.000    20655301.290           0.000  
   3120262.000           0.000    19981040.443           0.000  
  -4968547.998           0.000    22265895.879           0.000  
 98  9 29 11 24 20.9980000  0  4G14G16G18G19
   5746721.002           0.000    23296153.591           0.000  
   1117018.999           0.000    20654998.092           0.000  
   3117524.000           0.000    19980520.110           0.000  
  -4974089.002           0.000    22264841.683           0.000  
 98  9 29 11 24 21.9980000  0  4G14G16G18G19
   5746722.000           0.000    23296153.823           0.000  
   1115424.002           0.000    20654694.752           0.000  
   3114787.997           0.000    19980000.203           0.000  
  -4979630.999           0.000    22263787.304           0.000  
 98  9 29 11 24 22.9980000  0  4G14G16G18G19
   5746722.999           0.000    23296153.910           0.000  
   1113828.999           0.000    20654391.341           0.000  
   3112049.998           0.000    19979479.235           0.000  
  -4985173.002           0.000    22262732.796           0.000  
 98  9 29 11 24 23.9980000  0  4G14G16G18G19
   5746722.000           0.000    23296153.827           0.000  
   1112234.001           0.000    20654087.806           0.000  
   3109311.000           0.000    19978957.841           0.000  
  -4990716.002           0.000    22261678.089           0.000  
 98  9 29 11 24 24.9980000  0  4G14G16G18G19
   5746721.002           0.000    23296153.595           0.000  
   1110637.001           0.000    20653784.095           0.000  
   3106572.002           0.000    19978436.435           0.000  
  -4996258.998           0.000    22260623.271           0.000  
 98  9 29 11 24 25.9980000  0  4G14G16G18G19
   5746718.001           0.000    23296153.186           0.000  
   1109040.001           0.000    20653480.243           0.000  
   3103832.998           0.000    19977914.767           0.000  
  -5001803.003           0.000    22259568.352           0.000  
 98  9 29 11 24 26.9980000  0  4G14G16G18G19
   5746715.999           0.000    23296152.686           0.000  
   1107443.001           0.000    20653176.306           0.000  
   3101091.998           0.000    19977392.931           0.000  
  -5007348.001           0.000    22258513.423           0.000  
 98  9 29 11 24 27.9980000  0  4G14G16G18G19
   5746712.000           0.000    23296152.069           0.000  
   1105845.002           0.000    20652872.269           0.000  
   3098352.002           0.000    19976871.766           0.000  
  -5012892.998           0.000    22257458.331           0.000  
 98  9 29 11 24 28.9980000  0  4G14G16G18G19
   5746708.001           0.000    23296151.292           0.000  
   1104246.998           0.000    20652568.150           0.000  
   3095612.000           0.000    19976350.783           0.000  
  -5018439.000           0.000    22256403.161           0.000  
 98  9 29 11 24 29.9980000  0  4G14G16G18G19
   5746702.998           0.000    23296150.438           0.000  
   1102649.000           0.000    20652263.968           0.000  
   3092871.998           0.000    19975829.157           0.000  
  -5023985.001           0.000    22255347.991           0.000  
 98  9 29 11 24 30.9980000  0  4G14G16G18G19
   5746698.001           0.000    23296149.460           0.000  
   1101049.998           0.000    20651959.716           0.000  
   3090130.998           0.000    19975307.844           0.000  
  -5029530.998           0.000    22254292.684           0.000  
 98  9 29 11 24 31.9980000  0  4G14G16G18G19
   5746691.999           0.000    23296148.327           0.000  
   1099450.002           0.000    20651655.292           0.000  
   3087388.999           0.000    19974786.268           0.000  
  -5035077.998           0.000    22253237.195           0.000  
 98  9 29 11 24 32.9980000  0  4G14G16G18G19
   5746685.000           0.000    23296146.967           0.000  
   1097848.998           0.000    20651350.772           0.000  
   3084647.999           0.000    19974264.579           0.000  
  -5040626.001           0.000    22252181.550           0.000  
 98  9 29 11 24 33.9980000  0  4G14G16G18G19
   5746677.001           0.000    23296145.412           0.000  
   1096247.999           0.000    20651046.084           0.000  
   3081906.000           0.000    19973742.706           0.000  
  -5046174.998           0.000    22251125.795           0.000  
 98  9 29 11 24 34.9980000  0  4G14G16G18G19
   5746668.000           0.000    23296143.754           0.000  
   1094646.001           0.000    20650741.253           0.000  
   3079162.998           0.000    19973220.838           0.000  
  -5051724.000           0.000    22250069.890           0.000  
 98  9 29 11 24 35.9980000  0  4G14G16G18G19
   5746657.999           0.000    23296141.903           0.000  
   1093043.998           0.000    20650436.235           0.000  
   3076420.001           0.000    19972698.829           0.000  
  -5057274.001           0.000    22249013.808           0.000  
 98  9 29 11 24 36.9980000  0  4G14G16G18G19
   5746646.002           0.000    23296139.780           0.000  
   1091439.999           0.000    20650131.043           0.000  
   3073675.001           0.000    19972176.601           0.000  
  -5062825.000           0.000    22247957.540           0.000  
 98  9 29 11 24 37.9980000  0  4G14G16G18G19
   5746634.000           0.000    23296137.536           0.000  
   1089835.999           0.000    20649825.735           0.000  
   3070931.001           0.000    19971654.175           0.000  
  -5068376.998           0.000    22246901.148           0.000  
 98  9 29 11 24 38.9980000  0  4G14G16G18G19
   5746622.002           0.000    23296135.172           0.000  
   1088231.001           0.000    20649520.325           0.000  
   3068186.001           0.000    19971132.011           0.000  
  -5073929.000           0.000    22245844.683           0.000  
 98  9 29 11 24 39.9980000  0  4G14G16G18G19
   5746607.998           0.000    23296132.686           0.000  
   1086625.997           0.000    20649214.842           0.000  
   3065441.002           0.000    19970609.702           0.000  
  -5079482.002           0.000    22244788.217           0.000  
 98  9 29 11 24 40.9980000  0  4G14G16G18G19
   5746593.998           0.000    23296130.008           0.000  
   1085020.001           0.000    20648909.187           0.000  
   3062695.997           0.000    19970087.139           0.000  
  -5085034.998           0.000    22243731.543           0.000  
 98  9 29 11 24 41.9980000  0  4G14G16G18G19
   5746579.000           0.000    23296127.256           0.000  
   1083413.999           0.000    20648603.401           0.000  
   3059950.000           0.000    19969564.739           0.000  
  -5090589.003           0.000    22242674.764           0.000  
 98  9 29 11 24 42.9980000  0  4G14G16G18G19
   5746564.002           0.000    23296124.357           0.000  
   1081806.998           0.000    20648297.519           0.000  
   3057204.002           0.000    19969042.317           0.000  
  -5096143.002           0.000    22241617.840           0.000  
 98  9 29 11 24 43.9980000  0  4G14G16G18G19
   5746548.001           0.000    23296121.276           0.000  
   1080199.998           0.000    20647991.558           0.000  
   3054457.999           0.000    19968519.711           0.000  
  -5101698.000           0.000    22240560.915           0.000  
 98  9 29 11 24 44.9980000  0  4G14G16G18G19
   5746530.002           0.000    23296118.065           0.000  
   1078591.999           0.000    20647685.508           0.000  
   3051710.997           0.000    19967997.087           0.000  
  -5107254.002           0.000    22239503.788           0.000  
 98  9 29 11 24 45.9980000  0  4G14G16G18G19
   5746511.999           0.000    23296114.683           0.000  
   1076983.002           0.000    20647379.289           0.000  
   3048964.001           0.000    19967474.178           0.000  
  -5112809.999           0.000    22238446.500           0.000  
 98  9 29 11 24 46.9980000  0  4G14G16G18G19
   5746493.002           0.000    23296111.138           0.000  
   1075373.001           0.000    20647072.932           0.000  
   3046216.001           0.000    19966951.290           0.000  
  -5118366.999           0.000    22237389.074           0.000  
 98  9 29 11 24 47.9980000  0  4G14G16G18G19
   5746473.999           0.000    23296107.381           0.000  
   1073763.000           0.000    20646766.510           0.000  
   3043468.001           0.000    19966428.360           0.000  
  -5123923.999           0.000    22236331.528           0.000  
 98  9 29 11 24 48.9980000  0  4G14G16G18G19
   5746453.000           0.000    23296103.494           0.000  
   1072152.999           0.000    20646459.958           0.000  
   3040718.998           0.000    19965905.350           0.000  
  -5129483.002           0.000    22235273.856           0.000  
 98  9 29 11 24 49.9980000  0  4G14G16G18G19
   5746431.003           0.000    23296099.362           0.000  
   1070541.001           0.000    20646153.258           0.000  
   3037969.999           0.000    19965382.101           0.000  
  -5135041.999           0.000    22234216.021           0.000  
 98  9 29 11 24 50.9980000  0  4G14G16G18G19
   5746409.000           0.000    23296094.984           0.000  
   1068928.998           0.000    20645846.416           0.000  
   3035220.002           0.000    19964858.811           0.000  
  -5140601.002           0.000    22233158.031           0.000  
 98  9 29 11 24 51.9980000  0  4G14G16G18G19
   5746385.000           0.000    23296090.483           0.000  
   1067314.998           0.000    20645539.459           0.000  
   3032470.000           0.000    19964335.534           0.000  
  -5146162.001           0.000    22232099.897           0.000  
 98  9 29 11 24 52.9980000  0  4G14G16G18G19
   5746360.002           0.000    23296085.860           0.000  
   1065702.002           0.000    20645232.435           0.000  
   3029719.000           0.000    19963812.046           0.000  
  -5151723.000           0.000    22231041.653           0.000  
 98  9 29 11 24 53.9980000  0  4G14G16G18G19
   5746336.002           0.000    23296081.091           0.000  
   1064088.002           0.000    20644925.323           0.000  
   3026968.998           0.000    19963288.718           0.000  
  -5157284.000           0.000    22229983.335           0.000  
 98  9 29 11 24 54.9980000  0  4G14G16G18G19
   5746310.000           0.000    23296076.180           0.000  
   1062472.998           0.000    20644618.089           0.000  
   3024218.002           0.000    19962765.357           0.000  
  -5162845.998           0.000    22228924.904           0.000  
 98  9 29 11 24 55.9980000  0  4G14G16G18G19
   5746283.998           0.000    23296071.235           0.000  
   1060857.999           0.000    20644310.812           0.000  
   3021465.998           0.000    19962241.793           0.000  
  -5168408.999           0.000    22227866.397           0.000  
 98  9 29 11 24 56.9980000  0  4G14G16G18G19
   5746256.000           0.000    23296066.081           0.000  
   1059242.002           0.000    20644003.359           0.000  
   3018713.999           0.000    19961718.220           0.000  
  -5173972.001           0.000    22226807.743           0.000  
 98  9 29 11 24 57.9980000  0  4G14G16G18G19
   5746228.999           0.000    23296060.862           0.000  
   1057626.999           0.000    20643695.928           0.000  
   3015962.998           0.000    19961194.657           0.000  
  -5179535.002           0.000    22225749.196           0.000  
 98  9 29 11 24 58.9980000  0  4G14G16G18G19
   5746200.002           0.000    23296055.368           0.000  
   1056009.998           0.000    20643388.256           0.000  
   3013210.001           0.000    19960670.725           0.000  
  -5185099.002           0.000    22224690.320           0.000  
 98  9 29 11 24 59.9980000  0  4G14G16G18G19
   5746170.001           0.000    23296049.702           0.000  
   1054391.999           0.000    20643080.394           0.000  
   3010456.998           0.000    19960146.819           0.000  
  -5190664.001           0.000    22223631.296           0.000  
 98  9 29 11 25  0.9980000  0  4G14G16G18G19
   5746140.000           0.000    23296043.950           0.000  
   1052774.000           0.000    20642772.561           0.000  
   3007704.001           0.000    19959623.003           0.000  
  -5196228.999           0.000    22222572.221           0.000  
 98  9 29 11 25  1.9980000  0  4G14G16G18G19
   5746109.000           0.000    23296037.903           0.000  
   1051155.002           0.000    20642464.466           0.000  
   3004950.000           0.000    19959099.045           0.000  
  -5201796.000           0.000    22221512.879           0.000  
 98  9 29 11 25  2.9980000  0  4G14G16G18G19
   5746075.999           0.000    23296031.767           0.000  
   1049535.001           0.000    20642156.210           0.000  
   3002195.998           0.000    19958574.946           0.000  
  -5207363.001           0.000    22220453.389           0.000  
 98  9 29 11 25  3.9980000  0  4G14G16G18G19
   5746044.001           0.000    23296025.636           0.000  
   1047914.999           0.000    20641847.989           0.000  
   2999440.999           0.000    19958050.876           0.000  
  -5212930.001           0.000    22219393.974           0.000  
 98  9 29 11 25  4.9980000  0  4G14G16G18G19
   5746010.999           0.000    23296019.258           0.000  
   1046294.998           0.000    20641539.599           0.000  
   2996686.998           0.000    19957526.779           0.000  
  -5218498.000           0.000    22218334.343           0.000  
 98  9 29 11 25  5.9980000  0  4G14G16G18G19
   5745976.001           0.000    23296012.745           0.000  
   1044673.000           0.000    20641231.104           0.000  
   2993931.998           0.000    19957002.597           0.000  
  -5224066.000           0.000    22217274.572           0.000  
 98  9 29 11 25  6.9980000  0  4G14G16G18G19
   5745941.002           0.000    23296006.125           0.000  
   1043052.000           0.000    20640922.583           0.000  
   2991176.000           0.000    19956478.327           0.000  
  -5229635.002           0.000    22216214.716           0.000  
 98  9 29 11 25  7.9980000  0  4G14G16G18G19
   5745905.000           0.000    23295999.279           0.000  
   1041428.998           0.000    20640613.868           0.000  
   2988420.002           0.000    19955953.952           0.000  
  -5235204.000           0.000    22215154.809           0.000  
 98  9 29 11 25  8.9980000  0  4G14G16G18G19
   5745868.998           0.000    23295992.344           0.000  
   1039806.001           0.000    20640305.097           0.000  
   2985663.998           0.000    19955429.486           0.000  
  -5240774.001           0.000    22214094.762           0.000  
 98  9 29 11 25  9.9980000  0  4G14G16G18G19
   5745832.002           0.000    23295985.156           0.000  
   1038182.001           0.000    20639996.108           0.000  
   2982907.002           0.000    19954904.642           0.000  
  -5246345.001           0.000    22213034.572           0.000  
 98  9 29 11 25 10.9980000  0  4G14G16G18G19
   5745792.001           0.000    23295977.706           0.000  
   1036557.002           0.000    20639686.905           0.000  
   2980149.002           0.000    19954379.511           0.000  
  -5251916.999           0.000    22211974.111           0.000  
 98  9 29 11 25 11.9980000  0  4G14G16G18G19
   5745752.000           0.000    23295970.022           0.000  
   1034931.000           0.000    20639377.499           0.000  
   2977391.001           0.000    19953854.445           0.000  
  -5257490.001           0.000    22210913.444           0.000  
 98  9 29 11 25 12.9980000  0  5G 4G14G16G18G19
   3146679.000           0.000    20647361.917           0.000  
   5745711.998           0.000    23295962.303           0.000  
   1033305.002           0.000    20639068.076           0.000  
   2974631.997           0.000    19953329.337           0.000  
  -5263064.001           0.000    22209852.750           0.000  
 98  9 29 11 25 13.9980000  0  5G 4G14G16G18G19
   3143201.002           0.000    20646698.902           0.000  
   5745670.000           0.000    23295954.536           0.000  
   1031678.001           0.000    20638758.566           0.000  
   2971874.002           0.000    19952804.276           0.000  
  -5268636.998           0.000    22208792.010           0.000  
 98  9 29 11 25 14.9980000  0  5G 4G14G16G18G19
   3139719.998           0.000    20646031.594           0.000  
   5745628.002           0.000    23295946.414           0.000  
   1030050.002           0.000    20638448.758           0.000  
   2969114.000           0.000    19952279.165           0.000  
  -5274212.002           0.000    22207731.011           0.000  
 98  9 29 11 25 15.9980000  0  5G 4G14G16G18G19
   3136241.002           0.000    20645371.230           0.000  
   5745584.001           0.000    23295938.134           0.000  
   1028422.002           0.000    20638138.798           0.000  
   2966352.999           0.000    19951753.821           0.000  
  -5279787.999           0.000    22206669.788           0.000  
 98  9 29 11 25 16.9980000  0  5G 4G14G16G18G19
   3132762.000           0.000    20644706.919           0.000  
   5745540.001           0.000    23295929.740           0.000  
   1026792.999           0.000    20637828.778           0.000  
   2963593.002           0.000    19951228.559           0.000  
  -5285364.002           0.000    22205608.559           0.000  
 98  9 29 11 25 17.9980000  0  5G 4G14G16G18G19
   3129284.002           0.000    20644041.840           0.000  
   5745495.002           0.000    23295921.206           0.000  
   1025162.997           0.000    20637518.618           0.000  
   2960832.001           0.000    19950703.107           0.000  
  -5290940.998           0.000    22204547.198           0.000  
 98  9 29 11 25 18.9980000  0  5G 4G14G16G18G19
   3125805.999           0.000    20643379.725           0.000  
   5745448.001           0.000    23295912.348           0.000  
   1023531.997           0.000    20637208.286           0.000  
   2958070.002           0.000    19950177.553           0.000  
  -5296517.999           0.000    22203485.659           0.000  
 98  9 29 11 25 19.9980000  0  5G 4G14G16G18G19
   3122325.000           0.000    20642719.529           0.000  
   5745401.000           0.000    23295903.294           0.000  
   1021900.997           0.000    20636897.768           0.000  
   2955308.002           0.000    19949651.886           0.000  
  -5302097.002           0.000    22202423.953           0.000  
 98  9 29 11 25 20.9980000  0  5G 4G14G16G18G19
   3118844.002           0.000    20642060.479           0.000  
   5745353.001           0.000    23295894.147           0.000  
   1020268.999           0.000    20636587.141           0.000  
   2952544.999           0.000    19949126.032           0.000  
  -5307676.000           0.000    22201362.114           0.000  
 98  9 29 11 25 21.9980000  0  4G14G16G18G19
   5745305.001           0.000    23295884.890           0.000  
   1018636.002           0.000    20636276.490           0.000  
   2949782.001           0.000    19948600.033           0.000  
  -5313255.003           0.000    22200300.251           0.000  
 98  9 29 11 25 22.9980000  0  4G14G16G18G19
   5745255.998           0.000    23295875.572           0.000  
   1017003.998           0.000    20635965.752           0.000  
   2947020.002           0.000    19948074.286           0.000  
  -5318834.999           0.000    22199238.396           0.000  
 98  9 29 11 25 23.9980000  0  4G14G16G18G19
   5745204.998           0.000    23295866.044           0.000  
   1015370.002           0.000    20635654.840           0.000  
   2944256.001           0.000    19947548.108           0.000  
  -5324415.999           0.000    22198176.309           0.000  
 98  9 29 11 25 24.9980000  0  4G14G16G18G19
   5745153.998           0.000    23295856.259           0.000  
   1013734.998           0.000    20635343.695           0.000  
   2941491.001           0.000    19947021.875           0.000  
  -5329997.998           0.000    22197114.023           0.000  
 98  9 29 11 25 25.9980000  0  4G14G16G18G19
   5745101.999           0.000    23295846.396           0.000  
   1012099.999           0.000    20635032.477           0.000  
   2938726.999           0.000    19946495.708           0.000  
  -5335580.002           0.000    22196051.700           0.000  
 98  9 29 11 25 26.9980000  0  4G14G16G18G19
   5745049.002           0.000    23295836.319           0.000  
   1010464.001           0.000    20634721.157           0.000  
   2935961.999           0.000    19945969.330           0.000  
  -5341162.999           0.000    22194989.171           0.000  
 98  9 29 11 25 29.9980000  0  4G14G16G18G19
   5744882.002           0.000    23295804.636           0.000  
   1005550.002           0.000    20633785.890           0.000  
   2927662.002           0.000    19944378.941           0.000  
  -5357918.001           0.000    22191800.154           0.000  
 98  9 29 11 25 30.9980000  0  4G14G16G18G19
   5744825.001           0.000    23295793.798           0.000  
   1003910.998           0.000    20633473.940           0.000  
   2924894.001           0.000    19943850.192           0.000  
  -5363503.999           0.000    22190736.914           0.000  
 98  9 29 11 25 31.9980000  0  4G14G16G18G19
   5744767.001           0.000    23295782.816           0.000  
   1002271.001           0.000    20633161.918           0.000  
   2922126.999           0.000    19943326.716           0.000  
  -5369091.000           0.000    22189673.597           0.000  
 98  9 29 11 25 32.9980000  0  4G14G16G18G19
   5744709.001           0.000    23295771.753           0.000  
   1000630.999           0.000    20632849.778           0.000  
   2919358.998           0.000    19942797.528           0.000  
  -5374678.001           0.000    22188610.186           0.000  
 98  9 29 11 25 33.9980000  0  4G14G16G18G19
   5744648.999           0.000    23295760.524           0.000  
    998990.997           0.000    20632537.567           0.000  
   2916589.999           0.000    19942271.902           0.000  
  -5380266.001           0.000    22187546.670           0.000  
 98  9 29 11 25 34.9980000  0  5G 4G14G16G18G19
   3147424.999           0.000    20632762.912           0.000  
   5744589.002           0.000    23295749.147           0.000  
    997348.999           0.000    20632225.246           0.000  
   2913821.999           0.000    19941745.320           0.000  
  -5385854.999           0.000    22186483.045           0.000  
 98  9 29 11 25 35.9980000  0  5G 4G14G16G18G19
   3143937.001           0.000    20632093.095           0.000  
   5744528.002           0.000    23295737.513           0.000  
    995707.000           0.000    20631912.734           0.000  
   2911052.001           0.000    19941218.680           0.000  
  -5391443.998           0.000    22185419.214           0.000  
 98  9 29 11 25 36.9980000  0  5G 4G14G16G18G19
   3140451.000           0.000    20631429.339           0.000  
   5744465.998           0.000    23295725.752           0.000  
    994064.002           0.000    20631600.085           0.000  
   2908281.998           0.000    19940691.939           0.000  
  -5397034.998           0.000    22184355.295           0.000  
 98  9 29 11 25 37.9980000  0  5G 4G14G16G18G19
   3136960.999           0.000    20630764.318           0.000  
   5744402.002           0.000    23295713.725           0.000  
    992420.001           0.000    20631287.308           0.000  
   2905512.001           0.000    19940165.844           0.000  
  -5402625.998           0.000    22183291.195           0.000  
 98  9 29 11 25 38.9980000  0  5G 4G14G16G18G19
   3133474.998           0.000    20630109.608           0.000  
   5744338.001           0.000    23295701.532           0.000  
    990775.002           0.000    20630974.375           0.000  
   2902741.000           0.000    19939639.881           0.000  
  -5408216.999           0.000    22182227.026           0.000  
 98  9 29 11 25 39.9980000  0  5G 4G14G16G18G19
   3129986.001           0.000    20629444.146           0.000  
   5744273.001           0.000    23295689.004           0.000  
    989128.999           0.000    20630661.222           0.000  
   2899968.001           0.000    19939112.889           0.000  
  -5413810.001           0.000    22181162.615           0.000  
 98  9 29 11 25 40.9980000  0  5G 4G14G16G18G19
   3126495.002           0.000    20628782.098           0.000  
   5744206.000           0.000    23295676.300           0.000  
    987482.002           0.000    20630347.831           0.000  
   2897194.998           0.000    19938585.332           0.000  
  -5419405.001           0.000    22180097.985           0.000  
 98  9 29 11 25 41.9980000  0  5G 4G14G16G18G19
   3123006.000           0.000    20628120.209           0.000  
   5744138.000           0.000    23295663.488           0.000  
    985835.000           0.000    20630034.335           0.000  
   2894422.000           0.000    19938058.050           0.000  
  -5424999.002           0.000    22179033.219           0.000  
 98  9 29 11 25 42.9980000  0  5G 4G14G16G18G19
   3119516.000           0.000    20627458.045           0.000  
   5744069.999           0.000    23295650.562           0.000  
    984187.000           0.000    20629720.749           0.000  
   2891647.998           0.000    19937530.512           0.000  
  -5430594.001           0.000    22177968.432           0.000  
 98  9 29 11 25 43.9980000  0  5G 4G14G16G18G19
   3116025.001           0.000    20626794.150           0.000  
   5744001.001           0.000    23295637.464           0.000  
    982538.002           0.000    20629407.047           0.000  
   2888874.002           0.000    19937003.063           0.000  
  -5436189.999           0.000    22176903.464           0.000  
 98  9 29 11 25 44.9980000  0  5G 4G14G16G18G19
   3112532.999           0.000    20626127.488           0.000  
   5743930.998           0.000    23295624.204           0.000  
    980888.998           0.000    20629093.157           0.000  
   2886100.000           0.000    19936475.584           0.000  
  -5441786.003           0.000    22175838.405           0.000  
 98  9 29 11 25 45.9980000  0  5G 4G14G16G18G19
   3109042.998           0.000    20625462.043           0.000  
   5743859.998           0.000    23295610.844           0.000  
    979239.001           0.000    20628779.232           0.000  
   2883324.999           0.000    19935947.720           0.000  
  -5447382.999           0.000    22174773.297           0.000  
 98  9 29 11 25 46.9980000  0  5G 4G14G16G18G19
   3105552.998           0.000    20624797.424           0.000  
   5743789.002           0.000    23295597.385           0.000  
    977588.998           0.000    20628465.283           0.000  
   2880549.999           0.000    19935420.022           0.000  
  -5452980.001           0.000    22173708.087           0.000  
 98  9 29 11 25 47.9980000  0  5G 4G14G16G18G19
   3102061.000           0.000    20624131.170           0.000  
   5743716.998           0.000    23295583.731           0.000  
    975937.998           0.000    20628151.146           0.000  
   2877774.999           0.000    19934892.101           0.000  
  -5458578.001           0.000    22172642.736           0.000  
 98  9 29 11 25 48.9980000  0  5G 4G14G16G18G19
   3098567.999           0.000    20623466.069           0.000  
   5743644.000           0.000    23295569.878           0.000  
    974285.998           0.000    20627836.849           0.000  
   2874998.002           0.000    19934364.355           0.000  
  -5464176.999           0.000    22171577.231           0.000  
 98  9 29 11 25 49.9980000  0  5G 4G14G16G18G19
   3095076.002           0.000    20622802.030           0.000  
   5743569.000           0.000    23295555.816           0.000  
    972633.001           0.000    20627522.421           0.000  
   2872220.999           0.000    19933836.325           0.000  
  -5469777.001           0.000    22170511.558           0.000  
 98  9 29 11 25 50.9980000  0  5G 4G14G16G18G19
   3091583.001           0.000    20622136.750           0.000  
   5743494.000           0.000    23295541.618           0.000  
    970979.998           0.000    20627207.842           0.000  
   2869444.002           0.000    19933307.965           0.000  
  -5475378.002           0.000    22169445.812           0.000  
 98  9 29 11 25 51.9980000  0  5G 4G14G16G18G19
   3088090.000           0.000    20621472.276           0.000  
   5743418.002           0.000    23295527.170           0.000  
    969324.998           0.000    20626893.041           0.000  
   2866666.001           0.000    19932779.688           0.000  
  -5480978.998           0.000    22168379.855           0.000  
 98  9 29 11 25 52.9980000  0  5G 4G14G16G18G19
   3084596.999           0.000    20620807.144           0.000  
   5743340.001           0.000    23295512.470           0.000  
    967669.998           0.000    20626578.048           0.000  
   2863887.002           0.000    19932260.157           0.000  
  -5486581.002           0.000    22167313.827           0.000  
 98  9 29 11 25 53.9980000  0  5G 4G14G16G18G19
   3081103.998           0.000    20620142.387           0.000  
   5743262.999           0.000    23295497.757           0.000  
    966014.998           0.000    20626263.048           0.000  
   2861108.002           0.000    19931731.844           0.000  
  -5492184.000           0.000    22166247.822           0.000  
 98  9 29 11 25 54.9980000  0  5G 4G14G16G18G19
   3077609.000           0.000    20619477.317           0.000  
   5743184.000           0.000    23295482.776           0.000  
    964358.002           0.000    20625947.849           0.000  
   2858327.999           0.000    19931202.389           0.000  
  -5497787.003           0.000    22165181.531           0.000  
 98  9 29 11 25 55.9980000  0  5G 4G14G16G18G19
   3074114.002           0.000    20618812.650           0.000  
   5743103.998           0.000    23295467.634           0.000  
    962700.999           0.000    20625632.572           0.000  
   2855548.001           0.000    19930673.755           0.000  
  -5503390.999           0.000    22164115.169           0.000  
 98  9 29 11 25 56.9980000  0  5G 4G14G16G18G19
   3070618.999           0.000    20618146.768           0.000  
   5743024.000           0.000    23295452.381           0.000  
    961042.999           0.000    20625317.168           0.000  
   2852767.998           0.000    19930143.949           0.000  
  -5508995.999           0.000    22163048.658           0.000  
 98  9 29 11 25 57.9980000  0  4G14G16G18G19
   5742942.999           0.000    23295437.053           0.000  
    959384.999           0.000    20625001.685           0.000  
   2849987.002           0.000    19929615.608           0.000  
  -5514600.998           0.000    22161982.037           0.000  
 98  9 29 11 25 58.9980000  0  5G 4G14G16G18G19
   3063624.998           0.000    20616811.545           0.000  
   5742860.001           0.000    23295421.443           0.000  
    957726.000           0.000    20624686.017           0.000  
   2847206.000           0.000    19929087.190           0.000  
  -5520205.998           0.000    22160915.292           0.000  
 98  9 29 11 25 59.9980000  0  5G 4G14G16G18G19
   3060127.998           0.000    20616145.697           0.000  
   5742778.002           0.000    23295405.683           0.000  
    956067.001           0.000    20624370.235           0.000  
   2844424.000           0.000    19928558.378           0.000  
  -5525813.000           0.000    22159848.496           0.000  
 98  9 29 11 26  0.9980000  0  5G 4G14G16G18G19
   3056633.999           0.000    20615481.459           0.000  
   5742694.000           0.000    23295389.865           0.000  
    954406.998           0.000    20624054.380           0.000  
   2841642.999           0.000    19928028.971           0.000  
  -5531418.998           0.000    22158781.624           0.000  
 98  9 29 11 26  1.9980000  0  5G 4G14G16G18G19
   3053138.002           0.000    20614817.274           0.000  
   5742609.998           0.000    23295373.888           0.000  
    952746.002           0.000    20623738.416           0.000  
   2838860.999           0.000    19927499.650           0.000  
  -5537026.999           0.000    22157714.651           0.000  
 98  9 29 11 26  2.9980000  0  5G 4G14G16G18G19
   3049639.998           0.000    20614160.898           0.000  
   5742524.998           0.000    23295357.777           0.000  
    951085.001           0.000    20623422.326           0.000  
   2836078.000           0.000    19926970.313           0.000  
  -5542634.999           0.000    22156647.592           0.000  
 98  9 29 11 26  3.9980000  0  5G 4G14G16G18G19
   3046142.998           0.000    20613500.373           0.000  
   5742438.999           0.000    23295341.442           0.000  
    949423.002           0.000    20623106.093           0.000  
   2833295.002           0.000    19926440.729           0.000  
  -5548243.000           0.000    22155580.411           0.000  
 98  9 29 11 26  4.9980000  0  5G 4G14G16G18G19
   3042645.000           0.000    20612837.159           0.000  
   5742353.001           0.000    23295324.997           0.000  
    947761.002           0.000    20622789.793           0.000  
   2830511.998           0.000    19925910.639           0.000  
  -5553851.999           0.000    22154513.111           0.000  
 98  9 29 11 26  5.9980000  0  5G 4G14G16G18G19
   3039144.999           0.000    20612181.756           0.000  
   5742265.998           0.000    23295308.480           0.000  
    946097.999           0.000    20622473.438           0.000  
   2827728.001           0.000    19925380.562           0.000  
  -5559462.001           0.000    22153445.771           0.000  
 98  9 29 11 26  6.9980000  0  5G 4G14G16G18G19
   3035649.002           0.000    20611518.195           0.000  
   5742178.003           0.000    23295291.774           0.000  
    944435.001           0.000    20622156.925           0.000  
   2824943.999           0.000    19924850.758           0.000  
  -5565071.999           0.000    22152378.266           0.000  
 98  9 29 11 26  7.9980000  0  5G 4G14G16G18G19
   3032150.000           0.000    20610851.278           0.000  
   5742088.998           0.000    23295274.922           0.000  
    942770.999           0.000    20621840.308           0.000  
   2822160.002           0.000    19924320.651           0.000  
  -5570682.001           0.000    22151310.697           0.000  
 98  9 29 11 26  8.9980000  0  5G 4G14G16G18G19
   3028652.002           0.000    20610178.573           0.000  
   5741999.000           0.000    23295257.911           0.000  
    941105.999           0.000    20621523.539           0.000  
   2819375.001           0.000    19923790.281           0.000  
  -5576294.001           0.000    22150243.000           0.000  
 98  9 29 11 26  9.9980000  0  5G 4G14G16G18G19
   3025152.001           0.000    20609510.093           0.000  
   5741909.003           0.000    23295240.753           0.000  
    939440.999           0.000    20621206.685           0.000  
   2816590.001           0.000    19923260.140           0.000  
  -5581906.000           0.000    22149175.070           0.000  
 98  9 29 11 26 10.9980000  0  4G14G16G18G19
   5741818.001           0.000    23295223.339           0.000  
    937775.000           0.000    20620889.730           0.000  
   2813804.002           0.000    19922729.862           0.000  
  -5587518.000           0.000    22148107.013           0.000  
 98  9 29 11 26 11.9980000  0  4G14G16G18G19
   5741726.001           0.000    23295205.923           0.000  
    936109.001           0.000    20620572.721           0.000  
   2811019.001           0.000    19922199.781           0.000  
  -5593130.998           0.000    22147038.951           0.000  
 98  9 29 11 26 12.9980000  0  4G14G16G18G19
   5741634.001           0.000    23295188.343           0.000  
    934441.999           0.000    20620255.522           0.000  
   2808233.002           0.000    19921669.833           0.000  
  -5598744.001           0.000    22145970.605           0.000  
 98  9 29 11 26 13.9980000  0  4G14G16G18G19
   5741539.999           0.000    23295170.550           0.000  
    932773.998           0.000    20619938.178           0.000  
   2805445.999           0.000    19921139.565           0.000  
  -5604359.001           0.000    22144902.132           0.000  
 98  9 29 11 26 14.9980000  0  4G14G16G18G19
   5741446.003           0.000    23295152.570           0.000  
    931105.997           0.000    20619620.674           0.000  
   2802657.998           0.000    19920609.273           0.000  
  -5609974.001           0.000    22143833.564           0.000  
 98  9 29 11 26 15.9980000  0  4G14G16G18G19
   5741349.998           0.000    23295134.454           0.000  
    929436.998           0.000    20619303.061           0.000  
   2799871.000           0.000    19920078.796           0.000  
  -5615589.001           0.000    22142764.807           0.000  
 98  9 29 11 26 16.9980000  0  4G14G16G18G19
   5741253.999           0.000    23295116.111           0.000  
    927767.000           0.000    20618985.307           0.000  
   2797082.001           0.000    19919548.219           0.000  
  -5621205.998           0.000    22141695.899           0.000  
 98  9 29 11 26 17.9980000  0  4G14G16G18G19
   5741155.998           0.000    23295097.584           0.000  
    926095.000           0.000    20618667.414           0.000  
   2794293.001           0.000    19919017.470           0.000  
  -5626823.001           0.000    22140626.936           0.000  
 98  9 29 11 26 18.9980000  0  4G14G16G18G19
   5741056.999           0.000    23295078.736           0.000  
    924423.001           0.000    20618349.182           0.000  
   2791501.999           0.000    19918486.389           0.000  
  -5632442.000           0.000    22139557.692           0.000  
 98  9 29 11 26 19.9980000  0  4G14G16G18G19
   5740957.000           0.000    23295059.652           0.000  
    922748.999           0.000    20618030.751           0.000  
   2788711.002           0.000    19917955.422           0.000  
  -5638061.998           0.000    22138488.210           0.000  
 98  9 29 11 26 20.9980000  0  4G14G16G18G19
   5740855.999           0.000    23295040.476           0.000  
    921075.002           0.000    20617712.254           0.000  
   2785919.002           0.000    19917424.317           0.000  
  -5643682.999           0.000    22137418.650           0.000  
 98  9 29 11 26 21.9980000  0  4G14G16G18G19
   5740755.002           0.000    23295021.153           0.000  
    919401.000           0.000    20617393.696           0.000  
   2783128.000           0.000    19916893.122           0.000  
  -5649304.000           0.000    22136349.038           0.000  
 98  9 29 11 26 22.9980000  0  4G14G16G18G19
   5740651.998           0.000    23295001.666           0.000  
    917725.999           0.000    20617074.940           0.000  
   2780335.001           0.000    19916361.817           0.000  
  -5654925.002           0.000    22135279.238           0.000  
 98  9 29 11 26 23.9980000  0  4G14G16G18G19
   5740549.000           0.000    23294982.019           0.000  
    916050.000           0.000    20616756.107           0.000  
   2777541.997           0.000    19915830.296           0.000  
  -5660547.002           0.000    22134209.373           0.000  
 98  9 29 11 26 24.9980000  0  4G14G16G18G19
   5740445.002           0.000    23294962.213           0.000  
    914374.001           0.000    20616437.119           0.000  
   2774748.998           0.000    19915298.723           0.000  
  -5666170.000           0.000    22133139.317           0.000  
 98  9 29 11 26 25.9980000  0  4G14G16G18G19
   5740341.000           0.000    23294942.362           0.000  
    912696.999           0.000    20616118.106           0.000  
   2771956.000           0.000    19914767.209           0.000  
  -5671792.998           0.000    22132069.268           0.000  
 98  9 29 11 26 26.9980000  0  4G14G16G18G19
   5740237.003           0.000    23294922.398           0.000  
    911020.001           0.000    20615798.942           0.000  
   2769163.001           0.000    19914235.676           0.000  
  -5677416.002           0.000    22130999.176           0.000  
 98  9 29 11 26 27.9980000  0  4G14G16G18G19
   5740130.998           0.000    23294902.406           0.000  
    909342.998           0.000    20615479.700           0.000  
   2766368.998           0.000    19913704.244           0.000  
  -5683039.000           0.000    22129929.039           0.000  
 98  9 29 11 26 28.9980000  0  4G14G16G18G19
   5740024.999           0.000    23294882.200           0.000  
    907664.997           0.000    20615160.359           0.000  
   2763575.999           0.000    19913172.501           0.000  
  -5688664.001           0.000    22128858.804           0.000  
 98  9 29 11 26 29.9970000  0  4G14G16G18G19
   7315339.000           0.000    23594654.385           0.000  
   2481408.000           0.000    20914633.688           0.000  
   4336203.999           0.000    20212433.657           0.000  
  -4118863.000           0.000    22427581.917           0.000  
 98  9 29 11 26 30.9970000  0  4G14G16G18G19
   7315230.998           0.000    23594633.888           0.000  
   2479728.002           0.000    20914314.016           0.000  
   4333408.998           0.000    20211901.777           0.000  
  -4124488.000           0.000    22426511.379           0.000  
 98  9 29 11 26 31.9970000  0  4G14G16G18G19
   7315123.002           0.000    23594613.184           0.000  
   2478047.998           0.000    20913994.248           0.000  
   4330613.997           0.000    20211369.666           0.000  
  -4130113.999           0.000    22425440.772           0.000  
 98  9 29 11 26 32.9970000  0  4G14G16G18G19
   7315012.998           0.000    23594592.360           0.000  
   2476367.002           0.000    20913674.392           0.000  
   4327817.998           0.000    20210837.608           0.000  
  -4135741.002           0.000    22424370.013           0.000  
 98  9 29 11 26 33.9970000  0  4G14G16G18G19
   7314903.998           0.000    23594571.496           0.000  
   2474686.999           0.000    20913354.526           0.000  
   4325023.002           0.000    20210305.579           0.000  
  -4141367.999           0.000    22423299.381           0.000  
 98  9 29 11 26 34.9970000  0  4G14G16G18G19
   7314794.000           0.000    23594550.580           0.000  
   2473006.002           0.000    20913034.566           0.000  
   4322226.997           0.000    20209773.567           0.000  
  -4146995.002           0.000    22422228.587           0.000  
 98  9 29 11 26 35.9970000  0  4G14G16G18G19
   7314682.998           0.000    23594529.445           0.000  
   2471324.002           0.000    20912714.441           0.000  
   4319430.998           0.000    20209241.583           0.000  
  -4152622.998           0.000    22421157.647           0.000  
 98  9 29 11 26 36.9970000  0  4G14G16G18G19
   7314572.001           0.000    23594508.184           0.000  
   2469640.998           0.000    20912394.212           0.000  
   4316634.000           0.000    20208709.422           0.000  
  -4158250.999           0.000    22420086.576           0.000  
 98  9 29 11 26 37.9970000  0  4G14G16G18G19
   7314459.002           0.000    23594486.789           0.000  
   2467957.999           0.000    20912073.824           0.000  
   4313837.002           0.000    20208177.055           0.000  
  -4163879.998           0.000    22419015.426           0.000  
 98  9 29 11 26 38.9970000  0  4G14G16G18G19
   7314345.998           0.000    23594465.211           0.000  
   2466272.998           0.000    20911753.285           0.000  
   4311039.001           0.000    20207644.761           0.000  
  -4169510.002           0.000    22417944.188           0.000  
 98  9 29 11 26 39.9970000  0  4G14G16G18G19
   7314232.000           0.000    23594443.479           0.000  
   2464589.001           0.000    20911432.697           0.000  
   4308240.999           0.000    20207112.220           0.000  
  -4175140.000           0.000    22416872.883           0.000  
 98  9 29 11 26 40.9970000  0  4G14G16G18G19
   7314116.999           0.000    23594421.618           0.000  
   2462903.002           0.000    20911111.975           0.000  
   4305442.997           0.000    20206579.533           0.000  
  -4180771.001           0.000    22415801.432           0.000  
 98  9 29 11 26 41.9970000  0  4G14G16G18G19
   7314001.998           0.000    23594399.661           0.000  
   2461216.997           0.000    20910791.119           0.000  
   4302643.997           0.000    20206046.818           0.000  
  -4186401.998           0.000    22414729.868           0.000  
 98  9 29 11 26 42.9970000  0  4G14G16G18G19
   7313885.000           0.000    23594377.513           0.000  
   2459530.998           0.000    20910470.194           0.000  
   4299843.999           0.000    20205513.990           0.000  
  -4192033.998           0.000    22413658.245           0.000  
 98  9 29 11 26 43.9970000  0  4G14G16G18G19
   7313768.001           0.000    23594355.162           0.000  
   2457843.002           0.000    20910149.067           0.000  
   4297044.999           0.000    20204981.079           0.000  
  -4197667.002           0.000    22412586.448           0.000  
 98  9 29 11 26 44.9970000  0  4G14G16G18G19
   7313650.998           0.000    23594332.702           0.000  
   2456155.000           0.000    20909827.875           0.000  
   4294244.002           0.000    20204448.119           0.000  
  -4203300.001           0.000    22411514.571           0.000  
 98  9 29 11 26 45.9970000  0  4G14G16G18G19
   7313531.998           0.000    23594310.188           0.000  
   2454466.999           0.000    20909506.561           0.000  
   4291443.000           0.000    20203914.990           0.000  
  -4208933.998           0.000    22410442.565           0.000  
 98  9 29 11 26 46.9970000  0  4G14G16G18G19
   7313412.998           0.000    23594287.567           0.000  
   2452777.999           0.000    20909185.168           0.000  
   4288641.997           0.000    20203381.886           0.000  
  -4214568.000           0.000    22409370.533           0.000  
 98  9 29 11 26 47.9970000  0  4G14G16G18G19
   7313292.999           0.000    23594264.805           0.000  
   2451088.001           0.000    20908863.678           0.000  
   4285841.000           0.000    20202848.646           0.000  
  -4220202.002           0.000    22408298.438           0.000  
 98  9 29 11 26 48.9970000  0  4G14G16G18G19
   7313173.000           0.000    23594241.925           0.000  
   2449398.002           0.000    20908542.054           0.000  
   4283039.998           0.000    20202315.266           0.000  
  -4225836.998           0.000    22407226.221           0.000  
 98  9 29 11 26 49.9970000  0  4G14G16G18G19
   7313051.998           0.000    23594218.842           0.000  
   2447707.000           0.000    20908220.244           0.000  
   4280236.999           0.000    20201781.793           0.000  
  -4231473.003           0.000    22406153.854           0.000  
 98  9 29 11 26 50.9970000  0  4G14G16G18G19
   7312930.002           0.000    23594195.571           0.000  
   2446015.000           0.000    20907898.360           0.000  
   4277434.000           0.000    20201248.350           0.000  
  -4237109.002           0.000    22405081.390           0.000  
 98  9 29 11 26 51.9970000  0  4G14G16G18G19
   7312805.999           0.000    23594172.076           0.000  
   2444322.001           0.000    20907576.231           0.000  
   4274631.001           0.000    20200714.650           0.000  
  -4242746.998           0.000    22404008.675           0.000  
 98  9 29 11 26 52.9970000  0  4G14G16G18G19
   7312682.001           0.000    23594148.421           0.000  
   2442629.002           0.000    20907253.994           0.000  
   4271825.999           0.000    20200180.890           0.000  
  -4248384.999           0.000    22402935.897           0.000  
 98  9 29 11 26 53.9970000  0  4G14G16G18G19
   7312557.000           0.000    23594124.677           0.000  
   2440934.999           0.000    20906931.673           0.000  
   4269022.002           0.000    20199647.230           0.000  
  -4254023.001           0.000    22401862.991           0.000  
 98  9 29 11 26 54.9970000  0  4G14G16G18G19
   7312431.998           0.000    23594100.758           0.000  
   2439239.998           0.000    20906609.155           0.000  
   4266217.001           0.000    20199113.329           0.000  
  -4259662.001           0.000    22400790.011           0.000  
 98  9 29 11 26 55.9970000  0  4G14G16G18G19
   7312305.000           0.000    23594076.672           0.000  
   2437543.998           0.000    20906286.473           0.000  
   4263411.001           0.000    20198579.420           0.000  
  -4265301.999           0.000    22399716.918           0.000  
 98  9 29 11 26 56.9970000  0  4G14G16G18G19
   7312178.001           0.000    23594052.451           0.000  
   2435847.998           0.000    20905963.653           0.000  
   4260605.001           0.000    20198045.494           0.000  
  -4270942.003           0.000    22398643.711           0.000  
 98  9 29 11 26 57.9970000  0  4G14G16G18G19
   7312049.999           0.000    23594028.109           0.000  
   2434151.000           0.000    20905640.681           0.000  
   4257799.001           0.000    20197511.386           0.000  
  -4276582.999           0.000    22397570.415           0.000  
 98  9 29 11 26 58.9970000  0  4G14G16G18G19
   7311922.002           0.000    23594003.653           0.000  
   2432454.002           0.000    20905317.635           0.000  
   4254991.998           0.000    20196977.254           0.000  
  -4282225.000           0.000    22396496.986           0.000  
 98  9 29 11 26 59.9970000  0  4G14G16G18G19
   7311793.002           0.000    23593979.092           0.000  
   2430756.000           0.000    20904994.483           0.000  
   4252184.001           0.000    20196443.105           0.000  
  -4287867.001           0.000    22395423.545           0.000  
 98  9 29 11 27  0.9970000  0  4G14G16G18G19
   7311663.002           0.000    23593954.431           0.000  
   2429057.999           0.000    20904671.280           0.000  
   4249376.998           0.000    20195909.011           0.000  
  -4293509.001           0.000    22394350.068           0.000  
 98  9 29 11 27  1.9970000  0  4G14G16G18G19
   7311532.000           0.000    23593929.588           0.000  
   2427358.000           0.000    20904347.886           0.000  
   4246569.001           0.000    20195374.768           0.000  
  -4299152.000           0.000    22393276.350           0.000  
 98  9 29 11 27  2.9970000  0  4G14G16G18G19
   7311401.002           0.000    23593904.566           0.000  
   2425659.000           0.000    20904024.402           0.000  
   4243760.999           0.000    20194840.335           0.000  
  -4304796.003           0.000    22392202.512           0.000  
 98  9 29 11 27  3.9970000  0  4G14G16G18G19
   7311269.001           0.000    23593879.486           0.000  
   2423957.997           0.000    20903700.870           0.000  
   4240951.999           0.000    20194305.764           0.000  
  -4310440.000           0.000    22391128.581           0.000  
 98  9 29 11 27  4.9970000  0  4G14G16G18G19
   7311136.001           0.000    23593854.188           0.000  
   2422257.000           0.000    20903377.164           0.000  
   4238142.000           0.000    20193771.068           0.000  
  -4316084.003           0.000    22390054.561           0.000  
 98  9 29 11 27  5.9970000  0  4G14G16G18G19
   7311003.002           0.000    23593828.767           0.000  
   2420554.999           0.000    20903053.333           0.000  
   4235333.000           0.000    20193236.288           0.000  
  -4321730.002           0.000    22388980.402           0.000  
 98  9 29 11 27  6.9970000  0  4G14G16G18G19
   7310868.998           0.000    23593803.296           0.000  
   2418852.998           0.000    20902729.414           0.000  
   4232522.002           0.000    20192701.406           0.000  
  -4327374.998           0.000    22387906.199           0.000  
 98  9 29 11 27  7.9970000  0  4G14G16G18G19
   7310732.998           0.000    23593777.557           0.000  
   2417149.999           0.000    20902405.253           0.000  
   4229711.000           0.000    20192166.554           0.000  
  -4333022.002           0.000    22386831.754           0.000  
 98  9 29 11 27  8.9970000  0  4G14G16G18G19
   7310597.003           0.000    23593751.626           0.000  
   2415446.001           0.000    20902080.978           0.000  
   4226900.002           0.000    20191631.541           0.000  
  -4338669.000           0.000    22385757.210           0.000  
 98  9 29 11 27  9.9970000  0  4G14G16G18G19
   7310461.002           0.000    23593725.607           0.000  
   2413741.000           0.000    20901756.641           0.000  
   4224088.001           0.000    20191096.548           0.000  
  -4344317.001           0.000    22384682.536           0.000  
 98  9 29 11 27 10.9970000  0  4G14G16G18G19
   7310323.000           0.000    23593699.357           0.000  
   2412035.998           0.000    20901432.056           0.000  
   4221275.002           0.000    20190561.369           0.000  
  -4349966.002           0.000    22383607.634           0.000  
 98  9 29 11 27 11.9970000  0  4G14G16G18G19
   7310183.999           0.000    23593672.882           0.000  
   2410329.000           0.000    20901107.308           0.000  
   4218460.999           0.000    20190025.884           0.000  
  -4355616.000           0.000    22382532.745           0.000  
 98  9 29 11 27 12.9970000  0  4G14G16G18G19
   7310044.998           0.000    23593646.336           0.000  
   2408623.000           0.000    20900782.516           0.000  
   4215647.999           0.000    20189490.414           0.000  
  -4361265.001           0.000    22381457.791           0.000  
 98  9 29 11 27 13.9970000  0  4G14G16G18G19
   7309904.000           0.000    23593619.613           0.000  
   2406914.998           0.000    20900457.531           0.000  
   4212834.001           0.000    20188954.787           0.000  
  -4366915.998           0.000    22380382.629           0.000  
 98  9 29 11 27 14.9970000  0  4G14G16G18G19
   7309764.001           0.000    23593592.815           0.000  
   2405207.001           0.000    20900132.548           0.000  
   4210019.000           0.000    20188419.233           0.000  
  -4372567.000           0.000    22379307.392           0.000  
 98  9 29 11 27 15.9970000  0  4G14G16G18G19
   7309622.998           0.000    23593565.930           0.000  
   2403498.999           0.000    20899807.436           0.000  
   4207205.002           0.000    20187883.774           0.000  
  -4378218.002           0.000    22378232.089           0.000  
 98  9 29 11 27 16.9970000  0  4G14G16G18G19
   7309481.001           0.000    23593538.844           0.000  
   2401789.998           0.000    20899482.165           0.000  
   4204390.000           0.000    20187347.940           0.000  
  -4383869.998           0.000    22377156.667           0.000  
 98  9 29 11 27 17.9970000  0  4G14G16G18G19
   7309338.001           0.000    23593511.618           0.000  
   2400079.999           0.000    20899156.731           0.000  
   4201574.000           0.000    20186812.166           0.000  
  -4389523.003           0.000    22376081.132           0.000  
 98  9 29 11 27 18.9970000  0  4G14G16G18G19
   7309193.998           0.000    23593484.222           0.000  
   2398370.000           0.000    20898831.188           0.000  
   4198758.000           0.000    20186276.292           0.000  
  -4395176.002           0.000    22375005.506           0.000  
 98  9 29 11 27 19.9970000  0  4G14G16G18G19
   7309049.999           0.000    23593456.662           0.000  
   2396659.002           0.000    20898505.543           0.000  
   4195941.001           0.000    20185740.254           0.000  
  -4400830.000           0.000    22373929.671           0.000  
 98  9 29 11 27 20.9970000  0  4G14G16G18G19
   7308905.002           0.000    23593429.014           0.000  
   2394947.001           0.000    20898179.758           0.000  
   4193123.998           0.000    20185204.194           0.000  
  -4406484.003           0.000    22372853.721           0.000  
 98  9 29 11 27 21.9970000  0  4G14G16G18G19
   7308759.002           0.000    23593401.378           0.000  
   2393235.000           0.000    20897853.919           0.000  
   4190306.001           0.000    20184668.150           0.000  
  -4412138.999           0.000    22371777.741           0.000  
 98  9 29 11 27 22.9970000  0  4G14G16G18G19
   7308613.001           0.000    23593373.458           0.000  
   2391522.000           0.000    20897527.793           0.000  
   4187487.998           0.000    20184131.974           0.000  
  -4417794.999           0.000    22370701.514           0.000  
 98  9 29 11 27 23.9970000  0  4G14G16G18G19
   7308464.000           0.000    23593345.133           0.000  
   2389806.000           0.000    20897201.387           0.000  
   4184667.999           0.000    20183595.401           0.000  
  -4423452.002           0.000    22369624.918           0.000  
 98  9 29 11 27 24.9970000  0  4G14G16G18G19
   7308314.000           0.000    23593316.490           0.000  
   2388090.000           0.000    20896874.625           0.000  
   4181847.002           0.000    20183058.489           0.000  
  -4429110.998           0.000    22368548.002           0.000  
 98  9 29 11 27 25.9970000  0  4G14G16G18G19
   7308161.998           0.000    23593287.619           0.000  
   2386372.002           0.000    20896547.679           0.000  
   4179024.002           0.000    20182521.311           0.000  
  -4434771.002           0.000    22367470.893           0.000  
 98  9 29 11 27 26.9970000  0  4G14G16G18G19
   7308010.001           0.000    23593258.623           0.000  
   2384654.000           0.000    20896220.733           0.000  
   4176202.000           0.000    20181984.146           0.000  
  -4440431.001           0.000    22366393.784           0.000  
 98  9 29 11 27 27.9970000  0  4G14G16G18G19
   7307857.999           0.000    23593229.594           0.000  
   2382935.997           0.000    20895893.717           0.000  
   4173379.999           0.000    20181447.036           0.000  
  -4446091.999           0.000    22365316.640           0.000  
 98  9 29 11 27 28.9970000  0  4G14G16G18G19
   7307704.999           0.000    23593200.428           0.000  
   2381217.002           0.000    20895566.626           0.000  
   4170556.999           0.000    20180909.877           0.000  
  -4451753.001           0.000    22364239.462           0.000  
 98  9 29 11 27 29.9970000  0  4G14G16G18G19
   7307551.000           0.000    23593171.041           0.000  
   2379497.002           0.000    20895239.331           0.000  
   4167733.001           0.000    20180372.520           0.000  
  -4457413.999           0.000    22363162.065           0.000  
 98  9 29 11 27 30.9970000  0  4G14G16G18G19
   7307395.998           0.000    23593141.489           0.000  
   2377775.999           0.000    20894911.844           0.000  
   4164908.997           0.000    20179835.204           0.000  
  -4463076.998           0.000    22362084.536           0.000  
 98  9 29 11 27 31.9970000  0  4G14G16G18G19
   7307238.998           0.000    23593111.626           0.000  
   2376055.001           0.000    20894584.148           0.000  
   4162083.002           0.000    20179297.481           0.000  
  -4468741.002           0.000    22361006.740           0.000  
 98  9 29 11 27 32.9970000  0  4G14G16G18G19
   7307081.999           0.000    23593081.665           0.000  
   2374332.001           0.000    20894256.379           0.000  
   4159258.000           0.000    20178759.694           0.000  
  -4474405.000           0.000    22359928.980           0.000  
 98  9 29 11 27 33.9970000  0  4G14G16G18G19
   7306924.999           0.000    23593051.745           0.000  
   2372610.000           0.000    20893928.594           0.000  
   4156432.000           0.000    20178221.821           0.000  
  -4480068.998           0.000    22358851.224           0.000  
 98  9 29 11 27 34.9970000  0  4G14G16G18G19
   7306767.002           0.000    23593021.613           0.000  
   2370887.000           0.000    20893600.665           0.000  
   4153605.999           0.000    20177683.943           0.000  
  -4485734.000           0.000    22357773.307           0.000  
 98  9 29 11 27 35.9970000  0  4G14G16G18G19
   7306608.998           0.000    23592991.386           0.000  
   2369163.001           0.000    20893272.703           0.000  
   4150779.999           0.000    20177146.087           0.000  
  -4491399.002           0.000    22356695.311           0.000  
 98  9 29 11 27 36.9970000  0  4G14G16G18G19
   7306450.002           0.000    23592961.084           0.000  
   2367438.998           0.000    20892944.619           0.000  
   4147953.000           0.000    20176608.359           0.000  
  -4497065.002           0.000    22355617.185           0.000  
 98  9 29 11 27 37.9970000  0  4G14G16G18G19
   7306291.000           0.000    23592930.725           0.000  
   2365714.999           0.000    20892616.526           0.000  
   4145127.000           0.000    20176070.564           0.000  
  -4502729.998           0.000    22354539.055           0.000  
 98  9 29 11 27 38.9970000  0  4G14G16G18G19
   7306131.000           0.000    23592900.232           0.000  
   2363990.002           0.000    20892288.417           0.000  
   4142300.001           0.000    20175532.699           0.000  
  -4508395.999           0.000    22353460.942           0.000  
 98  9 29 11 27 39.9970000  0  4G14G16G18G19
   7305971.000           0.000    23592869.615           0.000  
   2362265.000           0.000    20891960.127           0.000  
   4139473.002           0.000    20174994.834           0.000  
  -4514063.003           0.000    22352382.656           0.000  
 98  9 29 11 27 40.9970000  0  4G14G16G18G19
   7305810.002           0.000    23592838.833           0.000  
   2360539.000           0.000    20891631.688           0.000  
   4136645.998           0.000    20174456.989           0.000  
  -4519730.001           0.000    22351304.236           0.000  
 98  9 29 11 27 41.9970000  0  4G14G16G18G19
   7305647.001           0.000    23592807.959           0.000  
   2358812.000           0.000    20891303.114           0.000  
   4133817.002           0.000    20173918.842           0.000  
  -4525397.998           0.000    22350225.616           0.000  
 98  9 29 11 27 42.9970000  0  4G14G16G18G19
   7305484.999           0.000    23592776.986           0.000  
   2357085.001           0.000    20890974.549           0.000  
   4130988.999           0.000    20173380.861           0.000  
  -4531066.001           0.000    22349147.064           0.000  
 98  9 29 11 27 43.9970000  0  4G14G16G18G19
   7305321.998           0.000    23592745.812           0.000  
   2355356.999           0.000    20890645.749           0.000  
   4128159.998           0.000    20172842.741           0.000  
  -4536735.002           0.000    22348068.278           0.000  
 98  9 29 11 27 44.9970000  0  4G14G16G18G19
   7305157.999           0.000    23592714.497           0.000  
   2353629.001           0.000    20890316.827           0.000  
   4125329.999           0.000    20172304.443           0.000  
  -4542404.003           0.000    22346989.418           0.000  
 98  9 29 11 27 45.9970000  0  4G14G16G18G19
   7304993.001           0.000    23592683.044           0.000  
   2351899.001           0.000    20889987.788           0.000  
   4122499.999           0.000    20171766.096           0.000  
  -4548074.002           0.000    22345910.481           0.000  
 98  9 29 11 27 46.9970000  0  4G14G16G18G19
   7304827.000           0.000    23592651.492           0.000  
   2350170.000           0.000    20889658.672           0.000  
   4119670.000           0.000    20171227.633           0.000  
  -4553745.000           0.000    22344831.409           0.000  
 98  9 29 11 27 47.9970000  0  4G14G16G18G19
   7304662.002           0.000    23592619.900           0.000  
   2348440.000           0.000    20889329.481           0.000  
   4116840.000           0.000    20170689.063           0.000  
  -4559414.999           0.000    22343752.355           0.000  
 98  9 29 11 27 49.9970000  0  4G14G16G18G19
   7304329.001           0.000    23592556.370           0.000  
   2344979.002           0.000    20888670.825           0.000  
   4111178.998           0.000    20169601.377           0.000  
  -4570757.000           0.000    22341593.999           0.000  
 98  9 29 11 27 50.9970000  0  4G14G16G18G19
   7304160.998           0.000    23592524.416           0.000  
   2343247.001           0.000    20888341.382           0.000  
   4108347.001           0.000    20169064.526           0.000  
  -4576429.002           0.000    22340514.621           0.000  
 98  9 29 11 27 51.9970000  0  4G14G16G18G19
   7303992.001           0.000    23592492.298           0.000  
   2341514.999           0.000    20888011.737           0.000  
   4105515.000           0.000    20168524.409           0.000  
  -4582100.998           0.000    22339435.199           0.000  
 98  9 29 11 27 52.9970000  0  4G14G16G18G19
   7303823.998           0.000    23592460.147           0.000  
   2339781.998           0.000    20887682.048           0.000  
   4102682.998           0.000    20167982.812           0.000  
  -4587773.998           0.000    22338355.661           0.000  
 98  9 29 11 27 53.9970000  0  4G14G16G18G19
   7303654.003           0.000    23592427.761           0.000  
   2338047.999           0.000    20887352.095           0.000  
   4099849.998           0.000    20167441.970           0.000  
  -4593448.001           0.000    22337275.918           0.000  
 98  9 29 11 27 54.9970000  0  5G 4G14G16G18G19
   4721268.000           0.000    20838965.871           0.000  
   7303482.000           0.000    23592395.083           0.000  
   2336313.002           0.000    20887021.863           0.000  
   4097015.999           0.000    20166902.795           0.000  
  -4599122.998           0.000    22336195.949           0.000  
 98  9 29 11 27 55.9970000  0  5G 4G14G16G18G19
   4717730.999           0.000    20838296.319           0.000  
   7303310.003           0.000    23592362.326           0.000  
   2334577.001           0.000    20886691.536           0.000  
   4094182.001           0.000    20166365.313           0.000  
  -4604798.000           0.000    22335115.874           0.000  
 98  9 29 11 27 56.9970000  0  5G 4G14G16G18G19
   4714194.002           0.000    20837633.109           0.000  
   7303138.000           0.000    23592329.492           0.000  
   2332841.000           0.000    20886361.197           0.000  
   4091346.998           0.000    20165825.578           0.000  
  -4610474.001           0.000    22334035.840           0.000  
 98  9 29 11 27 57.9970000  0  5G 4G14G16G18G19
   4710657.999           0.000    20836962.735           0.000  
   7302964.001           0.000    23592296.508           0.000  
   2331104.999           0.000    20886030.754           0.000  
   4088512.001           0.000    20165286.501           0.000  
  -4616150.002           0.000    22332955.701           0.000  
 98  9 29 11 27 58.9970000  0  5G 4G14G16G18G19
   4707119.999           0.000    20836290.421           0.000  
   7302791.000           0.000    23592263.455           0.000  
   2329368.000           0.000    20885700.209           0.000  
   4085676.999           0.000    20164747.200           0.000  
  -4621826.002           0.000    22331875.479           0.000  
 98  9 29 11 27 59.9970000  0  5G 4G14G16G18G19
   4703584.002           0.000    20835617.497           0.000  
   7302617.000           0.000    23592230.347           0.000  
   2327631.000           0.000    20885369.616           0.000  
   4082842.002           0.000    20164207.827           0.000  
  -4627503.001           0.000    22330795.221           0.000  
 98  9 29 11 28  0.9970000  0  5G 4G14G16G18G19
   4700046.002           0.000    20834943.285           0.000  
   7302442.002           0.000    23592197.159           0.000  
   2325892.997           0.000    20885038.941           0.000  
   4080006.001           0.000    20163668.356           0.000  
  -4633180.000           0.000    22329714.871           0.000  
 98  9 29 11 28  1.9970000  0  5G 4G14G16G18G19
   4696506.998           0.000    20834268.421           0.000  
   7302266.999           0.000    23592163.787           0.000  
   2324154.001           0.000    20884708.149           0.000  
   4077170.000           0.000    20163128.873           0.000  
  -4638857.998           0.000    22328634.467           0.000  
 98  9 29 11 28  2.9970000  0  5G 4G14G16G18G19
   4692967.001           0.000    20833594.124           0.000  
   7302089.999           0.000    23592130.049           0.000  
   2322414.001           0.000    20884377.018           0.000  
   4074331.997           0.000    20162588.236           0.000  
  -4644536.999           0.000    22327553.725           0.000  
 98  9 29 11 28  3.9970000  0  5G 4G14G16G18G19
   4689426.001           0.000    20832919.055           0.000  
   7301911.002           0.000    23592096.094           0.000  
   2320671.999           0.000    20884045.627           0.000  
   4071493.001           0.000    20162047.162           0.000  
  -4650218.002           0.000    22326472.704           0.000  
 98  9 29 11 28  4.9970000  0  5G 4G14G16G18G19
   4685884.002           0.000    20832244.423           0.000  
   7301732.000           0.000    23592062.108           0.000  
   2318931.000           0.000    20883714.220           0.000  
   4068654.000           0.000    20161506.341           0.000  
  -4655898.002           0.000    22325391.728           0.000  
 98  9 29 11 28  5.9970000  0  5G 4G14G16G18G19
   4682344.000           0.000    20831570.346           0.000  
   7301553.003           0.000    23592027.990           0.000  
   2317188.000           0.000    20883382.691           0.000  
   4065814.999           0.000    20160965.835           0.000  
  -4661579.000           0.000    22324310.663           0.000  
 98  9 29 11 28  6.9970000  0  5G 4G14G16G18G19
   4678802.999           0.000    20830896.641           0.000  
   7301373.002           0.000    23591993.806           0.000  
   2315445.997           0.000    20883051.127           0.000  
   4062976.002           0.000    20160425.738           0.000  
  -4667261.002           0.000    22323229.568           0.000  
 98  9 29 11 28  7.9970000  0  5G 4G14G16G18G19
   4675261.000           0.000    20830223.217           0.000  
   7301192.003           0.000    23591959.473           0.000  
   2313703.002           0.000    20882719.424           0.000  
   4060137.001           0.000    20159886.210           0.000  
  -4672942.000           0.000    22322148.356           0.000  
 98  9 29 11 28  8.9970000  0  5G 4G14G16G18G19
   4671720.000           0.000    20829549.797           0.000  
   7301010.998           0.000    23591925.024           0.000  
   2311958.998           0.000    20882387.640           0.000  
   4057297.001           0.000    20159346.573           0.000  
  -4678625.001           0.000    22321067.092           0.000  
 98  9 29 11 28  9.9970000  0  5G 4G14G16G18G19
   4668177.002           0.000    20828876.044           0.000  
   7300829.001           0.000    23591890.395           0.000  
   2310214.000           0.000    20882055.699           0.000  
   4054455.998           0.000    20158806.318           0.000  
  -4684308.001           0.000    22319985.758           0.000  
 98  9 29 11 28 10.9970000  0  5G 4G14G16G18G19
   4664634.998           0.000    20828202.417           0.000  
   7300646.998           0.000    23591855.658           0.000  
   2308469.002           0.000    20881723.687           0.000  
   4051615.998           0.000    20158266.060           0.000  
  -4689991.001           0.000    22318904.301           0.000  
 98  9 29 11 28 11.9970000  0  5G 4G14G16G18G19
   4661092.999           0.000    20827532.520           0.000  
   7300462.998           0.000    23591820.799           0.000  
   2306724.000           0.000    20881391.594           0.000  
   4048774.001           0.000    20157725.567           0.000  
  -4695675.000           0.000    22317822.772           0.000  
 98  9 29 11 28 12.9970000  0  5G 4G14G16G18G19
   4657551.998           0.000    20826857.523           0.000  
   7300278.998           0.000    23591785.812           0.000  
   2304977.998           0.000    20881059.359           0.000  
   4045932.998           0.000    20157184.956           0.000  
  -4701358.999           0.000    22316741.151           0.000  
 98  9 29 11 28 13.9970000  0  5G 4G14G16G18G19
   4654009.999           0.000    20826182.236           0.000  
   7300094.000           0.000    23591750.663           0.000  
   2303230.998           0.000    20880727.001           0.000  
   4043091.001           0.000    20156644.569           0.000  
  -4707044.001           0.000    22315659.428           0.000  
 98  9 29 11 28 14.9970000  0  5G 4G14G16G18G19
   4650468.000           0.000    20825505.768           0.000  
   7299910.000           0.000    23591715.555           0.000  
   2301483.999           0.000    20880394.622           0.000  
   4040248.999           0.000    20156104.399           0.000  
  -4712728.998           0.000    22314577.706           0.000  
 98  9 29 11 28 15.9970000  0  5G 4G14G16G18G19
   4646923.999           0.000    20824829.780           0.000  
   7299723.998           0.000    23591680.244           0.000  
   2299736.000           0.000    20880062.043           0.000  
   4037407.002           0.000    20155564.172           0.000  
  -4718414.999           0.000    22313495.827           0.000  
 98  9 29 11 28 16.9970000  0  5G 4G14G16G18G19
   4643378.999           0.000    20824155.036           0.000  
   7299536.998           0.000    23591644.813           0.000  
   2297988.002           0.000    20879729.414           0.000  
   4034564.002           0.000    20155035.032           0.000  
  -4724101.000           0.000    22312413.851           0.000  
 98  9 29 11 28 17.9970000  0  5G 4G14G16G18G19
   4639834.998           0.000    20823481.104           0.000  
   7299350.002           0.000    23591609.165           0.000  
   2296239.000           0.000    20879396.585           0.000  
   4031719.997           0.000    20154497.249           0.000  
  -4729788.000           0.000    22311331.752           0.000  
 98  9 29 11 28 18.9970000  0  5G 4G14G16G18G19
   4636292.001           0.000    20822807.032           0.000  
   7299161.000           0.000    23591573.365           0.000  
   2294489.000           0.000    20879063.636           0.000  
   4028875.998           0.000    20153956.457           0.000  
  -4735476.003           0.000    22310249.484           0.000  
 98  9 29 11 28 19.9970000  0  5G 4G14G16G18G19
   4632745.997           0.000    20822132.275           0.000  
   7298972.002           0.000    23591537.384           0.000  
   2292738.001           0.000    20878730.539           0.000  
   4026031.001           0.000    20153415.410           0.000  
  -4741164.001           0.000    22309167.109           0.000  
 98  9 29 11 28 20.9970000  0  5G 4G14G16G18G19
   4629199.999           0.000    20821457.898           0.000  
   7298782.001           0.000    23591501.274           0.000  
   2290985.999           0.000    20878397.290           0.000  
   4023185.998           0.000    20152874.462           0.000  
  -4746853.002           0.000    22308084.552           0.000  
 98  9 29 11 28 21.9970000  0  5G 4G14G16G18G19
   4625651.999           0.000    20820783.457           0.000  
   7298591.002           0.000    23591464.923           0.000  
   2289234.001           0.000    20878063.903           0.000  
   4020339.997           0.000    20152332.504           0.000  
  -4752543.002           0.000    22307001.929           0.000  
 98  9 29 11 28 22.9970000  0  5G 4G14G16G18G19
   4622106.001           0.000    20820108.390           0.000  
   7298398.999           0.000    23591428.507           0.000  
   2287481.000           0.000    20877730.392           0.000  
   4017494.002           0.000    20151790.651           0.000  
  -4758233.002           0.000    22305919.174           0.000  
 98  9 29 11 28 23.9970000  0  5G 4G14G16G18G19
   4618561.001           0.000    20819432.285           0.000  
   7298207.001           0.000    23591392.059           0.000  
   2285727.999           0.000    20877396.841           0.000  
   4014648.000           0.000    20151249.194           0.000  
  -4763924.001           0.000    22304836.395           0.000  
 98  9 29 11 28 24.9970000  0  5G 4G14G16G18G19
   4615014.998           0.000    20818756.362           0.000  
   7298015.003           0.000    23591355.468           0.000  
   2283974.998           0.000    20877063.224           0.000  
   4011801.999           0.000    20150707.581           0.000  
  -4769614.001           0.000    22303753.640           0.000  
 98  9 29 11 28 25.9970000  0  5G 4G14G16G18G19
   4611468.002           0.000    20818071.465           0.000  
   7297821.003           0.000    23591318.764           0.000  
   2282220.999           0.000    20876729.446           0.000  
   4008955.000           0.000    20150166.183           0.000  
  -4775306.003           0.000    22302670.723           0.000  
 98  9 29 11 28 26.9970000  0  5G 4G14G16G18G19
   4607921.998           0.000    20817399.233           0.000  
   7297627.002           0.000    23591281.867           0.000  
   2280466.001           0.000    20876395.547           0.000  
   4006107.002           0.000    20149623.988           0.000  
  -4780998.000           0.000    22301587.657           0.000  
 98  9 29 11 28 27.9970000  0  5G 4G14G16G18G19
   4604375.002           0.000    20816723.569           0.000  
   7297433.002           0.000    23591244.885           0.000  
   2278709.999           0.000    20876061.552           0.000  
   4003260.002           0.000    20149081.436           0.000  
  -4786690.002           0.000    22300504.512           0.000  
 98  9 29 11 28 28.9970000  0  5G 4G14G16G18G19
   4600827.001           0.000    20816056.667           0.000  
   7297237.000           0.000    23591207.754           0.000  
   2276953.998           0.000    20875727.452           0.000  
   4000411.999           0.000    20148539.335           0.000  
  -4792383.002           0.000    22299421.283           0.000  
 98  9 29 11 28 29.9970000  0  5G 4G14G16G18G19
   4597279.001           0.000    20815384.363           0.000  
   7297040.998           0.000    23591170.461           0.000  
   2275198.001           0.000    20875393.207           0.000  
   3997562.997           0.000    20147997.195           0.000  
  -4798075.998           0.000    22298337.901           0.000  
 98  9 29 11 28 30.9970000  0  5G 4G14G16G18G19
   4593728.999           0.000    20814709.289           0.000  
   7296845.001           0.000    23591133.100           0.000  
   2273441.001           0.000    20875058.864           0.000  
   3994714.001           0.000    20147454.647           0.000  
  -4803770.002           0.000    22297254.443           0.000  
 98  9 29 11 28 31.9970000  0  5G 4G14G16G18G19
   4590182.002           0.000    20814033.640           0.000  
   7296648.000           0.000    23591095.732           0.000  
   2271684.001           0.000    20874724.554           0.000  
   3991865.998           0.000    20146912.510           0.000  
  -4809464.001           0.000    22296171.007           0.000  
 98  9 29 11 28 32.9970000  0  4G14G16G18G19
   7296450.001           0.000    23591058.120           0.000  
   2269925.997           0.000    20874390.020           0.000  
   3989015.997           0.000    20146369.883           0.000  
  -4815158.999           0.000    22295087.435           0.000  
 98  9 29 11 28 33.9970000  0  4G14G16G18G19
   7296252.001           0.000    23591020.486           0.000  
   2268167.999           0.000    20874055.492           0.000  
   3986167.001           0.000    20145827.020           0.000  
  -4820852.998           0.000    22294003.793           0.000  
 98  9 29 11 28 34.9970000  0  4G14G16G18G19
   7296052.998           0.000    23590982.682           0.000  
   2266409.002           0.000    20873720.795           0.000  
   3983317.001           0.000    20145284.301           0.000  
  -4826548.999           0.000    22292919.992           0.000  
 98  9 29 11 28 35.9970000  0  4G14G16G18G19
   7295854.001           0.000    23590944.814           0.000  
   2264649.001           0.000    20873386.069           0.000  
   3980467.001           0.000    20144741.731           0.000  
  -4832245.000           0.000    22291836.181           0.000  
 98  9 29 11 28 36.9970000  0  4G14G16G18G19
   7295653.999           0.000    23590906.778           0.000  
   2262889.000           0.000    20873051.213           0.000  
   3977617.000           0.000    20144198.901           0.000  
  -4837941.002           0.000    22290752.212           0.000  
 98  9 29 11 28 37.9970000  0  4G14G16G18G19
   7295452.999           0.000    23590868.457           0.000  
   2261128.001           0.000    20872716.116           0.000  
   3974764.998           0.000    20143656.072           0.000  
  -4843639.000           0.000    22289668.114           0.000  
 98  9 29 11 28 38.9970000  0  4G14G16G18G19
   7295250.003           0.000    23590829.991           0.000  
   2259365.998           0.000    20872380.830           0.000  
   3971913.001           0.000    20143113.085           0.000  
  -4849336.998           0.000    22288583.792           0.000  
 98  9 29 11 28 39.9970000  0  4G14G16G18G19
   7295047.001           0.000    23590791.374           0.000  
   2257603.002           0.000    20872045.391           0.000  
   3969060.000           0.000    20142570.087           0.000  
  -4855036.000           0.000    22287499.388           0.000  
 98  9 29 11 28 40.9970000  0  4G14G16G18G19
   7294843.000           0.000    23590752.588           0.000  
   2255840.001           0.000    20871709.834           0.000  
   3966206.999           0.000    20142027.062           0.000  
  -4860736.000           0.000    22286414.868           0.000  
 98  9 29 11 28 41.9970000  0  4G14G16G18G19
   7294638.001           0.000    23590713.703           0.000  
   2254076.001           0.000    20871374.205           0.000  
   3963353.999           0.000    20141484.006           0.000  
  -4866436.001           0.000    22285330.285           0.000  
 98  9 29 11 28 42.9970000  0  4G14G16G18G19
   7294433.002           0.000    23590674.763           0.000  
   2252312.001           0.000    20871038.467           0.000  
   3960499.999           0.000    20140940.901           0.000  
  -4872136.001           0.000    22284245.632           0.000  
 98  9 29 11 28 43.9970000  0  4G14G16G18G19
   7294227.998           0.000    23590635.698           0.000  
   2250546.998           0.000    20870702.608           0.000  
   3957646.000           0.000    20140397.603           0.000  
  -4877837.000           0.000    22283160.892           0.000  
 98  9 29 11 28 44.9970000  0  4G14G16G18G19
   7294022.001           0.000    23590596.559           0.000  
   2248781.999           0.000    20870366.721           0.000  
   3954792.999           0.000    20139854.593           0.000  
  -4883537.999           0.000    22282076.162           0.000  
 98  9 29 11 28 45.9970000  0  4G14G16G18G19
   7293815.000           0.000    23590557.259           0.000  
   2247015.997           0.000    20870030.720           0.000  
   3951938.002           0.000    20139311.537           0.000  
  -4889239.003           0.000    22280991.320           0.000  
 98  9 29 11 28 46.9970000  0  4G14G16G18G19
   7293607.999           0.000    23590517.894           0.000  
   2245250.001           0.000    20869694.605           0.000  
   3949084.002           0.000    20138768.216           0.000  
  -4894941.000           0.000    22279906.390           0.000  
 98  9 29 11 28 47.9970000  0  4G14G16G18G19
   7293399.999           0.000    23590478.419           0.000  
   2243483.000           0.000    20869358.440           0.000  
   3946228.999           0.000    20138224.756           0.000  
  -4900643.002           0.000    22278821.366           0.000  
 98  9 29 11 28 48.9970000  0  4G14G16G18G19
   7293191.999           0.000    23590438.799           0.000  
   2241716.000           0.000    20869022.152           0.000  
   3943374.002           0.000    20137681.440           0.000  
  -4906345.998           0.000    22277736.273           0.000  
 98  9 29 11 28 49.9970000  0  4G14G16G18G19
   7292981.998           0.000    23590399.070           0.000  
   2239948.001           0.000    20868685.797           0.000  
   3940518.000           0.000    20137138.213           0.000  
  -4912048.999           0.000    22276651.081           0.000  
 98  9 29 11 28 50.9970000  0  4G14G16G18G19
   7292773.000           0.000    23590359.306           0.000  
   2238180.002           0.000    20868349.317           0.000  
   3937661.999           0.000    20136594.926           0.000  
  -4917752.999           0.000    22275565.862           0.000  
 98  9 29 11 28 51.9970000  0  4G14G16G18G19
   7292562.000           0.000    23590319.359           0.000  
   2236411.000           0.000    20868012.729           0.000  
   3934805.997           0.000    20136051.562           0.000  
  -4923456.998           0.000    22274480.473           0.000  
 98  9 29 11 28 52.9970000  0  4G14G16G18G19
   7292350.999           0.000    23590279.170           0.000  
   2234642.002           0.000    20867675.994           0.000  
   3931950.001           0.000    20135508.023           0.000  
  -4929162.001           0.000    22273394.927           0.000  
 98  9 29 11 28 53.9970000  0  4G14G16G18G19
   7292139.001           0.000    23590238.893           0.000  
   2232872.001           0.000    20867339.198           0.000  
   3929093.001           0.000    20134964.376           0.000  
  -4934866.999           0.000    22272309.290           0.000  
 98  9 29 11 28 54.9970000  0  4G14G16G18G19
   7291925.998           0.000    23590198.502           0.000  
   2231101.002           0.000    20867002.302           0.000  
   3926234.998           0.000    20134420.393           0.000  
  -4940573.001           0.000    22271223.516           0.000  
 98  9 29 11 28 55.9970000  0  4G14G16G18G19
   7291713.001           0.000    23590157.916           0.000  
   2229330.002           0.000    20866665.272           0.000  
   3923376.999           0.000    20133876.449           0.000  
  -4946279.002           0.000    22270137.654           0.000  
 98  9 29 11 28 56.9970000  0  4G14G16G18G19
   7291498.002           0.000    23590117.094           0.000  
   2227557.001           0.000    20866328.071           0.000  
   3920517.997           0.000    20133332.490           0.000  
  -4951987.001           0.000    22269051.552           0.000  
 98  9 29 11 28 57.9970000  0  4G14G16G18G19
   7291283.003           0.000    23590076.153           0.000  
   2225784.997           0.000    20865990.734           0.000  
   3917659.001           0.000    20132788.039           0.000  
  -4957694.001           0.000    22267965.339           0.000  
 98  9 29 11 28 58.9970000  0  4G14G16G18G19
   7291067.000           0.000    23590035.128           0.000  
   2224010.997           0.000    20865653.268           0.000  
   3914799.000           0.000    20132243.908           0.000  
  -4963402.998           0.000    22266879.061           0.000  
 98  9 29 11 28 59.9970000  0  4G14G16G18G19
   7290849.998           0.000    23589993.882           0.000  
   2222237.002           0.000    20865315.659           0.000  
   3911939.000           0.000    20131699.415           0.000  
  -4969112.000           0.000    22265792.658           0.000  
 98  9 29 11 29  0.9970000  0  4G14G16G18G19
   7290631.998           0.000    23589952.486           0.000  
   2220461.998           0.000    20864977.891           0.000  
   3909078.001           0.000    20131153.289           0.000  
  -4974822.001           0.000    22264706.146           0.000  
 98  9 29 11 29  1.9970000  0  4G14G16G18G19
   7290413.000           0.000    23589910.839           0.000  
   2218686.001           0.000    20864639.914           0.000  
   3906217.002           0.000    20130600.869           0.000  
  -4980533.000           0.000    22263619.427           0.000  
 98  9 29 11 29  2.9970000  0  4G14G16G18G19
   7290192.998           0.000    23589869.132           0.000  
   2216909.001           0.000    20864301.847           0.000  
   3903354.999           0.000    20130055.524           0.000  
  -4986243.999           0.000    22262532.585           0.000  
 98  9 29 11 29  3.9970000  0  4G14G16G18G19
   7289973.001           0.000    23589827.171           0.000  
   2215131.001           0.000    20863963.628           0.000  
   3900491.998           0.000    20129509.234           0.000  
  -4991957.000           0.000    22261445.604           0.000  
 98  9 29 11 29  4.9970000  0  4G14G16G18G19
   7289751.002           0.000    23589785.063           0.000  
   2213353.002           0.000    20863625.318           0.000  
   3897629.002           0.000    20128961.762           0.000  
  -4997668.998           0.000    22260358.573           0.000  
 98  9 29 11 29  5.9970000  0  4G14G16G18G19
   7289528.998           0.000    23589742.863           0.000  
   2211574.998           0.000    20863286.886           0.000  
   3894766.001           0.000    20128417.946           0.000  
  -5003383.003           0.000    22259271.432           0.000  
 98  9 29 11 29  6.9970000  0  4G14G16G18G19
   7289305.002           0.000    23589700.375           0.000  
   2209795.002           0.000    20862948.235           0.000  
   3891900.998           0.000    20127873.622           0.000  
  -5009097.002           0.000    22258184.005           0.000  
 98  9 29 11 29  7.9970000  0  4G14G16G18G19
   7289081.001           0.000    23589657.686           0.000  
   2208014.002           0.000    20862609.419           0.000  
   3889036.000           0.000    20127328.171           0.000  
  -5014812.001           0.000    22257096.489           0.000  
 98  9 29 11 29  8.9970000  0  4G14G16G18G19
   7288856.001           0.000    23589614.898           0.000  
   2206233.002           0.000    20862270.509           0.000  
   3886171.002           0.000    20126783.557           0.000  
  -5020528.003           0.000    22256008.898           0.000  
 98  9 29 11 29  9.9970000  0  4G14G16G18G19
   7288631.002           0.000    23589572.098           0.000  
   2204452.002           0.000    20861931.571           0.000  
   3883305.998           0.000    20126238.661           0.000  
  -5026243.001           0.000    22254921.292           0.000  
 98  9 29 11 29 10.9970000  0  4G14G16G18G19
   7288404.998           0.000    23589529.238           0.000  
   2202671.002           0.000    20861592.655           0.000  
   3880441.000           0.000    20125693.613           0.000  
  -5031959.003           0.000    22253833.648           0.000  
 98  9 29 11 29 11.9970000  0  4G14G16G18G19
   7288179.000           0.000    23589486.340           0.000  
   2200889.997           0.000    20861253.692           0.000  
   3877576.002           0.000    20125148.810           0.000  
  -5037674.999           0.000    22252746.046           0.000  
 98  9 29 11 29 13.9970000  0  4G14G16G18G19
   7287725.002           0.000    23589399.990           0.000  
   2197325.002           0.000    20860575.364           0.000  
   3871843.999           0.000    20124058.776           0.000  
  -5049109.000           0.000    22250570.305           0.000  
 98  9 29 11 29 14.9970000  0  4G14G16G18G19
   7287497.002           0.000    23589356.701           0.000  
   2195542.000           0.000    20860236.061           0.000  
   3868976.998           0.000    20123513.808           0.000  
  -5054826.001           0.000    22249482.312           0.000  
 98  9 29 11 29 15.9970000  0  4G14G16G18G19
   7287267.998           0.000    23589313.256           0.000  
   2193758.000           0.000    20859896.652           0.000  
   3866111.002           0.000    20122968.435           0.000  
  -5060543.999           0.000    22248394.270           0.000  
 98  9 29 11 29 16.9970000  0  4G14G16G18G19
   7287038.999           0.000    23589269.634           0.000  
   2191973.999           0.000    20859557.154           0.000  
   3863244.002           0.000    20122423.418           0.000  
  -5066263.002           0.000    22247306.081           0.000  
 98  9 29 11 29 17.9970000  0  4G14G16G18G19
   7286809.002           0.000    23589225.882           0.000  
   2190189.000           0.000    20859217.555           0.000  
   3860377.001           0.000    20121878.384           0.000  
  -5071981.999           0.000    22246217.865           0.000  
 98  9 29 11 29 18.9970000  0  4G14G16G18G19
   7286578.001           0.000    23589182.071           0.000  
   2188405.000           0.000    20858877.915           0.000  
   3857508.998           0.000    20121333.298           0.000  
  -5077701.002           0.000    22245129.568           0.000  
 98  9 29 11 29 19.9970000  0  4G14G16G18G19
   7286347.000           0.000    23589138.062           0.000  
   2186618.997           0.000    20858538.133           0.000  
   3854640.999           0.000    20120788.051           0.000  
  -5083421.003           0.000    22244041.192           0.000  
 98  9 29 11 29 20.9970000  0  4G14G16G18G19
   7286115.001           0.000    23589093.973           0.000  
   2184833.000           0.000    20858198.257           0.000  
   3851773.000           0.000    20120242.744           0.000  
  -5089140.999           0.000    22242952.761           0.000  
 98  9 29 11 29 21.9970000  0  4G14G16G18G19
   7285881.998           0.000    23589049.728           0.000  
   2183045.999           0.000    20857858.234           0.000  
   3848905.002           0.000    20119697.196           0.000  
  -5094861.998           0.000    22241864.171           0.000  
 98  9 29 11 29 22.9970000  0  4G14G16G18G19
   7285648.002           0.000    23589005.275           0.000  
   2181258.998           0.000    20857517.971           0.000  
   3846035.001           0.000    20119151.333           0.000  
  -5100583.003           0.000    22240775.352           0.000  
 98  9 29 11 29 23.9970000  0  4G14G16G18G19
   7285414.000           0.000    23588960.741           0.000  
   2179470.998           0.000    20857177.736           0.000  
   3843165.998           0.000    20118605.553           0.000  
  -5106305.001           0.000    22239686.578           0.000  
 98  9 29 11 29 24.9970000  0  4G14G16G18G19
   7285179.001           0.000    23588916.044           0.000  
   2177682.999           0.000    20856837.412           0.000  
   3840295.998           0.000    20118059.583           0.000  
  -5112028.002           0.000    22238597.673           0.000  
 98  9 29 11 29 25.9970000  0  4G14G16G18G19
   7284941.998           0.000    23588871.123           0.000  
   2175893.002           0.000    20856496.941           0.000  
   3837424.998           0.000    20117513.380           0.000  
  -5117750.999           0.000    22237508.590           0.000  
 98  9 29 11 29 26.9970000  0  4G14G16G18G19
   7284706.000           0.000    23588826.090           0.000  
   2174103.999           0.000    20856156.333           0.000  
   3834554.997           0.000    20116967.636           0.000  
  -5123474.999           0.000    22236419.376           0.000  
 98  9 29 11 29 27.9970000  0  4G14G16G18G19
   7284468.998           0.000    23588780.973           0.000  
   2172313.997           0.000    20855815.701           0.000  
   3831683.998           0.000    20116421.559           0.000  
  -5129198.999           0.000    22235330.145           0.000  
 98  9 29 11 29 28.9970000  0  4G14G16G18G19
   7284231.003           0.000    23588735.802           0.000  
   2170524.001           0.000    20855475.028           0.000  
   3828812.999           0.000    20115874.927           0.000  
  -5134922.999           0.000    22234240.869           0.000  
 98  9 29 11 29 29.9970000  0  4G14G16G18G19
   7283993.002           0.000    23588690.479           0.000  
   2168733.001           0.000    20855134.200           0.000  
   3825942.000           0.000    20115328.330           0.000  
  -5140648.003           0.000    22233151.444           0.000  
 98  9 29 11 29 30.9970000  0  4G14G16G18G19
   7283752.999           0.000    23588644.960           0.000  
   2166942.000           0.000    20854793.210           0.000  
   3823070.002           0.000    20114781.738           0.000  
  -5146373.001           0.000    22232061.900           0.000  
 98  9 29 11 29 31.9970000  0  4G14G16G18G19
   7283513.002           0.000    23588599.279           0.000  
   2165148.998           0.000    20854452.095           0.000  
   3820197.000           0.000    20114235.060           0.000  
  -5152098.998           0.000    22230972.251           0.000  
 98  9 29 11 29 32.9970000  0  4G14G16G18G19
   7283272.001           0.000    23588553.300           0.000  
   2163356.001           0.000    20854110.794           0.000  
   3817323.999           0.000    20113687.877           0.000  
  -5157827.003           0.000    22229882.376           0.000  
 98  9 29 11 29 33.9970000  0  4G14G16G18G19
   7283029.003           0.000    23588507.212           0.000  
   2161562.000           0.000    20853769.422           0.000  
   3814449.999           0.000    20113140.724           0.000  
  -5163553.998           0.000    22228792.414           0.000  
 98  9 29 11 29 34.9970000  0  4G14G16G18G19
   7282786.998           0.000    23588461.108           0.000  
   2159767.999           0.000    20853427.986           0.000  
   3811575.999           0.000    20112590.808           0.000  
  -5169282.003           0.000    22227702.458           0.000  
 98  9 29 11 29 35.9970000  0  4G14G16G18G19
   7282543.001           0.000    23588414.713           0.000  
   2157973.000           0.000    20853086.349           0.000  
   3808701.999           0.000    20112039.921           0.000  
  -5175011.000           0.000    22226612.261           0.000  
 98  9 29 11 29 36.9970000  0  4G14G16G18G19
   7282298.001           0.000    23588368.028           0.000  
   2156176.997           0.000    20852744.453           0.000  
   3805826.002           0.000    20111489.934           0.000  
  -5180741.002           0.000    22225521.795           0.000  
 98  9 29 11 29 37.9970000  0  4G14G16G18G19
   7282052.002           0.000    23588321.291           0.000  
   2154380.001           0.000    20852402.463           0.000  
   3802950.000           0.000    20110940.916           0.000  
  -5186470.998           0.000    22224431.265           0.000  
 98  9 29 11 29 38.9970000  0  4G14G16G18G19
   7281805.998           0.000    23588274.364           0.000  
   2152583.000           0.000    20852060.380           0.000  
   3800073.998           0.000    20110393.541           0.000  
  -5192202.003           0.000    22223340.619           0.000  
 98  9 29 11 29 39.9970000  0  4G14G16G18G19
   7281558.003           0.000    23588227.289           0.000  
   2150785.000           0.000    20851718.179           0.000  
   3797196.998           0.000    20109846.789           0.000  
  -5197934.001           0.000    22222249.942           0.000  
 98  9 29 11 29 40.9970000  0  4G14G16G18G19
   7281311.000           0.000    23588180.144           0.000  
   2148987.000           0.000    20851375.953           0.000  
   3794320.002           0.000    20109298.933           0.000  
  -5203665.001           0.000    22221159.239           0.000  
 98  9 29 11 29 41.9970000  0  4G14G16G18G19
   7281062.999           0.000    23588133.095           0.000  
   2147189.000           0.000    20851033.789           0.000  
   3791444.000           0.000    20108751.135           0.000  
  -5209396.999           0.000    22220068.639           0.000  
 98  9 29 11 29 42.9970000  0  4G14G16G18G19
   7280814.998           0.000    23588085.844           0.000  
   2145391.000           0.000    20850691.503           0.000  
   3788567.000           0.000    20108204.096           0.000  
  -5215127.999           0.000    22218977.870           0.000  
 98  9 29 11 29 43.9970000  0  4G14G16G18G19
   7280565.999           0.000    23588038.469           0.000  
   2143592.002           0.000    20850349.115           0.000  
   3785690.998           0.000    20107657.354           0.000  
  -5220860.002           0.000    22217887.052           0.000  
 98  9 29 11 29 44.9970000  0  4G14G16G18G19
   7280317.000           0.000    23587991.021           0.000  
   2141794.002           0.000    20850006.764           0.000  
   3782814.002           0.000    20107109.994           0.000  
  -5226592.001           0.000    22216796.205           0.000  
 98  9 29 11 29 45.9970000  0  4G14G16G18G19
   7280068.000           0.000    23587943.403           0.000  
   2139994.000           0.000    20849664.338           0.000  
   3779937.002           0.000    20106562.855           0.000  
  -5232325.002           0.000    22215705.225           0.000  
 98  9 29 11 29 46.9970000  0  4G14G16G18G19
   7279816.000           0.000    23587895.530           0.000  
   2138193.998           0.000    20849321.666           0.000  
   3777058.997           0.000    20106015.997           0.000  
  -5238058.998           0.000    22214614.040           0.000  
 98  9 29 11 29 47.9970000  0  4G14G16G18G19
   7279564.000           0.000    23587847.544           0.000  
   2136392.997           0.000    20848978.876           0.000  
   3774180.000           0.000    20105468.460           0.000  
  -5243794.002           0.000    22213522.721           0.000  
 98  9 29 11 29 48.9970000  0  4G14G16G18G19
   7279312.000           0.000    23587799.396           0.000  
   2134590.998           0.000    20848636.004           0.000  
   3771300.997           0.000    20104920.257           0.000  
  -5249529.001           0.000    22212431.378           0.000  
 98  9 29 11 29 49.9970000  0  4G14G16G18G19
   7279059.002           0.000    23587751.142           0.000  
   2132788.999           0.000    20848293.055           0.000  
   3768422.000           0.000    20104372.538           0.000  
  -5255264.000           0.000    22211339.976           0.000  
 98  9 29 11 29 50.9970000  0  4G14G16G18G19
   7278805.000           0.000    23587702.793           0.000  
   2130987.000           0.000    20847950.051           0.000  
   3765543.002           0.000    20103824.753           0.000  
  -5260998.998           0.000    22210248.486           0.000  
 98  9 29 11 29 51.9970000  0  4G14G16G18G19
   7278550.998           0.000    23587654.321           0.000  
   2129183.998           0.000    20847607.001           0.000  
   3762663.001           0.000    20103277.055           0.000  
  -5266735.001           0.000    22209156.916           0.000  
 98  9 29 11 29 52.9970000  0  4G14G16G18G19
   7278294.999           0.000    23587605.639           0.000  
   2127380.002           0.000    20847263.788           0.000  
   3759782.002           0.000    20102729.299           0.000  
  -5272472.002           0.000    22208065.165           0.000  
 98  9 29 11 29 53.9970000  0  4G14G16G18G19
   7278039.000           0.000    23587556.793           0.000  
   2125576.001           0.000    20846920.377           0.000  
   3756901.002           0.000    20102192.174           0.000  
  -5278210.002           0.000    22206973.177           0.000  
 98  9 29 11 29 54.9970000  0  4G14G16G18G19
   7277780.998           0.000    23587507.689           0.000  
   2123769.997           0.000    20846576.790           0.000  
   3754018.999           0.000    20101645.167           0.000  
  -5283949.000           0.000    22205880.969           0.000  
 98  9 29 11 29 55.9970000  0  4G14G16G18G19
   7277521.999           0.000    23587458.511           0.000  
   2121963.001           0.000    20846233.079           0.000  
   3751137.001           0.000    20101095.927           0.000  
  -5289688.003           0.000    22204788.690           0.000  
 98  9 29 11 29 56.9970000  0  4G14G16G18G19
   7277264.003           0.000    23587409.254           0.000  
   2120156.998           0.000    20845889.357           0.000  
   3748253.999           0.000    20100547.098           0.000  
  -5295427.999           0.000    22203696.400           0.000  
 98  9 29 11 29 57.9970000  0  4G14G16G18G19
   7277004.998           0.000    23587359.969           0.000  
   2118351.000           0.000    20845545.598           0.000  
   3745372.001           0.000    20099997.803           0.000  
  -5301167.002           0.000    22202604.124           0.000  
 98  9 29 11 29 58.9970000  0  4G14G16G18G19
   7276745.000           0.000    23587310.590           0.000  
   2116543.998           0.000    20845201.790           0.000  
   3742488.999           0.000    20099448.642           0.000  
  -5306906.999           0.000    22201511.736           0.000  
 98  9 29 11 29 59.9970000  0  4G14G16G18G19
   7276485.002           0.000    23587261.088           0.000  
   2114735.998           0.000    20844857.883           0.000  
   3739606.002           0.000    20098900.509           0.000  
  -5312647.000           0.000    22200419.386           0.000  
 98  9 29 11 30  0.9970000  0  4G14G16G18G19
   7276224.000           0.000    23587211.488           0.000  
   2112929.001           0.000    20844513.914           0.000  
   3736723.001           0.000    20098352.171           0.000  
  -5318388.001           0.000    22199326.936           0.000  
 98  9 29 11 30  1.9970000  0  4G14G16G18G19
   7275962.998           0.000    23587161.718           0.000  
   2111121.001           0.000    20844169.869           0.000  
   3733839.999           0.000    20097803.521           0.000  
  -5324129.001           0.000    22198234.396           0.000  
 98  9 29 11 30  2.9970000  0  5G 4G14G16G18G19
   4722637.998           0.000    20752382.067           0.000  
   7275699.999           0.000    23587111.808           0.000  
   2109312.002           0.000    20843825.640           0.000  
   3730955.998           0.000    20097254.891           0.000  
  -5329870.999           0.000    22197141.792           0.000  
 98  9 29 11 30  3.9970000  0  5G 4G14G16G18G19
   4719065.998           0.000    20751705.124           0.000  
   7275437.000           0.000    23587061.780           0.000  
   2107502.998           0.000    20843481.342           0.000  
   3728071.998           0.000    20096706.298           0.000  
  -5335612.998           0.000    22196049.042           0.000  
 98  9 29 11 30  4.9970000  0  4G14G16G18G19
   7275172.998           0.000    23587011.552           0.000  
   2105691.998           0.000    20843136.917           0.000  
   3725187.000           0.000    20096157.254           0.000  
  -5341356.000           0.000    22194956.058           0.000  
 98  9 29 11 30  5.9970000  0  4G14G16G18G19
   7274909.001           0.000    23586961.248           0.000  
   2103882.000           0.000    20842792.409           0.000  
   3722302.001           0.000    20095609.027           0.000  
  -5347099.002           0.000    22193863.054           0.000  
 98  9 29 11 30  6.9970000  0  4G14G16G18G19
   7274644.000           0.000    23586910.802           0.000  
   2102071.000           0.000    20842447.863           0.000  
   3719415.998           0.000    20095060.128           0.000  
  -5352842.998           0.000    22192769.997           0.000  
 98  9 29 11 30  7.9970000  0  4G14G16G18G19
   7274378.000           0.000    23586860.328           0.000  
   2100259.999           0.000    20842103.285           0.000  
   3716531.000           0.000    20094511.766           0.000  
  -5358586.000           0.000    22191676.891           0.000  
 98  9 29 11 30  8.9970000  0  5G 4G14G16G18G19
   4724056.001           0.000    20748307.719           0.000  
   7274112.999           0.000    23586809.729           0.000  
   2098448.998           0.000    20841758.637           0.000  
   3713644.997           0.000    20093962.986           0.000  
  -5364330.001           0.000    22190583.761           0.000  
 98  9 29 11 30  9.9970000  0  6G 4G 7G14G16G18G19
   4720481.999           0.000    20747635.006           0.000  
   4726239.001           0.000    24212399.692           0.000  
   7273847.000           0.000    23586759.110           0.000  
   2096638.002           0.000    20841413.972           0.000  
   3710759.999           0.000    20093414.511           0.000  
  -5370074.002           0.000    22189490.683           0.000  
 98  9 29 11 30 10.9970000  0  6G 4G 7G14G16G18G19
   4716910.998           0.000    20746958.842           0.000  
   4726262.002           0.000    24212415.811           0.000  
   7273580.002           0.000    23586708.398           0.000  
   2094825.998           0.000    20841069.250           0.000  
   3707874.001           0.000    20092865.866           0.000  
  -5375818.003           0.000    22188397.508           0.000  
 98  9 29 11 30 11.9970000  0  6G 4G 7G14G16G18G19
   4713337.001           0.000    20746277.716           0.000  
   4726284.000           0.000    24212425.232           0.000  
   7273312.999           0.000    23586657.544           0.000  
   2093013.999           0.000    20840724.439           0.000  
   3704988.997           0.000    20092317.261           0.000  
  -5381563.002           0.000    22187304.243           0.000  
 98  9 29 11 30 12.9970000  0  6G 4G 7G14G16G18G19
   4709762.999           0.000    20745595.460           0.000  
   4726304.999           0.000    24212430.092           0.000  
   7273045.003           0.000    23586606.555           0.000  
   2091201.999           0.000    20840379.531           0.000  
   3702102.002           0.000    20091768.268           0.000  
  -5387308.001           0.000    22186210.932           0.000  
 98  9 29 11 30 13.9970000  0  6G 4G 7G14G16G18G19
   4706189.002           0.000    20744909.414           0.000  
   4726323.003           0.000    24212433.466           0.000  
   7272776.003           0.000    23586555.370           0.000  
   2089387.998           0.000    20840034.499           0.000  
   3699215.001           0.000    20091219.178           0.000  
  -5393053.999           0.000    22185117.532           0.000  
 98  9 29 11 30 14.9970000  0  6G 4G 7G14G16G18G19
   4702614.999           0.000    20744224.097           0.000  
   4726340.003           0.000    24212427.584           0.000  
   7272505.999           0.000    23586504.082           0.000  
   2087575.000           0.000    20839689.406           0.000  
   3696328.000           0.000    20090669.917           0.000  
  -5398801.000           0.000    22184024.002           0.000  
 98  9 29 11 30 15.9970000  0  6G 4G 7G14G16G18G19
   4699042.001           0.000    20743543.441           0.000  
   4726357.003           0.000    24212429.698           0.000  
   7272236.001           0.000    23586452.681           0.000  
   2085760.999           0.000    20839344.261           0.000  
   3693440.999           0.000    20090120.635           0.000  
  -5404546.998           0.000    22182930.392           0.000  
 98  9 29 11 30 16.9970000  0  6G 4G 7G14G16G18G19
   4695467.000           0.000    20742862.304           0.000  
   4726373.997           0.000    24212433.329           0.000  
   7271966.002           0.000    23586401.143           0.000  
   2083947.002           0.000    20838998.964           0.000  
   3690553.998           0.000    20089570.982           0.000  
  -5410293.999           0.000    22181836.698           0.000  
 98  9 29 11 30 17.9970000  0  6G 4G 7G14G16G18G19
   4691892.998           0.000    20742181.081           0.000  
   4726389.001           0.000    24212438.437           0.000  
   7271694.001           0.000    23586349.428           0.000  
   2082130.999           0.000    20838653.557           0.000  
   3687665.001           0.000    20089021.319           0.000  
  -5416041.999           0.000    22180742.871           0.000  
 98  9 29 11 30 18.9970000  0  6G 4G 7G14G16G18G19
   4688319.001           0.000    20741500.617           0.000  
   4726403.000           0.000    24212443.067           0.000  
   7271421.002           0.000    23586297.572           0.000  
   2080315.000           0.000    20838307.996           0.000  
   3684777.001           0.000    20088471.531           0.000  
  -5421791.002           0.000    22179648.923           0.000  
 98  9 29 11 30 19.9970000  0  6G 4G 7G14G16G18G19
   4684744.001           0.000    20740821.335           0.000  
   4726420.000           0.000    24212446.314           0.000  
   7271147.998           0.000    23586245.576           0.000  
   2078499.002           0.000    20837962.373           0.000  
   3681887.000           0.000    20087921.655           0.000  
  -5427540.001           0.000    22178554.878           0.000  
 98  9 29 11 30 20.9970000  0  6G 4G 7G14G16G18G19
   4681166.998           0.000    20740142.135           0.000  
   4726433.999           0.000    24212451.546           0.000  
   7270874.000           0.000    23586193.440           0.000  
   2076682.000           0.000    20837616.625           0.000  
   3678998.002           0.000    20087371.467           0.000  
  -5433288.999           0.000    22177460.808           0.000  
 98  9 29 11 30 21.9970000  0  6G 4G 7G14G16G18G19
   4677590.999           0.000    20739463.526           0.000  
   4726447.999           0.000    24212455.816           0.000  
   7270598.999           0.000    23586141.185           0.000  
   2074864.998           0.000    20837270.791           0.000  
   3676108.000           0.000    20086821.401           0.000  
  -5439039.001           0.000    22176366.651           0.000  
 98  9 29 11 30 22.9970000  0  6G 4G 7G14G16G18G19
   4674015.998           0.000    20738783.847           0.000  
   4726458.998           0.000    24212458.359           0.000  
   7270323.998           0.000    23586088.894           0.000  
   2073046.997           0.000    20836924.917           0.000  
   3673217.999           0.000    20086271.048           0.000  
  -5444790.001           0.000    22175272.415           0.000  
 98  9 29 11 30 23.9970000  0  6G 4G 7G14G16G18G19
   4670442.001           0.000    20738103.640           0.000  
   4726471.000           0.000    24212462.240           0.000  
   7270049.002           0.000    23586036.403           0.000  
   2071230.000           0.000    20836578.961           0.000  
   3670327.997           0.000    20085714.419           0.000  
  -5450539.998           0.000    22174178.107           0.000  
 98  9 29 11 30 24.9970000  0  6G 4G 7G14G16G18G19
   4666867.001           0.000    20737422.670           0.000  
   4726481.999           0.000    24212465.159           0.000  
   7269771.998           0.000    23585983.777           0.000  
   2069411.001           0.000    20836232.904           0.000  
   3667438.001           0.000    20085161.195           0.000  
  -5456292.002           0.000    22173083.648           0.000  
 98  9 29 11 30 25.9970000  0  6G 4G 7G14G16G18G19
   4663291.001           0.000    20736741.299           0.000  
   4726490.002           0.000    24212467.382           0.000  
   7269495.000           0.000    23585931.022           0.000  
   2067591.997           0.000    20835886.736           0.000  
   3664547.001           0.000    20084612.200           0.000  
  -5462042.998           0.000    22171989.164           0.000  
 98  9 29 11 30 26.9970000  0  6G 4G 7G14G16G18G19
   4659716.001           0.000    20736060.513           0.000  
   4726498.999           0.000    24212468.698           0.000  
   7269216.000           0.000    23585878.087           0.000  
   2065772.000           0.000    20835540.462           0.000  
   3661654.998           0.000    20084062.933           0.000  
  -5467796.000           0.000    22170894.544           0.000  
 98  9 29 11 30 27.9970000  0  6G 4G 7G14G16G18G19
   4656138.998           0.000    20735379.391           0.000  
   4726507.002           0.000    24212469.809           0.000  
   7268937.000           0.000    23585825.016           0.000  
   2063950.999           0.000    20835194.013           0.000  
   3658762.999           0.000    20083513.269           0.000  
  -5473548.998           0.000    22169799.775           0.000  
 98  9 29 11 30 28.9970000  0  6G 4G 7G14G16G18G19
   4652562.001           0.000    20734698.496           0.000  
   4726516.998           0.000    24212470.769           0.000  
   7268657.999           0.000    23585771.737           0.000  
   2062129.997           0.000    20834847.465           0.000  
   3655870.002           0.000    20082963.165           0.000  
  -5479302.999           0.000    22168704.860           0.000  
 98  9 29 11 30 29.9970000  0  6G 4G 7G14G16G18G19
   4648984.998           0.000    20734017.248           0.000  
   4726522.000           0.000    24212470.741           0.000  
   7268377.002           0.000    23585718.382           0.000  
   2060309.002           0.000    20834500.806           0.000  
   3652977.000           0.000    20082411.964           0.000  
  -5485057.000           0.000    22167609.931           0.000  
 98  9 29 11 30 30.9970000  0  6G 4G 7G14G16G18G19
   4645407.002           0.000    20733337.120           0.000  
   4726526.998           0.000    24212472.186           0.000  
   7268096.000           0.000    23585664.940           0.000  
   2058487.002           0.000    20834154.090           0.000  
   3650083.998           0.000    20081861.176           0.000  
  -5490811.999           0.000    22166514.936           0.000  
 98  9 29 11 30 31.9970000  0  6G 4G 7G14G16G18G19
   4641828.002           0.000    20732656.783           0.000  
   4726532.001           0.000    24212473.701           0.000  
   7267813.999           0.000    23585611.389           0.000  
   2056663.999           0.000    20833807.269           0.000  
   3647189.997           0.000    20081309.909           0.000  
  -5496566.999           0.000    22165419.815           0.000  
 98  9 29 11 30 32.9970000  0  6G 4G 7G14G16G18G19
   4638250.999           0.000    20731976.542           0.000  
   4726536.000           0.000    24212475.090           0.000  
   7267531.998           0.000    23585557.709           0.000  
   2054841.000           0.000    20833460.343           0.000  
   3644296.002           0.000    20080759.330           0.000  
  -5502323.002           0.000    22164324.592           0.000  
 98  9 29 11 30 33.9970000  0  6G 4G 7G14G16G18G19
   4634672.998           0.000    20731295.873           0.000  
   4726539.000           0.000    24212476.020           0.000  
   7267248.998           0.000    23585503.891           0.000  
   2053018.002           0.000    20833113.396           0.000  
   3641402.001           0.000    20080208.163           0.000  
  -5508079.000           0.000    22163229.332           0.000  
 98  9 29 11 30 34.9970000  0  6G 4G 7G14G16G18G19
   4631095.002           0.000    20730614.266           0.000  
   4726541.003           0.000    24212476.269           0.000  
   7266965.000           0.000    23585449.863           0.000  
   2051194.001           0.000    20832766.259           0.000  
   3638507.002           0.000    20079656.402           0.000  
  -5513836.002           0.000    22162133.909           0.000  
 98  9 29 11 30 35.9970000  0  6G 4G 7G14G16G18G19
   4627517.001           0.000    20729932.809           0.000  
   4726542.001           0.000    24212476.980           0.000  
   7266679.000           0.000    23585395.619           0.000  
   2049369.000           0.000    20832418.939           0.000  
   3635611.998           0.000    20079105.895           0.000  
  -5519592.998           0.000    22161038.331           0.000  
 98  9 29 11 30 36.9970000  0  6G 4G 7G14G16G18G19
   4623938.001           0.000    20729251.522           0.000  
   4726542.999           0.000    24212477.827           0.000  
   7266393.999           0.000    23585341.311           0.000  
   2047543.002           0.000    20832071.528           0.000  
   3632716.001           0.000    20078554.776           0.000  
  -5525352.002           0.000    22159942.683           0.000  
 98  9 29 11 30 37.9970000  0  6G 4G 7G14G16G18G19
   4620357.998           0.000    20728570.256           0.000  
   4726542.001           0.000    24212477.848           0.000  
   7266107.000           0.000    23585286.827           0.000  
   2045716.998           0.000    20831724.027           0.000  
   3629818.999           0.000    20078003.621           0.000  
  -5531110.002           0.000    22158846.960           0.000  
 98  9 29 11 30 38.9970000  0  6G 4G 7G14G16G18G19
   4616778.998           0.000    20727889.088           0.000  
   4726541.003           0.000    24212478.175           0.000  
   7265820.002           0.000    23585232.250           0.000  
   2043890.999           0.000    20831376.471           0.000  
   3626923.002           0.000    20077452.838           0.000  
  -5536869.001           0.000    22157751.166           0.000  
 98  9 29 11 30 39.9970000  0  6G 4G 7G14G16G18G19
   4613199.998           0.000    20727208.079           0.000  
   4726541.003           0.000    24212478.157           0.000  
   7265534.002           0.000    23585177.642           0.000  
   2042065.000           0.000    20831028.951           0.000  
   3624026.999           0.000    20076901.945           0.000  
  -5542628.000           0.000    22156655.388           0.000  
 98  9 29 11 30 40.9970000  0  6G 4G 7G14G16G18G19
   4609622.002           0.000    20726527.233           0.000  
   4726539.999           0.000    24212478.368           0.000  
   7265245.999           0.000    23585123.003           0.000  
   2040239.002           0.000    20830681.448           0.000  
   3621131.002           0.000    20076351.165           0.000  
  -5548386.000           0.000    22155559.674           0.000  
 98  9 29 11 30 41.9970000  0  6G 4G 7G14G16G18G19
   4606044.001           0.000    20725846.231           0.000  
   4726539.000           0.000    24212477.145           0.000  
   7264959.001           0.000    23585068.346           0.000  
   2038412.998           0.000    20830333.893           0.000  
   3618234.999           0.000    20075800.296           0.000  
  -5554144.998           0.000    22154463.901           0.000  
 98  9 29 11 30 42.9970000  0  6G 4G 7G14G16G18G19
   4602465.001           0.000    20725165.075           0.000  
   4726535.001           0.000    24212469.716           0.000  
   7264670.999           0.000    23585013.438           0.000  
   2036586.000           0.000    20829986.196           0.000  
   3615337.998           0.000    20075249.262           0.000  
  -5559905.001           0.000    22153367.993           0.000  
 98  9 29 11 30 43.9970000  0  6G 4G 7G14G16G18G19
   4598886.001           0.000    20724484.176           0.000  
   4726533.998           0.000    24212470.780           0.000  
   7264381.998           0.000    23584958.429           0.000  
   2034758.998           0.000    20829638.555           0.000  
   3612442.000           0.000    20074698.496           0.000  
  -5565663.999           0.000    22152272.104           0.000  
 98  9 29 11 30 44.9970000  0  6G 4G 7G14G16G18G19
   4595307.002           0.000    20723803.098           0.000  
   4726529.000           0.000    24212470.929           0.000  
   7264093.003           0.000    23584903.299           0.000  
   2032930.997           0.000    20829290.751           0.000  
   3609544.999           0.000    20074147.447           0.000  
  -5571424.002           0.000    22151176.086           0.000  
 98  9 29 11 30 45.9970000  0  6G 4G 7G14G16G18G19
   4591728.002           0.000    20723121.719           0.000  
   4726525.001           0.000    24212470.556           0.000  
   7263802.998           0.000    23584848.126           0.000  
   2031104.000           0.000    20828942.879           0.000  
   3606647.998           0.000    20073596.440           0.000  
  -5577185.002           0.000    22150079.990           0.000  
 98  9 29 11 30 46.9970000  0  6G 4G 7G14G16G18G19
   4588149.002           0.000    20722440.403           0.000  
   4726521.002           0.000    24212469.425           0.000  
   7263512.001           0.000    23584792.690           0.000  
   2029275.001           0.000    20828594.858           0.000  
   3603749.998           0.000    20073045.406           0.000  
  -5582945.998           0.000    22148983.730           0.000  
 98  9 29 11 30 47.9970000  0  6G 4G 7G14G16G18G19
   4584568.999           0.000    20721759.008           0.000  
   4726515.001           0.000    24212467.254           0.000  
   7263219.999           0.000    23584737.082           0.000  
   2027444.998           0.000    20828246.711           0.000  
   3600851.000           0.000    20072494.299           0.000  
  -5588708.003           0.000    22147887.360           0.000  
 98  9 29 11 30 48.9970000  0  6G 4G 7G14G16G18G19
   4580989.001           0.000    20721077.790           0.000  
   4726508.001           0.000    24212465.966           0.000  
   7262926.999           0.000    23584681.470           0.000  
   2025615.000           0.000    20827898.578           0.000  
   3597953.000           0.000    20071943.308           0.000  
  -5594470.002           0.000    22146791.045           0.000  
 98  9 29 11 30 49.9970000  0  6G 4G 7G14G16G18G19
   4577408.997           0.000    20720396.609           0.000  
   4726500.003           0.000    24212465.300           0.000  
   7262634.998           0.000    23584625.722           0.000  
   2023785.002           0.000    20827550.329           0.000  
   3595054.002           0.000    20071392.103           0.000  
  -5600232.999           0.000    22145694.599           0.000  
 98  9 29 11 30 50.9970000  0  6G 4G 7G14G16G18G19
   4573828.999           0.000    20719715.437           0.000  
   4726491.001           0.000    24212463.097           0.000  
   7262341.000           0.000    23584569.800           0.000  
   2021954.999           0.000    20827201.932           0.000  
   3592154.999           0.000    20070840.603           0.000  
  -5605996.002           0.000    22144598.018           0.000  
 98  9 29 11 30 51.9970000  0  6G 4G 7G14G16G18G19
   4570247.997           0.000    20719034.331           0.000  
   4726481.001           0.000    24212460.762           0.000  
   7262047.002           0.000    23584513.801           0.000  
   2020122.999           0.000    20826853.450           0.000  
   3589255.002           0.000    20070289.095           0.000  
  -5611759.999           0.000    22143501.358           0.000  
 98  9 29 11 30 52.9970000  0  6G 4G 7G14G16G18G19
   4566667.999           0.000    20718353.058           0.000  
   4726470.002           0.000    24212458.278           0.000  
   7261751.001           0.000    23584457.608           0.000  
   2018291.998           0.000    20826504.887           0.000  
   3586355.000           0.000    20069737.444           0.000  
  -5617524.000           0.000    22142404.619           0.000  
 98  9 29 11 30 53.9970000  0  6G 4G 7G14G16G18G19
   4563087.002           0.000    20717671.740           0.000  
   4726461.000           0.000    24212456.190           0.000  
   7261455.999           0.000    23584401.333           0.000  
   2016459.998           0.000    20826156.239           0.000  
   3583454.999           0.000    20069185.930           0.000  
  -5623288.001           0.000    22141307.795           0.000  
 98  9 29 11 30 54.9970000  0  6G 4G 7G14G16G18G19
   4559506.001           0.000    20716990.518           0.000  
   4726453.002           0.000    24212454.481           0.000  
   7261159.001           0.000    23584344.929           0.000  
   2014626.999           0.000    20825807.509           0.000  
   3580553.998           0.000    20068634.153           0.000  
  -5629053.001           0.000    22140210.881           0.000  
 98  9 29 11 30 55.9970000  0  6G 4G 7G14G16G18G19
   4555924.999           0.000    20716309.190           0.000  
   4726440.999           0.000    24212452.169           0.000  
   7260863.000           0.000    23584288.520           0.000  
   2012794.999           0.000    20825458.845           0.000  
   3577654.002           0.000    20068082.423           0.000  
  -5634818.001           0.000    22139114.033           0.000  
 98  9 29 11 30 56.9970000  0  6G 4G 7G14G16G18G19
   4552344.002           0.000    20715628.001           0.000  
   4726426.001           0.000    24212448.441           0.000  
   7260566.001           0.000    23584231.934           0.000  
   2010962.001           0.000    20825110.060           0.000  
   3574753.001           0.000    20067530.515           0.000  
  -5640583.001           0.000    22138017.064           0.000  
 98  9 29 11 30 57.9970000  0  6G 4G 7G14G16G18G19
   4548763.000           0.000    20714946.654           0.000  
   4726412.002           0.000    24212445.607           0.000  
   7260267.999           0.000    23584175.166           0.000  
   2009127.999           0.000    20824761.121           0.000  
   3571852.001           0.000    20066978.445           0.000  
  -5646348.999           0.000    22136919.966           0.000  
 98  9 29 11 30 58.9970000  0  6G 4G 7G14G16G18G19
   4545181.000           0.000    20714265.165           0.000  
   4726399.001           0.000    24212443.155           0.000  
   7259968.998           0.000    23584118.365           0.000  
   2007294.002           0.000    20824412.131           0.000  
   3568950.002           0.000    20066426.536           0.000  
  -5652114.998           0.000    22135822.812           0.000  
 98  9 29 11 30 59.9970000  0  5G 4G14G16G18G19
   4541599.000           0.000    20713583.617           0.000  
   7259670.002           0.000    23584061.328           0.000  
   2005460.000           0.000    20824062.994           0.000  
   3566047.998           0.000    20065874.529           0.000  
  -5657882.000           0.000    22134725.555           0.000  
 98  9 29 11 31  0.9970000  0  6G 4G 7G14G16G18G19
   4538016.999           0.000    20712902.058           0.000  
   4726342.000           0.000    24212440.186           0.000  
   7259370.003           0.000    23584004.151           0.000  
   2003624.999           0.000    20823713.774           0.000  
   3563146.000           0.000    20065322.111           0.000  
  -5663649.002           0.000    22133628.157           0.000  
 98  9 29 11 31  1.9970000  0  5G 4G14G16G18G19
   4534434.999           0.000    20712220.550           0.000  
   7259068.999           0.000    23583946.892           0.000  
   2001789.000           0.000    20823364.547           0.000  
   3560244.001           0.000    20064769.752           0.000  
  -5669415.999           0.000    22132530.711           0.000  
 98  9 29 11 31  2.9970000  0  6G 4G 7G14G16G18G19
   4530852.999           0.000    20711539.030           0.000  
   4726238.002           0.000    24212437.523           0.000  
   7258768.002           0.000    23583889.572           0.000  
   1999954.000           0.000    20823015.218           0.000  
   3557340.998           0.000    20064217.216           0.000  
  -5675183.999           0.000    22131433.177           0.000  
 98  9 29 11 31  3.9970000  0  5G 4G14G16G18G19
   4527270.998           0.000    20710857.338           0.000  
   7258466.000           0.000    23583832.082           0.000  
   1998117.002           0.000    20822665.761           0.000  
   3554438.001           0.000    20063664.826           0.000  
  -5680952.000           0.000    22130335.547           0.000  
 98  9 29 11 31  4.9970000  0  5G 4G14G16G18G19
   4523687.999           0.000    20710175.673           0.000  
   7258163.000           0.000    23583774.338           0.000  
   1996279.999           0.000    20822316.065           0.000  
   3551533.002           0.000    20063112.327           0.000  
  -5686720.999           0.000    22129237.698           0.000  
 98  9 29 11 31  5.9970000  0  5G 4G14G16G18G19
   4520104.002           0.000    20709493.994           0.000  
   7257859.001           0.000    23583716.412           0.000  
   1994441.998           0.000    20821966.292           0.000  
   3548629.001           0.000    20062559.738           0.000  
  -5692491.001           0.000    22128139.692           0.000  
 98  9 29 11 31  6.9970000  0  5G 4G14G16G18G19
   4516520.998           0.000    20708812.410           0.000  
   7257555.003           0.000    23583658.440           0.000  
   1992604.002           0.000    20821616.528           0.000  
   3545724.002           0.000    20062007.235           0.000  
  -5698260.999           0.000    22127041.775           0.000  
 98  9 29 11 31  7.9970000  0  5G 4G14G16G18G19
   4512937.001           0.000    20708138.239           0.000  
   7257250.000           0.000    23583600.415           0.000  
   1990766.001           0.000    20821266.724           0.000  
   3542820.001           0.000    20061454.601           0.000  
  -5704031.001           0.000    22125943.796           0.000  
 98  9 29 11 31  8.9970000  0  5G 4G14G16G18G19
   4509354.002           0.000    20707459.701           0.000  
   7256944.998           0.000    23583542.176           0.000  
   1988928.000           0.000    20820916.821           0.000  
   3539915.001           0.000    20060901.965           0.000  
  -5709800.999           0.000    22124845.779           0.000  
 98  9 29 11 31  9.9970000  0  5G 4G14G16G18G19
   4505770.000           0.000    20706781.290           0.000  
   7256639.003           0.000    23583483.833           0.000  
   1987089.000           0.000    20820566.831           0.000  
   3537008.998           0.000    20060349.194           0.000  
  -5715572.000           0.000    22123747.664           0.000  
 98  9 29 11 31 10.9970000  0  4G14G16G18G19
   7256331.998           0.000    23583425.413           0.000  
   1985249.002           0.000    20820216.751           0.000  
   3534103.999           0.000    20059796.422           0.000  
  -5721343.001           0.000    22122649.402           0.000  
 98  9 29 11 31 11.9970000  0  4G14G16G18G19
   7256024.999           0.000    23583366.965           0.000  
   1983408.999           0.000    20819866.668           0.000  
   3531198.001           0.000    20059243.762           0.000  
  -5727115.001           0.000    22121551.092           0.000  
 98  9 29 11 31 12.9970000  0  4G14G16G18G19
   7255717.001           0.000    23583308.400           0.000  
   1981569.000           0.000    20819516.566           0.000  
   3528291.998           0.000    20058691.123           0.000  
  -5732886.002           0.000    22120452.820           0.000  
 98  9 29 11 31 13.9970000  0  4G14G16G18G19
   7255408.999           0.000    23583249.603           0.000  
   1979729.002           0.000    20819166.275           0.000  
   3525385.002           0.000    20058138.179           0.000  
  -5738659.000           0.000    22119354.385           0.000  
 98  9 29 11 31 14.9970000  0  4G14G16G18G19
   7255098.999           0.000    23583190.665           0.000  
   1977887.002           0.000    20818815.881           0.000  
   3522478.000           0.000    20057585.196           0.000  
  -5744431.998           0.000    22118255.814           0.000  
 98  9 29 11 31 15.9970000  0  4G14G16G18G19
   7254788.999           0.000    23583131.592           0.000  
   1976046.000           0.000    20818465.385           0.000  
   3519570.999           0.000    20057032.114           0.000  
  -5750205.001           0.000    22117157.153           0.000  
 98  9 29 11 31 16.9970000  0  4G14G16G18G19
   7254478.999           0.000    23583072.469           0.000  
   1974204.000           0.000    20818114.868           0.000  
   3516664.002           0.000    20056478.993           0.000  
  -5755978.998           0.000    22116058.464           0.000  
 98  9 29 11 31 17.9970000  0  4G14G16G18G19
   7254168.001           0.000    23583013.258           0.000  
   1972361.001           0.000    20817764.230           0.000  
   3513756.002           0.000    20055925.805           0.000  
  -5761752.999           0.000    22114959.619           0.000  
 98  9 29 11 31 18.9970000  0  4G14G16G18G19
   7253855.999           0.000    23582953.807           0.000  
   1970517.997           0.000    20817413.443           0.000  
   3510848.002           0.000    20055372.435           0.000  
  -5767527.001           0.000    22113860.642           0.000  
 98  9 29 11 31 19.9970000  0  4G14G16G18G19
   7253542.999           0.000    23582894.071           0.000  
   1968674.000           0.000    20817062.429           0.000  
   3507938.000           0.000    20054818.933           0.000  
  -5773303.000           0.000    22112761.540           0.000  
 98  9 29 11 31 20.9970000  0  4G14G16G18G19
   7253229.998           0.000    23582834.510           0.000  
   1966829.998           0.000    20816711.536           0.000  
   3505030.000           0.000    20054265.652           0.000  
  -5779078.000           0.000    22111662.556           0.000  
 98  9 29 11 31 21.9970000  0  4G14G16G18G19
   7252916.998           0.000    23582774.876           0.000  
   1964986.000           0.000    20816360.638           0.000  
   3502122.000           0.000    20053712.261           0.000  
  -5784853.000           0.000    22110563.592           0.000  
 98  9 29 11 31 22.9970000  0  4G14G16G18G19
   7252602.999           0.000    23582715.145           0.000  
   1963141.998           0.000    20816009.659           0.000  
   3499213.002           0.000    20053158.775           0.000  
  -5790628.999           0.000    22109464.526           0.000  
 98  9 29 11 31 23.9970000  0  4G14G16G18G19
   7252288.002           0.000    23582655.130           0.000  
   1961297.002           0.000    20815658.500           0.000  
   3496303.000           0.000    20052605.020           0.000  
  -5796405.003           0.000    22108365.277           0.000  
 98  9 29 11 31 24.9970000  0  4G14G16G18G19
   7251972.000           0.000    23582594.940           0.000  
   1959450.998           0.000    20815307.199           0.000  
   3493392.997           0.000    20052051.043           0.000  
  -5802182.998           0.000    22107265.860           0.000  
 98  9 29 11 31 25.9970000  0  4G14G16G18G19
   7251654.003           0.000    23582534.384           0.000  
   1957603.001           0.000    20814955.517           0.000  
   3490480.998           0.000    20051486.759           0.000  
  -5807961.998           0.000    22106166.083           0.000  
 98  9 29 11 31 26.9970000  0  4G14G16G18G19
   7251334.002           0.000    23582473.614           0.000  
   1955754.001           0.000    20814603.642           0.000  
   3487568.001           0.000    20050930.350           0.000  
  -5813742.001           0.000    22105066.167           0.000  
 98  9 29 11 31 27.9970000  0  4G14G16G18G19
   7251014.002           0.000    23582412.615           0.000  
   1953903.998           0.000    20814251.633           0.000  
   3484654.000           0.000    20050372.006           0.000  
  -5819523.002           0.000    22103966.136           0.000  
 98  9 29 11 31 28.9970000  0  4G14G16G18G19
   7250694.002           0.000    23582351.503           0.000  
   1952053.999           0.000    20813899.515           0.000  
   3481741.002           0.000    20049817.204           0.000  
  -5825303.998           0.000    22102865.917           0.000  
 98  9 29 11 31 29.9970000  0  4G14G16G18G19
   7250372.998           0.000    23582290.557           0.000  
   1950204.999           0.000    20813547.519           0.000  
   3478827.999           0.000    20049262.374           0.000  
  -5831084.001           0.000    22101765.825           0.000  
 98  9 29 11 31 30.9970000  0  4G14G16G18G19
   7250052.998           0.000    23582229.602           0.000  
   1948355.999           0.000    20813195.551           0.000  
   3475915.002           0.000    20048707.196           0.000  
  -5836863.999           0.000    22100665.825           0.000  
 98  9 29 11 31 31.9970000  0  4G14G16G18G19
   7249732.998           0.000    23582168.647           0.000  
   1946506.001           0.000    20812843.603           0.000  
   3473002.997           0.000    20048152.802           0.000  
  -5842645.000           0.000    22099565.795           0.000  
 98  9 29 11 31 32.9970000  0  4G14G16G18G19
   7249411.999           0.000    23582107.574           0.000  
   1944657.001           0.000    20812491.597           0.000  
   3470090.000           0.000    20047599.073           0.000  
  -5848424.998           0.000    22098465.751           0.000  
 98  9 29 11 31 33.9970000  0  4G14G16G18G19
   7249090.002           0.000    23582046.421           0.000  
   1942807.002           0.000    20812139.510           0.000  
   3467178.001           0.000    20047045.009           0.000  
  -5854206.000           0.000    22097365.640           0.000  
 98  9 29 11 31 34.9970000  0  4G14G16G18G19
   7248768.000           0.000    23581985.136           0.000  
   1940956.000           0.000    20811787.355           0.000  
   3464263.999           0.000    20046491.532           0.000  
  -5859987.001           0.000    22096265.479           0.000  
 98  9 29 11 31 35.9970000  0  4G14G16G18G19
   7248445.998           0.000    23581923.673           0.000  
   1939104.998           0.000    20811435.109           0.000  
   3461351.002           0.000    20045937.701           0.000  
  -5865769.001           0.000    22095165.266           0.000  
 98  9 29 11 31 36.9970000  0  4G14G16G18G19
   7248121.999           0.000    23581862.101           0.000  
   1937254.001           0.000    20811082.753           0.000  
   3458437.001           0.000    20045383.575           0.000  
  -5871551.001           0.000    22094064.964           0.000  
 98  9 29 11 31 37.9970000  0  4G14G16G18G19
   7247797.999           0.000    23581800.506           0.000  
   1935402.000           0.000    20810730.365           0.000  
   3455523.998           0.000    20044829.670           0.000  
  -5877333.001           0.000    22092964.648           0.000  
 98  9 29 11 31 38.9970000  0  4G14G16G18G19
   7247474.000           0.000    23581738.709           0.000  
   1933550.000           0.000    20810377.843           0.000  
   3452608.998           0.000    20044275.678           0.000  
  -5883115.999           0.000    22091864.221           0.000  
 98  9 29 11 31 39.9970000  0  4G14G16G18G19
   7247149.002           0.000    23581676.779           0.000  
   1931697.001           0.000    20810025.269           0.000  
   3449693.998           0.000    20043721.692           0.000  
  -5888898.998           0.000    22090763.676           0.000  
 98  9 29 11 31 40.9970000  0  4G14G16G18G19
   7246823.001           0.000    23581614.796           0.000  
   1929844.002           0.000    20809672.637           0.000  
   3446780.002           0.000    20043167.523           0.000  
  -5894683.000           0.000    22089663.092           0.000  
 98  9 29 11 31 41.9970000  0  4G14G16G18G19
   7246497.000           0.000    23581552.725           0.000  
   1927989.999           0.000    20809319.913           0.000  
   3443864.998           0.000    20042613.392           0.000  
  -5900465.998           0.000    22088562.382           0.000  
 98  9 29 11 31 42.9970000  0  4G14G16G18G19
   7246170.000           0.000    23581490.481           0.000  
   1926136.001           0.000    20808967.041           0.000  
   3440948.999           0.000    20042067.698           0.000  
  -5906250.999           0.000    22087461.571           0.000  
 98  9 29 11 31 43.9970000  0  4G14G16G18G19
   7245842.002           0.000    23581428.266           0.000  
   1924281.999           0.000    20808614.241           0.000  
   3438034.000           0.000    20041510.964           0.000  
  -5912035.001           0.000    22086360.795           0.000  
 98  9 29 11 31 44.9970000  0  4G14G16G18G19
   7245515.002           0.000    23581365.972           0.000  
   1922426.997           0.000    20808261.352           0.000  
   3435118.001           0.000    20040957.509           0.000  
  -5917820.001           0.000    22085259.972           0.000  
 98  9 29 11 31 45.9970000  0  4G14G16G18G19
   7245186.998           0.000    23581303.554           0.000  
   1920572.001           0.000    20807908.359           0.000  
   3432201.998           0.000    20040402.856           0.000  
  -5923605.002           0.000    22084158.992           0.000  
 98  9 29 11 31 46.9970000  0  4G14G16G18G19
   7244858.001           0.000    23581241.027           0.000  
   1918716.002           0.000    20807555.297           0.000  
   3429286.000           0.000    20039848.830           0.000  
  -5929391.001           0.000    22083058.000           0.000  
 98  9 29 11 31 47.9970000  0  4G14G16G18G19
   7244528.001           0.000    23581178.429           0.000  
   1916861.000           0.000    20807202.177           0.000  
   3426370.002           0.000    20039293.300           0.000  
  -5935176.001           0.000    22081956.942           0.000  
 98  9 29 11 31 48.9970000  0  4G14G16G18G19
   7244198.999           0.000    23581115.792           0.000  
   1915005.001           0.000    20806849.077           0.000  
   3423453.998           0.000    20038737.383           0.000  
  -5940962.000           0.000    22080855.883           0.000  
 98  9 29 11 31 49.9970000  0  4G14G16G18G19
   7243868.999           0.000    23581053.038           0.000  
   1913149.001           0.000    20806495.911           0.000  
   3420538.000           0.000    20038182.350           0.000  
  -5946747.999           0.000    22079754.815           0.000  
 98  9 29 11 31 50.9970000  0  4G14G16G18G19
   7243538.998           0.000    23580990.284           0.000  
   1911291.998           0.000    20806142.752           0.000  
   3417622.002           0.000    20037627.450           0.000  
  -5952533.998           0.000    22078653.769           0.000  
 98  9 29 11 31 51.9970000  0  4G14G16G18G19
   7243208.998           0.000    23580927.480           0.000  
   1909435.998           0.000    20805789.535           0.000  
   3414705.999           0.000    20037072.429           0.000  
  -5958320.003           0.000    22077552.671           0.000  
 98  9 29 11 31 52.9970000  0  4G14G16G18G19
   7242877.999           0.000    23580864.612           0.000  
   1907579.000           0.000    20805436.224           0.000  
   3411789.002           0.000    20036516.726           0.000  
  -5964106.002           0.000    22076451.551           0.000  
 98  9 29 11 31 53.9970000  0  4G14G16G18G19
   7242547.000           0.000    23580801.624           0.000  
   1905722.002           0.000    20805082.845           0.000  
   3408872.999           0.000    20035961.914           0.000  
  -5969892.999           0.000    22075350.456           0.000  
 98  9 29 11 31 54.9970000  0  4G14G16G18G19
   7242215.002           0.000    23580738.564           0.000  
   1903864.998           0.000    20804729.412           0.000  
   3405956.002           0.000    20035406.551           0.000  
  -5975678.998           0.000    22074249.214           0.000  
 98  9 29 11 31 55.9970000  0  4G14G16G18G19
   7241883.000           0.000    23580675.445           0.000  
   1902007.001           0.000    20804375.942           0.000  
   3403039.999           0.000    20034851.186           0.000  
  -5981466.001           0.000    22073147.909           0.000  
 98  9 29 11 31 56.9970000  0  5G 4G14G16G18G19
   4721953.998           0.000    20674674.823           0.000  
   7241549.999           0.000    23580612.260           0.000  
   1900149.000           0.000    20804022.436           0.000  
   3400123.002           0.000    20034296.042           0.000  
  -5987254.002           0.000    22072046.560           0.000  
 98  9 29 11 31 57.9970000  0  5G 4G14G16G18G19
   4718367.000           0.000    20673988.558           0.000  
   7241216.998           0.000    23580548.916           0.000  
   1898290.998           0.000    20803668.884           0.000  
   3397206.000           0.000    20033741.421           0.000  
  -5993040.999           0.000    22070945.236           0.000  
 98  9 29 11 31 58.9970000  0  5G 4G14G16G18G19
   4714778.000           0.000    20673304.320           0.000  
   7240884.002           0.000    23580485.403           0.000  
   1896431.997           0.000    20803315.164           0.000  
   3394288.000           0.000    20033186.171           0.000  
  -5998829.001           0.000    22069843.709           0.000  
 98  9 29 11 31 59.9970000  0  5G 4G14G16G18G19
   4711189.000           0.000    20672620.632           0.000  
   7240548.998           0.000    23580421.829           0.000  
   1894571.999           0.000    20802961.344           0.000  
   3391370.998           0.000    20032631.134           0.000  
  -6004618.000           0.000    22068742.151           0.000  
 98  9 29 11 32  0.9970000  0  5G 4G14G16G18G19
   4707600.000           0.000    20671937.737           0.000  
   7240214.000           0.000    23580358.107           0.000  
   1892712.000           0.000    20802607.365           0.000  
   3388451.999           0.000    20032075.853           0.000  
  -6010407.000           0.000    22067640.469           0.000  
 98  9 29 11 32  1.9970000  0  5G 4G14G16G18G19
   4704010.001           0.000    20671250.534           0.000  
   7239877.999           0.000    23580294.275           0.000  
   1890850.997           0.000    20802253.316           0.000  
   3385533.999           0.000    20031520.362           0.000  
  -6016196.998           0.000    22066538.691           0.000  
 98  9 29 11 32  2.9970000  0  5G 4G14G16G18G19
   4700421.001           0.000    20670565.463           0.000  
   7239542.002           0.000    23580230.435           0.000  
   1888990.000           0.000    20801899.288           0.000  
   3382615.000           0.000    20030964.868           0.000  
  -6021986.003           0.000    22065436.928           0.000  
 98  9 29 11 32  3.9970000  0  5G 4G14G16G18G19
   4696830.997           0.000    20669881.287           0.000  
   7239206.001           0.000    23580166.469           0.000  
   1887130.001           0.000    20801545.220           0.000  
   3379697.000           0.000    20030409.656           0.000  
  -6027776.001           0.000    22064335.183           0.000  
 98  9 29 11 32  4.9970000  0  5G 4G14G16G18G19
   4693243.001           0.000    20669200.078           0.000  
   7238869.000           0.000    23580102.465           0.000  
   1885268.999           0.000    20801191.146           0.000  
   3376778.999           0.000    20029854.287           0.000  
  -6033565.000           0.000    22063233.405           0.000  
 98  9 29 11 32  5.9970000  0  5G 4G14G16G18G19
   4689654.999           0.000    20668517.480           0.000  
   7238532.999           0.000    23580038.444           0.000  
   1883408.002           0.000    20800837.084           0.000  
   3373860.999           0.000    20029298.992           0.000  
  -6039354.999           0.000    22062131.611           0.000  
 98  9 29 11 32  6.9970000  0  5G 4G14G16G18G19
   4686068.002           0.000    20667834.600           0.000  
   7238195.999           0.000    23579974.353           0.000  
   1881546.001           0.000    20800482.951           0.000  
   3370942.000           0.000    20028743.356           0.000  
  -6045145.002           0.000    22061029.757           0.000  
 98  9 29 11 32  7.9970000  0  5G 4G14G16G18G19
   4682477.998           0.000    20667152.950           0.000  
   7237858.000           0.000    23579910.098           0.000  
   1879684.000           0.000    20800128.691           0.000  
   3368023.001           0.000    20028188.082           0.000  
  -6050935.000           0.000    22059927.881           0.000  
 98  9 29 11 32  8.9970000  0  5G 4G14G16G18G19
   4678887.001           0.000    20666469.988           0.000  
   7237520.001           0.000    23579845.747           0.000  
   1877821.999           0.000    20799774.343           0.000  
   3365105.001           0.000    20027632.755           0.000  
  -6056726.002           0.000    22058825.946           0.000  
 98  9 29 11 32  9.9970000  0  5G 4G14G16G18G19
   4675298.999           0.000    20665786.924           0.000  
   7237180.999           0.000    23579781.319           0.000  
   1875959.998           0.000    20799419.955           0.000  
   3362186.002           0.000    20027077.438           0.000  
  -6062516.998           0.000    22057723.987           0.000  
 98  9 29 11 32 10.9970000  0  5G 4G14G16G18G19
   4671709.001           0.000    20665103.414           0.000  
   7236842.002           0.000    23579716.798           0.000  
   1874096.998           0.000    20799065.500           0.000  
   3359266.998           0.000    20026521.522           0.000  
  -6068308.000           0.000    22056622.036           0.000  
 98  9 29 11 32 11.9970000  0  5G 4G14G16G18G19
   4668123.001           0.000    20664419.658           0.000  
   7236502.001           0.000    23579652.137           0.000  
   1872233.001           0.000    20798710.950           0.000  
   3356347.001           0.000    20025964.687           0.000  
  -6074100.000           0.000    22055519.975           0.000  
 98  9 29 11 32 12.9970000  0  5G 4G14G16G18G19
   4664531.001           0.000    20663735.805           0.000  
   7236159.998           0.000    23579587.151           0.000  
   1870367.999           0.000    20798356.115           0.000  
   3353426.000           0.000    20025406.168           0.000  
  -6079892.999           0.000    22054417.621           0.000  
 98  9 29 11 32 13.9970000  0  5G 4G14G16G18G19
   4660939.000           0.000    20663051.544           0.000  
   7235818.000           0.000    23579522.026           0.000  
   1868502.997           0.000    20798001.149           0.000  
   3350504.999           0.000    20024849.446           0.000  
  -6085687.001           0.000    22053315.203           0.000  
 98  9 29 11 32 14.9970000  0  5G 4G14G16G18G19
   4657347.998           0.000    20662367.829           0.000  
   7235474.999           0.000    23579456.762           0.000  
   1866636.997           0.000    20797646.097           0.000  
   3347583.998           0.000    20024293.139           0.000  
  -6091480.999           0.000    22052212.641           0.000  
 98  9 29 11 32 15.9970000  0  5G 4G14G16G18G19
   4653756.002           0.000    20661683.432           0.000  
   7235130.999           0.000    23579391.440           0.000  
   1864769.999           0.000    20797290.950           0.000  
   3344661.999           0.000    20023737.320           0.000  
  -6097275.001           0.000    22051110.072           0.000  
 98  9 29 11 32 16.9970000  0  5G 4G14G16G18G19
   4650162.998           0.000    20660999.242           0.000  
   7234786.999           0.000    23579325.982           0.000  
   1862903.000           0.000    20796935.722           0.000  
   3341739.999           0.000    20023182.308           0.000  
  -6103070.002           0.000    22050007.405           0.000  
 98  9 29 11 32 17.9970000  0  5G 4G14G16G18G19
   4646570.997           0.000    20660315.846           0.000  
   7234442.999           0.000    23579260.391           0.000  
   1861036.002           0.000    20796580.439           0.000  
   3338817.001           0.000    20022626.584           0.000  
  -6108866.001           0.000    22048904.697           0.000  
 98  9 29 11 32 18.9970000  0  5G 4G14G16G18G19
   4642979.002           0.000    20659632.137           0.000  
   7234097.003           0.000    23579194.706           0.000  
   1859168.000           0.000    20796225.064           0.000  
   3335895.002           0.000    20022070.800           0.000  
  -6114661.002           0.000    22047801.907           0.000  
 98  9 29 11 32 19.9970000  0  5G 4G14G16G18G19
   4639388.000           0.000    20658948.504           0.000  
   7233751.999           0.000    23579128.992           0.000  
   1857301.001           0.000    20795869.682           0.000  
   3332972.997           0.000    20021515.341           0.000  
  -6120457.001           0.000    22046699.168           0.000  
 98  9 29 11 32 20.9970000  0  5G 4G14G16G18G19
   4635796.997           0.000    20658265.367           0.000  
   7233406.002           0.000    23579063.210           0.000  
   1855432.999           0.000    20795514.261           0.000  
   3330050.998           0.000    20020959.831           0.000  
  -6126252.002           0.000    22045596.366           0.000  
 98  9 29 11 32 21.9970000  0  5G 4G14G16G18G19
   4632206.999           0.000    20657583.202           0.000  
   7233060.000           0.000    23578997.356           0.000  
   1853565.002           0.000    20795158.793           0.000  
   3327128.000           0.000    20020404.635           0.000  
  -6132048.002           0.000    22044493.591           0.000  
 98  9 29 11 32 22.9970000  0  5G 4G14G16G18G19
   4628616.002           0.000    20656900.667           0.000  
   7232713.998           0.000    23578931.399           0.000  
   1851696.001           0.000    20794803.242           0.000  
   3324206.001           0.000    20019849.202           0.000  
  -6137844.001           0.000    22043390.648           0.000  
 98  9 29 11 32 23.9970000  0  5G 4G14G16G18G19
   4625022.998           0.000    20656216.623           0.000  
   7232366.998           0.000    23578865.353           0.000  
   1849827.001           0.000    20794447.602           0.000  
   3321282.998           0.000    20019293.213           0.000  
  -6143640.999           0.000    22042287.679           0.000  
 98  9 29 11 32 24.9970000  0  5G 4G14G16G18G19
   4621432.001           0.000    20655532.778           0.000  
   7232018.999           0.000    23578799.277           0.000  
   1847958.000           0.000    20794091.951           0.000  
   3318360.998           0.000    20018737.323           0.000  
  -6149436.998           0.000    22041184.711           0.000  
 98  9 29 11 32 25.9970000  0  5G 4G14G16G18G19
   4617840.998           0.000    20654850.522           0.000  
   7231671.000           0.000    23578733.076           0.000  
   1846088.999           0.000    20793736.260           0.000  
   3315438.000           0.000    20018181.677           0.000  
  -6155234.001           0.000    22040081.733           0.000  
 98  9 29 11 32 26.9970000  0  5G 4G14G16G18G19
   4614247.999           0.000    20654166.899           0.000  
   7231323.001           0.000    23578666.733           0.000  
   1844219.000           0.000    20793380.525           0.000  
   3312515.002           0.000    20017625.544           0.000  
  -6161030.999           0.000    22038978.719           0.000  
 98  9 29 11 32 27.9970000  0  5G 4G14G16G18G19
   4610655.999           0.000    20653483.434           0.000  
   7230973.000           0.000    23578600.209           0.000  
   1842347.997           0.000    20793024.622           0.000  
   3309591.001           0.000    20017069.655           0.000  
  -6166829.000           0.000    22037875.523           0.000  
 98  9 29 11 32 28.9970000  0  5G 4G14G16G18G19
   4607066.000           0.000    20652799.759           0.000  
   7230624.002           0.000    23578533.662           0.000  
   1840477.998           0.000    20792668.758           0.000  
   3306667.998           0.000    20016513.444           0.000  
  -6172627.002           0.000    22036772.357           0.000  
 98  9 29 11 32 29.9970000  0  5G 4G14G16G18G19
   4603476.002           0.000    20652116.543           0.000  
   7230274.001           0.000    23578467.108           0.000  
   1838607.001           0.000    20792312.859           0.000  
   3303745.000           0.000    20015957.148           0.000  
  -6178424.000           0.000    22035669.216           0.000  
 98  9 29 11 32 30.9970000  0  5G 4G14G16G18G19
   4599885.998           0.000    20651434.245           0.000  
   7229924.000           0.000    23578400.454           0.000  
   1836735.998           0.000    20791956.890           0.000  
   3300822.002           0.000    20015401.000           0.000  
  -6184222.001           0.000    22034566.020           0.000  
 98  9 29 11 32 31.9970000  0  5G 4G14G16G18G19
   4596294.003           0.000    20650758.393           0.000  
   7229573.000           0.000    23578333.659           0.000  
   1834865.000           0.000    20791600.834           0.000  
   3297898.000           0.000    20014844.894           0.000  
  -6190021.001           0.000    22033462.706           0.000  
 98  9 29 11 32 32.9970000  0  5G 4G14G16G18G19
   4592702.002           0.000    20650074.763           0.000  
   7229222.001           0.000    23578266.802           0.000  
   1832992.999           0.000    20791244.780           0.000  
   3294973.999           0.000    20014288.669           0.000  
  -6195819.003           0.000    22032359.343           0.000  
 98  9 29 11 32 33.9970000  0  5G 4G14G16G18G19
   4589110.001           0.000    20649391.487           0.000  
   7228870.003           0.000    23578199.832           0.000  
   1831120.998           0.000    20790888.604           0.000  
   3292051.001           0.000    20013732.477           0.000  
  -6201618.003           0.000    22031255.977           0.000  
 98  9 29 11 32 34.9970000  0  5G 4G14G16G18G19
   4585517.002           0.000    20648708.724           0.000  
   7228517.999           0.000    23578132.814           0.000  
   1829249.002           0.000    20790532.395           0.000  
   3289126.999           0.000    20013176.158           0.000  
  -6207418.001           0.000    22030152.537           0.000  
 98  9 29 11 32 35.9970000  0  5G 4G14G16G18G19
   4581926.000           0.000    20648026.440           0.000  
   7228164.998           0.000    23578065.701           0.000  
   1827376.002           0.000    20790176.083           0.000  
   3286202.998           0.000    20012619.918           0.000  
  -6213217.001           0.000    22029049.050           0.000  
 98  9 29 11 32 36.9970000  0  5G 4G14G16G18G19
   4578333.001           0.000    20647341.700           0.000  
   7227812.001           0.000    23577998.564           0.000  
   1825503.002           0.000    20789819.732           0.000  
   3283279.001           0.000    20012063.585           0.000  
  -6219016.999           0.000    22027945.503           0.000  
 98  9 29 11 32 37.9970000  0  5G 4G14G16G18G19
   4574743.002           0.000    20646657.822           0.000  
   7227458.001           0.000    23577931.327           0.000  
   1823629.997           0.000    20789463.287           0.000  
   3280355.000           0.000    20011507.296           0.000  
  -6224815.999           0.000    22026841.961           0.000  
 98  9 29 11 32 38.9970000  0  5G 4G14G16G18G19
   4571151.002           0.000    20645974.323           0.000  
   7227104.001           0.000    23577863.933           0.000  
   1821756.997           0.000    20789106.787           0.000  
   3277430.000           0.000    20010951.031           0.000  
  -6230617.001           0.000    22025738.381           0.000  
 98  9 29 11 32 39.9970000  0  5G 4G14G16G18G19
   4567558.002           0.000    20645291.532           0.000  
   7226750.001           0.000    23577796.433           0.000  
   1819882.999           0.000    20788750.209           0.000  
   3274505.998           0.000    20010394.594           0.000  
  -6236417.000           0.000    22024634.691           0.000  
 98  9 29 11 32 40.9970000  0  5G 4G14G16G18G19
   4563967.000           0.000    20644609.790           0.000  
   7226395.002           0.000    23577728.845           0.000  
   1818007.997           0.000    20788393.621           0.000  
   3271580.998           0.000    20009838.207           0.000  
  -6242216.998           0.000    22023530.957           0.000  
 98  9 29 11 32 41.9970000  0  4G14G16G18G19
   7226039.000           0.000    23577661.204           0.000  
   1816133.999           0.000    20788036.959           0.000  
   3268657.002           0.000    20009281.880           0.000  
  -6248018.000           0.000    22022427.184           0.000  
 98  9 29 11 32 42.9970000  0  5G 4G14G16G18G19
   4556782.000           0.000    20643243.888           0.000  
   7225684.001           0.000    23577593.463           0.000  
   1814258.997           0.000    20787680.240           0.000  
   3265732.002           0.000    20008725.528           0.000  
  -6253819.002           0.000    22021323.358           0.000  
 98  9 29 11 32 43.9970000  0  5G 4G14G16G18G19
   4553190.000           0.000    20642558.794           0.000  
   7225327.000           0.000    23577525.619           0.000  
   1812384.001           0.000    20787323.402           0.000  
   3262807.002           0.000    20008169.148           0.000  
  -6259620.998           0.000    22020219.423           0.000  
 98  9 29 11 32 44.9970000  0  5G 4G14G16G18G19
   4549600.001           0.000    20641874.900           0.000  
   7224969.999           0.000    23577457.635           0.000  
   1810508.000           0.000    20786966.427           0.000  
   3259880.998           0.000    20007612.677           0.000  
  -6265422.998           0.000    22019115.378           0.000  
 98  9 29 11 32 45.9970000  0  4G14G16G18G19
   7224611.001           0.000    23577389.483           0.000  
   1808631.001           0.000    20786609.311           0.000  
   3256955.000           0.000    20007056.099           0.000  
  -6271224.999           0.000    22018011.214           0.000  
 98  9 29 11 32 46.9970000  0  4G14G16G18G19
   7224253.002           0.000    23577321.240           0.000  
   1806752.999           0.000    20786252.127           0.000  
   3254029.001           0.000    20006499.396           0.000  
  -6277027.998           0.000    22016906.989           0.000  
 98  9 29 11 32 47.9970000  0  4G14G16G18G19
   7223893.999           0.000    23577253.001           0.000  
   1804876.000           0.000    20785894.913           0.000  
   3251102.997           0.000    20005942.667           0.000  
  -6282831.002           0.000    22015802.731           0.000  
 98  9 29 11 32 48.9970000  0  4G14G16G18G19
   7223533.998           0.000    23577184.632           0.000  
   1802999.001           0.000    20785537.693           0.000  
   3248176.999           0.000    20005385.909           0.000  
  -6288634.001           0.000    22014698.528           0.000  
 98  9 29 11 32 49.9970000  0  4G14G16G18G19
   7223175.000           0.000    23577116.263           0.000  
   1801120.999           0.000    20785180.446           0.000  
   3245251.000           0.000    20004829.250           0.000  
  -6294437.000           0.000    22013594.295           0.000  
 98  9 29 11 32 50.9970000  0  4G14G16G18G19
   7222814.998           0.000    23577047.933           0.000  
   1799244.000           0.000    20784823.236           0.000  
   3242325.002           0.000    20004272.561           0.000  
  -6300239.001           0.000    22012490.067           0.000  
 98  9 29 11 32 51.9970000  0  4G14G16G18G19
   7222456.001           0.000    23576979.546           0.000  
   1797365.997           0.000    20784465.982           0.000  
   3239400.002           0.000    20003715.961           0.000  
  -6306042.000           0.000    22011385.966           0.000  
 98  9 29 11 32 52.9970000  0  4G14G16G18G19
   7222095.999           0.000    23576911.122           0.000  
   1795488.999           0.000    20784108.725           0.000  
   3236473.998           0.000    20003159.289           0.000  
  -6311844.001           0.000    22010281.892           0.000  
 98  9 29 11 32 53.9970000  0  4G14G16G18G19
   7221735.998           0.000    23576842.721           0.000  
   1793612.000           0.000    20783751.500           0.000  
   3233550.002           0.000    20002602.772           0.000  
  -6317647.000           0.000    22009177.841           0.000  
 98  9 29 11 32 54.9970000  0  4G14G16G18G19
   7221376.002           0.000    23576774.212           0.000  
   1791733.997           0.000    20783394.271           0.000  
   3230625.002           0.000    20002046.329           0.000  
  -6323449.000           0.000    22008073.824           0.000  
 98  9 29 11 32 55.9970000  0  4G14G16G18G19
   7221016.000           0.000    23576705.656           0.000  
   1789856.998           0.000    20783037.003           0.000  
   3227700.002           0.000    20001489.840           0.000  
  -6329251.001           0.000    22006969.779           0.000  
 98  9 29 11 32 56.9970000  0  4G14G16G18G19
   7220655.000           0.000    23576637.005           0.000  
   1787979.001           0.000    20782679.663           0.000  
   3224776.000           0.000    20000933.422           0.000  
  -6335053.001           0.000    22005865.679           0.000  
 98  9 29 11 32 57.9970000  0  4G14G16G18G19
   7220294.000           0.000    23576568.309           0.000  
   1786100.999           0.000    20782322.304           0.000  
   3221851.000           0.000    20000376.939           0.000  
  -6340856.000           0.000    22004761.571           0.000  
 98  9 29 11 32 58.9970000  0  4G14G16G18G19
   7219932.002           0.000    23576499.496           0.000  
   1784223.001           0.000    20781964.825           0.000  
   3218926.000           0.000    19999820.323           0.000  
  -6346658.999           0.000    22003657.379           0.000  
 98  9 29 11 32 59.9970000  0  4G14G16G18G19
   7219569.998           0.000    23576430.566           0.000  
   1782344.000           0.000    20781607.249           0.000  
   3216001.000           0.000    19999263.767           0.000  
  -6352461.998           0.000    22002553.076           0.000  
 98  9 29 11 33  0.9970000  0  4G14G16G18G19
   7219205.998           0.000    23576361.470           0.000  
   1780464.001           0.000    20781249.536           0.000  
   3213075.001           0.000    19998707.090           0.000  
  -6358266.001           0.000    22001448.583           0.000  
 98  9 29 11 33  1.9970000  0  4G14G16G18G19
   7218843.001           0.000    23576292.322           0.000  
   1778584.001           0.000    20780891.841           0.000  
   3210150.001           0.000    19998150.470           0.000  
  -6364069.000           0.000    22000344.202           0.000  
 98  9 29 11 33  2.9970000  0  4G14G16G18G19
   7218479.000           0.000    23576223.175           0.000  
   1776705.000           0.000    20780534.158           0.000  
   3207223.998           0.000    19997593.849           0.000  
  -6369872.998           0.000    21999239.786           0.000  
 98  9 29 11 33  3.9970000  0  4G14G16G18G19
   7218115.000           0.000    23576153.941           0.000  
   1774825.001           0.000    20780176.476           0.000  
   3204298.998           0.000    19997037.241           0.000  
  -6375677.000           0.000    21998135.417           0.000  
 98  9 29 11 33  4.9970000  0  4G14G16G18G19
   7217750.999           0.000    23576084.606           0.000  
   1772945.001           0.000    20779818.714           0.000  
   3201373.998           0.000    19996480.588           0.000  
  -6381480.998           0.000    21997030.991           0.000  
 98  9 29 11 33  5.9970000  0  4G14G16G18G19
   7217386.000           0.000    23576015.245           0.000  
   1771063.998           0.000    20779460.905           0.000  
   3198447.999           0.000    19995923.988           0.000  
  -6387285.001           0.000    21995926.521           0.000  
 98  9 29 11 33  6.9970000  0  4G14G16G18G19
   7217021.001           0.000    23575945.770           0.000  
   1769183.999           0.000    20779103.034           0.000  
   3195522.999           0.000    19995367.362           0.000  
  -6393088.998           0.000    21994821.994           0.000  
 98  9 29 11 33  7.9970000  0  4G14G16G18G19
   7216656.002           0.000    23575876.191           0.000  
   1767303.001           0.000    20778745.092           0.000  
   3192597.001           0.000    19994810.742           0.000  
  -6398893.999           0.000    21993717.434           0.000  
 98  9 29 11 33  8.9970000  0  4G14G16G18G19
   7216290.000           0.000    23575806.667           0.000  
   1765421.998           0.000    20778387.217           0.000  
   3189672.001           0.000    19994254.079           0.000  
  -6404698.002           0.000    21992612.895           0.000  
 98  9 29 11 33  9.9970000  0  4G14G16G18G19
   7215924.002           0.000    23575737.030           0.000  
   1763541.000           0.000    20778029.243           0.000  
   3186747.000           0.000    19993697.585           0.000  
  -6410502.000           0.000    21991508.269           0.000  
 98  9 29 11 33 10.9970000  0  4G14G16G18G19
   7215557.999           0.000    23575667.316           0.000  
   1761660.002           0.000    20777671.291           0.000  
   3183822.000           0.000    19993140.897           0.000  
  -6416307.001           0.000    21990403.707           0.000  
 98  9 29 11 33 11.9970000  0  4G14G16G18G19
   7215190.998           0.000    23575597.537           0.000  
   1759778.000           0.000    20777313.287           0.000  
   3180896.002           0.000    19992584.394           0.000  
  -6422110.998           0.000    21989299.122           0.000  
 98  9 29 11 33 12.9970000  0  4G14G16G18G19
   7214824.002           0.000    23575527.732           0.000  
   1757896.997           0.000    20776955.270           0.000  
   3177972.000           0.000    19992027.723           0.000  
  -6427916.000           0.000    21988194.578           0.000  
 98  9 29 11 33 13.9970000  0  4G14G16G18G19
   7214458.000           0.000    23575457.914           0.000  
   1756015.001           0.000    20776597.235           0.000  
   3175047.000           0.000    19991470.995           0.000  
  -6433720.002           0.000    21987090.004           0.000  
 98  9 29 11 33 14.9970000  0  4G14G16G18G19
   7214090.000           0.000    23575388.042           0.000  
   1754133.998           0.000    20776239.213           0.000  
   3172122.000           0.000    19990914.293           0.000  
  -6439524.000           0.000    21985985.485           0.000  
 98  9 29 11 33 15.9970000  0  4G14G16G18G19
   7213722.999           0.000    23575318.101           0.000  
   1752252.001           0.000    20775881.105           0.000  
   3169197.999           0.000    19990357.700           0.000  
  -6445329.001           0.000    21984880.867           0.000  
 98  9 29 11 33 16.9970000  0  4G14G16G18G19
   7213354.999           0.000    23575248.133           0.000  
   1750370.000           0.000    20775522.928           0.000  
   3166272.999           0.000    19989801.129           0.000  
  -6451134.002           0.000    21983776.204           0.000  
 98  9 29 11 33 17.9970000  0  4G14G16G18G19
   7212986.001           0.000    23575177.986           0.000  
   1748487.000           0.000    20775164.643           0.000  
   3163347.999           0.000    19989244.526           0.000  
  -6456938.998           0.000    21982671.426           0.000  
 98  9 29 11 33 18.9970000  0  4G14G16G18G19
   7212616.998           0.000    23575107.782           0.000  
   1746604.998           0.000    20774806.283           0.000  
   3160422.999           0.000    19988687.906           0.000  
  -6462744.998           0.000    21981566.641           0.000  
 98  9 29 11 33 19.9970000  0  4G14G16G18G19
   7212248.000           0.000    23575037.536           0.000  
   1744721.998           0.000    20774447.971           0.000  
   3157497.999           0.000    19988131.408           0.000  
  -6468549.999           0.000    21980461.825           0.000  
 98  9 29 11 33 20.9970000  0  4G14G16G18G19
   7211877.998           0.000    23574967.202           0.000  
   1742838.998           0.000    20774089.579           0.000  
   3154574.002           0.000    19987574.932           0.000  
  -6474355.999           0.000    21979357.004           0.000  
 98  9 29 11 33 21.9970000  0  4G14G16G18G19
   7211509.000           0.000    23574896.822           0.000  
   1740954.999           0.000    20773731.158           0.000  
   3151649.002           0.000    19987018.524           0.000  
  -6480161.000           0.000    21978252.078           0.000  
 98  9 29 11 33 22.9970000  0  4G14G16G18G19
   7211138.000           0.000    23574826.342           0.000  
   1739071.999           0.000    20773372.691           0.000  
   3148724.002           0.000    19986462.183           0.000  
  -6485967.000           0.000    21977147.141           0.000  
 98  9 29 11 33 23.9970000  0  4G14G16G18G19
   7210766.999           0.000    23574755.787           0.000  
   1737188.001           0.000    20773014.150           0.000  
   3145799.002           0.000    19985905.834           0.000  
  -6491772.999           0.000    21976042.158           0.000  
 98  9 29 11 33 24.9970000  0  4G14G16G18G19
   7210397.003           0.000    23574685.192           0.000  
   1735304.002           0.000    20772655.586           0.000  
   3142875.001           0.000    19985349.391           0.000  
  -6497578.999           0.000    21974937.168           0.000  
 98  9 29 11 33 25.9970000  0  4G14G16G18G19
   7210024.999           0.000    23574614.421           0.000  
   1733419.998           0.000    20772296.930           0.000  
   3139950.001           0.000    19984793.014           0.000  
  -6503386.002           0.000    21973832.122           0.000  
 98  9 29 11 33 26.9970000  0  4G14G16G18G19
   7209653.000           0.000    23574543.641           0.000  
   1731535.001           0.000    20771938.226           0.000  
   3137025.000           0.000    19984236.600           0.000  
  -6509192.002           0.000    21972727.060           0.000  
 98  9 29 11 33 27.9970000  0  4G14G16G18G19
   7209281.001           0.000    23574472.772           0.000  
   1729649.999           0.000    20771579.476           0.000  
   3134100.000           0.000    19983680.085           0.000  
  -6514999.000           0.000    21971621.919           0.000  
 98  9 29 11 33 28.9970000  0  4G14G16G18G19
   7208907.999           0.000    23574401.844           0.000  
   1727765.002           0.000    20771220.665           0.000  
   3131175.000           0.000    19983123.491           0.000  
  -6520805.998           0.000    21970516.766           0.000  
 98  9 29 11 33 29.9970000  0  4G14G16G18G19
   7208535.002           0.000    23574330.847           0.000  
   1725879.001           0.000    20770861.796           0.000  
   3128250.000           0.000    19982566.844           0.000  
  -6526614.000           0.000    21969411.549           0.000  
 98  9 29 11 33 30.9970000  0  4G14G16G18G19
   7208161.001           0.000    23574259.707           0.000  
   1723993.001           0.000    20770502.886           0.000  
   3125324.002           0.000    19982010.241           0.000  
  -6532420.998           0.000    21968306.313           0.000  
 98  9 29 11 33 31.9970000  0  4G14G16G18G19
   7207787.000           0.000    23574188.475           0.000  
   1722107.000           0.000    20770143.931           0.000  
   3122399.002           0.000    19981453.669           0.000  
  -6538229.000           0.000    21967201.063           0.000  
 98  9 29 11 33 32.9970000  0  4G14G16G18G19
   7207412.001           0.000    23574117.165           0.000  
   1720220.001           0.000    20769784.846           0.000  
   3119472.998           0.000    19980897.026           0.000  
  -6544037.002           0.000    21966095.716           0.000  
 98  9 29 11 33 33.9970000  0  4G14G16G18G19
   7207037.001           0.000    23574045.790           0.000  
   1718334.000           0.000    20769425.797           0.000  
   3116547.998           0.000    19980340.393           0.000  
  -6549844.998           0.000    21964990.412           0.000  
 98  9 29 11 33 34.9970000  0  4G14G16G18G19
   7206662.002           0.000    23573974.266           0.000  
   1716447.001           0.000    20769066.624           0.000  
   3113622.998           0.000    19979783.674           0.000  
  -6555653.999           0.000    21963885.039           0.000  
 98  9 29 11 33 35.9970000  0  4G14G16G18G19
   7206287.003           0.000    23573902.806           0.000  
   1714560.002           0.000    20768707.515           0.000  
   3110697.998           0.000    19979226.840           0.000  
  -6561462.000           0.000    21962779.678           0.000  
 98  9 29 11 33 36.9970000  0  4G14G16G18G19
   7205911.000           0.000    23573831.295           0.000  
   1712671.999           0.000    20768348.355           0.000  
   3107772.998           0.000    19978670.076           0.000  
  -6567270.002           0.000    21961674.324           0.000  
 98  9 29 11 33 37.9970000  0  5G27G14G16G18G19
   4718400.001           0.000    24430326.008           0.000  
   7205535.002           0.000    23573759.730           0.000  
   1710785.000           0.000    20767989.164           0.000  
   3104847.998           0.000    19978113.258           0.000  
  -6573079.003           0.000    21960568.909           0.000  
 98  9 29 11 33 38.9970000  0  5G27G14G16G18G19
   4711814.002           0.000    24429070.450           0.000  
   7205158.000           0.000    23573688.053           0.000  
   1708897.002           0.000    20767629.876           0.000  
   3101921.999           0.000    19977556.476           0.000  
  -6578887.998           0.000    21959463.449           0.000  
 98  9 29 11 33 39.9970000  0  5G27G14G16G18G19
   4705226.999           0.000    24427817.223           0.000  
   7204780.999           0.000    23573616.231           0.000  
   1707008.999           0.000    20767270.529           0.000  
   3098996.999           0.000    19976999.653           0.000  
  -6584696.998           0.000    21958357.927           0.000  
 98  9 29 11 33 40.9970000  0  5G27G14G16G18G19
   4698640.001           0.000    24426563.766           0.000  
   7204402.999           0.000    23573544.261           0.000  
   1705119.998           0.000    20766911.080           0.000  
   3096071.001           0.000    19976442.890           0.000  
  -6590505.998           0.000    21957252.341           0.000  
 98  9 29 11 33 41.9970000  0  5G27G14G16G18G19
   4692052.000           0.000    24425310.157           0.000  
   7204024.999           0.000    23573472.155           0.000  
   1703231.002           0.000    20766551.530           0.000  
   3093146.001           0.000    19975886.287           0.000  
  -6596316.002           0.000    21956146.725           0.000  
 98  9 29 11 33 42.9970000  0  5G27G14G16G18G19
   4685463.000           0.000    24424056.157           0.000  
   7203646.999           0.000    23573400.089           0.000  
   1701342.001           0.000    20766192.001           0.000  
   3090220.002           0.000    19975329.670           0.000  
  -6602126.001           0.000    21955041.147           0.000  
 98  9 29 11 33 43.9970000  0  5G27G14G16G18G19
   4678874.000           0.000    24422802.187           0.000  
   7203268.001           0.000    23573327.940           0.000  
   1699452.999           0.000    20765832.439           0.000  
   3087295.002           0.000    19974773.218           0.000  
  -6607936.000           0.000    21953935.589           0.000  
 98  9 29 11 33 44.9970000  0  5G27G14G16G18G19
   4672285.000           0.000    24421547.856           0.000  
   7202890.001           0.000    23573255.841           0.000  
   1697563.998           0.000    20765472.881           0.000  
   3084370.002           0.000    19974216.663           0.000  
  -6613745.000           0.000    21952830.034           0.000  
 98  9 29 11 33 45.9970000  0  5G27G14G16G18G19
   4665696.000           0.000    24420294.924           0.000  
   7202511.002           0.000    23573183.656           0.000  
   1695675.002           0.000    20765113.281           0.000  
   3081445.002           0.000    19973660.110           0.000  
  -6619554.999           0.000    21951724.499           0.000  
 98  9 29 11 33 46.9970000  0  5G27G14G16G18G19
   4659106.002           0.000    24419041.225           0.000  
   7202131.000           0.000    23573111.424           0.000  
   1693785.002           0.000    20764753.613           0.000  
   3078520.002           0.000    19973103.600           0.000  
  -6625365.003           0.000    21950618.925           0.000  
 98  9 29 11 33 47.9970000  0  5G27G14G16G18G19
   4652514.999           0.000    24417787.387           0.000  
   7201750.998           0.000    23573039.062           0.000  
   1691895.002           0.000    20764393.892           0.000  
   3075593.998           0.000    19972546.970           0.000  
  -6631175.001           0.000    21949513.298           0.000  
 98  9 29 11 33 48.9970000  0  5G27G14G16G18G19
   4645923.997           0.000    24416533.431           0.000  
   7201372.000           0.000    23572966.712           0.000  
   1690006.001           0.000    20764034.224           0.000  
   3072668.998           0.000    19971990.420           0.000  
  -6636985.000           0.000    21948407.742           0.000  
 98  9 29 11 33 49.9970000  0  5G27G14G16G18G19
   4639333.001           0.000    24415279.347           0.000  
   7200990.999           0.000    23572894.269           0.000  
   1688116.001           0.000    20763674.445           0.000  
   3069743.998           0.000    19971433.907           0.000  
  -6642794.999           0.000    21947302.114           0.000  
 98  9 29 11 33 50.9970000  0  5G27G14G16G18G19
   4632741.000           0.000    24414025.123           0.000  
   7200609.998           0.000    23572821.733           0.000  
   1686224.998           0.000    20763314.685           0.000  
   3066820.002           0.000    19970877.372           0.000  
  -6648604.998           0.000    21946196.478           0.000  
 98  9 29 11 33 51.9970000  0  5G27G14G16G18G19
   4626148.999           0.000    24412770.622           0.000  
   7200228.998           0.000    23572749.103           0.000  
   1684334.998           0.000    20762954.859           0.000  
   3063893.998           0.000    19970320.773           0.000  
  -6654416.000           0.000    21945090.782           0.000  
 98  9 29 11 33 52.9970000  0  5G27G14G16G18G19
   4619556.000           0.000    24411516.120           0.000  
   7199848.003           0.000    23572676.379           0.000  
   1682444.000           0.000    20762594.983           0.000  
   3060968.998           0.000    19969764.061           0.000  
  -6660227.003           0.000    21943985.081           0.000  
 98  9 29 11 33 53.9970000  0  5G27G14G16G18G19
   4612961.998           0.000    24410261.264           0.000  
   7199465.000           0.000    23572603.537           0.000  
   1680553.002           0.000    20762234.985           0.000  
   3058043.998           0.000    19969207.367           0.000  
  -6666038.000           0.000    21942879.284           0.000  
 98  9 29 11 33 54.9970000  0  5G27G14G16G18G19
   4606368.000           0.000    24409006.550           0.000  
   7199082.002           0.000    23572530.671           0.000  
   1678661.000           0.000    20761874.978           0.000  
   3055118.998           0.000    19968650.596           0.000  
  -6671849.002           0.000    21941773.428           0.000  
 98  9 29 11 33 55.9970000  0  5G27G14G16G18G19
   4599772.999           0.000    24407751.524           0.000  
   7198699.000           0.000    23572457.662           0.000  
   1676768.998           0.000    20761514.914           0.000  
   3052193.000           0.000    19968093.814           0.000  
  -6677660.998           0.000    21940667.471           0.000  
 98  9 29 11 33 56.9970000  0  5G27G14G16G18G19
   4593176.999           0.000    24406496.550           0.000  
   7198316.002           0.000    23572384.656           0.000  
   1674877.001           0.000    20761154.847           0.000  
   3049268.000           0.000    19967536.892           0.000  
  -6683472.000           0.000    21939561.589           0.000  
 98  9 29 11 33 57.9970000  0  5G27G14G16G18G19
   4586581.998           0.000    24405241.506           0.000  
   7197932.001           0.000    23572311.653           0.000  
   1672984.999           0.000    20760794.765           0.000  
   3046342.001           0.000    19966980.146           0.000  
  -6689284.001           0.000    21938455.719           0.000  
 98  9 29 11 33 58.9970000  0  5G27G14G16G18G19
   4579985.998           0.000    24403986.392           0.000  
   7197548.000           0.000    23572238.612           0.000  
   1671093.002           0.000    20760434.699           0.000  
   3043418.000           0.000    19966423.263           0.000  
  -6695094.999           0.000    21937349.893           0.000  
 98  9 29 11 33 59.9970000  0  5G27G14G16G18G19
   4573389.999           0.000    24402731.337           0.000  
   7197163.998           0.000    23572165.497           0.000  
   1669201.000           0.000    20760074.607           0.000  
   3040493.000           0.000    19965866.449           0.000  
  -6700906.001           0.000    21936244.033           0.000  
 98  9 29 11 34  0.9970000  0  5G27G14G16G18G19
   4566793.001           0.000    24401476.099           0.000  
   7196780.003           0.000    23572092.290           0.000  
   1667308.998           0.000    20759714.490           0.000  
   3037568.000           0.000    19965309.725           0.000  
  -6706718.002           0.000    21935138.127           0.000  
 98  9 29 11 34  1.9970000  0  5G27G14G16G18G19
   4560195.997           0.000    24400220.756           0.000  
   7196394.998           0.000    23572019.038           0.000  
   1665417.002           0.000    20759354.392           0.000  
   3034642.999           0.000    19964752.930           0.000  
  -6712530.003           0.000    21934032.273           0.000  
 98  9 29 11 34  2.9970000  0  5G27G14G16G18G19
   4553598.001           0.000    24398965.284           0.000  
   7196009.998           0.000    23571945.680           0.000  
   1663524.001           0.000    20758994.207           0.000  
   3031717.999           0.000    19964196.187           0.000  
  -6718341.998           0.000    21932926.343           0.000  
 98  9 29 11 34  3.9970000  0  5G27G14G16G18G19
   4546999.999           0.000    24397709.795           0.000  
   7195624.998           0.000    23571872.346           0.000  
   1661631.999           0.000    20758634.043           0.000  
   3028793.998           0.000    19963639.702           0.000  
  -6724153.001           0.000    21931820.443           0.000  
 98  9 29 11 34  4.9970000  0  5G27G14G16G18G19
   4540402.002           0.000    24396454.222           0.000  
   7195239.000           0.000    23571798.941           0.000  
   1659738.999           0.000    20758273.867           0.000  
   3025868.998           0.000    19963083.115           0.000  
  -6729965.002           0.000    21930714.624           0.000  
 98  9 29 11 34  5.9970000  0  5G27G14G16G18G19
   4533804.000           0.000    24395198.615           0.000  
   7194854.000           0.000    23571725.486           0.000  
   1657845.999           0.000    20757913.687           0.000  
   3022945.001           0.000    19962526.610           0.000  
  -6735775.999           0.000    21929608.725           0.000  
 98  9 29 11 34  6.9970000  0  5G27G14G16G18G19
   4527205.000           0.000    24393942.837           0.000  
   7194466.999           0.000    23571651.873           0.000  
   1655952.998           0.000    20757553.432           0.000  
   3020021.000           0.000    19961970.071           0.000  
  -6741588.000           0.000    21928502.761           0.000  
 98  9 29 11 34  7.9970000  0  5G27G14G16G18G19
   4520605.001           0.000    24392686.888           0.000  
   7194080.002           0.000    23571578.193           0.000  
   1654059.998           0.000    20757193.107           0.000  
   3017096.000           0.000    19961413.688           0.000  
  -6747400.001           0.000    21927396.740           0.000  
 98  9 29 11 34  8.9970000  0  5G27G14G16G18G19
   4514003.999           0.000    24391430.877           0.000  
   7193693.000           0.000    23571504.394           0.000  
   1652165.999           0.000    20756832.664           0.000  
   3014171.998           0.000    19960857.233           0.000  
  -6753213.000           0.000    21926290.581           0.000  
 98  9 29 11 34  9.9970000  0  5G27G14G16G18G19
   4507403.002           0.000    24390174.725           0.000  
   7193305.000           0.000    23571430.511           0.000  
   1650272.000           0.000    20756472.180           0.000  
   3011246.998           0.000    19960300.728           0.000  
  -6759026.000           0.000    21925184.430           0.000  
 98  9 29 11 34 10.9970000  0  5G27G14G16G18G19
   4500801.001           0.000    24388918.456           0.000  
   7192916.001           0.000    23571356.569           0.000  
   1648378.001           0.000    20756111.660           0.000  
   3008321.998           0.000    19959744.217           0.000  
  -6764838.999           0.000    21924078.246           0.000  
 98  9 29 11 34 11.9970000  0  5G27G14G16G18G19
   4494199.000           0.000    24387662.176           0.000  
   7192528.001           0.000    23571282.648           0.000  
   1646484.002           0.000    20755751.166           0.000  
   3005398.002           0.000    19959187.476           0.000  
  -6770651.998           0.000    21922972.087           0.000  
 98  9 29 11 34 12.9970000  0  5G27G14G16G18G19
   4487596.999           0.000    24386405.761           0.000  
   7192139.002           0.000    23571208.644           0.000  
   1644589.000           0.000    20755390.605           0.000  
   3002473.002           0.000    19958630.732           0.000  
  -6776464.998           0.000    21921865.876           0.000  
 98  9 29 11 34 13.9970000  0  5G27G14G16G18G19
   4480993.001           0.000    24385149.130           0.000  
   7191749.000           0.000    23571134.425           0.000  
   1642692.999           0.000    20755029.883           0.000  
   2999548.002           0.000    19958073.837           0.000  
  -6782279.001           0.000    21920759.456           0.000  
 98  9 29 11 34 14.9970000  0  5G27G14G16G18G19
   4474388.998           0.000    24383892.398           0.000  
   7191357.999           0.000    23571060.087           0.000  
   1640798.001           0.000    20754669.111           0.000  
   2996621.998           0.000    19957517.096           0.000  
  -6788092.999           0.000    21919652.974           0.000  
 98  9 29 11 34 15.9970000  0  5G27G14G16G18G19
   4467782.998           0.000    24382635.499           0.000  
   7190966.998           0.000    23570985.653           0.000  
   1638901.002           0.000    20754308.221           0.000  
   2993696.000           0.000    19956960.143           0.000  
  -6793908.000           0.000    21918546.407           0.000  
 98  9 29 11 34 16.9970000  0  5G27G14G16G18G19
   4461178.002           0.000    24381378.514           0.000  
   7190574.999           0.000    23570911.098           0.000  
   1637005.001           0.000    20753947.264           0.000  
   2990770.001           0.000    19956403.357           0.000  
  -6799723.002           0.000    21917439.767           0.000  
 98  9 29 11 34 17.9970000  0  5G27G14G16G18G19
   4454570.998           0.000    24380121.309           0.000  
   7190182.001           0.000    23570836.426           0.000  
   1635106.998           0.000    20753586.186           0.000  
   2987843.997           0.000    19955846.368           0.000  
  -6805537.998           0.000    21916333.121           0.000  
 98  9 29 11 34 18.9970000  0  5G27G14G16G18G19
   4447964.000           0.000    24378863.988           0.000  
   7189788.998           0.000    23570761.629           0.000  
   1633209.998           0.000    20753225.088           0.000  
   2984917.999           0.000    19955289.367           0.000  
  -6811353.998           0.000    21915226.371           0.000  
 98  9 29 11 34 19.9970000  0  5G27G14G16G18G19
   4441355.998           0.000    24377606.610           0.000  
   7189396.000           0.000    23570686.761           0.000  
   1631312.000           0.000    20752863.955           0.000  
   2981992.000           0.000    19954732.344           0.000  
  -6817169.998           0.000    21914119.697           0.000  
 98  9 29 11 34 20.9970000  0  5G27G14G16G18G19
   4434748.001           0.000    24376349.137           0.000  
   7189001.000           0.000    23570611.855           0.000  
   1629415.001           0.000    20752502.782           0.000  
   2979066.002           0.000    19954175.273           0.000  
  -6822985.998           0.000    21913012.946           0.000  
 98  9 29 11 34 21.9970000  0  5G27G14G16G18G19
   4428139.999           0.000    24375091.648           0.000  
   7188606.998           0.000    23570536.946           0.000  
   1627516.998           0.000    20752141.628           0.000  
   2976139.998           0.000    19953618.481           0.000  
  -6828800.999           0.000    21911906.208           0.000  
 98  9 29 11 34 22.9970000  0  5G27G14G16G18G19
   4421530.998           0.000    24373834.110           0.000  
   7188213.002           0.000    23570462.075           0.000  
   1625619.000           0.000    20751780.530           0.000  
   2973214.000           0.000    19953061.753           0.000  
  -6834616.999           0.000    21910799.576           0.000  
 98  9 29 11 34 23.9970000  0  5G27G14G16G18G19
   4414923.001           0.000    24372576.561           0.000  
   7187819.000           0.000    23570387.154           0.000  
   1623722.000           0.000    20751419.466           0.000  
   2970289.000           0.000    19952505.430           0.000  
  -6840432.001           0.000    21909692.960           0.000  
 98  9 29 11 34 24.9970000  0  5G27G14G16G18G19
   4408313.002           0.000    24371318.912           0.000  
   7187424.999           0.000    23570312.150           0.000  
   1621824.002           0.000    20751058.381           0.000  
   2967364.000           0.000    19951949.069           0.000  
  -6846248.001           0.000    21908586.324           0.000  
 98  9 29 11 34 25.9970000  0  5G27G14G16G18G19
   4401704.001           0.000    24370061.256           0.000  
   7187029.999           0.000    23570237.148           0.000  
   1619926.997           0.000    20750697.322           0.000  
   2964438.999           0.000    19951400.978           0.000  
  -6852063.003           0.000    21907479.688           0.000  
 98  9 29 11 34 26.9970000  0  5G27G14G16G18G19
   4395095.001           0.000    24368803.630           0.000  
   7186636.003           0.000    23570162.178           0.000  
   1618029.998           0.000    20750336.315           0.000  
   2961514.998           0.000    19950846.498           0.000  
  -6857877.999           0.000    21906373.180           0.000  
 98  9 29 11 34 27.9970000  0  5G27G14G16G18G19
   4388486.000           0.000    24367545.875           0.000  
   7186241.003           0.000    23570087.166           0.000  
   1616132.998           0.000    20749975.305           0.000  
   2958591.002           0.000    19950289.360           0.000  
  -6863693.000           0.000    21905266.655           0.000  
 98  9 29 11 34 28.9970000  0  5G27G14G16G18G19
   4381876.001           0.000    24366288.159           0.000  
   7185846.003           0.000    23570012.143           0.000  
   1614235.999           0.000    20749614.351           0.000  
   2955667.998           0.000    19949732.902           0.000  
  -6869506.998           0.000    21904160.197           0.000  
 98  9 29 11 34 29.9970000  0  5G27G14G16G18G19
   4375267.001           0.000    24365030.380           0.000  
   7185452.001           0.000    23569937.113           0.000  
   1612338.999           0.000    20749253.446           0.000  
   2952745.001           0.000    19949176.642           0.000  
  -6875321.001           0.000    21903053.794           0.000  
 98  9 29 11 34 30.9970000  0  5G27G14G16G18G19
   4368657.001           0.000    24363772.591           0.000  
   7185057.001           0.000    23569862.042           0.000  
   1610442.998           0.000    20748892.579           0.000  
   2949821.997           0.000    19948620.517           0.000  
  -6881134.999           0.000    21901947.429           0.000  
 98  9 29 11 34 31.9970000  0  5G27G14G16G18G19
   4362047.002           0.000    24362514.714           0.000  
   7184662.001           0.000    23569786.976           0.000  
   1608545.999           0.000    20748531.682           0.000  
   2946899.000           0.000    19948064.477           0.000  
  -6886949.002           0.000    21900841.084           0.000  
 98  9 29 11 34 32.9970000  0  5G27G14G16G18G19
   4355436.000           0.000    24361256.763           0.000  
   7184267.001           0.000    23569711.811           0.000  
   1606649.998           0.000    20748170.764           0.000  
   2943977.000           0.000    19947507.791           0.000  
  -6892763.000           0.000    21899734.726           0.000  
 98  9 29 11 34 33.9970000  0  5G27G14G16G18G19
   4348826.001           0.000    24359998.763           0.000  
   7183872.001           0.000    23569636.634           0.000  
   1604752.998           0.000    20747809.887           0.000  
   2941054.002           0.000    19946950.849           0.000  
  -6898576.998           0.000    21898628.375           0.000  
 98  9 29 11 34 34.9970000  0  5G27G14G16G18G19
   4342214.998           0.000    24358740.752           0.000  
   7183476.003           0.000    23569561.439           0.000  
   1602856.997           0.000    20747449.055           0.000  
   2938131.998           0.000    19946394.664           0.000  
  -6904391.001           0.000    21897522.033           0.000  
 98  9 29 11 34 35.9970000  0  5G27G14G16G18G19
   4335603.002           0.000    24357482.665           0.000  
   7183081.003           0.000    23569486.194           0.000  
   1600959.998           0.000    20747088.183           0.000  
   2935211.002           0.000    19945838.245           0.000  
  -6910204.000           0.000    21896415.702           0.000  
 98  9 29 11 34 36.9970000  0  5G27G14G16G18G19
   4328991.999           0.000    24356224.481           0.000  
   7182684.999           0.000    23569410.986           0.000  
   1599064.002           0.000    20746727.302           0.000  
   2932288.997           0.000    19945281.582           0.000  
  -6916017.998           0.000    21895309.423           0.000  
 98  9 29 11 34 37.9970000  0  5G27G14G16G18G19
   4322379.998           0.000    24354966.222           0.000  
   7182289.000           0.000    23569335.705           0.000  
   1597166.997           0.000    20746366.458           0.000  
   2929368.002           0.000    19944725.180           0.000  
  -6921832.001           0.000    21894203.183           0.000  
 98  9 29 11 34 38.9970000  0  5G27G14G16G18G19
   4315768.002           0.000    24353707.952           0.000  
   7181891.998           0.000    23569260.373           0.000  
   1595269.998           0.000    20746005.582           0.000  
   2926446.002           0.000    19944161.621           0.000  
  -6927645.001           0.000    21893096.922           0.000  
 98  9 29 11 34 39.9970000  0  5G27G14G16G18G19
   4309156.001           0.000    24352449.708           0.000  
   7181496.000           0.000    23569185.100           0.000  
   1593374.002           0.000    20745644.803           0.000  
   2923525.001           0.000    19943602.096           0.000  
  -6933458.000           0.000    21891990.695           0.000  
 98  9 29 11 34 40.9970000  0  5G27G14G16G18G19
   4302543.001           0.000    24351191.325           0.000  
   7181098.998           0.000    23569109.711           0.000  
   1591478.001           0.000    20745283.960           0.000  
   2920604.000           0.000    19943048.977           0.000  
  -6939271.998           0.000    21890884.460           0.000  
 98  9 29 11 34 41.9970000  0  5G27G14G16G18G19
   4295930.001           0.000    24349932.803           0.000  
   7180702.001           0.000    23569034.268           0.000  
   1589581.002           0.000    20744923.102           0.000  
   2917682.999           0.000    19942494.962           0.000  
  -6945085.002           0.000    21889778.233           0.000  
 98  9 29 11 34 42.9970000  0  5G27G14G16G18G19
   4289315.998           0.000    24348674.192           0.000  
   7180304.999           0.000    23568958.697           0.000  
   1587684.002           0.000    20744562.133           0.000  
   2914761.998           0.000    19941938.419           0.000  
  -6950899.000           0.000    21888671.921           0.000  
 98  9 29 11 34 43.9970000  0  5G27G14G16G18G19
   4282702.000           0.000    24347415.577           0.000  
   7179906.998           0.000    23568883.083           0.000  
   1585786.997           0.000    20744201.195           0.000  
   2911840.997           0.000    19941382.218           0.000  
  -6956712.998           0.000    21887565.599           0.000  
 98  9 29 11 34 44.9970000  0  5G27G14G16G18G19
   4276086.998           0.000    24346156.894           0.000  
   7179510.001           0.000    23568807.487           0.000  
   1583889.998           0.000    20743840.287           0.000  
   2908921.000           0.000    19940826.091           0.000  
  -6962526.003           0.000    21886459.293           0.000  
 98  9 29 11 34 45.9970000  0  5G27G14G16G18G19
   4269473.000           0.000    24344898.156           0.000  
   7179112.000           0.000    23568731.816           0.000  
   1581992.998           0.000    20743479.385           0.000  
   2906000.998           0.000    19940269.858           0.000  
  -6968340.000           0.000    21885352.987           0.000  
 98  9 29 11 34 46.9970000  0  5G27G14G16G18G19
   4262856.999           0.000    24343639.201           0.000  
   7178713.001           0.000    23568655.966           0.000  
   1580095.000           0.000    20743118.333           0.000  
   2903078.998           0.000    19939713.655           0.000  
  -6974153.998           0.000    21884246.584           0.000  
 98  9 29 11 34 47.9970000  0  5G27G14G16G18G19
   4256240.999           0.000    24342380.187           0.000  
   7178314.002           0.000    23568580.063           0.000  
   1578196.997           0.000    20742757.221           0.000  
   2900158.003           0.000    19939157.637           0.000  
  -6979968.001           0.000    21883140.182           0.000  
 98  9 29 11 34 48.9970000  0  5G27G14G16G18G19
   4249624.000           0.000    24341120.992           0.000  
   7177914.000           0.000    23568504.068           0.000  
   1576298.999           0.000    20742396.031           0.000  
   2897237.002           0.000    19938601.917           0.000  
  -6985782.998           0.000    21882033.755           0.000  
 98  9 29 11 34 49.9970000  0  5G27G14G16G18G19
   4243007.001           0.000    24339861.700           0.000  
   7177514.002           0.000    23568428.011           0.000  
   1574399.998           0.000    20742034.844           0.000  
   2894316.001           0.000    19938045.948           0.000  
  -6991597.999           0.000    21880927.225           0.000  
 98  9 29 11 34 50.9970000  0  5G27G14G16G18G19
   4236388.000           0.000    24338602.286           0.000  
   7177113.001           0.000    23568351.798           0.000  
   1572501.001           0.000    20741673.536           0.000  
   2891394.001           0.000    19937489.738           0.000  
  -6997413.001           0.000    21879820.633           0.000  
 98  9 29 11 34 51.9970000  0  5G27G14G16G18G19
   4229768.999           0.000    24337342.655           0.000  
   7176711.001           0.000    23568275.357           0.000  
   1570601.001           0.000    20741312.004           0.000  
   2888472.002           0.000    19936933.859           0.000  
  -7003229.001           0.000    21878713.897           0.000  
 98  9 29 11 34 52.9970000  0  5G27G14G16G18G19
   4223149.000           0.000    24336082.854           0.000  
   7176307.998           0.000    23568198.774           0.000  
   1568701.001           0.000    20740950.399           0.000  
   2885548.999           0.000    19936378.192           0.000  
  -7009045.001           0.000    21877607.082           0.000  
 98  9 29 11 34 53.9970000  0  5G27G14G16G18G19
   4216528.002           0.000    24334822.963           0.000  
   7175904.999           0.000    23568122.120           0.000  
   1566800.002           0.000    20740588.813           0.000  
   2882626.999           0.000    19935822.611           0.000  
  -7014861.999           0.000    21876500.256           0.000  
 98  9 29 11 34 54.9970000  0  5G27G14G16G18G19
   4209907.998           0.000    24333563.133           0.000  
   7175503.000           0.000    23568045.487           0.000  
   1564900.002           0.000    20740227.303           0.000  
   2879705.000           0.000    19935266.584           0.000  
  -7020677.999           0.000    21875393.500           0.000  
 98  9 29 11 34 55.9970000  0  5G27G14G16G18G19
   4203287.000           0.000    24332303.223           0.000  
   7175100.002           0.000    23567968.868           0.000  
   1562998.998           0.000    20739865.757           0.000  
   2876783.000           0.000    19934710.448           0.000  
  -7026493.999           0.000    21874286.786           0.000  
 98  9 29 11 34 56.9970000  0  5G27G14G16G18G19
   4196666.002           0.000    24331043.326           0.000  
   7174696.998           0.000    23567892.289           0.000  
   1561098.998           0.000    20739504.259           0.000  
   2873861.999           0.000    19934154.879           0.000  
  -7032309.001           0.000    21873180.113           0.000  
 98  9 29 11 34 57.9970000  0  5G27G14G16G18G19
   4190045.997           0.000    24329783.425           0.000  
   7174294.000           0.000    23567815.740           0.000  
   1559200.002           0.000    20739142.818           0.000  
   2870939.002           0.000    19933597.850           0.000  
  -7038125.001           0.000    21872073.464           0.000  
 98  9 29 11 34 58.9970000  0  5G27G14G16G18G19
   4183424.999           0.000    24328523.604           0.000  
   7173892.000           0.000    23567739.187           0.000  
   1557301.000           0.000    20738781.473           0.000  
   2868018.999           0.000    19933042.473           0.000  
  -7043938.999           0.000    21870966.941           0.000  
 98  9 29 11 34 59.9970000  0  5G27G14G16G18G19
   4176804.001           0.000    24327263.587           0.000  
   7173489.002           0.000    23567662.519           0.000  
   1555401.000           0.000    20738420.012           0.000  
   2865096.001           0.000    19932486.777           0.000  
  -7049754.999           0.000    21869860.345           0.000  
 98  9 29 11 35  0.9970000  0  5G27G14G16G18G19
   4170182.000           0.000    24326003.487           0.000  
   7173085.999           0.000    23567585.798           0.000  
   1553501.000           0.000    20738058.530           0.000  
   2862175.999           0.000    19931931.189           0.000  
  -7055570.000           0.000    21868753.722           0.000  
 98  9 29 11 35  1.9970000  0  5G27G14G16G18G19
   4163559.998           0.000    24324743.395           0.000  
   7172683.001           0.000    23567509.126           0.000  
   1551601.000           0.000    20737697.139           0.000  
   2859253.999           0.000    19931375.440           0.000  
  -7061385.002           0.000    21867647.157           0.000  
 98  9 29 11 35  2.9970000  0  5G27G14G16G18G19
   4156938.002           0.000    24323483.172           0.000  
   7172278.999           0.000    23567432.264           0.000  
   1549701.000           0.000    20737335.613           0.000  
   2856335.001           0.000    19930819.968           0.000  
  -7067199.998           0.000    21866540.487           0.000  
 98  9 29 11 35  3.9970000  0  5G27G14G16G18G19
   4150313.998           0.000    24322222.667           0.000  
   7171873.998           0.000    23567355.177           0.000  
   1547800.001           0.000    20736973.919           0.000  
   2853414.000           0.000    19930263.677           0.000  
  -7073015.998           0.000    21865433.570           0.000  
 98  9 29 11 35  4.9970000  0  5G27G14G16G18G19
   4143689.001           0.000    24320961.982           0.000  
   7171468.000           0.000    23567277.987           0.000  
   1545898.997           0.000    20736612.110           0.000  
   2850502.999           0.000    19929710.202           0.000  
  -7078833.002           0.000    21864326.583           0.000  
 98  9 29 11 35  5.9970000  0  5G27G14G16G18G19
   4137063.999           0.000    24319701.210           0.000  
   7171062.001           0.000    23567200.753           0.000  
   1543997.000           0.000    20736250.247           0.000  
   2847578.997           0.000    19929154.819           0.000  
  -7084650.000           0.000    21863219.684           0.000  
 98  9 29 11 35  6.9970000  0  5G27G14G16G18G19
   4130437.998           0.000    24318440.381           0.000  
   7170656.002           0.000    23567123.485           0.000  
   1542094.998           0.000    20735888.397           0.000  
   2844656.998           0.000    19928596.082           0.000  
  -7090466.998           0.000    21862112.754           0.000  
 98  9 29 11 35  7.9970000  0  5G27G14G16G18G19
   4123813.002           0.000    24317179.490           0.000  
   7170249.998           0.000    23567046.178           0.000  
   1540194.000           0.000    20735526.597           0.000  
   2841736.002           0.000    19928040.361           0.000  
  -7096282.998           0.000    21861005.840           0.000  
 98  9 29 11 35  8.9970000  0  5G27G14G16G18G19
   4117187.001           0.000    24315918.504           0.000  
   7169843.001           0.000    23566968.730           0.000  
   1538291.997           0.000    20735164.727           0.000  
   2838813.998           0.000    19927484.546           0.000  
  -7102100.002           0.000    21859898.777           0.000  
 98  9 29 11 35  9.9970000  0  5G27G14G16G18G19
   4110560.002           0.000    24314657.444           0.000  
   7169435.998           0.000    23566891.249           0.000  
   1536390.000           0.000    20734802.833           0.000  
   2835891.998           0.000    19926929.344           0.000  
  -7107917.001           0.000    21858791.670           0.000  
 98  9 29 11 35 10.9970000  0  5G27G14G16G18G19
   4103934.001           0.000    24313396.459           0.000  
   7169029.999           0.000    23566813.882           0.000  
   1534487.998           0.000    20734441.030           0.000  
   2832971.003           0.000    19926374.402           0.000  
  -7113733.999           0.000    21857684.728           0.000  
 98  9 29 11 35 11.9970000  0  5G27G14G16G18G19
   4097307.002           0.000    24312135.484           0.000  
   7168624.001           0.000    23566736.513           0.000  
   1532586.999           0.000    20734079.280           0.000  
   2830051.998           0.000    19925819.863           0.000  
  -7119549.001           0.000    21856577.803           0.000  
 98  9 29 11 35 12.9970000  0  5G27G14G16G18G19
   4090682.000           0.000    24310874.611           0.000  
   7168218.002           0.000    23566659.276           0.000  
   1530686.999           0.000    20733717.693           0.000  
   2827133.000           0.000    19925265.048           0.000  
  -7125364.002           0.000    21855471.124           0.000  
 98  9 29 11 35 13.9970000  0  5G27G14G16G18G19
   4084055.999           0.000    24309613.756           0.000  
   7167813.002           0.000    23566582.064           0.000  
   1528786.999           0.000    20733356.159           0.000  
   2824214.999           0.000    19924710.212           0.000  
  -7131178.998           0.000    21854364.466           0.000  
 98  9 29 11 35 14.9970000  0  5G27G14G16G18G19
   4077429.999           0.000    24308352.857           0.000  
   7167407.003           0.000    23566504.887           0.000  
   1526886.999           0.000    20732994.653           0.000  
   2821296.999           0.000    19924154.969           0.000  
  -7136994.000           0.000    21853257.817           0.000  
 98  9 29 11 35 15.9970000  0  5G27G14G16G18G19
   4070802.999           0.000    24307091.719           0.000  
   7167000.999           0.000    23566427.567           0.000  
   1524986.999           0.000    20732633.038           0.000  
   2818378.000           0.000    19923599.771           0.000  
  -7142809.002           0.000    21852151.108           0.000  
 98  9 29 11 35 16.9970000  0  5G27G14G16G18G19
   4064176.000           0.000    24305830.629           0.000  
   7166595.000           0.000    23566350.231           0.000  
   1523086.000           0.000    20732271.452           0.000  
   2815460.000           0.000    19923044.534           0.000  
  -7148623.998           0.000    21851044.465           0.000  
 98  9 29 11 35 17.9970000  0  5G27G14G16G18G19
   4057549.001           0.000    24304569.564           0.000  
   7166189.001           0.000    23566272.983           0.000  
   1521186.999           0.000    20731909.994           0.000  
   2812542.998           0.000    19922489.765           0.000  
  -7154438.001           0.000    21849937.962           0.000  
 98  9 29 11 35 18.9970000  0  5G27G14G16G18G19
   4050922.002           0.000    24303308.351           0.000  
   7165783.002           0.000    23566195.600           0.000  
   1519286.999           0.000    20731548.437           0.000  
   2809624.998           0.000    19921934.204           0.000  
  -7160253.002           0.000    21848831.394           0.000  
 98  9 29 11 35 19.9970000  0  5G27G14G16G18G19
   4044293.999           0.000    24302047.048           0.000  
   7165376.000           0.000    23566118.197           0.000  
   1517386.000           0.000    20731186.871           0.000  
   2806708.001           0.000    19921378.974           0.000  
  -7166067.000           0.000    21847724.794           0.000  
 98  9 29 11 35 20.9960000  0  5G27G14G16G18G19
   5613091.998           0.000    24600579.359           0.000  
   8740390.001           0.000    23865833.268           0.000  
   3090908.002           0.000    21030618.092           0.000  
   4379213.001           0.000    20220616.521           0.000  
  -5596456.001           0.000    22146411.795           0.000  
 98  9 29 11 35 21.9960000  0  5G27G14G16G18G19
   5606463.002           0.000    24599317.842           0.000  
   8739982.000           0.000    23865755.692           0.000  
   3089006.998           0.000    21030256.436           0.000  
   4376295.001           0.000    20220060.673           0.000  
  -5602271.002           0.000    22145305.186           0.000  
 98  9 29 11 35 22.9960000  0  5G27G14G16G18G19
   5599834.000           0.000    24598056.248           0.000  
   8739573.999           0.000    23865678.060           0.000  
   3087106.000           0.000    21029894.744           0.000  
   4373377.999           0.000    20219505.056           0.000  
  -5608087.002           0.000    22144198.522           0.000  
 98  9 29 11 35 23.9960000  0  5G27G14G16G18G19
   5593204.001           0.000    24596794.561           0.000  
   8739165.998           0.000    23865600.407           0.000  
   3085205.001           0.000    21029533.016           0.000  
   4370459.999           0.000    20218949.378           0.000  
  -5613901.998           0.000    22143091.807           0.000  
 98  9 29 11 35 24.9960000  0  5G27G14G16G18G19
   5586572.997           0.000    24595532.672           0.000  
   8738758.003           0.000    23865522.582           0.000  
   3083302.999           0.000    21029171.164           0.000  
   4367541.999           0.000    20218393.714           0.000  
  -5619717.998           0.000    22141984.971           0.000  
 98  9 29 11 35 25.9960000  0  5G27G14G16G18G19
   5579941.001           0.000    24594270.734           0.000  
   8738348.998           0.000    23865444.651           0.000  
   3081401.002           0.000    21028809.282           0.000  
   4364623.998           0.000    20217838.458           0.000  
  -5625533.998           0.000    22140878.162           0.000  
 98  9 29 11 35 26.9960000  0  5G27G14G16G18G19
   5573310.002           0.000    24593008.728           0.000  
   8737939.000           0.000    23865366.675           0.000  
   3079499.000           0.000    21028447.388           0.000  
   4361705.998           0.000    20217282.708           0.000  
  -5631349.998           0.000    22139771.343           0.000  
 98  9 29 11 35 27.9960000  0  5G27G14G16G18G19
   5566678.000           0.000    24591746.694           0.000  
   8737530.001           0.000    23865288.748           0.000  
   3077596.997           0.000    21028085.493           0.000  
   4358787.998           0.000    20216726.900           0.000  
  -5637165.998           0.000    22138664.597           0.000  
 98  9 29 11 35 28.9960000  0  5G27G14G16G18G19
   5560045.999           0.000    24590484.615           0.000  
   8737120.003           0.000    23865210.750           0.000  
   3075695.000           0.000    21027723.612           0.000  
   4355870.002           0.000    20216162.646           0.000  
  -5642981.000           0.000    22137557.872           0.000  
 98  9 29 11 35 29.9960000  0  5G27G14G16G18G19
   5553414.002           0.000    24589222.421           0.000  
   8736710.998           0.000    23865132.709           0.000  
   3073792.998           0.000    21027361.715           0.000  
   4352953.001           0.000    20215603.028           0.000  
  -5648797.000           0.000    22136451.076           0.000  
 98  9 29 11 35 30.9960000  0  5G27G14G16G18G19
   5546781.002           0.000    24587960.117           0.000  
   8736301.000           0.000    23865054.670           0.000  
   3071891.001           0.000    21026999.783           0.000  
   4350035.000           0.000    20215048.831           0.000  
  -5654613.000           0.000    22135344.252           0.000  
 98  9 29 11 35 31.9960000  0  5G27G14G16G18G19
   5540148.001           0.000    24586697.806           0.000  
   8735891.002           0.000    23864976.609           0.000  
   3069988.999           0.000    21026637.868           0.000  
   4347117.998           0.000    20214494.415           0.000  
  -5660429.000           0.000    22134237.552           0.000  
 98  9 29 11 35 32.9960000  0  5G27G14G16G18G19
   5533515.001           0.000    24585435.615           0.000  
   8735480.999           0.000    23864898.670           0.000  
   3068088.000           0.000    21026276.063           0.000  
   4344202.000           0.000    20213940.649           0.000  
  -5666244.001           0.000    22133130.972           0.000  
 98  9 29 11 35 33.9960000  0  5G27G14G16G18G19
   5526882.001           0.000    24584173.355           0.000  
   8735072.000           0.000    23864820.751           0.000  
   3066187.001           0.000    21025914.292           0.000  
   4341286.002           0.000    20213386.366           0.000  
  -5672057.999           0.000    22132024.454           0.000  
 98  9 29 11 35 34.9960000  0  5G27G14G16G18G19
   5520249.999           0.000    24582911.125           0.000  
   8734662.002           0.000    23864742.823           0.000  
   3064285.998           0.000    21025552.555           0.000  
   4338369.999           0.000    20212832.349           0.000  
  -5677873.001           0.000    22130917.928           0.000  
 98  9 29 11 35 35.9960000  0  5G27G14G16G18G19
   5513616.000           0.000    24581648.755           0.000  
   8734251.999           0.000    23864664.775           0.000  
   3062384.001           0.000    21025190.742           0.000  
   4335454.999           0.000    20212278.193           0.000  
  -5683686.999           0.000    22129811.284           0.000  
 98  9 29 11 35 36.9960000  0  5G27G14G16G18G19
   5506982.001           0.000    24580386.343           0.000  
   8733842.001           0.000    23864586.718           0.000  
   3060483.002           0.000    21024828.917           0.000  
   4332539.001           0.000    20211724.334           0.000  
  -5689502.000           0.000    22128704.694           0.000  
 98  9 29 11 35 37.9960000  0  5G27G14G16G18G19
   5500349.001           0.000    24579123.913           0.000  
   8733431.998           0.000    23864508.683           0.000  
   3058581.998           0.000    21024467.131           0.000  
   4329624.001           0.000    20211170.242           0.000  
  -5695315.998           0.000    22127598.290           0.000  
 98  9 29 11 35 38.9960000  0  5G27G14G16G18G19
   5493715.002           0.000    24577861.479           0.000  
   8733022.998           0.000    23864430.719           0.000  
   3056681.000           0.000    21024105.409           0.000  
   4326709.001           0.000    20210616.566           0.000  
  -5701130.001           0.000    22126491.957           0.000  
 98  9 29 11 35 39.9960000  0  5G27G14G16G18G19
   5487080.998           0.000    24576599.025           0.000  
   8732613.001           0.000    23864352.679           0.000  
   3054780.001           0.000    21023743.664           0.000  
   4323794.002           0.000    20210062.576           0.000  
  -5706943.999           0.000    22125385.565           0.000  
 98  9 29 11 35 40.9960000  0  5G27G14G16G18G19
   5480446.000           0.000    24575336.486           0.000  
   8732201.999           0.000    23864274.521           0.000  
   3052877.999           0.000    21023381.955           0.000  
   4320879.002           0.000    20209508.635           0.000  
  -5712758.002           0.000    22124279.225           0.000  
 98  9 29 11 35 41.9960000  0  5G27G14G16G18G19
   5473810.998           0.000    24574073.874           0.000  
   8731791.003           0.000    23864196.306           0.000  
   3050977.000           0.000    21023020.171           0.000  
   4317964.002           0.000    20208954.734           0.000  
  -5718572.998           0.000    22123172.855           0.000  
 98  9 29 11 35 42.9960000  0  5G27G14G16G18G19
   5467176.001           0.000    24572811.187           0.000  
   8731381.000           0.000    23864118.119           0.000  
   3049076.002           0.000    21022658.337           0.000  
   4315050.001           0.000    20208400.951           0.000  
  -5724387.001           0.000    22122066.490           0.000  
 98  9 29 11 35 43.9960000  0  5G27G14G16G18G19
   5460540.000           0.000    24571548.432           0.000  
   8730969.998           0.000    23864039.862           0.000  
   3047173.999           0.000    21022296.517           0.000  
   4312135.001           0.000    20207846.972           0.000  
  -5730200.999           0.000    22120960.177           0.000  
 98  9 29 11 35 44.9960000  0  5G27G14G16G18G19
   5453903.999           0.000    24570285.574           0.000  
   8730557.998           0.000    23863961.505           0.000  
   3045273.001           0.000    21021934.632           0.000  
   4309220.002           0.000    20207292.567           0.000  
  -5736015.002           0.000    22119853.777           0.000  
 98  9 29 11 35 45.9960000  0  5G27G14G16G18G19
   5447266.999           0.000    24569022.542           0.000  
   8730145.998           0.000    23863883.048           0.000  
   3043370.000           0.000    21021572.661           0.000  
   4306305.002           0.000    20206738.504           0.000  
  -5741829.999           0.000    22118747.288           0.000  
 98  9 29 11 35 46.9960000  0  5G27G14G16G18G19
   5440630.000           0.000    24567759.491           0.000  
   8729733.998           0.000    23863804.558           0.000  
   3041467.998           0.000    21021210.715           0.000  
   4303390.002           0.000    20206184.141           0.000  
  -5747645.000           0.000    22117640.835           0.000  
 98  9 29 11 35 47.9960000  0  5G27G14G16G18G19
   5433992.002           0.000    24566496.368           0.000  
   8729320.999           0.000    23863726.034           0.000  
   3039566.001           0.000    21020848.752           0.000  
   4300476.001           0.000    20205629.812           0.000  
  -5753458.998           0.000    22116534.426           0.000  
 98  9 29 11 35 48.9960000  0  5G27G14G16G18G19
   5427353.999           0.000    24565233.137           0.000  
   8728908.001           0.000    23863647.431           0.000  
   3037663.000           0.000    21020486.712           0.000  
   4297561.001           0.000    20205075.382           0.000  
  -5759273.999           0.000    22115427.893           0.000  
 98  9 29 11 35 49.9960000  0  5G27G14G16G18G19
   5420715.002           0.000    24563969.783           0.000  
   8728495.002           0.000    23863568.696           0.000  
   3035759.999           0.000    21020124.598           0.000  
   4294644.998           0.000    20204520.833           0.000  
  -5765089.001           0.000    22114321.336           0.000  
 98  9 29 11 35 50.9960000  0  5G27G14G16G18G19
   5414076.001           0.000    24562706.414           0.000  
   8728081.000           0.000    23863489.977           0.000  
   3033856.999           0.000    21019762.527           0.000  
   4291729.998           0.000    20203966.147           0.000  
  -5770904.002           0.000    22113214.825           0.000  
 98  9 29 11 35 51.9960000  0  5G27G14G16G18G19
   5407436.999           0.000    24561443.017           0.000  
   8727668.002           0.000    23863411.314           0.000  
   3031955.002           0.000    21019400.511           0.000  
   4288816.002           0.000    20203411.282           0.000  
  -5776718.999           0.000    22112108.300           0.000  
 98  9 29 11 35 52.9960000  0  5G27G14G16G18G19
   5400797.998           0.000    24560179.636           0.000  
   8727254.998           0.000    23863332.713           0.000  
   3030052.001           0.000    21019038.532           0.000  
   4285902.001           0.000    20202856.978           0.000  
  -5782533.002           0.000    22111001.941           0.000  
 98  9 29 11 35 53.9960000  0  5G27G14G16G18G19
   5394157.998           0.000    24558916.172           0.000  
   8726841.001           0.000    23863253.946           0.000  
   3028149.000           0.000    21018676.499           0.000  
   4282987.001           0.000    20202302.297           0.000  
  -5788347.998           0.000    22109895.548           0.000  
 98  9 29 11 35 54.9960000  0  5G27G14G16G18G19
   5387517.997           0.000    24557652.650           0.000  
   8726426.999           0.000    23863175.159           0.000  
   3026246.998           0.000    21018314.460           0.000  
   4280073.000           0.000    20201747.779           0.000  
  -5794162.001           0.000    22108789.223           0.000  
 98  9 29 11 35 55.9960000  0  5G27G14G16G18G19
   5380877.997           0.000    24556389.081           0.000  
   8726013.002           0.000    23863096.347           0.000  
   3024344.002           0.000    21017952.417           0.000  
   4277158.999           0.000    20201193.295           0.000  
  -5799977.003           0.000    22107682.834           0.000  
 98  9 29 11 35 56.9960000  0  5G27G14G16G18G19
   5374237.997           0.000    24555125.509           0.000  
   8725599.000           0.000    23863017.544           0.000  
   3022442.000           0.000    21017590.408           0.000  
   4274244.997           0.000    20200638.834           0.000  
  -5805791.001           0.000    22106576.526           0.000  
 98  9 29 11 35 57.9960000  0  5G27G14G16G18G19
   5367596.999           0.000    24553861.836           0.000  
   8725185.003           0.000    23862938.751           0.000  
   3020538.999           0.000    21017228.381           0.000  
   4271332.000           0.000    20200084.342           0.000  
  -5811604.998           0.000    22105470.222           0.000  
 98  9 29 11 35 58.9960000  0  5G27G14G16G18G19
   5360955.002           0.000    24552598.022           0.000  
   8724770.002           0.000    23862859.798           0.000  
   3018635.999           0.000    21016866.236           0.000  
   4268417.000           0.000    20199529.767           0.000  
  -5817419.001           0.000    22104363.836           0.000  
 98  9 29 11 35 59.9960000  0  5G27G14G16G18G19
   5354313.998           0.000    24551334.174           0.000  
   8724355.001           0.000    23862780.867           0.000  
   3016732.998           0.000    21016504.114           0.000  
   4265503.997           0.000    20198975.455           0.000  
  -5823233.998           0.000    22103257.474           0.000  
 98  9 29 11 36  0.9960000  0  5G27G14G16G18G19
   5347672.001           0.000    24550070.336           0.000  
   8723940.001           0.000    23862702.007           0.000  
   3014830.002           0.000    21016142.112           0.000  
   4262590.001           0.000    20198421.408           0.000  
  -5829048.001           0.000    22102151.197           0.000  
 98  9 29 11 36  1.9960000  0  5G27G14G16G18G19
   5341029.999           0.000    24548806.432           0.000  
   8723525.000           0.000    23862623.035           0.000  
   3012928.000           0.000    21015780.084           0.000  
   4259676.999           0.000    20197867.258           0.000  
  -5834861.000           0.000    22101044.922           0.000  
 98  9 29 11 36  2.9960000  0  5G27G14G16G18G19
   5334388.002           0.000    24547542.385           0.000  
   8723109.001           0.000    23862543.925           0.000  
   3011024.001           0.000    21015417.895           0.000  
   4256762.997           0.000    20197313.016           0.000  
  -5840676.002           0.000    22099938.542           0.000  
 98  9 29 11 36  3.9960000  0  5G27G14G16G18G19
   5327743.997           0.000    24546278.140           0.000  
   8722691.998           0.000    23862464.635           0.000  
   3009120.002           0.000    21015055.505           0.000  
   4253849.001           0.000    20196758.713           0.000  
  -5846490.998           0.000    22098832.033           0.000  
 98  9 29 11 36  4.9960000  0  5G27G14G16G18G19
   5321099.000           0.000    24545013.782           0.000  
   8722275.000           0.000    23862385.318           0.000  
   3007215.997           0.000    21014693.118           0.000  
   4250934.002           0.000    20196211.265           0.000  
  -5852306.998           0.000    22097725.525           0.000  
 98  9 29 11 36  5.9960000  0  5G27G14G16G18G19
   5314454.002           0.000    24543749.229           0.000  
   8721856.999           0.000    23862305.844           0.000  
   3005311.000           0.000    21014330.576           0.000  
   4248019.002           0.000    20195655.852           0.000  
  -5858122.998           0.000    22096618.912           0.000  
 98  9 29 11 36  6.9960000  0  5G27G14G16G18G19
   5307808.001           0.000    24542484.591           0.000  
   8721438.998           0.000    23862226.256           0.000  
   3003404.998           0.000    21013968.020           0.000  
   4245104.002           0.000    20195100.712           0.000  
  -5863938.998           0.000    22095512.298           0.000  
 98  9 29 11 36  7.9960000  0  5G27G14G16G18G19
   5301162.000           0.000    24541219.969           0.000  
   8721019.998           0.000    23862146.693           0.000  
   3001500.001           0.000    21013605.488           0.000  
   4242188.997           0.000    20194544.917           0.000  
  -5869754.000           0.000    22094405.761           0.000  
 98  9 29 11 36  8.9960000  0  6G 4G27G14G16G18G19
   6296650.999           0.000    20802832.423           0.000  
   5294515.000           0.000    24539955.075           0.000  
   8720600.998           0.000    23862066.933           0.000  
   2999594.998           0.000    21013242.750           0.000  
   4239272.999           0.000    20193990.177           0.000  
  -5875570.998           0.000    22093299.042           0.000  
 98  9 29 11 36  9.9960000  0  6G 4G27G14G16G18G19
   6293095.001           0.000    20802153.698           0.000  
   5287867.002           0.000    24538690.057           0.000  
   8720181.000           0.000    23861987.067           0.000  
   2997687.998           0.000    21012879.930           0.000  
   4236357.999           0.000    20193434.306           0.000  
  -5881388.002           0.000    22092192.232           0.000  
 98  9 29 11 36 10.9960000  0  6G 4G27G14G16G18G19
   6289540.001           0.000    20801479.574           0.000  
   5281218.998           0.000    24537424.945           0.000  
   8719759.998           0.000    23861907.133           0.000  
   2995780.998           0.000    21012517.104           0.000  
   4233442.001           0.000    20192879.272           0.000  
  -5887205.000           0.000    22091085.361           0.000  
 98  9 29 11 36 11.9960000  0  6G 4G27G14G16G18G19
   6285985.001           0.000    20800803.569           0.000  
   5274571.000           0.000    24536159.936           0.000  
   8719340.999           0.000    23861827.357           0.000  
   2993875.002           0.000    21012154.374           0.000  
   4230525.998           0.000    20192324.157           0.000  
  -5893021.000           0.000    22089978.641           0.000  
 98  9 29 11 36 12.9960000  0  6G 4G27G14G16G18G19
   6282431.000           0.000    20800128.095           0.000  
   5267924.000           0.000    24534894.928           0.000  
   8718921.000           0.000    23861747.532           0.000  
   2991969.999           0.000    21011791.717           0.000  
   4227612.002           0.000    20191769.376           0.000  
  -5898837.000           0.000    22088871.993           0.000  
 98  9 29 11 36 13.9960000  0  6G 4G27G14G16G18G19
   6278876.000           0.000    20799451.620           0.000  
   5261276.002           0.000    24533629.884           0.000  
   8718501.002           0.000    23861667.770           0.000  
   2990063.998           0.000    21011429.058           0.000  
   4224697.002           0.000    20191213.756           0.000  
  -5904653.000           0.000    22087765.360           0.000  
 98  9 29 11 36 14.9960000  0  6G 4G27G14G16G18G19
   6275324.000           0.000    20798773.212           0.000  
   5254627.000           0.000    24532364.784           0.000  
   8718082.002           0.000    23861587.949           0.000  
   2988159.000           0.000    21011066.387           0.000  
   4221783.001           0.000    20190658.077           0.000  
  -5910468.002           0.000    22086658.735           0.000  
 98  9 29 11 36 15.9960000  0  6G 4G27G14G16G18G19
   6271769.999           0.000    20798092.999           0.000  
   5247979.002           0.000    24531099.573           0.000  
   8717661.999           0.000    23861508.125           0.000  
   2986252.999           0.000    21010703.677           0.000  
   4218869.000           0.000    20190102.649           0.000  
  -5916284.002           0.000    22085552.097           0.000  
 98  9 29 11 36 16.9960000  0  6G 4G27G14G16G18G19
   6268217.999           0.000    20797417.149           0.000  
   5241330.000           0.000    24529834.269           0.000  
   8717241.002           0.000    23861428.142           0.000  
   2984346.997           0.000    21010340.937           0.000  
   4215954.000           0.000    20189547.694           0.000  
  -5922100.002           0.000    22084445.454           0.000  
 98  9 29 11 36 17.9960000  0  6G 4G27G14G16G18G19
   6264665.002           0.000    20796742.384           0.000  
   5234679.999           0.000    24528568.962           0.000  
   8716820.999           0.000    23861348.130           0.000  
   2982441.001           0.000    21009978.215           0.000  
   4213039.999           0.000    20188993.264           0.000  
  -5927914.998           0.000    22083338.755           0.000  
 98  9 29 11 36 18.9960000  0  6G 4G27G14G16G18G19
   6261111.999           0.000    20796067.235           0.000  
   5228030.997           0.000    24527303.680           0.000  
   8716400.002           0.000    23861268.127           0.000  
   2980535.998           0.000    21009615.572           0.000  
   4210125.997           0.000    20188438.251           0.000  
  -5933730.000           0.000    22082232.137           0.000  
 98  9 29 11 36 19.9960000  0  6G 4G27G14G16G18G19
   6257562.001           0.000    20795391.696           0.000  
   5221382.001           0.000    24526038.422           0.000  
   8715979.999           0.000    23861188.276           0.000  
   2978631.001           0.000    21009253.018           0.000  
   4207213.000           0.000    20187883.586           0.000  
  -5939545.001           0.000    22081125.686           0.000  
 98  9 29 11 36 20.9960000  0  6G 4G27G14G16G18G19
   6254012.997           0.000    20794716.782           0.000  
   5214732.999           0.000    24524773.123           0.000  
   8715560.999           0.000    23861108.426           0.000  
   2976725.998           0.000    21008890.489           0.000  
   4204300.002           0.000    20187329.123           0.000  
  -5945358.999           0.000    22080019.356           0.000  
 98  9 29 11 36 21.9960000  0  6G 4G27G14G16G18G19
   6250463.000           0.000    20794041.549           0.000  
   5208084.002           0.000    24523507.825           0.000  
   8715141.001           0.000    23861028.557           0.000  
   2974821.000           0.000    21008527.970           0.000  
   4201387.998           0.000    20186775.314           0.000  
  -5951173.002           0.000    22078913.089           0.000  
 98  9 29 11 36 22.9960000  0  6G 4G27G14G16G18G19
   6246911.001           0.000    20793366.477           0.000  
   5201434.002           0.000    24522242.531           0.000  
   8714721.003           0.000    23860948.681           0.000  
   2972917.001           0.000    21008165.530           0.000  
   4198475.999           0.000    20186221.028           0.000  
  -5956987.000           0.000    22077806.834           0.000  
 98  9 29 11 36 23.9960000  0  6G 4G27G14G16G18G19
   6243362.002           0.000    20792691.472           0.000  
   5194785.000           0.000    24520977.222           0.000  
   8714301.998           0.000    23860868.820           0.000  
   2971013.002           0.000    21007803.102           0.000  
   4195564.000           0.000    20185666.603           0.000  
  -5962799.999           0.000    22076700.660           0.000  
 98  9 29 11 36 24.9960000  0  6G 4G27G14G16G18G19
   6239812.998           0.000    20792017.287           0.000  
   5188134.999           0.000    24519711.866           0.000  
   8713881.999           0.000    23860789.015           0.000  
   2969109.002           0.000    21007440.674           0.000  
   4192652.001           0.000    20185112.637           0.000  
  -5968612.999           0.000    22075594.480           0.000  
 98  9 29 11 36 25.9960000  0  6G 4G27G14G16G18G19
   6236266.002           0.000    20791341.986           0.000  
   5181484.999           0.000    24518446.406           0.000  
   8713462.001           0.000    23860709.137           0.000  
   2967203.999           0.000    21007078.215           0.000  
   4189740.002           0.000    20184559.065           0.000  
  -5974427.002           0.000    22074488.227           0.000  
 98  9 29 11 36 26.9960000  0  6G 4G27G14G16G18G19
   6232716.998           0.000    20790667.157           0.000  
   5174834.999           0.000    24517180.945           0.000  
   8713041.998           0.000    23860629.246           0.000  
   2965300.000           0.000    21006715.806           0.000  
   4186829.001           0.000    20184005.423           0.000  
  -5980240.001           0.000    22073382.084           0.000  
 98  9 29 11 36 27.9960000  0  6G 4G27G14G16G18G19
   6229168.997           0.000    20789991.744           0.000  
   5168184.000           0.000    24515915.370           0.000  
   8712622.000           0.000    23860549.272           0.000  
   2963396.001           0.000    21006353.346           0.000  
   4183917.002           0.000    20183451.339           0.000  
  -5986053.000           0.000    22072275.941           0.000  
 98  9 29 11 36 28.9960000  0  6G 4G27G14G16G18G19
   6225621.002           0.000    20789317.317           0.000  
   5161533.001           0.000    24514649.789           0.000  
   8712200.998           0.000    23860469.339           0.000  
   2961490.998           0.000    21005990.890           0.000  
   4181006.001           0.000    20182897.257           0.000  
  -5991866.000           0.000    22071169.834           0.000  
 98  9 29 11 36 29.9960000  0  6G 4G27G14G16G18G19
   6222073.002           0.000    20788642.971           0.000  
   5154882.002           0.000    24513384.150           0.000  
   8711780.999           0.000    23860389.333           0.000  
   2959586.999           0.000    21005628.459           0.000  
   4178095.001           0.000    20182343.223           0.000  
  -5997678.999           0.000    22070063.745           0.000  
 98  9 29 11 36 30.9960000  0  6G 4G27G14G16G18G19
   6218526.000           0.000    20787968.551           0.000  
   5148230.998           0.000    24512118.424           0.000  
   8711360.003           0.000    23860309.308           0.000  
   2957682.001           0.000    21005266.016           0.000  
   4175184.000           0.000    20181789.442           0.000  
  -6003491.998           0.000    22068957.599           0.000  
 98  9 29 11 36 31.9960000  0  6G 4G27G14G16G18G19
   6214977.002           0.000    20787294.568           0.000  
   5141579.001           0.000    24510852.635           0.000  
   8710939.001           0.000    23860229.222           0.000  
   2955778.002           0.000    21004903.542           0.000  
   4172272.001           0.000    20181235.234           0.000  
  -6009303.999           0.000    22067851.444           0.000  
 98  9 29 11 36 32.9960000  0  6G 4G27G14G16G18G19
   6211429.001           0.000    20786620.141           0.000  
   5134926.998           0.000    24509586.807           0.000  
   8710517.999           0.000    23860149.092           0.000  
   2953872.999           0.000    21004541.090           0.000  
   4169361.000           0.000    20180681.413           0.000  
  -6015116.999           0.000    22066745.293           0.000  
 98  9 29 11 36 33.9960000  0  6G 4G27G14G16G18G19
   6207884.002           0.000    20785945.646           0.000  
   5128274.002           0.000    24508320.934           0.000  
   8710097.002           0.000    23860068.971           0.000  
   2951969.000           0.000    21004178.632           0.000  
   4166450.000           0.000    20180127.685           0.000  
  -6020929.998           0.000    22065639.164           0.000  
 98  9 29 11 36 34.9960000  0  6G 4G27G14G16G18G19
   6204339.002           0.000    20785270.985           0.000  
   5121621.001           0.000    24507055.038           0.000  
   8709676.000           0.000    23859988.846           0.000  
   2950064.002           0.000    21003816.212           0.000  
   4163538.999           0.000    20179573.752           0.000  
  -6026741.999           0.000    22064533.090           0.000  
 98  9 29 11 36 35.9960000  0  6G 4G27G14G16G18G19
   6200792.000           0.000    20784596.614           0.000  
   5114968.000           0.000    24505788.870           0.000  
   8709254.000           0.000    23859908.512           0.000  
   2948158.999           0.000    21003453.615           0.000  
   4160627.999           0.000    20179019.460           0.000  
  -6032556.002           0.000    22063426.809           0.000  
 98  9 29 11 36 36.9960000  0  5G27G14G16G18G19
   5108313.002           0.000    24504522.536           0.000  
   8708831.001           0.000    23859828.046           0.000  
   2946252.998           0.000    21003090.909           0.000  
   4157716.000           0.000    20178465.205           0.000  
  -6038369.001           0.000    22062320.504           0.000  
 98  9 29 11 36 37.9960000  0  6G 4G27G14G16G18G19
   6193699.000           0.000    20783246.788           0.000  
   5101657.999           0.000    24503256.183           0.000  
   8708408.002           0.000    23859747.553           0.000  
   2944348.000           0.000    21002728.188           0.000  
   4154804.000           0.000    20177911.202           0.000  
  -6044182.999           0.000    22061214.216           0.000  
 98  9 29 11 36 38.9960000  0  6G 4G27G14G16G18G19
   6190151.999           0.000    20782569.638           0.000  
   5095003.001           0.000    24501989.841           0.000  
   8707986.002           0.000    23859667.076           0.000  
   2942441.999           0.000    21002365.549           0.000  
   4151893.000           0.000    20177357.264           0.000  
  -6049995.999           0.000    22060108.033           0.000  
 98  9 29 11 36 39.9960000  0  6G 4G27G14G16G18G19
   6186606.001           0.000    20781895.338           0.000  
   5088347.998           0.000    24500723.447           0.000  
   8707562.998           0.000    23859586.615           0.000  
   2940537.001           0.000    21002002.932           0.000  
   4148981.999           0.000    20176803.242           0.000  
  -6055808.998           0.000    22059001.848           0.000  
 98  9 29 11 36 40.9960000  0  6G 4G27G14G16G18G19
   6183060.002           0.000    20781221.867           0.000  
   5081693.000           0.000    24499457.078           0.000  
   8707141.003           0.000    23859506.186           0.000  
   2938631.000           0.000    21001640.367           0.000  
   4146070.999           0.000    20176249.221           0.000  
  -6061620.999           0.000    22057895.667           0.000  
 98  9 29 11 36 41.9960000  0  6G 4G27G14G16G18G19
   6179517.998           0.000    20780550.148           0.000  
   5075038.002           0.000    24498190.658           0.000  
   8706717.999           0.000    23859425.741           0.000  
   2936726.002           0.000    21001277.790           0.000  
   4143159.998           0.000    20175695.507           0.000  
  -6067433.998           0.000    22056789.616           0.000  
 98  9 29 11 36 42.9960000  0  6G 4G27G14G16G18G19
   6175972.000           0.000    20779876.550           0.000  
   5068382.000           0.000    24496924.103           0.000  
   8706295.000           0.000    23859345.200           0.000  
   2934820.999           0.000    21000915.122           0.000  
   4140248.997           0.000    20175141.667           0.000  
  -6073245.999           0.000    22055683.492           0.000  
 98  9 29 11 36 43.9960000  0  6G 4G27G14G16G18G19
   6172427.999           0.000    20779203.425           0.000  
   5061725.999           0.000    24495657.630           0.000  
   8705873.000           0.000    23859264.806           0.000  
   2932916.002           0.000    21000552.612           0.000  
   4137339.999           0.000    20174588.069           0.000  
  -6079058.000           0.000    22054577.552           0.000  
 98  9 29 11 36 44.9960000  0  6G 4G27G14G16G18G19
   6168886.000           0.000    20778529.571           0.000  
   5055070.002           0.000    24494390.941           0.000  
   8705449.002           0.000    23859184.242           0.000  
   2931010.000           0.000    21000189.917           0.000  
   4134428.998           0.000    20174034.442           0.000  
  -6084871.000           0.000    22053471.367           0.000  
 98  9 29 11 36 45.9960000  0  6G 4G27G14G16G18G19
   6165338.998           0.000    20777853.993           0.000  
   5048411.000           0.000    24493123.912           0.000  
   8705024.001           0.000    23859103.359           0.000  
   2929103.001           0.000    20999826.959           0.000  
   4131516.999           0.000    20173480.450           0.000  
  -6090685.003           0.000    22052364.875           0.000  
 98  9 29 11 36 46.9960000  0  6G 4G27G14G16G18G19
   6161793.998           0.000    20777177.968           0.000  
   5041750.999           0.000    24491856.602           0.000  
   8704598.002           0.000    23859022.254           0.000  
   2927195.002           0.000    20999463.801           0.000  
   4128602.998           0.000    20172926.190           0.000  
  -6096499.000           0.000    22051258.266           0.000  
 98  9 29 11 36 47.9960000  0  6G 4G27G14G16G18G19
   6158249.997           0.000    20776502.222           0.000  
   5035092.002           0.000    24490589.361           0.000  
   8704172.002           0.000    23858941.221           0.000  
   2925286.999           0.000    20999100.750           0.000  
   4125690.999           0.000    20172372.132           0.000  
  -6102314.002           0.000    22050151.845           0.000  
 98  9 29 11 36 48.9960000  0  6G 4G27G14G16G18G19
   6154703.999           0.000    20775826.176           0.000  
   5028433.000           0.000    24489322.254           0.000  
   8703748.000           0.000    23858860.389           0.000  
   2923379.999           0.000    20998737.880           0.000  
   4122779.998           0.000    20171818.144           0.000  
  -6108127.001           0.000    22049045.593           0.000  
 98  9 29 11 36 49.9960000  0  6G 4G27G14G16G18G19
   6151159.998           0.000    20775151.325           0.000  
   5021775.001           0.000    24488055.206           0.000  
   8703322.999           0.000    23858779.643           0.000  
   2921473.998           0.000    20998375.129           0.000  
   4119868.998           0.000    20171264.106           0.000  
  -6113939.002           0.000    22047939.483           0.000  
 98  9 29 11 36 50.9960000  0  6G 4G27G14G16G18G19
   6147617.001           0.000    20774477.757           0.000  
   5015116.998           0.000    24486788.244           0.000  
   8702900.000           0.000    23858698.988           0.000  
   2919569.000           0.000    20998012.485           0.000  
   4116959.001           0.000    20170710.455           0.000  
  -6119750.998           0.000    22046833.519           0.000  
 98  9 29 11 36 51.9960000  0  6G 4G27G14G16G18G19
   6144076.998           0.000    20773805.142           0.000  
   5008458.001           0.000    24485521.191           0.000  
   8702474.999           0.000    23858618.243           0.000  
   2917662.999           0.000    20997649.785           0.000  
   4114048.999           0.000    20170156.465           0.000  
  -6125562.999           0.000    22045727.444           0.000  
 98  9 29 11 36 52.9960000  0  6G 4G27G14G16G18G19
   6140532.997           0.000    20773130.668           0.000  
   5001798.000           0.000    24484253.913           0.000  
   8702049.998           0.000    23858537.329           0.000  
   2915755.999           0.000    20997286.973           0.000  
   4111139.002           0.000    20169603.637           0.000  
  -6131375.000           0.000    22044621.303           0.000  
 98  9 29 11 36 53.9960000  0  6G 4G27G14G16G18G19
   6136989.001           0.000    20772455.936           0.000  
   4995137.999           0.000    24482986.426           0.000  
   8701623.999           0.000    23858456.248           0.000  
   2913848.999           0.000    20996923.968           0.000  
   4108228.999           0.000    20169042.038           0.000  
  -6137189.003           0.000    22043515.035           0.000  
 98  9 29 11 36 54.9960000  0  5G27G14G16G18G19
   4988476.002           0.000    24481718.665           0.000  
   8701197.001           0.000    23858374.975           0.000  
   2911940.002           0.000    20996560.754           0.000  
   4105317.000           0.000    20168484.389           0.000  
  -6143003.001           0.000    22042408.619           0.000  
 98  9 29 11 36 55.9960000  0  5G27G14G16G18G19
   4981813.000           0.000    24480450.712           0.000  
   8700768.999           0.000    23858293.507           0.000  
   2910031.000           0.000    20996197.404           0.000  
   4102405.001           0.000    20167931.418           0.000  
  -6148818.002           0.000    22041302.036           0.000  
 98  9 29 11 36 56.9960000  0  5G27G14G16G18G19
   4975149.000           0.000    24479182.671           0.000  
   8700341.003           0.000    23858211.994           0.000  
   2908121.000           0.000    20995833.988           0.000  
   4099493.002           0.000    20167375.699           0.000  
  -6154632.998           0.000    22040195.476           0.000  
 98  9 29 11 36 57.9960000  0  5G27G14G16G18G19
   4968484.002           0.000    24477914.376           0.000  
   8699912.003           0.000    23858130.201           0.000  
   2906210.999           0.000    20995470.348           0.000  
   4096578.002           0.000    20166822.940           0.000  
  -6160448.998           0.000    22039088.686           0.000  
 98  9 29 11 36 58.9960000  0  5G27G14G16G18G19
   4961818.000           0.000    24476645.886           0.000  
   8699481.000           0.000    23858048.287           0.000  
   2904299.002           0.000    20995106.615           0.000  
   4093665.000           0.000    20166269.829           0.000  
  -6166264.998           0.000    22037981.812           0.000  
 98  9 29 11 36 59.9960000  0  5G27G14G16G18G19
   4955154.000           0.000    24475377.572           0.000  
   8699052.000           0.000    23857966.588           0.000  
   2902389.002           0.000    20994743.109           0.000  
   4090753.001           0.000    20165715.801           0.000  
  -6172080.998           0.000    22036875.210           0.000  
 98  9 29 11 37  0.9960000  0  5G27G14G16G18G19
   4948490.000           0.000    24474109.455           0.000  
   8698623.999           0.000    23857885.163           0.000  
   2900480.998           0.000    20994379.801           0.000  
   4087839.998           0.000    20165161.345           0.000  
  -6177893.998           0.000    22035768.907           0.000  
 98  9 29 11 37  1.9960000  0  5G27G14G16G18G19
   4941826.001           0.000    24472841.440           0.000  
   8698197.001           0.000    23857803.901           0.000  
   2898573.000           0.000    20994016.692           0.000  
   4084929.002           0.000    20164606.699           0.000  
  -6183707.002           0.000    22034662.785           0.000  
 98  9 29 11 37  2.9960000  0  5G27G14G16G18G19
   4935163.998           0.000    24471573.549           0.000  
   8697769.998           0.000    23857722.718           0.000  
   2896665.001           0.000    20993653.708           0.000  
   4082019.999           0.000    20164052.771           0.000  
  -6189518.998           0.000    22033556.805           0.000  
 98  9 29 11 37  3.9960000  0  5G27G14G16G18G19
   4928501.002           0.000    24470305.604           0.000  
   8697343.998           0.000    23857641.563           0.000  
   2894758.002           0.000    20993290.736           0.000  
   4079111.999           0.000    20163498.227           0.000  
  -6195330.999           0.000    22032450.870           0.000  
 98  9 29 11 37  4.9960000  0  4G27G14G16G19
   4921838.000           0.000    24469037.595           0.000  
   8696917.000           0.000    23857560.313           0.000  
   2892851.002           0.000    20992927.745           0.000  
  -6201143.000           0.000    22031344.906           0.000  
 98  9 29 11 37  5.9960000  0  4G27G14G16G19
   4915174.999           0.000    24467769.540           0.000  
   8696490.002           0.000    23857479.021           0.000  
   2890944.002           0.000    20992564.752           0.000  
  -6206954.002           0.000    22030238.911           0.000  
 98  9 29 11 37  6.9960000  0  4G27G14G16G19
   4908510.999           0.000    24466501.454           0.000  
   8696062.999           0.000    23857397.766           0.000  
   2889037.002           0.000    20992201.786           0.000  
  -6212765.998           0.000    22029132.982           0.000  
 98  9 29 11 37  7.9960000  0  4G27G14G16G19
   4901846.001           0.000    24465233.173           0.000  
   8695635.003           0.000    23857316.273           0.000  
   2887128.999           0.000    20991838.646           0.000  
  -6218577.999           0.000    22028026.916           0.000  
 98  9 29 11 37  8.9960000  0  4G27G14G16G19
   4895179.999           0.000    24463964.560           0.000  
   8695206.003           0.000    23857234.480           0.000  
   2885220.002           0.000    20991475.215           0.000  
  -6224392.002           0.000    22026920.510           0.000  
 98  9 29 11 37  9.9960000  0  4G27G14G16G19
   4888512.998           0.000    24462695.840           0.000  
   8694775.999           0.000    23857152.677           0.000  
   2883310.001           0.000    20991111.759           0.000  
  -6230205.001           0.000    22025814.112           0.000  
 98  9 29 11 37 10.9960000  0  5G27G14G16G18G19
   4881845.998           0.000    24461427.057           0.000  
   8694346.000           0.000    23857070.905           0.000  
   2881400.001           0.000    20990748.320           0.000  
   6296429.000           0.000    20159614.841           0.000  
  -6236018.999           0.000    22024707.790           0.000  
 98  9 29 11 37 11.9960000  0  5G27G14G16G18G19
   4875177.999           0.000    24460158.297           0.000  
   8693916.002           0.000    23856989.080           0.000  
   2879490.999           0.000    20990384.855           0.000  
   6293518.000           0.000    20159059.875           0.000  
  -6241831.999           0.000    22023601.605           0.000  
 98  9 29 11 37 12.9960000  0  4G27G14G16G19
   4868510.999           0.000    24458889.587           0.000  
   8693487.002           0.000    23856907.393           0.000  
   2877582.002           0.000    20990021.555           0.000  
  -6247644.998           0.000    22022495.594           0.000  
 98  9 29 11 37 13.9960000  0  5G27G14G16G18G19
   4861843.998           0.000    24457620.810           0.000  
   8693058.002           0.000    23856825.617           0.000  
   2875673.000           0.000    20989658.245           0.000  
   6287699.998           0.000    20157969.161           0.000  
  -6253456.999           0.000    22021389.583           0.000  
 98  9 29 11 37 14.9960000  0  5G27G14G16G18G19
   4855176.998           0.000    24456352.053           0.000  
   8692627.998           0.000    23856743.925           0.000  
   2873763.998           0.000    20989295.043           0.000  
   6284790.001           0.000    20157420.410           0.000  
  -6259269.000           0.000    22020283.615           0.000  
 98  9 29 11 37 15.9960000  0  5G27G14G16G18G19
   4848511.001           0.000    24455083.400           0.000  
   8692200.002           0.000    23856662.340           0.000  
   2871856.000           0.000    20988931.960           0.000  
   6281882.001           0.000    20156859.927           0.000  
  -6265080.002           0.000    22019177.877           0.000  
 98  9 29 11 37 16.9960000  0  4G27G14G16G19
   4841844.001           0.000    24453814.794           0.000  
   8691772.000           0.000    23856580.853           0.000  
   2869949.000           0.000    20988568.973           0.000  
  -6270890.001           0.000    22018072.245           0.000  
 98  9 29 11 37 17.9960000  0  4G27G14G16G19
   4835177.999           0.000    24452546.255           0.000  
   8691343.998           0.000    23856499.457           0.000  
   2868042.999           0.000    20988206.132           0.000  
  -6276700.000           0.000    22016966.796           0.000  
 98  9 29 11 37 18.9960000  0  4G27G14G16G19
   4828513.000           0.000    24451277.773           0.000  
   8690917.000           0.000    23856418.128           0.000  
   2866135.999           0.000    20987843.402           0.000  
  -6282509.000           0.000    22015861.422           0.000  
 98  9 29 11 37 19.9960000  0  4G27G14G16G19
   4821846.000           0.000    24450009.083           0.000  
   8690488.999           0.000    23856336.662           0.000  
   2864229.998           0.000    20987480.538           0.000  
  -6288318.999           0.000    22014755.927           0.000  
 98  9 29 11 37 20.9960000  0  4G27G14G16G19
   4815178.001           0.000    24448740.042           0.000  
   8690059.000           0.000    23856254.880           0.000  
   2862321.001           0.000    20987117.363           0.000  
  -6294130.001           0.000    22013650.129           0.000  
 98  9 29 11 37 21.9960000  0  5G27G14G16G18G19
   4808508.000           0.000    24447470.824           0.000  
   8689629.002           0.000    23856172.924           0.000  
   2860411.999           0.000    20986754.018           0.000  
   6294719.001           0.000    20153529.708           0.000  
  -6299940.998           0.000    22012544.223           0.000  
 98  9 29 11 37 22.9960000  0  5G27G14G16G18G19
   4801838.997           0.000    24446201.576           0.000  
   8689198.000           0.000    23856090.983           0.000  
   2858503.002           0.000    20986390.741           0.000  
   6291812.000           0.000    20152974.605           0.000  
  -6305752.999           0.000    22011438.498           0.000  
 98  9 29 11 37 23.9960000  0  5G27G14G16G18G19
   4795170.000           0.000    24444932.514           0.000  
   8688768.999           0.000    23856009.271           0.000  
   2856596.002           0.000    20986027.689           0.000  
   6288901.998           0.000    20152423.192           0.000  
  -6311562.998           0.000    22010332.972           0.000  
 98  9 29 11 37 24.9960000  0  5G27G14G16G18G19
   4788502.001           0.000    24443663.525           0.000  
   8688339.999           0.000    23855927.694           0.000  
   2854688.997           0.000    20985664.787           0.000  
   6285996.000           0.000    20151870.276           0.000  
  -6317371.998           0.000    22009227.597           0.000  
 98  9 29 11 37 25.9960000  0  4G27G14G16G19
   4781834.002           0.000    24442394.607           0.000  
   8687911.998           0.000    23855846.163           0.000  
   2852781.998           0.000    20985302.016           0.000  
  -6323180.000           0.000    22008122.400           0.000  
 98  9 29 11 37 26.9960000  0  4G27G14G16G19
   4775165.998           0.000    24441125.653           0.000  
   8687482.998           0.000    23855764.637           0.000  
   2850876.001           0.000    20984939.252           0.000  
  -6328988.002           0.000    22007017.234           0.000  
 98  9 29 11 37 27.9960000  0  5G27G14G16G18G19
   4768497.999           0.000    24439856.728           0.000  
   8687055.001           0.000    23855683.164           0.000  
   2848970.000           0.000    20984576.546           0.000  
   6277279.000           0.000    20150215.484           0.000  
  -6334795.999           0.000    22005912.114           0.000  
 98  9 29 11 37 28.9960000  0  4G27G14G16G19
   4761830.000           0.000    24438587.835           0.000  
   8686627.000           0.000    23855601.758           0.000  
   2847063.999           0.000    20984213.893           0.000  
  -6340604.000           0.000    22004807.105           0.000  
 98  9 29 11 37 29.9960000  0  5G27G14G16G18G19
   4755163.000           0.000    24437318.979           0.000  
   8686198.998           0.000    23855520.427           0.000  
   2845159.001           0.000    20983851.376           0.000  
   6271470.998           0.000    20149108.907           0.000  
  -6346410.000           0.000    22003702.185           0.000  
 98  9 29 11 37 30.9960000  0  4G27G14G16G19
   4748495.999           0.000    24436050.201           0.000  
   8685772.000           0.000    23855439.148           0.000  
   2843253.998           0.000    20983488.962           0.000  
  -6352216.000           0.000    22002597.420           0.000  
 98  9 29 11 37 31.9960000  0  4G27G14G16G19
   4741828.999           0.000    24434781.437           0.000  
   8685345.002           0.000    23855357.940           0.000  
   2841349.999           0.000    20983126.614           0.000  
  -6358021.999           0.000    22001492.747           0.000  
 98  9 29 11 37 32.9960000  0  5G27G14G16G18G19
   4735161.000           0.000    24433512.608           0.000  
   8684917.999           0.000    23855276.680           0.000  
   2839445.001           0.000    20982764.218           0.000  
   6262765.001           0.000    20147464.726           0.000  
  -6363827.001           0.000    22000388.009           0.000  
 98  9 29 11 37 33.9960000  0  5G27G14G16G18G19
   4728493.001           0.000    24432243.760           0.000  
   8684491.001           0.000    23855195.449           0.000  
   2837541.002           0.000    20982401.915           0.000  
   6259864.001           0.000    20146906.411           0.000  
  -6369632.002           0.000    21999283.395           0.000  
 98  9 29 11 37 34.9960000  0  5G27G14G16G18G19
   4721825.002           0.000    24430974.833           0.000  
   8684063.000           0.000    23855114.169           0.000  
   2835636.998           0.000    20982039.588           0.000  
   6256960.999           0.000    20146349.860           0.000  
  -6375438.001           0.000    21998178.738           0.000  
 98  9 29 11 37 35.9960000  0  5G27G14G16G18G19
   4715156.000           0.000    24429705.711           0.000  
   8683634.998           0.000    23855032.668           0.000  
   2833732.000           0.000    20981677.107           0.000  
   6254058.002           0.000    20145797.489           0.000  
  -6381244.001           0.000    21997074.003           0.000  
 98  9 29 11 37 36.9960000  0  5G27G14G16G18G19
   4708487.002           0.000    24428436.548           0.000  
   8683205.998           0.000    23854951.233           0.000  
   2831827.002           0.000    20981314.662           0.000  
   6251155.998           0.000    20145244.622           0.000  
  -6387049.002           0.000    21995969.321           0.000  
 98  9 29 11 37 37.9960000  0  5G27G14G16G18G19
   4701818.000           0.000    24427167.373           0.000  
   8682778.002           0.000    23854869.738           0.000  
   2829921.999           0.000    20980952.201           0.000  
   6248252.002           0.000    20144693.208           0.000  
  -6392855.002           0.000    21994864.688           0.000  
 98  9 29 11 37 38.9960000  0  5G27G14G16G18G19
   4695147.999           0.000    24425898.148           0.000  
   8682349.001           0.000    23854788.215           0.000  
   2828017.002           0.000    20980589.737           0.000  
   6245351.002           0.000    20144141.656           0.000  
  -6398659.998           0.000    21993760.072           0.000  
 98  9 29 11 37 39.9960000  0  5G27G14G16G18G19
   4688476.999           0.000    24424628.729           0.000  
   8681920.001           0.000    23854706.551           0.000  
   2826111.999           0.000    20980227.152           0.000  
   6242447.001           0.000    20143590.700           0.000  
  -6404465.998           0.000    21992655.258           0.000  
 98  9 29 11 37 40.9960000  0  5G27G14G16G18G19
   4681806.998           0.000    24423359.277           0.000  
   8681490.003           0.000    23854624.910           0.000  
   2824205.997           0.000    20979864.553           0.000  
   6239546.999           0.000    20143038.008           0.000  
  -6410270.999           0.000    21991550.554           0.000  
 98  9 29 11 37 41.9960000  0  5G27G14G16G18G19
   4675135.999           0.000    24422089.857           0.000  
   8681061.003           0.000    23854543.265           0.000  
   2822301.000           0.000    20979502.052           0.000  
   6236642.998           0.000    20142485.813           0.000  
  -6416076.998           0.000    21990445.946           0.000  
 98  9 29 11 37 42.9960000  0  5G27G14G16G18G19
   4668464.999           0.000    24420820.459           0.000  
   8680630.999           0.000    23854461.602           0.000  
   2820396.002           0.000    20979139.592           0.000  
   6233740.999           0.000    20141933.944           0.000  
  -6421881.001           0.000    21989341.376           0.000  
 98  9 29 11 37 43.9960000  0  5G27G14G16G18G19
   4661793.001           0.000    24419550.892           0.000  
   8680201.000           0.000    23854379.852           0.000  
   2818490.001           0.000    20978777.031           0.000  
   6230838.002           0.000    20141380.915           0.000  
  -6427687.001           0.000    21988236.762           0.000  
 98  9 29 11 37 44.9960000  0  5G27G14G16G18G19
   4655122.002           0.000    24418281.262           0.000  
   8679771.002           0.000    23854298.046           0.000  
   2816584.998           0.000    20978414.470           0.000  
   6227937.002           0.000    20140828.391           0.000  
  -6433492.002           0.000    21987132.188           0.000  
 98  9 29 11 37 45.9960000  0  5G27G14G16G18G19
   4648449.998           0.000    24417011.669           0.000  
   8679340.998           0.000    23854216.312           0.000  
   2814680.000           0.000    20978051.968           0.000  
   6225034.998           0.000    20140276.935           0.000  
  -6439296.998           0.000    21986027.728           0.000  
 98  9 29 11 37 46.9960000  0  5G27G14G16G18G19
   4641778.000           0.000    24415742.105           0.000  
   8678911.998           0.000    23854134.636           0.000  
   2812774.997           0.000    20977689.527           0.000  
   6222136.000           0.000    20139724.904           0.000  
  -6445101.001           0.000    21984923.361           0.000  
 98  9 29 11 37 47.9960000  0  5G27G14G16G18G19
   4635107.001           0.000    24414472.488           0.000  
   8678482.000           0.000    23854052.938           0.000  
   2810870.000           0.000    20977327.120           0.000  
   6219235.998           0.000    20139172.704           0.000  
  -6450904.998           0.000    21983818.994           0.000  
 98  9 29 11 37 48.9960000  0  5G27G14G16G18G19
   4628434.998           0.000    24413202.867           0.000  
   8678052.001           0.000    23853971.266           0.000  
   2808966.000           0.000    20976964.787           0.000  
   6216337.000           0.000    20138620.852           0.000  
  -6456708.003           0.000    21982714.699           0.000  
 98  9 29 11 37 49.9960000  0  5G27G14G16G18G19
   4621763.000           0.000    24411933.197           0.000  
   8677622.002           0.000    23853889.534           0.000  
   2807062.001           0.000    20976602.390           0.000  
   6213438.001           0.000    20138068.568           0.000  
  -6462512.000           0.000    21981610.360           0.000  
 98  9 29 11 37 50.9960000  0  5G27G14G16G18G19
   4615089.998           0.000    24410663.444           0.000  
   8677191.999           0.000    23853807.704           0.000  
   2805156.998           0.000    20976239.986           0.000  
   6210540.002           0.000    20137517.372           0.000  
  -6468315.998           0.000    21980505.954           0.000  
 98  9 29 11 37 51.9960000  0  5G27G14G16G18G19
   4608417.001           0.000    24409393.536           0.000  
   8676761.002           0.000    23853725.781           0.000  
   2803252.001           0.000    20975877.502           0.000  
   6207640.998           0.000    20136966.204           0.000  
  -6474120.000           0.000    21979401.520           0.000  
 98  9 29 11 37 52.9960000  0  5G27G14G16G18G19
   4601743.001           0.000    24408123.564           0.000  
   8676329.999           0.000    23853643.811           0.000  
   2801348.002           0.000    20975515.020           0.000  
   6204741.002           0.000    20136414.575           0.000  
  -6479923.998           0.000    21978297.120           0.000  
 98  9 29 11 37 53.9960000  0  5G27G14G16G18G19
   4595069.001           0.000    24406853.602           0.000  
   8675900.001           0.000    23853561.855           0.000  
   2799442.999           0.000    20975152.541           0.000  
   6201841.998           0.000    20135862.796           0.000  
  -6485727.002           0.000    21977192.720           0.000  
 98  9 29 11 37 54.9960000  0  5G27G14G16G18G19
   4588396.000           0.000    24405583.635           0.000  
   8675468.999           0.000    23853479.967           0.000  
   2797538.001           0.000    20974790.190           0.000  
   6198943.999           0.000    20135311.463           0.000  
  -6491530.001           0.000    21976088.374           0.000  
 98  9 29 11 37 55.9960000  0  5G27G14G16G18G19
   4581721.999           0.000    24404313.655           0.000  
   8675038.002           0.000    23853397.975           0.000  
   2795634.002           0.000    20974427.845           0.000  
   6196045.001           0.000    20134760.249           0.000  
  -6497333.000           0.000    21974984.047           0.000  
 98  9 29 11 37 56.9960000  0  5G27G14G16G18G19
   4575047.999           0.000    24403043.654           0.000  
   8674606.999           0.000    23853316.092           0.000  
   2793729.997           0.000    20974065.600           0.000  
   6193147.999           0.000    20134209.496           0.000  
  -6503135.999           0.000    21973879.806           0.000  
 98  9 29 11 37 57.9960000  0  5G27G14G16G18G19
   4568373.999           0.000    24401773.595           0.000  
   8674176.002           0.000    23853234.185           0.000  
   2791825.998           0.000    20973703.331           0.000  
   6190250.000           0.000    20133657.370           0.000  
  -6508938.000           0.000    21972775.649           0.000  
