     2.10           OBSERVATION DATA    G (GPS)             RINEX VERSION / TYPE
rinexwrt            gAGE                20100505 12:45:55UTCPGM / RUN BY / DATE
gAGE                                                        MARKER NAME
gAGE                gAGE                                    OBSERVER / AGENCY
Unknown             Unknown             Unknown             REC # / TYPE / VERS
Unknown             Unknown                                 ANT # / TYPE
  5436447.3690 -1496036.6390  2971380.3580                  APPROX POSITION XYZ
        0.0000        0.0000        0.0000                  ANTENNA: DELTA H/E/N
     1     1                                                WAVELENGTH FACT L1/2
     4    L1    L2    C1    P2                              # / TYPES OF OBSERV
  1998     9    28    11    23   27.9980000     GPS         TIME OF FIRST OBS
                                                            END OF HEADER
 98  9 28 11 23 27.9980000  0  4G18G14G16G19
   3147057.998           0.000    19985334.667           0.000  
  -2849474.000           0.000    23147947.392           0.000  
   -276399.999           0.000    20593317.872           0.000  
 -18839640.001           0.000    22428324.581           0.000  
 98  9 28 11 23 28.9980000  0  4G18G14G16G19
   3143287.001           0.000    19984613.519           0.000  
  -2850403.999           0.000    23147770.565           0.000  
   -278970.001           0.000    20592828.859           0.000  
 -18846160.002           0.000    22427083.868           0.000  
 98  9 28 11 23 29.9980000  0  4G18G14G16G19
   3139515.998           0.000    19983893.368           0.000  
  -2851333.000           0.000    23147593.843           0.000  
   -281538.998           0.000    20592339.938           0.000  
 -18852679.000           0.000    22425843.319           0.000  
 98  9 28 11 23 30.9980000  0  4G18G14G16G19
   3135747.002           0.000    19983175.987           0.000  
  -2852261.003           0.000    23147417.222           0.000  
   -284107.003           0.000    20591851.230           0.000  
 -18859196.999           0.000    22424602.920           0.000  
 98  9 28 11 23 31.9980000  0  4G18G14G16G19
   3131979.000           0.000    19982458.340           0.000  
  -2853189.998           0.000    23147240.690           0.000  
   -286673.998           0.000    20591362.585           0.000  
 -18865714.998           0.000    22423362.589           0.000  
 98  9 28 11 23 32.9980000  0  4G18G14G16G19
   3128212.001           0.000    19981748.148           0.000  
  -2854117.002           0.000    23147064.230           0.000  
   -289240.999           0.000    20590874.076           0.000  
 -18872231.999           0.000    22422122.350           0.000  
 98  9 28 11 23 33.9980000  0  4G18G14G16G19
   3124447.000           0.000    19981030.501           0.000  
  -2855045.000           0.000    23146887.826           0.000  
   -291808.000           0.000    20590385.676           0.000  
 -18878748.001           0.000    22420882.226           0.000  
 98  9 28 11 23 34.9980000  0  4G18G14G16G19
   3120680.001           0.000    19980315.212           0.000  
  -2855971.000           0.000    23146711.558           0.000  
   -294372.998           0.000    20589897.512           0.000  
 -18885263.998           0.000    22419642.307           0.000  
 98  9 28 11 23 35.9980000  0  4G18G14G16G19
   3116915.998           0.000    19979598.558           0.000  
  -2856897.000           0.000    23146535.330           0.000  
   -296938.002           0.000    20589409.408           0.000  
 -18891779.002           0.000    22418402.438           0.000  
 98  9 28 11 23 36.9980000  0  4G18G14G16G19
   3113149.998           0.000    19978881.668           0.000  
  -2857823.001           0.000    23146359.134           0.000  
   -299503.001           0.000    20588921.403           0.000  
 -18898294.001           0.000    22417162.610           0.000  
 98  9 28 11 23 37.9980000  0  4G18G14G16G19
   3109386.998           0.000    19978164.834           0.000  
  -2858748.002           0.000    23146183.059           0.000  
   -302067.001           0.000    20588433.458           0.000  
 -18904808.001           0.000    22415922.901           0.000  
 98  9 28 11 23 38.9980000  0  4G18G14G16G19
   3105625.002           0.000    19977449.339           0.000  
  -2859672.999           0.000    23146007.138           0.000  
   -304630.002           0.000    20587945.694           0.000  
 -18911321.002           0.000    22414683.369           0.000  
 98  9 28 11 23 39.9980000  0  4G18G14G16G19
   3101864.000           0.000    19976734.201           0.000  
  -2860598.001           0.000    23145831.228           0.000  
   -307192.999           0.000    20587458.042           0.000  
 -18917833.999           0.000    22413443.910           0.000  
 98  9 28 11 23 40.9980000  0  4G18G14G16G19
   3098103.002           0.000    19976018.393           0.000  
  -2861521.999           0.000    23145655.389           0.000  
   -309755.002           0.000    20586970.601           0.000  
 -18924347.000           0.000    22412204.583           0.000  
 98  9 28 11 23 41.9980000  0  4G18G14G16G19
   3094344.002           0.000    19975303.183           0.000  
  -2862444.999           0.000    23145479.623           0.000  
   -312316.002           0.000    20586483.238           0.000  
 -18930858.000           0.000    22410965.341           0.000  
 98  9 28 11 23 42.9980000  0  4G18G14G16G19
   3090583.998           0.000    19974588.382           0.000  
  -2863367.998           0.000    23145303.930           0.000  
   -314877.001           0.000    20585996.016           0.000  
 -18937368.999           0.000    22409726.194           0.000  
 98  9 28 11 23 43.9980000  0  4G18G14G16G19
   3086825.002           0.000    19973872.659           0.000  
  -2864290.000           0.000    23145128.397           0.000  
   -317437.002           0.000    20585508.961           0.000  
 -18943879.999           0.000    22408487.216           0.000  
 98  9 28 11 23 44.9980000  0  4G18G14G16G19
   3083064.998           0.000    19973156.504           0.000  
  -2865212.999           0.000    23144952.919           0.000  
   -319996.998           0.000    20585021.866           0.000  
 -18950390.000           0.000    22407248.278           0.000  
 98  9 28 11 23 45.9980000  0  4G18G14G16G19
   3079307.002           0.000    19972441.284           0.000  
  -2866135.001           0.000    23144777.479           0.000  
   -322556.000           0.000    20584534.921           0.000  
 -18956899.002           0.000    22406009.505           0.000  
 98  9 28 11 23 46.9980000  0  4G18G14G16G19
   3075549.998           0.000    19971726.811           0.000  
  -2867055.998           0.000    23144602.106           0.000  
   -325113.999           0.000    20584048.105           0.000  
 -18963408.000           0.000    22404770.879           0.000  
 98  9 28 11 23 47.9980000  0  4G18G14G16G19
   3071795.002           0.000    19971012.062           0.000  
  -2867977.001           0.000    23144426.856           0.000  
   -327671.998           0.000    20583561.483           0.000  
 -18969915.998           0.000    22403532.421           0.000  
 98  9 28 11 23 48.9980000  0  4G18G14G16G19
   3068039.002           0.000    19970296.684           0.000  
  -2868897.000           0.000    23144251.679           0.000  
   -330230.002           0.000    20583074.889           0.000  
 -18976424.002           0.000    22402294.047           0.000  
 98  9 28 11 23 49.9980000  0  4G18G14G16G19
   3064284.999           0.000    19969581.335           0.000  
  -2869818.003           0.000    23144076.520           0.000  
   -332787.003           0.000    20582588.389           0.000  
 -18982931.003           0.000    22401055.764           0.000  
 98  9 28 11 23 50.9980000  0  4G18G14G16G19
   3060529.998           0.000    19968866.674           0.000  
  -2870736.998           0.000    23143901.473           0.000  
   -335342.999           0.000    20582101.977           0.000  
 -18989437.998           0.000    22399817.589           0.000  
 98  9 28 11 23 51.9980000  0  4G18G14G16G19
   3056776.000           0.000    19968152.402           0.000  
  -2871657.002           0.000    23143726.541           0.000  
   -337899.001           0.000    20581615.754           0.000  
 -18995944.000           0.000    22398579.505           0.000  
 98  9 28 11 23 52.9980000  0  4G18G14G16G19
   3053024.998           0.000    19967438.525           0.000  
  -2872574.999           0.000    23143551.661           0.000  
   -340454.000           0.000    20581129.612           0.000  
 -19002450.002           0.000    22397341.573           0.000  
 98  9 28 11 23 53.9980000  0  4G18G14G16G19
   3049271.999           0.000    19966723.490           0.000  
  -2873494.000           0.000    23143376.891           0.000  
   -343007.999           0.000    20580643.629           0.000  
 -19008954.001           0.000    22396103.820           0.000  
 98  9 28 11 23 54.9980000  0  4G18G14G16G19
   3045522.000           0.000    19966009.501           0.000  
  -2874410.998           0.000    23143202.254           0.000  
   -345561.999           0.000    20580157.776           0.000  
 -19015458.001           0.000    22394866.162           0.000  
 98  9 28 11 23 55.9980000  0  4G18G14G16G19
   3041770.998           0.000    19965295.327           0.000  
  -2875328.002           0.000    23143027.741           0.000  
   -348115.000           0.000    20579672.066           0.000  
 -19021961.003           0.000    22393628.564           0.000  
 98  9 28 11 23 56.9980000  0  4G18G14G16G19
   3038023.001           0.000    19964581.283           0.000  
  -2876245.999           0.000    23142853.227           0.000  
   -350668.002           0.000    20579186.367           0.000  
 -19028463.999           0.000    22392391.046           0.000  
 98  9 28 11 23 57.9980000  0  4G18G14G16G19
   3034277.002           0.000    19963867.652           0.000  
  -2877161.999           0.000    23142678.856           0.000  
   -353219.999           0.000    20578700.877           0.000  
 -19034967.000           0.000    22391153.659           0.000  
 98  9 28 11 23 58.9980000  0  4G18G14G16G19
   3030528.002           0.000    19963153.392           0.000  
  -2878077.999           0.000    23142504.522           0.000  
   -355770.999           0.000    20578215.482           0.000  
 -19041467.999           0.000    22389916.370           0.000  
 98  9 28 11 23 59.9980000  0  4G18G14G16G19
   3026779.002           0.000    19962439.343           0.000  
  -2878993.999           0.000    23142330.252           0.000  
   -358321.998           0.000    20577730.173           0.000  
 -19047970.002           0.000    22388679.217           0.000  
 98  9 28 11 24  1.9980000  0  4G18G14G16G19
   3019286.998           0.000    19961010.867           0.000  
  -2880824.002           0.000    23141982.058           0.000  
   -363421.999           0.000    20576759.868           0.000  
 -19060969.998           0.000    22386205.406           0.000  
 98  9 28 11 24  2.9980000  0  4G18G14G16G19
   3015540.998           0.000    19960298.678           0.000  
  -2881738.000           0.000    23141808.075           0.000  
   -365971.001           0.000    20576274.871           0.000  
 -19067469.000           0.000    22384968.698           0.000  
 98  9 28 11 24  3.9980000  0  4G18G14G16G19
   3011797.001           0.000    19959585.921           0.000  
  -2882652.003           0.000    23141634.143           0.000  
   -368519.000           0.000    20575790.020           0.000  
 -19073968.002           0.000    22383732.065           0.000  
 98  9 28 11 24  4.9980000  0  4G18G14G16G19
   3008052.000           0.000    19958872.557           0.000  
  -2883566.001           0.000    23141460.139           0.000  
   -371068.002           0.000    20575305.087           0.000  
 -19080466.999           0.000    22382495.380           0.000  
 98  9 28 11 24  5.9980000  0  4G18G14G16G19
   3004309.999           0.000    19958160.170           0.000  
  -2884479.000           0.000    23141286.299           0.000  
   -373615.002           0.000    20574820.454           0.000  
 -19086964.998           0.000    22381258.939           0.000  
 98  9 28 11 24  6.9980000  0  4G18G14G16G19
   3000566.002           0.000    19957447.341           0.000  
  -2885391.999           0.000    23141112.629           0.000  
   -376162.002           0.000    20574335.974           0.000  
 -19093461.998           0.000    22380022.657           0.000  
 98  9 28 11 24  7.9980000  0  4G18G14G16G19
   2996825.000           0.000    19956734.396           0.000  
  -2886304.000           0.000    23140939.105           0.000  
   -378707.999           0.000    20573851.668           0.000  
 -19099957.999           0.000    22378786.546           0.000  
 98  9 28 11 24  8.9980000  0  4G18G14G16G19
   2993086.000           0.000    19956023.547           0.000  
  -2887216.001           0.000    23140765.478           0.000  
   -381254.000           0.000    20573367.326           0.000  
 -19106454.001           0.000    22377550.389           0.000  
 98  9 28 11 24  9.9980000  0  4G18G14G16G19
   2989346.002           0.000    19955312.260           0.000  
  -2888126.998           0.000    23140592.032           0.000  
   -383798.998           0.000    20572883.187           0.000  
 -19112948.999           0.000    22376314.511           0.000  
 98  9 28 11 24 10.9980000  0  4G18G14G16G19
   2985608.001           0.000    19954601.149           0.000  
  -2889038.001           0.000    23140418.752           0.000  
   -386342.998           0.000    20572399.189           0.000  
 -19119444.002           0.000    22375078.757           0.000  
 98  9 28 11 24 11.9980000  0  4G18G14G16G19
   2981870.998           0.000    19953890.933           0.000  
  -2889947.001           0.000    23140245.574           0.000  
   -388885.999           0.000    20571915.338           0.000  
 -19125936.998           0.000    22373843.144           0.000  
 98  9 28 11 24 12.9980000  0  4G18G14G16G19
   2978134.000           0.000    19953180.388           0.000  
  -2890857.000           0.000    23140072.529           0.000  
   -391428.001           0.000    20571431.621           0.000  
 -19132429.999           0.000    22372607.724           0.000  
 98  9 28 11 24 13.9980000  0  4G18G14G16G19
   2974398.001           0.000    19952475.880           0.000  
  -2891765.001           0.000    23139899.599           0.000  
   -393969.999           0.000    20570948.025           0.000  
 -19138922.001           0.000    22371372.445           0.000  
 98  9 28 11 24 14.9980000  0  4G18G14G16G19
   2970663.000           0.000    19951764.078           0.000  
  -2892674.002           0.000    23139726.707           0.000  
   -396511.003           0.000    20570464.498           0.000  
 -19145413.000           0.000    22370137.185           0.000  
 98  9 28 11 24 15.9980000  0  4G18G14G16G19
   2966928.000           0.000    19951053.419           0.000  
  -2893581.998           0.000    23139553.850           0.000  
   -399052.001           0.000    20569981.109           0.000  
 -19151903.999           0.000    22368902.066           0.000  
 98  9 28 11 24 16.9980000  0  4G18G14G16G19
   2963196.000           0.000    19950340.809           0.000  
  -2894490.000           0.000    23139381.049           0.000  
   -401593.000           0.000    20569497.759           0.000  
 -19158395.003           0.000    22367667.022           0.000  
 98  9 28 11 24 17.9980000  0  4G18G14G16G19
   2959460.999           0.000    19949627.624           0.000  
  -2895398.002           0.000    23139208.197           0.000  
   -404133.001           0.000    20569014.368           0.000  
 -19164886.002           0.000    22366431.937           0.000  
 98  9 28 11 24 18.9980000  0  4G18G14G16G19
   2955728.000           0.000    19948916.091           0.000  
  -2896305.998           0.000    23139035.475           0.000  
   -406673.001           0.000    20568531.120           0.000  
 -19171376.002           0.000    22365196.954           0.000  
 98  9 28 11 24 19.9980000  0  4G18G14G16G19
   2951996.999           0.000    19948207.294           0.000  
  -2897213.002           0.000    23138862.908           0.000  
   -409211.998           0.000    20568048.052           0.000  
 -19177864.999           0.000    22363962.150           0.000  
 98  9 28 11 24 20.9980000  0  4G18G14G16G19
   2948267.001           0.000    19947498.445           0.000  
  -2898119.001           0.000    23138690.403           0.000  
   -411750.001           0.000    20567565.099           0.000  
 -19184353.002           0.000    22362727.359           0.000  
 98  9 28 11 24 21.9980000  0  5G18G14G16G 4G19
   2944536.998           0.000    19946789.075           0.000  
  -2899026.000           0.000    23138517.929           0.000  
   -414287.999           0.000    20567082.214           0.000  
   3143648.000           0.000    20683501.580           0.000  
 -19190841.000           0.000    22361492.647           0.000  
 98  9 28 11 24 22.9980000  0  5G18G14G16G 4G19
   2940807.998           0.000    19946080.672           0.000  
  -2899931.999           0.000    23138345.548           0.000  
   -416824.999           0.000    20566599.441           0.000  
   3139174.000           0.000    20682644.012           0.000  
 -19197328.998           0.000    22360258.075           0.000  
 98  9 28 11 24 23.9980000  0  5G18G14G16G 4G19
   2937078.999           0.000    19945371.565           0.000  
  -2900837.000           0.000    23138173.249           0.000  
   -419361.999           0.000    20566116.779           0.000  
   3134702.002           0.000    20681787.429           0.000  
 -19203815.998           0.000    22359023.578           0.000  
 98  9 28 11 24 24.9980000  0  5G18G14G16G 4G19
   2933352.002           0.000    19944662.318           0.000  
  -2901742.002           0.000    23138001.018           0.000  
   -421898.000           0.000    20565634.270           0.000  
   3130231.002           0.000    20680933.960           0.000  
 -19210301.999           0.000    22357789.249           0.000  
 98  9 28 11 24 25.9980000  0  5G18G14G16G 4G19
   2929624.001           0.000    19943952.368           0.000  
  -2902647.003           0.000    23137828.894           0.000  
   -424432.998           0.000    20565151.907           0.000  
   3125758.998           0.000    20680074.251           0.000  
 -19216787.002           0.000    22356555.013           0.000  
 98  9 28 11 24 26.9980000  0  4G18G14G16G19
   2925898.002           0.000    19943243.620           0.000  
  -2903551.000           0.000    23137656.851           0.000  
   -426968.001           0.000    20564669.616           0.000  
 -19223272.000           0.000    22355320.870           0.000  
 98  9 28 11 24 27.9980000  0  5G18G14G16G 4G19
   2922171.998           0.000    19942534.274           0.000  
  -2904454.998           0.000    23137484.927           0.000  
   -429502.000           0.000    20564187.429           0.000  
   3116822.001           0.000    20678372.398           0.000  
 -19229757.002           0.000    22354086.766           0.000  
 98  9 28 11 24 28.9980000  0  5G18G14G16G 4G19
   2918445.000           0.000    19941824.605           0.000  
  -2905358.002           0.000    23137313.064           0.000  
   -432035.999           0.000    20563705.389           0.000  
   3112352.998           0.000    20677523.094           0.000  
 -19236241.001           0.000    22352852.816           0.000  
 98  9 28 11 24 29.9980000  0  5G18G14G16G 4G19
   2914720.999           0.000    19941115.747           0.000  
  -2906261.001           0.000    23137141.238           0.000  
   -434569.000           0.000    20563223.451           0.000  
   3107884.999           0.000    20676672.247           0.000  
 -19242724.002           0.000    22351618.931           0.000  
 98  9 28 11 24 30.9980000  0  5G18G14G16G 4G19
   2910995.998           0.000    19940406.600           0.000  
  -2907164.000           0.000    23136969.512           0.000  
   -437101.002           0.000    20562741.638           0.000  
   3103419.001           0.000    20675821.755           0.000  
 -19249207.003           0.000    22350385.152           0.000  
 98  9 28 11 24 31.9980000  0  5G18G14G16G 4G19
   2907273.998           0.000    19939698.268           0.000  
  -2908066.001           0.000    23136797.957           0.000  
   -439632.999           0.000    20562260.016           0.000  
   3098953.997           0.000    20674971.191           0.000  
 -19255688.001           0.000    22349151.636           0.000  
 98  9 28 11 24 32.9980000  0  5G18G14G16G 4G19
   2903551.999           0.000    19938989.759           0.000  
  -2908967.003           0.000    23136626.368           0.000  
   -442164.002           0.000    20561778.417           0.000  
   3094490.002           0.000    20674120.911           0.000  
 -19262169.998           0.000    22347918.168           0.000  
 98  9 28 11 24 33.9980000  0  5G18G14G16G 4G19
   2899829.999           0.000    19938281.752           0.000  
  -2909868.998           0.000    23136454.855           0.000  
   -444695.001           0.000    20561296.869           0.000  
   3090024.000           0.000    20673270.064           0.000  
 -19268651.002           0.000    22346684.730           0.000  
 98  9 28 11 24 34.9980000  0  5G18G14G16G 4G19
   2896107.999           0.000    19937573.433           0.000  
  -2910770.000           0.000    23136283.423           0.000  
   -447225.001           0.000    20560815.468           0.000  
   3085563.000           0.000    20672420.841           0.000  
 -19275132.000           0.000    22345451.464           0.000  
 98  9 28 11 24 35.9980000  0  5G18G14G16G 4G19
   2892386.998           0.000    19936865.555           0.000  
  -2911671.002           0.000    23136112.068           0.000  
   -449755.001           0.000    20560334.167           0.000  
   3081098.002           0.000    20671570.410           0.000  
 -19281611.002           0.000    22344218.283           0.000  
 98  9 28 11 24 36.9980000  0  5G18G14G16G 4G19
   2888668.997           0.000    19936158.279           0.000  
  -2912571.001           0.000    23135940.846           0.000  
   -452282.999           0.000    20559853.049           0.000  
   3076638.001           0.000    20670720.496           0.000  
 -19288089.998           0.000    22342985.299           0.000  
 98  9 28 11 24 37.9980000  0  5G18G14G16G 4G19
   2884951.002           0.000    19935451.821           0.000  
  -2913470.999           0.000    23135769.640           0.000  
   -454812.000           0.000    20559372.018           0.000  
   3072177.001           0.000    20669871.521           0.000  
 -19294569.000           0.000    22341752.416           0.000  
 98  9 28 11 24 38.9980000  0  5G18G14G16G 4G19
   2881234.000           0.000    19934745.542           0.000  
  -2914369.999           0.000    23135598.560           0.000  
   -457339.000           0.000    20558891.073           0.000  
   3067716.001           0.000    20669021.206           0.000  
 -19301047.003           0.000    22340519.545           0.000  
 98  9 28 11 24 39.9980000  0  5G18G14G16G 4G19
   2877516.998           0.000    19934038.369           0.000  
  -2915268.999           0.000    23135427.505           0.000  
   -459866.998           0.000    20558410.205           0.000  
   3063256.999           0.000    20668172.531           0.000  
 -19307524.002           0.000    22339286.751           0.000  
 98  9 28 11 24 40.9980000  0  5G18G14G16G 4G19
   2873801.998           0.000    19933332.371           0.000  
  -2916167.999           0.000    23135256.499           0.000  
   -462392.999           0.000    20557929.415           0.000  
   3058798.001           0.000    20667322.930           0.000  
 -19314001.001           0.000    22338054.188           0.000  
 98  9 28 11 24 41.9980000  0  5G18G14G16G 4G19
   2870086.997           0.000    19932626.369           0.000  
  -2917066.000           0.000    23135085.631           0.000  
   -464919.000           0.000    20557448.795           0.000  
   3054338.999           0.000    20666474.506           0.000  
 -19320477.002           0.000    22336821.747           0.000  
 98  9 28 11 24 42.9980000  0  5G18G14G16G 4G19
   2866374.000           0.000    19931920.541           0.000  
  -2917964.002           0.000    23134914.777           0.000  
   -467445.001           0.000    20556968.252           0.000  
   3049883.002           0.000    20665626.479           0.000  
 -19326952.998           0.000    22335589.410           0.000  
 98  9 28 11 24 43.9980000  0  5G18G14G16G 4G19
   2862662.000           0.000    19931215.644           0.000  
  -2918861.998           0.000    23134744.034           0.000  
   -469968.999           0.000    20556487.751           0.000  
   3045427.998           0.000    20664778.523           0.000  
 -19333428.001           0.000    22334357.185           0.000  
 98  9 28 11 24 44.9980000  0  5G18G14G16G 4G19
   2858949.002           0.000    19930510.012           0.000  
  -2919759.001           0.000    23134573.406           0.000  
   -472494.002           0.000    20556007.322           0.000  
   3040975.002           0.000    20663931.202           0.000  
 -19339901.999           0.000    22333125.034           0.000  
 98  9 28 11 24 45.9980000  0  5G18G14G16G 4G19
   2855238.001           0.000    19929804.663           0.000  
  -2920655.000           0.000    23134402.810           0.000  
   -475017.002           0.000    20555527.027           0.000  
   3036521.002           0.000    20663082.655           0.000  
 -19346375.998           0.000    22331892.996           0.000  
 98  9 28 11 24 46.9980000  0  4G18G14G16G19
   2851527.000           0.000    19929098.363           0.000  
  -2921551.998           0.000    23134232.305           0.000  
   -477540.003           0.000    20555046.871           0.000  
 -19352848.998           0.000    22330661.072           0.000  
 98  9 28 11 24 47.9980000  0  4G18G14G16G19
   2847816.000           0.000    19928392.765           0.000  
  -2922448.003           0.000    23134061.783           0.000  
   -480062.998           0.000    20554566.739           0.000  
 -19359321.999           0.000    22329429.127           0.000  
 98  9 28 11 24 48.9980000  0  4G18G14G16G19
   2844104.999           0.000    19927687.025           0.000  
  -2923344.002           0.000    23133891.324           0.000  
   -482585.000           0.000    20554086.724           0.000  
 -19365794.999           0.000    22328197.279           0.000  
 98  9 28 11 24 49.9980000  0  4G18G14G16G19
   2840396.000           0.000    19926981.997           0.000  
  -2924238.998           0.000    23133720.909           0.000  
   -485107.001           0.000    20553606.775           0.000  
 -19372267.001           0.000    22326965.555           0.000  
 98  9 28 11 24 50.9980000  0  4G18G14G16G19
   2836687.999           0.000    19926276.045           0.000  
  -2925133.998           0.000    23133550.635           0.000  
   -487628.000           0.000    20553126.974           0.000  
 -19378737.999           0.000    22325734.097           0.000  
 98  9 28 11 24 51.9980000  0  4G18G14G16G19
   2832980.998           0.000    19925571.289           0.000  
  -2926028.001           0.000    23133380.421           0.000  
   -490147.999           0.000    20552647.308           0.000  
 -19385207.999           0.000    22324502.677           0.000  
 98  9 28 11 24 52.9980000  0  4G18G14G16G19
   2829274.001           0.000    19924865.727           0.000  
  -2926923.002           0.000    23133210.267           0.000  
   -492667.001           0.000    20552167.679           0.000  
 -19391677.998           0.000    22323271.306           0.000  
 98  9 28 11 24 53.9980000  0  4G18G14G16G19
   2825569.001           0.000    19924159.366           0.000  
  -2927816.000           0.000    23133040.223           0.000  
   -495186.002           0.000    20551688.186           0.000  
 -19398147.998           0.000    22322040.088           0.000  
 98  9 28 11 24 54.9980000  0  4G18G14G16G19
   2821864.002           0.000    19923453.670           0.000  
  -2928709.998           0.000    23132870.222           0.000  
   -497704.998           0.000    20551208.817           0.000  
 -19404616.999           0.000    22320809.052           0.000  
 98  9 28 11 24 56.9980000  0  4G18G14G16G19
   2814458.001           0.000    19922034.310           0.000  
  -2930495.002           0.000    23132530.432           0.000  
   -502740.000           0.000    20550250.490           0.000  
 -19417552.001           0.000    22318347.363           0.000  
 98  9 28 11 24 57.9970000  0  4G18G14G16G19
   4386177.999           0.000    20221114.548           0.000  
  -1355965.998           0.000    23432153.306           0.000  
   1070166.002           0.000    20849564.397           0.000  
 -17848592.999           0.000    22616910.320           0.000  
 98  9 28 11 25 21.9970000  0  4G18G14G16G19
   4718890.002           0.000    20204259.998           0.000  
  -1377257.000           0.000    23428101.916           0.000  
   1009934.998           0.000    20838103.549           0.000  
 -18003635.001           0.000    22587405.087           0.000  
 98  9 28 11 25 22.9970000  0  4G18G14G16G19
   4715206.001           0.000    20203561.254           0.000  
  -1378139.000           0.000    23427934.078           0.000  
   1007431.998           0.000    20837627.365           0.000  
 -18010088.000           0.000    22586177.117           0.000  
 98  9 28 11 25 23.9970000  0  4G18G14G16G19
   4711523.998           0.000    20202859.833           0.000  
  -1379021.000           0.000    23427766.338           0.000  
   1004931.001           0.000    20837151.358           0.000  
 -18016541.000           0.000    22584949.370           0.000  
 98  9 28 11 25 24.9970000  0  4G18G14G16G19
   4707838.999           0.000    20202156.140           0.000  
  -1379902.002           0.000    23427598.630           0.000  
   1002428.999           0.000    20836675.447           0.000  
 -18022993.001           0.000    22583721.673           0.000  
 98  9 28 11 25 25.9970000  0  4G18G14G16G19
   4704157.000           0.000    20201453.930           0.000  
  -1380781.999           0.000    23427431.125           0.000  
    999929.000           0.000    20836199.704           0.000  
 -18029443.000           0.000    22582494.231           0.000  
 98  9 28 11 25 26.9970000  0  4G18G14G16G19
   4700475.002           0.000    20200748.204           0.000  
  -1381662.002           0.000    23427263.628           0.000  
    997427.998           0.000    20835723.970           0.000  
 -18035894.003           0.000    22581266.818           0.000  
 98  9 28 11 25 27.9970000  0  4G18G14G16G19
   4696795.999           0.000    20200050.136           0.000  
  -1382542.000           0.000    23427096.244           0.000  
    994929.002           0.000    20835248.428           0.000  
 -18042344.002           0.000    22580039.607           0.000  
 98  9 28 11 25 28.9970000  0  4G18G14G16G19
   4693114.999           0.000    20199348.330           0.000  
  -1383420.001           0.000    23426928.984           0.000  
    992430.002           0.000    20834772.948           0.000  
 -18048793.002           0.000    22578812.442           0.000  
 98  9 28 11 25 29.9970000  0  4G18G14G16G19
   4689436.001           0.000    20198648.733           0.000  
  -1384299.000           0.000    23426761.834           0.000  
    989931.999           0.000    20834297.643           0.000  
 -18055241.998           0.000    22577585.414           0.000  
 98  9 28 11 25 30.9970000  0  4G18G14G16G19
   4685758.002           0.000    20197950.411           0.000  
  -1385177.001           0.000    23426594.747           0.000  
    987435.001           0.000    20833822.460           0.000  
 -18061690.000           0.000    22576358.496           0.000  
 98  9 28 11 25 31.9970000  0  4G18G14G16G19
   4682081.001           0.000    20197250.959           0.000  
  -1386053.998           0.000    23426427.745           0.000  
    984937.997           0.000    20833347.370           0.000  
 -18068136.998           0.000    22575131.712           0.000  
 98  9 28 11 25 32.9970000  0  4G18G14G16G19
   4678404.998           0.000    20196552.803           0.000  
  -1386931.999           0.000    23426260.776           0.000  
    982440.999           0.000    20832872.406           0.000  
 -18074584.002           0.000    22573905.004           0.000  
 98  9 28 11 25 33.9970000  0  4G18G14G16G19
   4674732.002           0.000    20195854.059           0.000  
  -1387807.998           0.000    23426093.913           0.000  
    979945.997           0.000    20832397.516           0.000  
 -18081030.002           0.000    22572678.448           0.000  
 98  9 28 11 25 34.9970000  0  4G18G14G16G19
   4671056.000           0.000    20195155.488           0.000  
  -1388685.000           0.000    23425927.124           0.000  
    977449.997           0.000    20831922.724           0.000  
 -18087476.002           0.000    22571451.997           0.000  
 98  9 28 11 25 35.9970000  0  4G18G14G16G19
   4667381.001           0.000    20194457.338           0.000  
  -1389560.000           0.000    23425760.470           0.000  
    974956.000           0.000    20831448.034           0.000  
 -18093920.998           0.000    22570225.660           0.000  
 98  9 28 11 25 36.9970000  0  4G18G14G16G19
   4663707.999           0.000    20193759.024           0.000  
  -1390435.999           0.000    23425593.839           0.000  
    972462.002           0.000    20830973.458           0.000  
 -18100365.999           0.000    22568999.419           0.000  
 98  9 28 11 25 37.9970000  0  4G18G14G16G19
   4660033.999           0.000    20193059.779           0.000  
  -1391310.999           0.000    23425427.289           0.000  
    969967.999           0.000    20830498.913           0.000  
 -18106810.002           0.000    22567773.225           0.000  
 98  9 28 11 25 38.9970000  0  4G18G14G16G19
   4656361.002           0.000    20192361.460           0.000  
  -1392185.001           0.000    23425260.856           0.000  
    967475.000           0.000    20830024.558           0.000  
 -18113253.002           0.000    22566547.194           0.000  
 98  9 28 11 25 39.9970000  0  4G18G14G16G19
   4652691.001           0.000    20191663.017           0.000  
  -1393059.002           0.000    23425094.512           0.000  
    964982.999           0.000    20829550.253           0.000  
 -18119696.001           0.000    22565321.172           0.000  
 98  9 28 11 25 40.9970000  0  4G18G14G16G19
   4649018.998           0.000    20190964.647           0.000  
  -1393932.999           0.000    23424928.267           0.000  
    962490.998           0.000    20829076.112           0.000  
 -18126138.002           0.000    22564095.267           0.000  
 98  9 28 11 25 41.9970000  0  4G18G14G16G19
   4645349.002           0.000    20190266.338           0.000  
  -1394804.998           0.000    23424762.232           0.000  
    960000.001           0.000    20828602.135           0.000  
 -18132580.003           0.000    22562869.498           0.000  
 98  9 28 11 25 42.9970000  0  4G18G14G16G19
   4641680.998           0.000    20189568.874           0.000  
  -1395678.002           0.000    23424596.223           0.000  
    957510.002           0.000    20828128.225           0.000  
 -18139020.001           0.000    22561643.877           0.000  
 98  9 28 11 25 43.9970000  0  4G18G14G16G19
   4638012.999           0.000    20188870.815           0.000  
  -1396550.001           0.000    23424430.216           0.000  
    955018.999           0.000    20827654.344           0.000  
 -18145460.998           0.000    22560418.298           0.000  
 98  9 28 11 25 44.9970000  0  4G18G14G16G19
   4634348.000           0.000    20188173.139           0.000  
  -1397422.001           0.000    23424264.369           0.000  
    952529.999           0.000    20827180.647           0.000  
 -18151901.002           0.000    22559192.944           0.000  
 98  9 28 11 25 45.9970000  0  4G18G14G16G19
   4630678.998           0.000    20187474.980           0.000  
  -1398293.002           0.000    23424098.623           0.000  
    950041.997           0.000    20826707.082           0.000  
 -18158340.003           0.000    22557967.758           0.000  
 98  9 28 11 25 46.9970000  0  4G18G14G16G19
   4627013.999           0.000    20186776.566           0.000  
  -1399162.999           0.000    23423932.940           0.000  
    947553.002           0.000    20826233.601           0.000  
 -18164777.999           0.000    22556742.648           0.000  
 98  9 28 11 25 47.9970000  0  4G18G14G16G19
   4623349.001           0.000    20186078.283           0.000  
  -1400034.001           0.000    23423767.317           0.000  
    945065.999           0.000    20825760.210           0.000  
 -18171216.001           0.000    22555517.656           0.000  
 98  9 28 11 25 48.9970000  0  4G18G14G16G19
   4619684.002           0.000    20185379.731           0.000  
  -1400902.999           0.000    23423601.805           0.000  
    942579.001           0.000    20825286.963           0.000  
 -18177652.999           0.000    22554292.815           0.000  
 98  9 28 11 25 49.9970000  0  4G18G14G16G19
   4616021.999           0.000    20184682.735           0.000  
  -1401773.002           0.000    23423436.377           0.000  
    940091.998           0.000    20824813.825           0.000  
 -18184090.002           0.000    22553068.140           0.000  
 98  9 28 11 25 50.9970000  0  4G18G14G16G19
   4612358.998           0.000    20183984.940           0.000  
  -1402642.001           0.000    23423271.038           0.000  
    937607.002           0.000    20824340.835           0.000  
 -18190526.002           0.000    22551843.562           0.000  
 98  9 28 11 25 51.9970000  0  4G18G14G16G19
   4608696.002           0.000    20183287.627           0.000  
  -1403510.002           0.000    23423105.741           0.000  
    935121.002           0.000    20823867.839           0.000  
 -18196962.001           0.000    22550618.991           0.000  
 98  9 28 11 25 52.9970000  0  4G18G14G16G19
   4605034.997           0.000    20182590.510           0.000  
  -1404379.000           0.000    23422940.467           0.000  
    932636.001           0.000    20823394.979           0.000  
 -18203398.001           0.000    22549394.476           0.000  
 98  9 28 11 25 53.9970000  0  4G18G14G16G19
   4601373.000           0.000    20181893.541           0.000  
  -1405247.001           0.000    23422775.297           0.000  
    930151.000           0.000    20822922.232           0.000  
 -18209833.002           0.000    22548170.128           0.000  
 98  9 28 11 25 54.9970000  0  4G18G14G16G19
   4597712.999           0.000    20181196.786           0.000  
  -1406113.998           0.000    23422610.258           0.000  
    927668.001           0.000    20822449.628           0.000  
 -18216266.999           0.000    22546945.862           0.000  
 98  9 28 11 25 55.9970000  0  4G18G14G16G19
   4594054.002           0.000    20180500.333           0.000  
  -1406981.000           0.000    23422445.317           0.000  
    925185.002           0.000    20821977.177           0.000  
 -18222699.998           0.000    22545721.711           0.000  
 98  9 28 11 25 56.9970000  0  4G18G14G16G19
   4590395.998           0.000    20179803.581           0.000  
  -1407848.002           0.000    23422280.368           0.000  
    922701.997           0.000    20821504.763           0.000  
 -18229133.003           0.000    22544497.565           0.000  
 98  9 28 11 25 57.9970000  0  4G18G14G16G19
   4586738.997           0.000    20179107.195           0.000  
  -1408714.000           0.000    23422115.468           0.000  
    920220.002           0.000    20821032.378           0.000  
 -18235566.002           0.000    22543273.494           0.000  
 98  9 28 11 25 58.9970000  0  4G18G14G16G19
   4583083.999           0.000    20178411.979           0.000  
  -1409579.998           0.000    23421950.721           0.000  
    917738.002           0.000    20820560.123           0.000  
 -18241998.002           0.000    22542049.595           0.000  
 98  9 28 11 25 59.9970000  0  4G18G14G16G19
   4579427.998           0.000    20177717.001           0.000  
  -1410444.998           0.000    23421786.024           0.000  
    915257.000           0.000    20820088.023           0.000  
 -18248428.999           0.000    22540825.771           0.000  
 98  9 28 11 26  0.9970000  0  4G18G14G16G19
   4575773.998           0.000    20177022.330           0.000  
  -1411309.998           0.000    23421621.486           0.000  
    912775.997           0.000    20819616.051           0.000  
 -18254860.001           0.000    22539602.151           0.000  
 98  9 28 11 26  1.9970000  0  4G18G14G16G19
   4572121.002           0.000    20176328.128           0.000  
  -1412174.000           0.000    23421457.018           0.000  
    910296.998           0.000    20819144.200           0.000  
 -18261289.999           0.000    22538378.593           0.000  
 98  9 28 11 26  2.9970000  0  4G18G14G16G19
   4568468.001           0.000    20175634.403           0.000  
  -1413038.001           0.000    23421292.643           0.000  
    907817.998           0.000    20818672.503           0.000  
 -18267718.999           0.000    22537155.130           0.000  
 98  9 28 11 26  3.9970000  0  4G18G14G16G19
   4564815.998           0.000    20174940.875           0.000  
  -1413900.999           0.000    23421128.311           0.000  
    905338.998           0.000    20818200.890           0.000  
 -18274147.999           0.000    22535931.777           0.000  
 98  9 28 11 26  4.9970000  0  4G18G14G16G19
   4561164.001           0.000    20174246.851           0.000  
  -1414765.000           0.000    23420964.031           0.000  
    902861.001           0.000    20817729.333           0.000  
 -18280576.000           0.000    22534708.516           0.000  
 98  9 28 11 26  5.9970000  0  4G18G14G16G19
   4557511.998           0.000    20173551.434           0.000  
  -1415626.999           0.000    23420799.849           0.000  
    900383.000           0.000    20817257.870           0.000  
 -18287004.002           0.000    22533485.342           0.000  
 98  9 28 11 26  6.9970000  0  4G18G14G16G19
   4553860.999           0.000    20172856.106           0.000  
  -1416490.002           0.000    23420635.683           0.000  
    897906.002           0.000    20816786.459           0.000  
 -18293431.998           0.000    22532262.339           0.000  
 98  9 28 11 26  7.9970000  0  4G18G14G16G19
   4550213.001           0.000    20172162.316           0.000  
  -1417352.001           0.000    23420471.668           0.000  
    895428.999           0.000    20816315.150           0.000  
 -18299859.001           0.000    22531039.427           0.000  
 98  9 28 11 26  8.9970000  0  4G18G14G16G19
   4546563.001           0.000    20171467.685           0.000  
  -1418214.001           0.000    23420307.660           0.000  
    892952.002           0.000    20815843.875           0.000  
 -18306285.999           0.000    22529816.530           0.000  
 98  9 28 11 26  9.9970000  0  4G18G14G16G19
   4542915.002           0.000    20170773.605           0.000  
  -1419075.001           0.000    23420143.723           0.000  
    890476.002           0.000    20815372.748           0.000  
 -18312711.998           0.000    22528593.784           0.000  
 98  9 28 11 26 10.9970000  0  4G18G14G16G19
   4539266.999           0.000    20170079.401           0.000  
  -1419936.002           0.000    23419979.882           0.000  
    888001.001           0.000    20814901.717           0.000  
 -18319136.999           0.000    22527371.105           0.000  
 98  9 28 11 26 11.9970000  0  4G18G14G16G19
   4535619.999           0.000    20169385.307           0.000  
  -1420796.998           0.000    23419816.160           0.000  
    885526.001           0.000    20814430.779           0.000  
 -18325562.000           0.000    22526148.562           0.000  
 98  9 28 11 26 12.9970000  0  4G18G14G16G19
   4531973.997           0.000    20168691.866           0.000  
  -1421657.000           0.000    23419652.497           0.000  
    883051.998           0.000    20813959.964           0.000  
 -18331986.002           0.000    22524926.141           0.000  
 98  9 28 11 26 13.9970000  0  4G18G14G16G19
   4528329.000           0.000    20167998.500           0.000  
  -1422515.999           0.000    23419488.902           0.000  
    880578.001           0.000    20813489.195           0.000  
 -18338409.999           0.000    22523703.755           0.000  
 98  9 28 11 26 14.9970000  0  4G18G14G16G19
   4524682.998           0.000    20167305.283           0.000  
  -1423376.001           0.000    23419325.394           0.000  
    878105.002           0.000    20813018.521           0.000  
 -18344832.998           0.000    22522481.542           0.000  
 98  9 28 11 26 15.9970000  0  4G18G14G16G19
   4521039.998           0.000    20166612.810           0.000  
  -1424234.001           0.000    23419162.050           0.000  
    875633.002           0.000    20812547.996           0.000  
 -18351256.002           0.000    22521259.480           0.000  
 98  9 28 11 26 16.9970000  0  4G18G14G16G19
   4517395.000           0.000    20165920.061           0.000  
  -1425092.001           0.000    23418998.786           0.000  
    873161.002           0.000    20812077.664           0.000  
 -18357676.998           0.000    22520037.500           0.000  
 98  9 28 11 26 17.9970000  0  4G18G14G16G19
   4513751.999           0.000    20165226.974           0.000  
  -1425950.001           0.000    23418835.579           0.000  
    870690.000           0.000    20811607.363           0.000  
 -18364098.998           0.000    22518815.578           0.000  
 98  9 28 11 26 18.9970000  0  4G18G14G16G19
   4510111.000           0.000    20164533.689           0.000  
  -1426806.998           0.000    23418672.486           0.000  
    868220.002           0.000    20811137.187           0.000  
 -18370519.001           0.000    22517593.808           0.000  
 98  9 28 11 26 19.9970000  0  4G18G14G16G19
   4506471.000           0.000    20163840.745           0.000  
  -1427664.000           0.000    23418509.395           0.000  
    865749.999           0.000    20810667.072           0.000  
 -18376939.998           0.000    22516372.073           0.000  
 98  9 28 11 26 20.9970000  0  4G18G14G16G19
   4502831.000           0.000    20163147.932           0.000  
  -1428520.003           0.000    23418346.457           0.000  
    863280.001           0.000    20810197.117           0.000  
 -18383359.003           0.000    22515150.560           0.000  
 98  9 28 11 26 21.9970000  0  4G18G14G16G19
   4499191.998           0.000    20162456.307           0.000  
  -1429376.001           0.000    23418183.644           0.000  
    860811.001           0.000    20809727.267           0.000  
 -18389778.002           0.000    22513929.090           0.000  
 98  9 28 11 26 22.9970000  0  4G18G14G16G19
   4495554.999           0.000    20161764.934           0.000  
  -1430231.000           0.000    23418020.910           0.000  
    858343.000           0.000    20809257.527           0.000  
 -18396195.998           0.000    22512707.701           0.000  
 98  9 28 11 26 23.9970000  0  4G18G14G16G19
   4491917.999           0.000    20161073.633           0.000  
  -1431085.001           0.000    23417858.386           0.000  
    855875.997           0.000    20808788.030           0.000  
 -18402613.001           0.000    22511486.581           0.000  
 98  9 28 11 26 24.9970000  0  4G18G14G16G19
   4488281.998           0.000    20160381.752           0.000  
  -1431940.001           0.000    23417695.817           0.000  
    853409.000           0.000    20808318.571           0.000  
 -18409029.998           0.000    22510265.482           0.000  
 98  9 28 11 26 25.9970000  0  4G18G14G16G19
   4484647.001           0.000    20159690.537           0.000  
  -1432792.998           0.000    23417533.382           0.000  
    850943.001           0.000    20807849.297           0.000  
 -18415446.002           0.000    22509044.518           0.000  
 98  9 28 11 26 26.9970000  0  4G18G14G16G19
   4481013.002           0.000    20158998.420           0.000  
  -1433646.999           0.000    23417371.006           0.000  
    848478.000           0.000    20807380.087           0.000  
 -18421862.001           0.000    22507823.666           0.000  
 98  9 28 11 26 27.9970000  0  4G18G14G16G19
   4477378.998           0.000    20158307.324           0.000  
  -1434500.002           0.000    23417208.629           0.000  
    846013.000           0.000    20806910.938           0.000  
 -18428277.002           0.000    22506602.906           0.000  
 98  9 28 11 26 28.9970000  0  4G18G14G16G19
   4473744.999           0.000    20157616.836           0.000  
  -1435352.001           0.000    23417046.321           0.000  
    843547.999           0.000    20806441.819           0.000  
 -18434692.002           0.000    22505382.244           0.000  
 98  9 28 11 26 29.9970000  0  4G18G14G16G19
   4470114.001           0.000    20156926.120           0.000  
  -1436204.000           0.000    23416884.192           0.000  
    841083.997           0.000    20805972.909           0.000  
 -18441105.999           0.000    22504161.697           0.000  
 98  9 28 11 26 30.9970000  0  4G18G14G16G19
   4466483.002           0.000    20156229.350           0.000  
  -1437055.999           0.000    23416722.148           0.000  
    838620.001           0.000    20805504.113           0.000  
 -18447520.001           0.000    22502941.336           0.000  
 98  9 28 11 26 31.9970000  0  4G18G14G16G19
   4462851.999           0.000    20155529.503           0.000  
  -1437906.999           0.000    23416560.209           0.000  
    836158.001           0.000    20805035.416           0.000  
 -18453932.001           0.000    22501721.091           0.000  
 98  9 28 11 26 32.9970000  0  4G18G14G16G19
   4459222.997           0.000    20154834.904           0.000  
  -1438758.000           0.000    23416398.363           0.000  
    833696.001           0.000    20804566.865           0.000  
 -18460344.001           0.000    22500500.988           0.000  
 98  9 28 11 26 33.9970000  0  4G18G14G16G19
   4455594.001           0.000    20154143.518           0.000  
  -1439608.002           0.000    23416236.593           0.000  
    831234.001           0.000    20804098.430           0.000  
 -18466756.000           0.000    22499280.936           0.000  
 98  9 28 11 26 34.9970000  0  4G18G14G16G19
   4451968.001           0.000    20153454.011           0.000  
  -1440457.000           0.000    23416074.897           0.000  
    828773.000           0.000    20803630.033           0.000  
 -18473167.002           0.000    22498060.954           0.000  
 98  9 28 11 26 35.9970000  0  4G18G14G16G19
   4448341.001           0.000    20152764.699           0.000  
  -1441305.998           0.000    23415913.255           0.000  
    826313.002           0.000    20803161.761           0.000  
 -18479577.000           0.000    22496841.159           0.000  
 98  9 28 11 26 36.9970000  0  4G18G14G16G19
   4444712.998           0.000    20152074.675           0.000  
  -1442155.002           0.000    23415751.738           0.000  
    823852.999           0.000    20802693.584           0.000  
 -18485987.002           0.000    22495621.447           0.000  
 98  9 28 11 26 50.9970000  0  4G18G14G16G19
   4720509.998           0.000    20142432.299           0.000  
  -1453995.001           0.000    23413498.139           0.000  
    789470.999           0.000    20796150.030           0.000  
 -18575670.000           0.000    22478555.804           0.000  
 98  9 28 11 26 51.9970000  0  4G18G14G16G19
   4716896.000           0.000    20141750.345           0.000  
  -1454837.998           0.000    23413337.818           0.000  
    787019.000           0.000    20795683.435           0.000  
 -18582071.001           0.000    22477337.462           0.000  
 98  9 28 11 26 52.9970000  0  4G18G14G16G19
   4713280.998           0.000    20141064.597           0.000  
  -1455680.002           0.000    23413177.532           0.000  
    784567.999           0.000    20795216.969           0.000  
 -18588472.002           0.000    22476119.207           0.000  
 98  9 28 11 26 53.9970000  0  4G18G14G16G19
   4709667.998           0.000    20140377.939           0.000  
  -1456521.002           0.000    23413017.374           0.000  
    782116.997           0.000    20794750.601           0.000  
 -18594872.998           0.000    22474901.105           0.000  
 98  9 28 11 26 54.9970000  0  4G18G14G16G19
   4706054.000           0.000    20139690.724           0.000  
  -1457363.001           0.000    23412857.243           0.000  
    779667.000           0.000    20794284.326           0.000  
 -18601273.001           0.000    22473683.036           0.000  
 98  9 28 11 26 55.9970000  0  4G18G14G16G19
   4702443.002           0.000    20139011.580           0.000  
  -1458203.002           0.000    23412697.237           0.000  
    777218.001           0.000    20793818.217           0.000  
 -18607672.998           0.000    22472465.145           0.000  
 98  9 28 11 26 56.9970000  0  4G18G14G16G19
   4698831.001           0.000    20138318.752           0.000  
  -1459042.999           0.000    23412537.310           0.000  
    774767.998           0.000    20793352.152           0.000  
 -18614072.002           0.000    22471247.354           0.000  
 98  9 28 11 26 57.9970000  0  4G18G14G16G19
   4695221.002           0.000    20137633.209           0.000  
  -1459883.000           0.000    23412377.574           0.000  
    772319.998           0.000    20792886.261           0.000  
 -18620470.002           0.000    22470029.694           0.000  
 98  9 28 11 26 58.9970000  0  4G18G14G16G19
   4691612.001           0.000    20136944.787           0.000  
  -1460721.998           0.000    23412217.908           0.000  
    769873.001           0.000    20792420.455           0.000  
 -18626866.999           0.000    22468812.266           0.000  
 98  9 28 11 26 59.9970000  0  4G18G14G16G19
   4688000.998           0.000    20136257.984           0.000  
  -1461561.002           0.000    23412058.364           0.000  
    767425.999           0.000    20791954.823           0.000  
 -18633264.001           0.000    22467594.908           0.000  
 98  9 28 11 27  0.9970000  0  4G18G14G16G19
   4684393.001           0.000    20135571.686           0.000  
  -1462399.001           0.000    23411898.864           0.000  
    764978.997           0.000    20791489.284           0.000  
 -18639660.998           0.000    22466377.631           0.000  
 98  9 28 11 27  1.9970000  0  4G18G14G16G19
   4680787.001           0.000    20134885.825           0.000  
  -1463237.001           0.000    23411739.394           0.000  
    762532.999           0.000    20791023.854           0.000  
 -18646057.001           0.000    22465160.417           0.000  
 98  9 28 11 27  2.9970000  0  4G18G14G16G19
   4677178.999           0.000    20134199.961           0.000  
  -1464074.002           0.000    23411580.078           0.000  
    760087.999           0.000    20790558.542           0.000  
 -18652452.001           0.000    22463943.321           0.000  
 98  9 28 11 27  3.9970000  0  4G18G14G16G19
   4673574.002           0.000    20133513.104           0.000  
  -1464911.003           0.000    23411420.956           0.000  
    757642.999           0.000    20790093.396           0.000  
 -18658846.003           0.000    22462726.396           0.000  
 98  9 28 11 27  4.9970000  0  4G18G14G16G19
   4669969.999           0.000    20132826.900           0.000  
  -1465747.000           0.000    23411261.847           0.000  
    755198.998           0.000    20789628.342           0.000  
 -18665239.999           0.000    22461509.549           0.000  
 98  9 28 11 27  5.9970000  0  4G18G14G16G19
   4666367.000           0.000    20132140.927           0.000  
  -1466583.002           0.000    23411102.753           0.000  
    752755.002           0.000    20789163.338           0.000  
 -18671634.000           0.000    22460292.732           0.000  
 98  9 28 11 27  6.9970000  0  4G18G14G16G19
   4662764.000           0.000    20131454.945           0.000  
  -1467418.001           0.000    23410943.772           0.000  
    750311.999           0.000    20788698.411           0.000  
 -18678026.998           0.000    22459075.989           0.000  
 98  9 28 11 27  7.9970000  0  4G18G14G16G19
   4659161.999           0.000    20130768.404           0.000  
  -1468253.000           0.000    23410784.898           0.000  
    747869.001           0.000    20788233.609           0.000  
 -18684420.000           0.000    22457859.344           0.000  
 98  9 28 11 27  8.9970000  0  4G18G14G16G19
   4655559.000           0.000    20130081.623           0.000  
  -1469087.999           0.000    23410626.047           0.000  
    745427.002           0.000    20787768.877           0.000  
 -18690812.000           0.000    22456642.896           0.000  
 98  9 28 11 27  9.9970000  0  4G18G14G16G19
   4651959.999           0.000    20129395.067           0.000  
  -1469921.999           0.000    23410467.355           0.000  
    742984.997           0.000    20787304.278           0.000  
 -18697203.000           0.000    22455426.522           0.000  
 98  9 28 11 27 10.9970000  0  4G18G14G16G19
   4648360.001           0.000    20128708.184           0.000  
  -1470755.001           0.000    23410308.765           0.000  
    740544.002           0.000    20786839.775           0.000  
 -18703594.001           0.000    22454210.340           0.000  
 98  9 28 11 27 11.9970000  0  4G18G14G16G19
   4644761.999           0.000    20128015.337           0.000  
  -1471589.002           0.000    23410150.150           0.000  
    738104.000           0.000    20786375.296           0.000  
 -18709983.998           0.000    22452994.170           0.000  
 98  9 28 11 27 12.9970000  0  4G18G14G16G19
   4641164.002           0.000    20127332.177           0.000  
  -1472421.998           0.000    23409991.609           0.000  
    735662.999           0.000    20785910.887           0.000  
 -18716374.000           0.000    22451778.029           0.000  
 98  9 28 11 27 13.9970000  0  4G18G14G16G19
   4637568.002           0.000    20126644.943           0.000  
  -1473254.002           0.000    23409833.293           0.000  
    733224.000           0.000    20785446.636           0.000  
 -18722762.999           0.000    22450562.025           0.000  
 98  9 28 11 27 14.9970000  0  4G18G14G16G19
   4633972.002           0.000    20125961.330           0.000  
  -1474086.000           0.000    23409675.048           0.000  
    730785.002           0.000    20784982.530           0.000  
 -18729152.003           0.000    22449346.175           0.000  
 98  9 28 11 27 15.9970000  0  4G18G14G16G19
   4630375.997           0.000    20125275.959           0.000  
  -1474917.000           0.000    23409516.845           0.000  
    728347.002           0.000    20784518.475           0.000  
 -18735539.998           0.000    22448130.307           0.000  
 98  9 28 11 27 16.9970000  0  4G18G14G16G19
   4626782.000           0.000    20124590.771           0.000  
  -1475748.000           0.000    23409358.692           0.000  
    725909.001           0.000    20784054.479           0.000  
 -18741926.999           0.000    22446914.571           0.000  
 98  9 28 11 27 17.9970000  0  4G18G14G16G19
   4623186.000           0.000    20123907.290           0.000  
  -1476578.001           0.000    23409200.693           0.000  
    723472.000           0.000    20783590.592           0.000  
 -18748314.001           0.000    22445698.911           0.000  
 98  9 28 11 27 18.9970000  0  4G18G14G16G19
   4619591.997           0.000    20123224.064           0.000  
  -1477408.002           0.000    23409042.797           0.000  
    721034.998           0.000    20783126.879           0.000  
 -18754699.999           0.000    22444483.367           0.000  
 98  9 28 11 27 19.9970000  0  4G18G14G16G19
   4615998.998           0.000    20122540.613           0.000  
  -1478237.998           0.000    23408884.913           0.000  
    718599.000           0.000    20782663.198           0.000  
 -18761086.002           0.000    22443267.979           0.000  
 98  9 28 11 27 20.9970000  0  4G18G14G16G19
   4612408.001           0.000    20121858.064           0.000  
  -1479067.001           0.000    23408727.234           0.000  
    716163.002           0.000    20782199.635           0.000  
 -18767471.001           0.000    22442052.727           0.000  
 98  9 28 11 27 21.9970000  0  5G18G14G16G 4G19
   4608816.001           0.000    20121174.755           0.000  
  -1479895.000           0.000    23408569.584           0.000  
    713727.997           0.000    20781736.131           0.000  
   4721132.998           0.000    20832600.124           0.000  
 -18773855.002           0.000    22440837.497           0.000  
 98  9 28 11 27 22.9970000  0  5G18G14G16G 4G19
   4605224.000           0.000    20120490.099           0.000  
  -1480723.000           0.000    23408412.018           0.000  
    711294.002           0.000    20781272.752           0.000  
   4716811.000           0.000    20831776.251           0.000  
 -18780238.998           0.000    22439622.429           0.000  
 98  9 28 11 27 23.9970000  0  5G18G14G16G 4G19
   4601632.998           0.000    20119807.323           0.000  
  -1481550.999           0.000    23408254.562           0.000  
    708860.001           0.000    20780809.473           0.000  
   4712492.002           0.000    20830951.885           0.000  
 -18786622.001           0.000    22438407.520           0.000  
 98  9 28 11 27 24.9970000  0  5G18G14G16G 4G19
   4598043.998           0.000    20119125.309           0.000  
  -1482377.999           0.000    23408097.203           0.000  
    706426.998           0.000    20780346.320           0.000  
   4708172.000           0.000    20830129.789           0.000  
 -18793004.998           0.000    22437192.678           0.000  
 98  9 28 11 27 25.9970000  0  5G18G14G16G 4G19
   4594453.999           0.000    20118442.764           0.000  
  -1483205.000           0.000    23407939.879           0.000  
    703994.001           0.000    20779883.229           0.000  
   4703854.000           0.000    20829300.337           0.000  
 -18799387.002           0.000    22435978.020           0.000  
 98  9 28 11 27 26.9970000  0  5G18G14G16G 4G19
   4590865.998           0.000    20117760.170           0.000  
  -1484031.002           0.000    23407782.613           0.000  
    701560.998           0.000    20779420.217           0.000  
   4699536.001           0.000    20828474.246           0.000  
 -18805768.003           0.000    22434763.486           0.000  
 98  9 28 11 27 27.9970000  0  5G18G14G16G 4G19
   4587279.998           0.000    20117077.168           0.000  
  -1484856.999           0.000    23407625.429           0.000  
    699129.998           0.000    20778957.332           0.000  
   4695218.999           0.000    20827649.576           0.000  
 -18812148.998           0.000    22433549.025           0.000  
 98  9 28 11 27 28.9970000  0  5G18G14G16G 4G19
   4583693.000           0.000    20116395.063           0.000  
  -1485683.002           0.000    23407468.304           0.000  
    696697.999           0.000    20778494.511           0.000  
   4690903.002           0.000    20826825.229           0.000  
 -18818529.998           0.000    22432334.737           0.000  
 98  9 28 11 27 29.9970000  0  5G18G14G16G 4G19
   4580107.001           0.000    20115713.008           0.000  
  -1486508.000           0.000    23407311.309           0.000  
    694266.998           0.000    20778031.737           0.000  
   4686587.998           0.000    20826004.318           0.000  
 -18824910.000           0.000    22431120.553           0.000  
 98  9 28 11 27 30.9970000  0  5G18G14G16G 4G19
   4576522.998           0.000    20115031.277           0.000  
  -1487332.999           0.000    23407154.312           0.000  
    691835.998           0.000    20777568.992           0.000  
   4682272.000           0.000    20825185.146           0.000  
 -18831290.002           0.000    22429906.397           0.000  
 98  9 28 11 27 31.9970000  0  5G18G14G16G 4G19
   4572939.001           0.000    20114348.969           0.000  
  -1488158.002           0.000    23406997.405           0.000  
    689406.001           0.000    20777106.389           0.000  
   4677958.998           0.000    20824371.699           0.000  
 -18837669.000           0.000    22428692.349           0.000  
 98  9 28 11 27 32.9970000  0  5G18G14G16G 4G19
   4569356.002           0.000    20113666.289           0.000  
  -1488982.003           0.000    23406840.569           0.000  
    686975.999           0.000    20776643.920           0.000  
   4673647.000           0.000    20823560.906           0.000  
 -18844047.998           0.000    22427478.485           0.000  
 98  9 28 11 27 33.9970000  0  5G18G14G16G 4G19
   4565774.002           0.000    20112984.133           0.000  
  -1489806.003           0.000    23406683.849           0.000  
    684547.001           0.000    20776181.586           0.000  
   4669335.002           0.000    20822739.366           0.000  
 -18850425.998           0.000    22426264.668           0.000  
 98  9 28 11 27 34.9970000  0  5G18G14G16G 4G19
   4562192.002           0.000    20112301.692           0.000  
  -1490630.003           0.000    23406527.171           0.000  
    682117.997           0.000    20775719.327           0.000  
   4665024.002           0.000    20821917.876           0.000  
 -18856803.998           0.000    22425050.907           0.000  
 98  9 28 11 27 35.9970000  0  5G18G14G16G 4G19
   4558610.001           0.000    20111620.425           0.000  
  -1491452.001           0.000    23406370.619           0.000  
    679689.998           0.000    20775257.173           0.000  
   4660714.999           0.000    20821097.214           0.000  
 -18863180.999           0.000    22423837.389           0.000  
 98  9 28 11 27 36.9970000  0  5G18G14G16G 4G19
   4555031.002           0.000    20110939.966           0.000  
  -1492275.002           0.000    23406214.084           0.000  
    677263.001           0.000    20774795.187           0.000  
   4656407.000           0.000    20820277.886           0.000  
 -18869557.002           0.000    22422624.039           0.000  
 98  9 28 11 27 37.9970000  0  5G18G14G16G 4G19
   4551450.000           0.000    20110259.592           0.000  
  -1493097.000           0.000    23406057.634           0.000  
    674836.000           0.000    20774333.276           0.000  
   4652099.999           0.000    20819458.510           0.000  
 -18875932.001           0.000    22421410.694           0.000  
 98  9 28 11 27 38.9970000  0  5G18G14G16G 4G19
   4547871.998           0.000    20109579.656           0.000  
  -1493918.998           0.000    23405901.287           0.000  
    672408.999           0.000    20773871.486           0.000  
   4647792.998           0.000    20818639.447           0.000  
 -18882307.000           0.000    22420197.461           0.000  
 98  9 28 11 27 39.9970000  0  5G18G14G16G 4G19
   4544294.002           0.000    20108899.418           0.000  
  -1494740.003           0.000    23405745.016           0.000  
    669984.000           0.000    20773409.804           0.000  
   4643488.998           0.000    20817819.923           0.000  
 -18888681.999           0.000    22418984.392           0.000  
 98  9 28 11 27 40.9970000  0  5G18G14G16G 4G19
   4540716.001           0.000    20108219.579           0.000  
  -1495561.002           0.000    23405588.783           0.000  
    667558.002           0.000    20772948.230           0.000  
   4639183.999           0.000    20817000.757           0.000  
 -18895056.000           0.000    22417771.328           0.000  
 98  9 28 11 27 41.9970000  0  5G18G14G16G 4G19
   4537138.998           0.000    20107539.331           0.000  
  -1496380.998           0.000    23405432.690           0.000  
    665134.001           0.000    20772486.745           0.000  
   4634879.999           0.000    20816182.402           0.000  
 -18901429.002           0.000    22416558.359           0.000  
 98  9 28 11 27 42.9970000  0  5G18G14G16G 4G19
   4533562.999           0.000    20106858.688           0.000  
  -1497200.999           0.000    23405276.635           0.000  
    662709.002           0.000    20772025.446           0.000  
   4630575.999           0.000    20815363.932           0.000  
 -18907801.999           0.000    22415345.577           0.000  
 98  9 28 11 27 43.9970000  0  5G18G14G16G 4G19
   4529987.999           0.000    20106178.746           0.000  
  -1498021.000           0.000    23405120.625           0.000  
    660286.000           0.000    20771564.189           0.000  
   4626274.001           0.000    20814546.062           0.000  
 -18914173.998           0.000    22414132.829           0.000  
 98  9 28 11 27 44.9970000  0  5G18G14G16G 4G19
   4526412.998           0.000    20105498.266           0.000  
  -1498840.002           0.000    23404964.661           0.000  
    657861.999           0.000    20771103.035           0.000  
   4621970.001           0.000    20813726.511           0.000  
 -18920546.002           0.000    22412920.192           0.000  
 98  9 28 11 27 45.9970000  0  5G18G14G16G 4G19
   4522839.001           0.000    20104817.838           0.000  
  -1499659.000           0.000    23404808.821           0.000  
    655440.001           0.000    20770642.028           0.000  
   4617669.001           0.000    20812907.393           0.000  
 -18926917.002           0.000    22411707.720           0.000  
 98  9 28 11 27 46.9970000  0  5G18G14G16G 4G19
   4519267.001           0.000    20104137.119           0.000  
  -1500478.002           0.000    23404652.990           0.000  
    653016.998           0.000    20770181.066           0.000  
   4613371.002           0.000    20812089.287           0.000  
 -18933288.002           0.000    22410495.219           0.000  
 98  9 28 11 27 47.9970000  0  5G18G14G16G 4G19
   4515693.997           0.000    20103456.562           0.000  
  -1501296.001           0.000    23404497.228           0.000  
    650595.000           0.000    20769720.175           0.000  
   4609072.998           0.000    20811270.377           0.000  
 -18939657.998           0.000    22409282.812           0.000  
 98  9 28 11 27 48.9970000  0  5G18G14G16G 4G19
   4512123.001           0.000    20102775.814           0.000  
  -1502114.000           0.000    23404341.598           0.000  
    648174.000           0.000    20769259.433           0.000  
   4604774.999           0.000    20810451.927           0.000  
 -18946028.000           0.000    22408070.563           0.000  
 98  9 28 11 27 49.9970000  0  5G18G14G16G 4G19
   4508552.000           0.000    20102095.749           0.000  
  -1502931.999           0.000    23404186.024           0.000  
    645753.000           0.000    20768798.701           0.000  
   4600477.000           0.000    20809634.100           0.000  
 -18952397.003           0.000    22406858.372           0.000  
 98  9 28 11 27 50.9970000  0  4G14G16G 4G19
  -1503748.999           0.000    23404030.467           0.000  
    643331.999           0.000    20768338.079           0.000  
   4596180.998           0.000    20808815.823           0.000  
 -18958766.001           0.000    22405646.340           0.000  
 98  9 28 11 27 51.9970000  0  4G14G16G 4G19
  -1504565.001           0.000    23403875.090           0.000  
    640913.002           0.000    20767877.606           0.000  
   4591886.000           0.000    20807998.668           0.000  
 -18965134.000           0.000    22404434.434           0.000  
 98  9 28 11 27 52.9970000  0  4G14G16G 4G19
  -1505382.001           0.000    23403719.781           0.000  
    638493.998           0.000    20767417.217           0.000  
   4587589.998           0.000    20807181.490           0.000  
 -18971501.001           0.000    22403222.619           0.000  
 98  9 28 11 27 53.9970000  0  4G14G16G 4G19
  -1506197.000           0.000    23403564.525           0.000  
    636075.000           0.000    20766956.886           0.000  
   4583298.000           0.000    20806365.627           0.000  
 -18977868.002           0.000    22402010.830           0.000  
 98  9 28 11 27 54.9970000  0  4G14G16G 4G19
  -1507013.001           0.000    23403409.325           0.000  
    633657.001           0.000    20766496.705           0.000  
   4579004.999           0.000    20805549.583           0.000  
 -18984233.999           0.000    22400799.207           0.000  
 98  9 28 11 27 55.9970000  0  4G14G16G 4G19
  -1507828.000           0.000    23403254.171           0.000  
    631239.001           0.000    20766036.549           0.000  
   4574713.001           0.000    20804732.641           0.000  
 -18990600.002           0.000    22399587.661           0.000  
 98  9 28 11 27 56.9970000  0  4G14G16G 4G19
  -1508642.998           0.000    23403099.088           0.000  
    628822.000           0.000    20765576.477           0.000  
   4570420.000           0.000    20803914.696           0.000  
 -18996965.001           0.000    22398376.271           0.000  
 98  9 28 11 27 57.9970000  0  4G14G16G 4G19
  -1509456.998           0.000    23402944.083           0.000  
    626404.999           0.000    20765116.536           0.000  
   4566129.001           0.000    20803097.343           0.000  
 -19003329.999           0.000    22397164.912           0.000  
 98  9 28 11 27 58.9970000  0  4G14G16G 4G19
  -1510271.003           0.000    23402789.156           0.000  
    623989.002           0.000    20764656.717           0.000  
   4561839.000           0.000    20802273.545           0.000  
 -19009694.000           0.000    22395953.688           0.000  
 98  9 28 11 27 59.9970000  0  4G14G16G 4G19
  -1511085.002           0.000    23402634.324           0.000  
    621573.000           0.000    20764197.012           0.000  
   4557549.998           0.000    20801451.552           0.000  
 -19016057.002           0.000    22394742.639           0.000  
 98  9 28 11 28  0.9970000  0  4G14G16G 4G19
  -1511897.998           0.000    23402479.509           0.000  
    619158.001           0.000    20763737.469           0.000  
   4553260.002           0.000    20800633.810           0.000  
 -19022419.998           0.000    22393531.768           0.000  
 98  9 28 11 28  1.9970000  0  4G14G16G 4G19
  -1512711.000           0.000    23402324.844           0.000  
    616744.000           0.000    20763278.027           0.000  
   4548971.998           0.000    20799817.888           0.000  
 -19028783.000           0.000    22392320.936           0.000  
 98  9 28 11 28  2.9970000  0  4G14G16G 4G19
  -1513523.002           0.000    23402170.272           0.000  
    614330.000           0.000    20762818.672           0.000  
   4544686.002           0.000    20799003.141           0.000  
 -19035144.000           0.000    22391110.263           0.000  
 98  9 28 11 28  3.9970000  0  4G14G16G 4G19
  -1514335.000           0.000    23402015.779           0.000  
    611916.998           0.000    20762359.425           0.000  
   4540400.999           0.000    20798189.320           0.000  
 -19041505.000           0.000    22389899.754           0.000  
 98  9 28 11 28  4.9970000  0  4G14G16G 4G19
  -1515145.999           0.000    23401861.320           0.000  
    609504.001           0.000    20761900.319           0.000  
   4536115.002           0.000    20797375.917           0.000  
 -19047865.999           0.000    22388689.321           0.000  
 98  9 28 11 28  5.9970000  0  4G14G16G 4G19
  -1515958.002           0.000    23401706.949           0.000  
    607091.998           0.000    20761441.284           0.000  
   4531829.001           0.000    20796561.378           0.000  
 -19054226.001           0.000    22387478.938           0.000  
 98  9 28 11 28  6.9970000  0  4G14G16G 4G19
  -1516769.001           0.000    23401552.681           0.000  
    604680.000           0.000    20760982.393           0.000  
   4527545.001           0.000    20795747.437           0.000  
 -19060586.002           0.000    22386268.746           0.000  
 98  9 28 11 28  7.9970000  0  5G18G14G16G 4G19
   4724066.002           0.000    20089904.456           0.000  
  -1517579.002           0.000    23401398.496           0.000  
    602269.000           0.000    20760523.635           0.000  
   4523262.000           0.000    20794931.904           0.000  
 -19066944.001           0.000    22385058.632           0.000  
 98  9 28 11 28  8.9970000  0  5G18G14G16G 4G19
   4720509.000           0.000    20089222.047           0.000  
  -1518389.002           0.000    23401244.375           0.000  
    599858.000           0.000    20760064.923           0.000  
   4518979.997           0.000    20794118.127           0.000  
 -19073302.000           0.000    22383848.669           0.000  
 98  9 28 11 28  9.9970000  0  5G18G14G16G 4G19
   4716954.998           0.000    20088535.154           0.000  
  -1519197.999           0.000    23401090.296           0.000  
    597447.999           0.000    20759606.331           0.000  
   4514700.002           0.000    20793302.076           0.000  
 -19079659.999           0.000    22382638.693           0.000  
 98  9 28 11 28 10.9970000  0  4G18G14G16G19
   4713399.998           0.000    20087856.065           0.000  
  -1520008.000           0.000    23400936.308           0.000  
    595037.998           0.000    20759147.805           0.000  
 -19086017.998           0.000    22381428.856           0.000  
 98  9 28 11 28 11.9970000  0  4G18G14G16G19
   4709844.998           0.000    20087178.537           0.000  
  -1520817.002           0.000    23400782.393           0.000  
    592629.000           0.000    20758689.396           0.000  
 -19092374.001           0.000    22380219.162           0.000  
 98  9 28 11 28 12.9970000  0  4G18G14G16G19
   4706292.000           0.000    20086502.113           0.000  
  -1521625.001           0.000    23400628.539           0.000  
    590220.002           0.000    20758231.059           0.000  
 -19098731.001           0.000    22379009.538           0.000  
 98  9 28 11 28 13.9970000  0  4G18G14G16G19
   4702740.999           0.000    20085825.489           0.000  
  -1522433.998           0.000    23400474.768           0.000  
    587811.998           0.000    20757772.823           0.000  
 -19105086.000           0.000    22377800.005           0.000  
 98  9 28 11 28 14.9970000  0  4G18G14G16G19
   4699189.999           0.000    20085150.647           0.000  
  -1523242.001           0.000    23400321.085           0.000  
    585403.999           0.000    20757314.756           0.000  
 -19111440.998           0.000    22376590.732           0.000  
 98  9 28 11 28 15.9970000  0  4G18G14G16G19
   4695638.998           0.000    20084476.538           0.000  
  -1524049.001           0.000    23400167.483           0.000  
    582996.998           0.000    20756856.753           0.000  
 -19117796.002           0.000    22375381.527           0.000  
 98  9 28 11 28 16.9970000  0  4G18G14G16G19
   4692086.000           0.000    20083801.064           0.000  
  -1524856.001           0.000    23400013.903           0.000  
    580591.001           0.000    20756398.804           0.000  
 -19124150.002           0.000    22374172.478           0.000  
 98  9 28 11 28 17.9970000  0  4G18G14G16G19
   4688535.997           0.000    20083126.639           0.000  
  -1525663.001           0.000    23399860.443           0.000  
    578184.999           0.000    20755940.988           0.000  
 -19130502.998           0.000    22372963.570           0.000  
 98  9 28 11 28 18.9970000  0  4G18G14G16G19
   4684988.002           0.000    20082452.012           0.000  
  -1526468.998           0.000    23399707.058           0.000  
    575779.002           0.000    20755483.290           0.000  
 -19136856.000           0.000    22371754.876           0.000  
 98  9 28 11 28 19.9970000  0  4G18G14G16G19
   4681441.001           0.000    20081783.329           0.000  
  -1527274.999           0.000    23399553.643           0.000  
    573373.998           0.000    20755025.628           0.000  
 -19143208.003           0.000    22370546.184           0.000  
 98  9 28 11 28 20.9970000  0  4G18G14G16G19
   4677892.002           0.000    20081111.141           0.000  
  -1528081.001           0.000    23399400.262           0.000  
    570969.000           0.000    20754568.003           0.000  
 -19149560.999           0.000    22369337.567           0.000  
 98  9 28 11 28 21.9970000  0  4G18G14G16G19
   4674341.999           0.000    20080434.575           0.000  
  -1528887.003           0.000    23399246.895           0.000  
    568565.000           0.000    20754110.409           0.000  
 -19155913.002           0.000    22368128.988           0.000  
 98  9 28 11 28 22.9970000  0  4G18G14G16G19
   4670796.001           0.000    20079759.621           0.000  
  -1529692.999           0.000    23399093.628           0.000  
    566161.000           0.000    20753652.949           0.000  
 -19162264.002           0.000    22366920.548           0.000  
 98  9 28 11 28 23.9970000  0  4G18G14G16G19
   4667249.000           0.000    20079084.917           0.000  
  -1530498.002           0.000    23398940.485           0.000  
    563756.999           0.000    20753195.659           0.000  
 -19168615.001           0.000    22365712.234           0.000  
 98  9 28 11 28 24.9970000  0  4G18G14G16G19
   4663704.000           0.000    20078410.491           0.000  
  -1531302.001           0.000    23398787.457           0.000  
    561355.002           0.000    20752738.498           0.000  
 -19174965.002           0.000    22364504.123           0.000  
 98  9 28 11 28 25.9970000  0  4G18G14G16G19
   4660159.999           0.000    20077735.928           0.000  
  -1532106.001           0.000    23398634.472           0.000  
    558952.998           0.000    20752281.484           0.000  
 -19181313.999           0.000    22363296.105           0.000  
 98  9 28 11 28 26.9970000  0  4G18G14G16G19
   4656615.998           0.000    20077062.801           0.000  
  -1532910.000           0.000    23398481.528           0.000  
    556551.001           0.000    20751824.567           0.000  
 -19187663.002           0.000    22362088.104           0.000  
 98  9 28 11 28 27.9970000  0  4G18G14G16G19
   4653072.002           0.000    20076389.249           0.000  
  -1533713.001           0.000    23398328.681           0.000  
    554150.001           0.000    20751367.762           0.000  
 -19194011.000           0.000    22360880.188           0.000  
 98  9 28 11 28 28.9970000  0  4G18G14G16G19
   4649529.997           0.000    20075716.346           0.000  
  -1534516.002           0.000    23398175.930           0.000  
    551750.000           0.000    20750911.074           0.000  
 -19200358.999           0.000    22359672.382           0.000  
 98  9 28 11 28 29.9970000  0  4G18G14G16G19
   4645987.998           0.000    20075042.473           0.000  
  -1535317.999           0.000    23398023.218           0.000  
    549349.999           0.000    20750454.468           0.000  
 -19206705.999           0.000    22358464.749           0.000  
 98  9 28 11 28 30.9970000  0  4G18G14G16G19
   4642446.998           0.000    20074369.264           0.000  
  -1536121.000           0.000    23397870.517           0.000  
    546949.998           0.000    20749997.892           0.000  
 -19213053.000           0.000    22357257.169           0.000  
 98  9 28 11 28 31.9970000  0  4G18G14G16G19
   4638907.001           0.000    20073696.675           0.000  
  -1536923.003           0.000    23397717.938           0.000  
    544551.001           0.000    20749541.452           0.000  
 -19219399.002           0.000    22356049.706           0.000  
 98  9 28 11 28 32.9970000  0  4G18G14G16G19
   4635367.997           0.000    20073023.697           0.000  
  -1537724.002           0.000    23397565.491           0.000  
    542153.002           0.000    20749085.135           0.000  
 -19225744.000           0.000    22354842.428           0.000  
 98  9 28 11 28 33.9970000  0  4G18G14G16G19
   4631829.997           0.000    20072350.624           0.000  
  -1538525.000           0.000    23397413.139           0.000  
    539756.002           0.000    20748628.912           0.000  
 -19232088.998           0.000    22353635.309           0.000  
 98  9 28 11 28 34.9970000  0  4G18G14G16G19
   4628291.998           0.000    20071677.730           0.000  
  -1539325.001           0.000    23397260.868           0.000  
    537359.001           0.000    20748172.780           0.000  
 -19238432.998           0.000    22352428.269           0.000  
 98  9 28 11 28 35.9970000  0  4G18G14G16G19
   4624755.001           0.000    20071005.188           0.000  
  -1540125.001           0.000    23397108.632           0.000  
    534962.001           0.000    20747716.732           0.000  
 -19244775.999           0.000    22351221.294           0.000  
 98  9 28 11 28 36.9970000  0  4G18G14G16G19
   4621218.998           0.000    20070332.380           0.000  
  -1540925.001           0.000    23396956.435           0.000  
    532565.999           0.000    20747260.788           0.000  
 -19251119.999           0.000    22350014.444           0.000  
 98  9 28 11 28 37.9970000  0  4G18G14G16G19
   4617683.001           0.000    20069659.689           0.000  
  -1541725.002           0.000    23396804.310           0.000  
    530169.997           0.000    20746804.886           0.000  
 -19257462.001           0.000    22348807.708           0.000  
 98  9 28 11 28 38.9970000  0  4G18G14G16G19
   4614148.001           0.000    20068987.426           0.000  
  -1542523.998           0.000    23396652.324           0.000  
    527774.999           0.000    20746349.080           0.000  
 -19263803.999           0.000    22347601.059           0.000  
 98  9 28 11 28 39.9970000  0  4G18G14G16G19
   4610614.000           0.000    20068314.904           0.000  
  -1543322.002           0.000    23396500.416           0.000  
    525380.001           0.000    20745893.415           0.000  
 -19270146.002           0.000    22346394.583           0.000  
 98  9 28 11 28 40.9970000  0  4G18G14G16G19
   4607080.998           0.000    20067642.609           0.000  
  -1544120.000           0.000    23396348.501           0.000  
    522986.001           0.000    20745437.844           0.000  
 -19276486.002           0.000    22345188.158           0.000  
 98  9 28 11 28 41.9970000  0  4G18G14G16G19
   4603548.001           0.000    20066970.653           0.000  
  -1544917.998           0.000    23396196.738           0.000  
    520593.000           0.000    20744982.436           0.000  
 -19282826.003           0.000    22343981.865           0.000  
 98  9 28 11 28 42.9970000  0  4G18G14G16G19
   4600017.001           0.000    20066298.600           0.000  
  -1545714.998           0.000    23396045.133           0.000  
    518200.997           0.000    20744527.104           0.000  
 -19289165.998           0.000    22342775.667           0.000  
 98  9 28 11 28 43.9970000  0  4G18G14G16G19
   4596486.000           0.000    20065626.718           0.000  
  -1546512.003           0.000    23395893.595           0.000  
    515808.001           0.000    20744071.845           0.000  
 -19295505.000           0.000    22341569.590           0.000  
 98  9 28 11 28 44.9970000  0  4G18G14G16G19
   4592955.999           0.000    20064954.808           0.000  
  -1547307.999           0.000    23395742.082           0.000  
    513417.002           0.000    20743616.696           0.000  
 -19301842.999           0.000    22340363.601           0.000  
 98  9 28 11 28 45.9970000  0  4G18G14G16G19
   4589426.002           0.000    20064283.185           0.000  
  -1548104.998           0.000    23395590.647           0.000  
    511024.999           0.000    20743161.605           0.000  
 -19308181.002           0.000    22339157.743           0.000  
 98  9 28 11 28 46.9970000  0  4G18G14G16G19
   4585896.999           0.000    20063611.557           0.000  
  -1548901.000           0.000    23395439.229           0.000  
    508634.000           0.000    20742706.557           0.000  
 -19314518.002           0.000    22337951.907           0.000  
 98  9 28 11 28 47.9970000  0  4G18G14G16G19
   4582368.999           0.000    20062940.130           0.000  
  -1549696.002           0.000    23395287.823           0.000  
    506244.000           0.000    20742251.623           0.000  
 -19320855.002           0.000    22336746.141           0.000  
 98  9 28 11 28 48.9970000  0  4G18G14G16G19
   4578841.998           0.000    20062268.780           0.000  
  -1550491.998           0.000    23395136.527           0.000  
    503853.999           0.000    20741796.824           0.000  
 -19327192.002           0.000    22335540.491           0.000  
 98  9 28 11 28 49.9970000  0  4G18G14G16G19
   4575315.002           0.000    20061597.417           0.000  
  -1551287.001           0.000    23394985.281           0.000  
    501463.998           0.000    20741342.060           0.000  
 -19333527.999           0.000    22334334.945           0.000  
 98  9 28 11 28 50.9970000  0  4G18G14G16G19
   4571788.001           0.000    20060926.267           0.000  
  -1552081.999           0.000    23394834.013           0.000  
    499075.001           0.000    20740887.352           0.000  
 -19339863.002           0.000    22333129.391           0.000  
 98  9 28 11 28 51.9970000  0  4G18G14G16G19
   4568261.999           0.000    20060255.205           0.000  
  -1552877.001           0.000    23394682.798           0.000  
    496685.999           0.000    20740432.726           0.000  
 -19346198.998           0.000    22331923.917           0.000  
 98  9 28 11 28 52.9970000  0  4G18G14G16G19
   4564737.000           0.000    20059584.336           0.000  
  -1553671.000           0.000    23394531.759           0.000  
    494298.001           0.000    20739978.246           0.000  
 -19352533.003           0.000    22330718.582           0.000  
 98  9 28 11 28 53.9970000  0  4G18G14G16G19
   4561212.999           0.000    20058913.671           0.000  
  -1554465.000           0.000    23394380.796           0.000  
    491910.002           0.000    20739523.910           0.000  
 -19358867.002           0.000    22329513.354           0.000  
 98  9 28 11 28 54.9970000  0  4G18G14G16G19
   4557690.002           0.000    20058243.102           0.000  
  -1555258.000           0.000    23394229.860           0.000  
    489523.002           0.000    20739069.685           0.000  
 -19365201.001           0.000    22328308.257           0.000  
 98  9 28 11 28 55.9970000  0  4G18G14G16G19
   4554167.000           0.000    20057572.826           0.000  
  -1556051.001           0.000    23394079.017           0.000  
    487137.001           0.000    20738615.593           0.000  
 -19371532.998           0.000    22327103.242           0.000  
 98  9 28 11 28 56.9970000  0  4G18G14G16G19
   4550645.002           0.000    20056902.455           0.000  
  -1556844.001           0.000    23393928.223           0.000  
    484750.001           0.000    20738161.558           0.000  
 -19377865.999           0.000    22325898.284           0.000  
 98  9 28 11 28 57.9970000  0  4G18G14G16G19
   4547122.998           0.000    20056232.071           0.000  
  -1557637.002           0.000    23393777.359           0.000  
    482363.999           0.000    20737707.595           0.000  
 -19384198.002           0.000    22324693.347           0.000  
 98  9 28 11 28 58.9970000  0  4G18G14G16G19
   4543603.002           0.000    20055561.937           0.000  
  -1558428.999           0.000    23393626.580           0.000  
    479979.001           0.000    20737253.747           0.000  
 -19390529.999           0.000    22323488.578           0.000  
 98  9 28 11 28 59.9970000  0  4G18G14G16G19
   4540083.001           0.000    20054892.007           0.000  
  -1559221.001           0.000    23393475.920           0.000  
    477593.998           0.000    20736800.027           0.000  
 -19396859.999           0.000    22322283.941           0.000  
 98  9 28 11 29  0.9970000  0  4G18G14G16G19
   4536562.999           0.000    20054222.220           0.000  
  -1560012.000           0.000    23393325.350           0.000  
    475209.999           0.000    20736346.410           0.000  
 -19403190.998           0.000    22321079.407           0.000  
 98  9 28 11 29  1.9970000  0  4G18G14G16G19
   4533045.000           0.000    20053552.798           0.000  
  -1560802.998           0.000    23393174.818           0.000  
    472825.999           0.000    20735892.894           0.000  
 -19409520.000           0.000    22319874.981           0.000  
 98  9 28 11 29  2.9970000  0  4G18G14G16G19
   4529527.001           0.000    20052883.324           0.000  
  -1561594.002           0.000    23393024.377           0.000  
    470442.998           0.000    20735439.462           0.000  
 -19415849.002           0.000    22318670.627           0.000  
 98  9 28 11 29  3.9970000  0  4G18G14G16G19
   4526010.000           0.000    20052214.028           0.000  
  -1562384.002           0.000    23392873.998           0.000  
    468059.997           0.000    20734986.095           0.000  
 -19422177.998           0.000    22317466.372           0.000  
 98  9 28 11 29  4.9970000  0  4G18G14G16G19
   4522493.998           0.000    20051544.807           0.000  
  -1563174.002           0.000    23392723.675           0.000  
    465678.000           0.000    20734532.806           0.000  
 -19428506.001           0.000    22316262.230           0.000  
 98  9 28 11 29  5.9970000  0  4G18G14G16G19
   4518978.000           0.000    20050875.723           0.000  
  -1563964.002           0.000    23392573.417           0.000  
    463295.998           0.000    20734079.641           0.000  
 -19434834.000           0.000    22315058.163           0.000  
 98  9 28 11 29  6.9970000  0  4G18G14G16G19
   4515463.002           0.000    20050206.909           0.000  
  -1564752.998           0.000    23392423.301           0.000  
    460914.999           0.000    20733626.624           0.000  
 -19441160.999           0.000    22313854.251           0.000  
 98  9 28 11 29  7.9970000  0  4G18G14G16G19
   4511949.002           0.000    20049538.077           0.000  
  -1565541.999           0.000    23392273.251           0.000  
    458534.000           0.000    20733173.645           0.000  
 -19447487.000           0.000    22312650.366           0.000  
 98  9 28 11 29  8.9970000  0  4G18G14G16G19
   4508436.000           0.000    20048869.390           0.000  
  -1566331.001           0.000    23392123.176           0.000  
    456154.000           0.000    20732720.759           0.000  
 -19453813.002           0.000    22311446.568           0.000  
 98  9 28 11 29  9.9970000  0  4G18G14G16G19
   4504922.998           0.000    20048200.905           0.000  
  -1567118.999           0.000    23391973.179           0.000  
    453774.998           0.000    20732267.984           0.000  
 -19460137.999           0.000    22310242.902           0.000  
 98  9 28 11 29 10.9970000  0  4G18G14G16G19
   4501411.000           0.000    20047532.563           0.000  
  -1567905.998           0.000    23391823.319           0.000  
    451396.001           0.000    20731815.342           0.000  
 -19466463.002           0.000    22309039.416           0.000  
 98  9 28 11 29 11.9970000  0  4G18G14G16G19
   4497900.001           0.000    20046864.487           0.000  
  -1568693.003           0.000    23391673.534           0.000  
    449017.998           0.000    20731362.858           0.000  
 -19472786.002           0.000    22307836.022           0.000  
 98  9 28 11 29 12.9970000  0  4G18G14G16G19
   4494390.000           0.000    20046196.400           0.000  
  -1569480.002           0.000    23391523.731           0.000  
    446640.000           0.000    20730910.403           0.000  
 -19479110.001           0.000    22306632.709           0.000  
 98  9 28 11 29 13.9970000  0  4G18G14G16G19
   4490879.998           0.000    20045528.351           0.000  
  -1570267.002           0.000    23391373.974           0.000  
    444262.002           0.000    20730457.960           0.000  
 -19485433.002           0.000    22305429.372           0.000  
 98  9 28 11 29 14.9970000  0  4G18G14G16G19
   4487369.997           0.000    20044860.466           0.000  
  -1571054.001           0.000    23391224.295           0.000  
    441883.998           0.000    20730005.598           0.000  
 -19491756.002           0.000    22304226.160           0.000  
 98  9 28 11 29 15.9970000  0  4G18G14G16G19
   4483861.000           0.000    20044192.729           0.000  
  -1571840.002           0.000    23391074.611           0.000  
    439508.002           0.000    20729553.338           0.000  
 -19498077.999           0.000    22303022.994           0.000  
 98  9 28 11 29 16.9970000  0  4G18G14G16G19
   4480353.001           0.000    20043524.930           0.000  
  -1572626.003           0.000    23390925.072           0.000  
    437130.997           0.000    20729101.163           0.000  
 -19504400.001           0.000    22301819.877           0.000  
 98  9 28 11 29 17.9970000  0  4G18G14G16G19
   4476846.001           0.000    20042857.239           0.000  
  -1573411.000           0.000    23390775.658           0.000  
    434756.000           0.000    20728649.111           0.000  
 -19510721.000           0.000    22300616.929           0.000  
 98  9 28 11 29 18.9970000  0  4G18G14G16G19
   4473339.999           0.000    20042179.568           0.000  
  -1574197.001           0.000    23390626.260           0.000  
    432379.999           0.000    20728197.184           0.000  
 -19517041.998           0.000    22299414.062           0.000  
 98  9 28 11 29 19.9970000  0  4G18G14G16G19
   4469834.002           0.000    20041509.801           0.000  
  -1574981.000           0.000    23390476.892           0.000  
    430006.000           0.000    20727745.368           0.000  
 -19523361.000           0.000    22298211.339           0.000  
 98  9 28 11 29 20.9970000  0  4G18G14G16G19
   4466328.998           0.000    20040844.073           0.000  
  -1575764.998           0.000    23390327.608           0.000  
    427632.001           0.000    20727293.622           0.000  
 -19529681.000           0.000    22297008.634           0.000  
 98  9 28 11 29 21.9970000  0  4G18G14G16G19
   4462824.000           0.000    20040177.277           0.000  
  -1576550.001           0.000    23390178.389           0.000  
    425258.002           0.000    20726841.973           0.000  
 -19536000.001           0.000    22295806.018           0.000  
 98  9 28 11 29 22.9970000  0  4G18G14G16G19
   4459320.999           0.000    20039510.630           0.000  
  -1577333.001           0.000    23390029.277           0.000  
    422885.001           0.000    20726390.425           0.000  
 -19542317.999           0.000    22294603.507           0.000  
 98  9 28 11 29 23.9970000  0  4G18G14G16G19
   4455818.002           0.000    20038843.836           0.000  
  -1578116.001           0.000    23389880.220           0.000  
    420512.000           0.000    20725938.983           0.000  
 -19548636.002           0.000    22293401.167           0.000  
 98  9 28 11 29 24.9970000  0  4G18G14G16G19
   4452315.999           0.000    20038177.403           0.000  
  -1578899.002           0.000    23389731.291           0.000  
    418139.998           0.000    20725487.632           0.000  
 -19554953.001           0.000    22292198.894           0.000  
 98  9 28 11 29 25.9970000  0  4G18G14G16G19
   4448814.002           0.000    20037510.397           0.000  
  -1579682.002           0.000    23389582.401           0.000  
    415768.001           0.000    20725036.340           0.000  
 -19561269.002           0.000    22290996.747           0.000  
 98  9 28 11 29 26.9970000  0  4G18G14G16G19
   4445312.997           0.000    20036844.313           0.000  
  -1580463.998           0.000    23389433.511           0.000  
    413396.998           0.000    20724585.122           0.000  
 -19567584.998           0.000    22289794.682           0.000  
 98  9 28 11 29 27.9970000  0  4G18G14G16G19
   4441813.002           0.000    20036178.393           0.000  
  -1581246.000           0.000    23389284.753           0.000  
    411026.998           0.000    20724134.013           0.000  
 -19573900.999           0.000    22288592.766           0.000  
 98  9 28 11 29 28.9970000  0  4G18G14G16G19
   4438314.000           0.000    20035512.480           0.000  
  -1582026.998           0.000    23389136.128           0.000  
    408656.998           0.000    20723683.051           0.000  
 -19580215.002           0.000    22287391.085           0.000  
 98  9 28 11 29 29.9970000  0  4G18G14G16G19
   4434816.001           0.000    20034846.624           0.000  
  -1582808.002           0.000    23388987.564           0.000  
    406288.001           0.000    20723232.186           0.000  
 -19586529.001           0.000    22286189.528           0.000  
 98  9 28 11 29 30.9970000  0  4G18G14G16G19
   4431318.002           0.000    20034180.806           0.000  
  -1583588.001           0.000    23388839.065           0.000  
    403919.000           0.000    20722781.432           0.000  
 -19592843.000           0.000    22284988.106           0.000  
 98  9 28 11 29 31.9970000  0  4G18G14G16G19
   4427822.001           0.000    20033515.312           0.000  
  -1584368.001           0.000    23388690.703           0.000  
    401551.002           0.000    20722330.823           0.000  
 -19599155.002           0.000    22283786.840           0.000  
 98  9 28 11 29 32.9970000  0  4G18G14G16G19
   4424325.999           0.000    20032849.700           0.000  
  -1585148.001           0.000    23388542.416           0.000  
    399183.997           0.000    20721880.274           0.000  
 -19605466.998           0.000    22282585.635           0.000  
 98  9 28 11 29 33.9970000  0  4G18G14G16G19
   4420829.997           0.000    20032184.475           0.000  
  -1585928.000           0.000    23388394.085           0.000  
    396816.000           0.000    20721429.807           0.000  
 -19611779.000           0.000    22281384.408           0.000  
 98  9 28 11 29 34.9970000  0  4G18G14G16G19
   4417335.998           0.000    20031519.754           0.000  
  -1586707.002           0.000    23388245.838           0.000  
    394449.999           0.000    20720979.440           0.000  
 -19618091.002           0.000    22280183.243           0.000  
 98  9 28 11 29 35.9970000  0  4G18G14G16G19
   4413841.998           0.000    20030855.043           0.000  
  -1587484.999           0.000    23388097.743           0.000  
    392083.998           0.000    20720529.180           0.000  
 -19624401.001           0.000    22278982.277           0.000  
 98  9 28 11 29 36.9970000  0  4G18G14G16G19
   4410348.997           0.000    20030190.482           0.000  
  -1588264.000           0.000    23387949.693           0.000  
    389718.002           0.000    20720079.037           0.000  
 -19630711.001           0.000    22277781.324           0.000  
 98  9 28 11 29 37.9970000  0  4G18G14G16G19
   4406856.001           0.000    20029526.149           0.000  
  -1589041.998           0.000    23387801.731           0.000  
    387353.000           0.000    20719628.929           0.000  
 -19637021.000           0.000    22276580.534           0.000  
 98  9 28 11 29 38.9970000  0  4G18G14G16G19
   4403363.999           0.000    20028861.861           0.000  
  -1589819.002           0.000    23387653.800           0.000  
    384987.997           0.000    20719178.977           0.000  
 -19643330.002           0.000    22275379.783           0.000  
 98  9 28 11 29 39.9970000  0  5G18G14G16G 4G19
   4399873.000           0.000    20028197.526           0.000  
  -1590597.000           0.000    23387505.989           0.000  
    382625.002           0.000    20718729.210           0.000  
   4720379.999           0.000    20720659.969           0.000  
 -19649637.999           0.000    22274179.185           0.000  
 98  9 28 11 29 40.9970000  0  5G18G14G16G 4G19
   4396382.999           0.000    20027533.443           0.000  
  -1591373.000           0.000    23387358.240           0.000  
    380260.998           0.000    20718279.546           0.000  
   4716174.000           0.000    20719857.732           0.000  
 -19655946.002           0.000    22272978.754           0.000  
 98  9 28 11 29 41.9970000  0  5G18G14G16G 4G19
   4392893.998           0.000    20026869.518           0.000  
  -1592149.001           0.000    23387210.618           0.000  
    377899.002           0.000    20717830.052           0.000  
   4711968.001           0.000    20719054.721           0.000  
 -19662252.002           0.000    22271778.416           0.000  
 98  9 28 11 29 42.9970000  0  5G18G14G16G 4G19
   4389405.999           0.000    20026205.943           0.000  
  -1592925.001           0.000    23387063.088           0.000  
    375537.000           0.000    20717380.662           0.000  
   4707765.003           0.000    20718250.731           0.000  
 -19668558.003           0.000    22270578.219           0.000  
 98  9 28 11 29 43.9970000  0  5G18G14G16G 4G19
   4385918.001           0.000    20025542.493           0.000  
  -1593699.998           0.000    23386915.567           0.000  
    373176.002           0.000    20716931.253           0.000  
   4703561.999           0.000    20717440.484           0.000  
 -19674863.998           0.000    22269378.042           0.000  
 98  9 28 11 29 44.9970000  0  4G18G14G16G19
   4382431.001           0.000    20024879.235           0.000  
  -1594475.000           0.000    23386768.103           0.000  
    370814.999           0.000    20716481.987           0.000  
 -19681169.000           0.000    22268178.045           0.000  
 98  9 28 11 29 45.9970000  0  5G18G14G16G 4G19
   4378945.000           0.000    20024215.995           0.000  
  -1595250.002           0.000    23386620.764           0.000  
    368454.000           0.000    20716032.873           0.000  
   4695153.001           0.000    20715839.434           0.000  
 -19687474.002           0.000    22266978.268           0.000  
 98  9 28 11 29 46.9970000  0  5G18G14G16G 4G19
   4375460.002           0.000    20023553.332           0.000  
  -1596024.001           0.000    23386473.518           0.000  
    366094.999           0.000    20715583.866           0.000  
   4690951.002           0.000    20715044.836           0.000  
 -19693778.001           0.000    22265778.615           0.000  
 98  9 28 11 29 47.9970000  0  5G18G14G16G 4G19
   4371974.999           0.000    20022890.337           0.000  
  -1596797.999           0.000    23386326.408           0.000  
    363735.998           0.000    20715135.003           0.000  
   4686749.002           0.000    20714247.258           0.000  
 -19700081.000           0.000    22264579.101           0.000  
 98  9 28 11 29 48.9970000  0  5G18G14G16G 4G19
   4368491.999           0.000    20022227.741           0.000  
  -1597570.999           0.000    23386179.415           0.000  
    361378.001           0.000    20714686.280           0.000  
   4682550.002           0.000    20713450.685           0.000  
 -19706383.002           0.000    22263379.757           0.000  
 98  9 28 11 29 49.9970000  0  5G18G14G16G 4G19
   4365008.998           0.000    20021565.430           0.000  
  -1598343.999           0.000    23386032.499           0.000  
    359019.998           0.000    20714237.654           0.000  
   4678350.998           0.000    20712653.710           0.000  
 -19712684.998           0.000    22262180.513           0.000  
 98  9 28 11 29 50.9970000  0  5G18G14G16G 4G19
   4361527.001           0.000    20020902.939           0.000  
  -1599116.001           0.000    23385885.560           0.000  
    356662.999           0.000    20713789.012           0.000  
   4674154.001           0.000    20711855.787           0.000  
 -19718987.000           0.000    22260981.339           0.000  
 98  9 28 11 29 51.9970000  0  5G18G14G16G 4G19
   4358044.999           0.000    20020240.653           0.000  
  -1599888.002           0.000    23385738.646           0.000  
    354306.000           0.000    20713340.518           0.000  
   4669959.000           0.000    20711057.487           0.000  
 -19725286.999           0.000    22259782.216           0.000  
 98  9 28 11 29 52.9970000  0  5G18G14G16G 4G19
   4354564.000           0.000    20019578.372           0.000  
  -1600659.998           0.000    23385591.800           0.000  
    351949.001           0.000    20712892.146           0.000  
   4665764.000           0.000    20710257.395           0.000  
 -19731588.002           0.000    22258583.213           0.000  
 98  9 28 11 29 53.9970000  0  5G18G14G16G 4G19
   4351084.000           0.000    20018916.281           0.000  
  -1601432.000           0.000    23385445.052           0.000  
    349593.999           0.000    20712443.907           0.000  
   4661568.001           0.000    20709449.796           0.000  
 -19737888.001           0.000    22257384.376           0.000  
 98  9 28 11 29 54.9970000  0  5G18G14G16G 4G19
   4347604.998           0.000    20018254.252           0.000  
  -1602202.998           0.000    23385298.409           0.000  
    347237.998           0.000    20711995.753           0.000  
   4657371.998           0.000    20708648.735           0.000  
 -19744187.002           0.000    22256185.468           0.000  
 98  9 28 11 29 55.9970000  0  5G18G14G16G 4G19
   4344126.002           0.000    20017592.067           0.000  
  -1602974.001           0.000    23385151.815           0.000  
    344883.001           0.000    20711547.675           0.000  
   4653178.001           0.000    20707852.648           0.000  
 -19750486.003           0.000    22254986.697           0.000  
 98  9 28 11 29 56.9970000  0  5G18G14G16G 4G19
   4340647.999           0.000    20016930.113           0.000  
  -1603744.000           0.000    23385005.274           0.000  
    342528.998           0.000    20711099.682           0.000  
   4648983.001           0.000    20707056.748           0.000  
 -19756784.000           0.000    22253788.037           0.000  
 98  9 28 11 29 57.9970000  0  5G18G14G16G 4G19
   4337170.001           0.000    20016268.301           0.000  
  -1604514.998           0.000    23384858.749           0.000  
    340174.999           0.000    20710651.737           0.000  
   4644792.998           0.000    20706259.618           0.000  
 -19763082.002           0.000    22252589.493           0.000  
 98  9 28 11 29 58.9970000  0  5G18G14G16G 4G19
   4333694.000           0.000    20015606.823           0.000  
  -1605283.999           0.000    23384712.292           0.000  
    337821.999           0.000    20710203.896           0.000  
   4640600.000           0.000    20705463.161           0.000  
 -19769379.001           0.000    22251391.108           0.000  
 98  9 28 11 29 59.9970000  0  5G18G14G16G 4G19
   4330217.999           0.000    20014945.400           0.000  
  -1606053.998           0.000    23384565.874           0.000  
    335468.999           0.000    20709756.196           0.000  
   4636407.002           0.000    20704666.777           0.000  
 -19775675.999           0.000    22250192.918           0.000  
 98  9 28 11 30  0.9970000  0  5G18G14G16G 4G19
   4326743.001           0.000    20014284.023           0.000  
  -1606822.999           0.000    23384419.509           0.000  
    333115.999           0.000    20709308.617           0.000  
   4632216.999           0.000    20703870.984           0.000  
 -19781972.000           0.000    22248994.747           0.000  
 98  9 28 11 30  1.9970000  0  5G18G14G16G 4G19
   4323267.999           0.000    20013622.863           0.000  
  -1607591.001           0.000    23384273.330           0.000  
    330765.002           0.000    20708861.175           0.000  
   4628028.000           0.000    20703075.327           0.000  
 -19788267.001           0.000    22247796.818           0.000  
 98  9 28 11 30  2.9970000  0  5G18G14G16G 4G19
   4319794.998           0.000    20012961.881           0.000  
  -1608358.998           0.000    23384127.224           0.000  
    328413.999           0.000    20708413.789           0.000  
   4623840.000           0.000    20702278.568           0.000  
 -19794561.998           0.000    22246598.969           0.000  
 98  9 28 11 30  3.9970000  0  5G18G14G16G 4G19
   4316321.998           0.000    20012300.982           0.000  
  -1609127.001           0.000    23383981.178           0.000  
    326063.999           0.000    20707966.528           0.000  
   4619652.998           0.000    20701481.691           0.000  
 -19800856.001           0.000    22245401.239           0.000  
 98  9 28 11 30  4.9970000  0  5G18G14G16G 4G19
   4312850.001           0.000    20011640.405           0.000  
  -1609894.000           0.000    23383835.228           0.000  
    323714.000           0.000    20707519.368           0.000  
   4615467.998           0.000    20700685.302           0.000  
 -19807149.999           0.000    22244203.610           0.000  
 98  9 28 11 30  5.9970000  0  5G18G14G16G 4G19
   4309378.998           0.000    20010979.942           0.000  
  -1610660.998           0.000    23383689.380           0.000  
    321364.999           0.000    20707072.300           0.000  
   4611281.001           0.000    20699887.291           0.000  
 -19813442.999           0.000    22243006.113           0.000  
 98  9 28 11 30  6.9970000  0  5G18G14G16G 4G19
   4305908.000           0.000    20010319.638           0.000  
  -1611428.002           0.000    23383543.493           0.000  
    319015.000           0.000    20706625.254           0.000  
   4607096.001           0.000    20699090.174           0.000  
 -19819735.998           0.000    22241808.650           0.000  
 98  9 28 11 30  7.9970000  0  5G18G14G16G 4G19
   4302438.000           0.000    20009659.392           0.000  
  -1612194.003           0.000    23383397.654           0.000  
    316666.997           0.000    20706178.332           0.000  
   4602912.000           0.000    20698294.293           0.000  
 -19826027.999           0.000    22240611.208           0.000  
 98  9 28 11 30  8.9970000  0  5G18G14G16G 4G19
   4298968.999           0.000    20008999.354           0.000  
  -1612960.003           0.000    23383251.890           0.000  
    314319.000           0.000    20705731.465           0.000  
   4598727.998           0.000    20697499.067           0.000  
 -19832320.000           0.000    22239413.892           0.000  
 98  9 28 11 30  9.9970000  0  5G18G14G16G 4G19
   4295499.997           0.000    20008339.439           0.000  
  -1613725.998           0.000    23383106.144           0.000  
    311970.998           0.000    20705284.668           0.000  
   4594544.002           0.000    20696704.377           0.000  
 -19838610.998           0.000    22238216.695           0.000  
 98  9 28 11 30 10.9970000  0  5G18G14G16G 4G19
   4292032.000           0.000    20007679.588           0.000  
  -1614491.998           0.000    23382960.405           0.000  
    309623.001           0.000    20704837.946           0.000  
   4590363.001           0.000    20695909.508           0.000  
 -19844902.001           0.000    22237019.501           0.000  
 98  9 28 11 30 11.9970000  0  5G18G14G16G 4G19
   4288564.002           0.000    20007019.999           0.000  
  -1615257.000           0.000    23382814.792           0.000  
    307277.001           0.000    20704391.388           0.000  
   4586182.999           0.000    20695115.072           0.000  
 -19851191.999           0.000    22235822.462           0.000  
 98  9 28 11 30 12.9970000  0  5G18G14G16G 4G19
   4285098.001           0.000    20006360.625           0.000  
  -1616022.002           0.000    23382669.228           0.000  
    304930.002           0.000    20703944.872           0.000  
   4582001.998           0.000    20694328.504           0.000  
 -19857481.998           0.000    22234625.600           0.000  
 98  9 28 11 30 13.9970000  0  5G18G14G16G 4G19
   4281632.001           0.000    20005701.431           0.000  
  -1616786.998           0.000    23382523.753           0.000  
    302585.000           0.000    20703498.511           0.000  
   4577825.002           0.000    20693534.937           0.000  
 -19863770.999           0.000    22233428.811           0.000  
 98  9 28 11 30 14.9970000  0  4G14G16G 4G19
  -1617551.001           0.000    23382378.305           0.000  
    300239.998           0.000    20703052.239           0.000  
   4573645.998           0.000    20692738.560           0.000  
 -19870059.999           0.000    22232232.112           0.000  
 98  9 28 11 30 15.9970000  0  5G18G14G16G 4G19
   4274702.002           0.000    20004386.615           0.000  
  -1618314.001           0.000    23382233.011           0.000  
    297895.002           0.000    20702606.145           0.000  
   4569469.001           0.000    20691945.144           0.000  
 -19876348.001           0.000    22231035.521           0.000  
 98  9 28 11 30 16.9970000  0  5G18G14G16G 4G19
   4271239.002           0.000    20003728.118           0.000  
  -1619077.001           0.000    23382087.794           0.000  
    295550.998           0.000    20702160.132           0.000  
   4565292.000           0.000    20691151.029           0.000  
 -19882635.000           0.000    22229839.040           0.000  
 98  9 28 11 30 17.9970000  0  5G18G14G16G 4G19
   4267776.001           0.000    20003070.078           0.000  
  -1619840.000           0.000    23381942.669           0.000  
    293207.999           0.000    20701714.230           0.000  
   4561116.002           0.000    20690357.112           0.000  
 -19888921.998           0.000    22228642.653           0.000  
 98  9 28 11 30 18.9970000  0  5G18G14G16G 4G19
   4264314.000           0.000    20002411.873           0.000  
  -1620602.001           0.000    23381797.559           0.000  
    290864.999           0.000    20701268.431           0.000  
   4556942.000           0.000    20689563.030           0.000  
 -19895207.998           0.000    22227446.346           0.000  
 98  9 28 11 30 19.9970000  0  5G18G14G16G 4G19
   4260851.998           0.000    20001753.871           0.000  
  -1621364.003           0.000    23381652.544           0.000  
    288522.998           0.000    20700822.715           0.000  
   4552766.002           0.000    20688777.780           0.000  
 -19901492.999           0.000    22226250.147           0.000  
 98  9 28 11 30 20.9970000  0  5G18G14G16G 4G19
   4257391.999           0.000    20001096.605           0.000  
  -1622125.999           0.000    23381507.619           0.000  
    286181.002           0.000    20700377.138           0.000  
   4548593.998           0.000    20687986.637           0.000  
 -19907778.001           0.000    22225054.105           0.000  
 98  9 28 11 30 21.9970000  0  5G18G14G16G 4G19
   4253932.998           0.000    20000439.791           0.000  
  -1622887.001           0.000    23381362.768           0.000  
    283840.000           0.000    20699931.713           0.000  
   4544421.001           0.000    20687197.500           0.000  
 -19914061.998           0.000    22223858.239           0.000  
 98  9 28 11 30 22.9970000  0  5G18G14G16G 4G19
   4250474.002           0.000    19999782.057           0.000  
  -1623647.000           0.000    23381218.029           0.000  
    281500.001           0.000    20699486.416           0.000  
   4540247.998           0.000    20686402.929           0.000  
 -19920346.001           0.000    22222662.468           0.000  
 98  9 28 11 30 23.9970000  0  5G18G14G16G 4G19
   4247016.000           0.000    19999124.417           0.000  
  -1624406.999           0.000    23381073.381           0.000  
    279160.002           0.000    20699041.239           0.000  
   4536075.999           0.000    20685608.360           0.000  
 -19926628.002           0.000    22221466.804           0.000  
 98  9 28 11 30 24.9970000  0  5G18G14G16G 4G19
   4243559.001           0.000    19998466.990           0.000  
  -1625166.998           0.000    23380928.768           0.000  
    276821.001           0.000    20698596.121           0.000  
   4531905.997           0.000    20684815.267           0.000  
 -19932911.001           0.000    22220271.199           0.000  
 98  9 28 11 30 25.9970000  0  4G18G14G16G19
   4240103.000           0.000    19997809.693           0.000  
  -1625925.999           0.000    23380784.241           0.000  
    274482.001           0.000    20698151.073           0.000  
 -19939193.002           0.000    22219075.730           0.000  
 98  9 28 11 30 26.9970000  0  5G18G14G16G 4G19
   4236647.000           0.000    19997152.073           0.000  
  -1626684.999           0.000    23380639.834           0.000  
    272143.998           0.000    20697706.136           0.000  
   4523568.001           0.000    20683223.166           0.000  
 -19945473.999           0.000    22217880.397           0.000  
 98  9 28 11 30 27.9970000  0  5G18G14G16G 4G19
   4233191.998           0.000    19996494.679           0.000  
  -1627443.001           0.000    23380495.470           0.000  
    269806.002           0.000    20697261.306           0.000  
   4519401.998           0.000    20682429.581           0.000  
 -19951755.001           0.000    22216685.248           0.000  
 98  9 28 11 30 28.9970000  0  4G18G14G16G19
   4229738.000           0.000    19995837.571           0.000  
  -1628202.002           0.000    23380351.073           0.000  
    267468.998           0.000    20696816.585           0.000  
 -19958035.000           0.000    22215490.149           0.000  
 98  9 28 11 30 29.9970000  0  4G18G14G16G19
   4226284.002           0.000    19995180.576           0.000  
  -1628959.000           0.000    23380206.810           0.000  
    265132.000           0.000    20696371.949           0.000  
 -19964314.999           0.000    22214295.182           0.000  
 98  9 28 11 30 30.9970000  0  4G18G14G16G19
   4222831.002           0.000    19994523.625           0.000  
  -1629717.002           0.000    23380062.627           0.000  
    262795.001           0.000    20695927.315           0.000  
 -19970593.999           0.000    22213100.225           0.000  
 98  9 28 11 30 31.9970000  0  4G18G14G16G19
   4219379.001           0.000    19993867.013           0.000  
  -1630474.001           0.000    23379918.518           0.000  
    260460.000           0.000    20695482.783           0.000  
 -19976872.999           0.000    22211905.470           0.000  
 98  9 28 11 30 32.9970000  0  4G18G14G16G19
   4215927.000           0.000    19993210.140           0.000  
  -1631230.999           0.000    23379774.417           0.000  
    258124.000           0.000    20695038.308           0.000  
 -19983151.001           0.000    22210710.773           0.000  
 98  9 28 11 30 33.9970000  0  4G18G14G16G19
   4212477.000           0.000    19992553.501           0.000  
  -1631988.003           0.000    23379630.427           0.000  
    255788.999           0.000    20694593.956           0.000  
 -19989429.002           0.000    22209516.271           0.000  
 98  9 28 11 30 34.9970000  0  4G18G14G16G19
   4209027.001           0.000    19991897.040           0.000  
  -1632744.003           0.000    23379486.508           0.000  
    253455.001           0.000    20694149.689           0.000  
 -19995706.000           0.000    22208321.812           0.000  
 98  9 28 11 30 35.9970000  0  4G18G14G16G19
   4205577.002           0.000    19991240.735           0.000  
  -1633500.003           0.000    23379342.691           0.000  
    251120.998           0.000    20693705.554           0.000  
 -20001982.998           0.000    22207127.460           0.000  
 98  9 28 11 30 36.9970000  0  4G18G14G16G19
   4202129.000           0.000    19990584.601           0.000  
  -1634254.999           0.000    23379198.896           0.000  
    248787.999           0.000    20693261.496           0.000  
 -20008258.998           0.000    22205933.142           0.000  
 98  9 28 11 30 37.9970000  0  4G18G14G16G19
   4198680.998           0.000    19989928.398           0.000  
  -1635010.000           0.000    23379055.165           0.000  
    246454.001           0.000    20692817.521           0.000  
 -20014535.003           0.000    22204738.900           0.000  
 98  9 28 11 30 38.9970000  0  4G18G14G16G19
   4195233.999           0.000    19989272.267           0.000  
  -1635765.002           0.000    23378911.492           0.000  
    244122.000           0.000    20692373.604           0.000  
 -20020809.998           0.000    22203544.815           0.000  
 98  9 28 11 30 39.9970000  0  4G18G14G16G19
   4191787.001           0.000    19988616.326           0.000  
  -1636519.998           0.000    23378767.874           0.000  
    241789.999           0.000    20691929.754           0.000  
 -20027085.000           0.000    22202350.728           0.000  
 98  9 28 11 30 40.9970000  0  4G18G14G16G19
   4188341.001           0.000    19987960.422           0.000  
  -1637274.001           0.000    23378624.327           0.000  
    239457.998           0.000    20691486.007           0.000  
 -20033359.002           0.000    22201156.841           0.000  
 98  9 28 11 30 41.9970000  0  4G18G14G16G19
   4184895.999           0.000    19987304.807           0.000  
  -1638027.999           0.000    23378480.932           0.000  
    237127.001           0.000    20691042.448           0.000  
 -20039632.001           0.000    22199963.080           0.000  
 98  9 28 11 30 42.9970000  0  4G18G14G16G19
   4181452.002           0.000    19986649.295           0.000  
  -1638780.998           0.000    23378337.573           0.000  
    234796.997           0.000    20690599.025           0.000  
 -20045905.000           0.000    22198769.447           0.000  
 98  9 28 11 30 43.9970000  0  4G18G14G16G19
   4178009.002           0.000    19985993.841           0.000  
  -1639534.002           0.000    23378194.259           0.000  
    232466.999           0.000    20690155.674           0.000  
 -20052177.000           0.000    22197575.980           0.000  
 98  9 28 11 30 44.9970000  0  4G18G14G16G19
   4174565.997           0.000    19985338.621           0.000  
  -1640285.998           0.000    23378051.058           0.000  
    230137.000           0.000    20689712.428           0.000  
 -20058449.001           0.000    22196382.673           0.000  
 98  9 28 11 30 45.9970000  0  4G18G14G16G19
   4171124.002           0.000    19984683.558           0.000  
  -1641037.999           0.000    23377907.939           0.000  
    227808.998           0.000    20689269.273           0.000  
 -20064720.003           0.000    22195189.489           0.000  
 98  9 28 11 30 46.9970000  0  4G18G14G16G19
   4167682.999           0.000    19984028.679           0.000  
  -1641789.001           0.000    23377764.964           0.000  
    225479.998           0.000    20688826.269           0.000  
 -20070990.001           0.000    22193996.451           0.000  
 98  9 28 11 30 47.9970000  0  4G18G14G16G19
   4164243.001           0.000    19983373.872           0.000  
  -1642539.998           0.000    23377622.036           0.000  
    223153.000           0.000    20688383.332           0.000  
 -20077259.999           0.000    22192803.503           0.000  
 98  9 28 11 30 48.9970000  0  4G18G14G16G19
   4160804.000           0.000    19982719.208           0.000  
  -1643291.001           0.000    23377479.185           0.000  
    220826.002           0.000    20687940.462           0.000  
 -20083528.999           0.000    22191610.663           0.000  
 98  9 28 11 30 49.9970000  0  4G18G14G16G19
   4157365.000           0.000    19982064.682           0.000  
  -1644040.999           0.000    23377336.432           0.000  
    218498.999           0.000    20687497.737           0.000  
 -20089797.001           0.000    22190418.011           0.000  
 98  9 28 11 30 50.9970000  0  4G18G14G16G19
   4153926.998           0.000    19981410.447           0.000  
  -1644790.998           0.000    23377193.724           0.000  
    216172.999           0.000    20687055.141           0.000  
 -20096065.002           0.000    22189225.380           0.000  
 98  9 28 11 30 51.9970000  0  4G18G14G16G19
   4150490.000           0.000    19980756.297           0.000  
  -1645541.002           0.000    23377051.083           0.000  
    213847.000           0.000    20686612.622           0.000  
 -20102332.998           0.000    22188032.827           0.000  
 98  9 28 11 30 52.9970000  0  4G18G14G16G19
   4147054.000           0.000    19980102.326           0.000  
  -1646290.002           0.000    23376908.570           0.000  
    211521.999           0.000    20686170.219           0.000  
 -20108599.002           0.000    22186840.463           0.000  
 98  9 28 11 30 53.9970000  0  4G18G14G16G19
   4143618.999           0.000    19979448.519           0.000  
  -1647037.999           0.000    23376766.169           0.000  
    209198.001           0.000    20685727.916           0.000  
 -20114865.002           0.000    22185648.174           0.000  
 98  9 28 11 30 54.9970000  0  4G18G14G16G19
   4140183.998           0.000    19978794.855           0.000  
  -1647786.000           0.000    23376623.762           0.000  
    206873.999           0.000    20685285.742           0.000  
 -20121131.001           0.000    22184456.015           0.000  
 98  9 28 11 30 55.9970000  0  4G18G14G16G19
   4136750.000           0.000    19978141.417           0.000  
  -1648534.002           0.000    23376481.545           0.000  
    204551.000           0.000    20684843.696           0.000  
 -20127396.002           0.000    22183263.982           0.000  
 98  9 28 11 30 56.9970000  0  4G18G14G16G19
   4133317.001           0.000    19977488.052           0.000  
  -1649281.000           0.000    23376339.327           0.000  
    202228.999           0.000    20684401.751           0.000  
 -20133659.999           0.000    22182072.042           0.000  
 98  9 28 11 30 57.9970000  0  4G18G14G16G19
   4129885.001           0.000    19976834.856           0.000  
  -1650027.998           0.000    23376197.226           0.000  
    199906.999           0.000    20683959.896           0.000  
 -20139923.002           0.000    22180880.253           0.000  
 98  9 28 11 30 58.9970000  0  4G18G14G16G19
   4126453.998           0.000    19976181.839           0.000  
  -1650773.998           0.000    23376055.229           0.000  
    197584.998           0.000    20683518.140           0.000  
 -20146186.001           0.000    22179688.575           0.000  
 98  9 28 11 30 59.9970000  0  4G18G14G16G19
   4123023.002           0.000    19975528.946           0.000  
  -1651520.003           0.000    23375913.300           0.000  
    195264.001           0.000    20683076.435           0.000  
 -20152449.000           0.000    22178497.019           0.000  
 98  9 28 11 31  0.9970000  0  4G18G14G16G19
   4119592.998           0.000    19974876.136           0.000  
  -1652266.002           0.000    23375771.491           0.000  
    192943.998           0.000    20682634.841           0.000  
 -20158711.000           0.000    22177305.547           0.000  
 98  9 28 11 31  1.9970000  0  4G18G14G16G19
   4116163.998           0.000    19974223.405           0.000  
  -1653010.998           0.000    23375629.696           0.000  
    190624.000           0.000    20682193.312           0.000  
 -20164972.001           0.000    22176114.194           0.000  
 98  9 28 11 31  2.9970000  0  4G18G14G16G19
   4112734.998           0.000    19973570.860           0.000  
  -1653755.999           0.000    23375487.973           0.000  
    188304.001           0.000    20681751.925           0.000  
 -20171232.998           0.000    22174923.011           0.000  
 98  9 28 11 31  3.9970000  0  4G18G14G16G19
   4109307.002           0.000    19972918.422           0.000  
  -1654500.002           0.000    23375346.361           0.000  
    185986.000           0.000    20681310.648           0.000  
 -20177493.001           0.000    22173731.960           0.000  
 98  9 28 11 31  4.9970000  0  4G18G14G16G19
   4105879.999           0.000    19972266.160           0.000  
  -1655243.999           0.000    23375204.813           0.000  
    183667.000           0.000    20680869.447           0.000  
 -20183752.999           0.000    22172540.983           0.000  
 98  9 28 11 31  5.9970000  0  4G18G14G16G19
   4102453.999           0.000    19971614.118           0.000  
  -1655988.002           0.000    23375063.288           0.000  
    181350.002           0.000    20680428.376           0.000  
 -20190011.998           0.000    22171350.124           0.000  
 98  9 28 11 31  6.9970000  0  4G18G14G16G19
   4099028.998           0.000    19970962.250           0.000  
  -1656731.001           0.000    23374921.944           0.000  
    179032.999           0.000    20679987.417           0.000  
 -20196269.999           0.000    22170159.457           0.000  
 98  9 28 11 31  7.9970000  0  4G18G14G16G19
   4095603.997           0.000    19970310.472           0.000  
  -1657473.001           0.000    23374780.724           0.000  
    176717.000           0.000    20679546.615           0.000  
 -20202527.002           0.000    22168968.912           0.000  
 98  9 28 11 31  8.9970000  0  4G18G14G16G19
   4092180.999           0.000    19969658.914           0.000  
  -1658215.002           0.000    23374639.612           0.000  
    174401.999           0.000    20679105.984           0.000  
 -20208783.999           0.000    22167778.526           0.000  
 98  9 28 11 31  9.9970000  0  4G18G14G16G19
   4088758.000           0.000    19969007.496           0.000  
  -1658955.999           0.000    23374498.498           0.000  
    172086.999           0.000    20678665.441           0.000  
 -20215039.998           0.000    22166588.222           0.000  
 98  9 28 11 31 10.9970000  0  4G18G14G16G19
   4085336.998           0.000    19968356.273           0.000  
  -1659697.001           0.000    23374357.553           0.000  
    169773.002           0.000    20678225.085           0.000  
 -20221294.998           0.000    22165398.039           0.000  
 98  9 28 11 31 11.9970000  0  4G18G14G16G19
   4081914.998           0.000    19967705.160           0.000  
  -1660436.999           0.000    23374216.629           0.000  
    167458.999           0.000    20677784.768           0.000  
 -20227549.999           0.000    22164207.933           0.000  
 98  9 28 11 31 12.9970000  0  4G18G14G16G19
   4078495.000           0.000    19967054.059           0.000  
  -1661178.001           0.000    23374075.642           0.000  
    165145.002           0.000    20677344.470           0.000  
 -20233804.999           0.000    22163017.804           0.000  
 98  9 28 11 31 13.9970000  0  4G18G14G16G19
   4075073.998           0.000    19966403.167           0.000  
  -1661917.999           0.000    23373934.766           0.000  
    162831.998           0.000    20676904.342           0.000  
 -20240059.001           0.000    22161827.755           0.000  
 98  9 28 11 31 14.9970000  0  4G18G14G16G19
   4071654.998           0.000    19965752.320           0.000  
  -1662656.999           0.000    23373793.970           0.000  
    160519.998           0.000    20676464.288           0.000  
 -20246311.999           0.000    22160637.828           0.000  
 98  9 28 11 31 15.9970000  0  4G18G14G16G19
   4068235.999           0.000    19965101.580           0.000  
  -1663396.998           0.000    23373653.247           0.000  
    158207.000           0.000    20676024.240           0.000  
 -20252566.001           0.000    22159447.950           0.000  
 98  9 28 11 31 16.9970000  0  4G18G14G16G19
   4064817.997           0.000    19964451.027           0.000  
  -1664136.003           0.000    23373512.549           0.000  
    155895.998           0.000    20675584.357           0.000  
 -20258818.001           0.000    22158258.191           0.000  
 98  9 28 11 31 17.9970000  0  4G18G14G16G19
   4061401.000           0.000    19963800.656           0.000  
  -1664873.999           0.000    23373371.978           0.000  
    153585.001           0.000    20675144.647           0.000  
 -20265070.001           0.000    22157068.602           0.000  
 98  9 28 11 31 18.9970000  0  4G18G14G16G19
   4057985.001           0.000    19963150.493           0.000  
  -1665612.000           0.000    23373231.509           0.000  
    151274.998           0.000    20674705.054           0.000  
 -20271321.002           0.000    22155879.113           0.000  
 98  9 28 11 31 19.9970000  0  4G18G14G16G19
   4054570.000           0.000    19962500.586           0.000  
  -1666348.998           0.000    23373091.206           0.000  
    148965.000           0.000    20674265.624           0.000  
 -20277571.000           0.000    22154689.796           0.000  
 98  9 28 11 31 20.9970000  0  4G18G14G16G19
   4051155.000           0.000    19961850.834           0.000  
  -1667086.001           0.000    23372950.984           0.000  
    146656.999           0.000    20673826.291           0.000  
 -20283821.003           0.000    22153500.445           0.000  
 98  9 28 11 31 21.9970000  0  4G18G14G16G19
   4047740.998           0.000    19961201.134           0.000  
  -1667822.000           0.000    23372810.770           0.000  
    144348.000           0.000    20673387.024           0.000  
 -20290070.002           0.000    22152311.338           0.000  
 98  9 28 11 31 22.9970000  0  4G18G14G16G19
   4044327.999           0.000    19960551.637           0.000  
  -1668557.999           0.000    23372670.669           0.000  
    142039.999           0.000    20672947.826           0.000  
 -20296318.003           0.000    22151122.362           0.000  
 98  9 28 11 31 23.9970000  0  4G18G14G16G19
   4040915.001           0.000    19959902.316           0.000  
  -1669293.999           0.000    23372530.624           0.000  
    139733.001           0.000    20672508.729           0.000  
 -20302565.998           0.000    22149933.450           0.000  
 98  9 28 11 31 24.9970000  0  4G18G14G16G19
   4037503.001           0.000    19959253.113           0.000  
  -1670029.998           0.000    23372390.606           0.000  
    137425.999           0.000    20672069.732           0.000  
 -20308813.999           0.000    22148744.641           0.000  
 98  9 28 11 31 25.9970000  0  4G18G14G16G19
   4034092.000           0.000    19958604.088           0.000  
  -1670764.999           0.000    23372250.687           0.000  
    135120.000           0.000    20671630.824           0.000  
 -20315061.001           0.000    22147555.960           0.000  
 98  9 28 11 31 26.9970000  0  4G18G14G16G19
   4030680.998           0.000    19957955.092           0.000  
  -1671499.001           0.000    23372110.892           0.000  
    132814.001           0.000    20671192.041           0.000  
 -20321307.000           0.000    22146367.431           0.000  
 98  9 28 11 31 27.9970000  0  4G18G14G16G19
   4027271.000           0.000    19957306.305           0.000  
  -1672234.002           0.000    23371971.149           0.000  
    130509.000           0.000    20670753.343           0.000  
 -20327552.998           0.000    22145179.012           0.000  
 98  9 28 11 31 28.9970000  0  4G18G14G16G19
   4023862.001           0.000    19956657.561           0.000  
  -1672967.001           0.000    23371831.395           0.000  
    128204.000           0.000    20670314.693           0.000  
 -20333799.002           0.000    22143990.597           0.000  
 98  9 28 11 31 29.9970000  0  4G18G14G16G19
   4020454.000           0.000    19956009.106           0.000  
  -1673700.998           0.000    23371691.746           0.000  
    125899.998           0.000    20669876.203           0.000  
 -20340042.998           0.000    22142802.367           0.000  
 98  9 28 11 31 30.9970000  0  4G18G14G16G19
   4017045.999           0.000    19955360.816           0.000  
  -1674432.998           0.000    23371552.319           0.000  
    123597.000           0.000    20669437.869           0.000  
 -20346287.000           0.000    22141614.169           0.000  
 98  9 28 11 31 31.9970000  0  4G18G14G16G19
   4013640.001           0.000    19954712.743           0.000  
  -1675166.002           0.000    23371412.944           0.000  
    121294.001           0.000    20668999.610           0.000  
 -20352529.998           0.000    22140426.072           0.000  
 98  9 28 11 31 32.9970000  0  4G18G14G16G19
   4010234.002           0.000    19954064.758           0.000  
  -1675898.002           0.000    23371273.590           0.000  
    118990.998           0.000    20668561.469           0.000  
 -20358773.001           0.000    22139238.083           0.000  
 98  9 28 11 31 33.9970000  0  4G18G14G16G19
   4006827.998           0.000    19953416.856           0.000  
  -1676630.002           0.000    23371134.279           0.000  
    116688.998           0.000    20668123.365           0.000  
 -20365015.000           0.000    22138050.138           0.000  
 98  9 28 11 31 34.9970000  0  4G18G14G16G19
   4003422.998           0.000    19952768.963           0.000  
  -1677360.998           0.000    23370995.045           0.000  
    114388.002           0.000    20667685.362           0.000  
 -20371257.000           0.000    22136862.417           0.000  
 98  9 28 11 31 35.9970000  0  4G18G14G16G19
   4000019.001           0.000    19952121.195           0.000  
  -1678092.000           0.000    23370855.863           0.000  
    112087.001           0.000    20667247.495           0.000  
 -20377498.999           0.000    22135674.711           0.000  
 98  9 28 11 31 36.9970000  0  4G18G14G16G19
   3996615.998           0.000    19951473.477           0.000  
  -1678823.002           0.000    23370716.678           0.000  
    109785.999           0.000    20666809.710           0.000  
 -20383740.000           0.000    22134487.157           0.000  
 98  9 28 11 31 37.9970000  0  4G18G14G16G19
   3993213.000           0.000    19950825.941           0.000  
  -1679553.000           0.000    23370577.654           0.000  
    107486.002           0.000    20666372.081           0.000  
 -20389980.003           0.000    22133299.778           0.000  
 98  9 28 11 31 38.9970000  0  4G18G14G16G19
   3989811.000           0.000    19950178.570           0.000  
  -1680282.998           0.000    23370438.757           0.000  
    105187.002           0.000    20665934.551           0.000  
 -20396219.002           0.000    22132112.518           0.000  
 98  9 28 11 31 39.9970000  0  4G18G14G16G19
   3986410.998           0.000    19949531.359           0.000  
  -1681012.003           0.000    23370299.912           0.000  
    102889.002           0.000    20665497.175           0.000  
 -20402458.000           0.000    22130925.395           0.000  
 98  9 28 11 31 40.9970000  0  4G18G14G16G19
   3983010.002           0.000    19948884.330           0.000  
  -1681741.002           0.000    23370161.112           0.000  
    100591.001           0.000    20665059.818           0.000  
 -20408696.001           0.000    22129738.340           0.000  
 98  9 28 11 31 41.9970000  0  4G18G14G16G19
   3979610.997           0.000    19948237.296           0.000  
  -1682468.998           0.000    23370022.428           0.000  
     98293.000           0.000    20664622.613           0.000  
 -20414934.001           0.000    22128551.391           0.000  
 98  9 28 11 31 42.9970000  0  4G18G14G16G19
   3976211.998           0.000    19947590.462           0.000  
  -1683196.999           0.000    23369883.919           0.000  
     95995.998           0.000    20664185.527           0.000  
 -20421170.998           0.000    22127364.543           0.000  
 98  9 28 11 31 43.9970000  0  4G18G14G16G19
   3972813.998           0.000    19946943.926           0.000  
  -1683925.000           0.000    23369745.417           0.000  
     93699.999           0.000    20663748.568           0.000  
 -20427407.001           0.000    22126177.804           0.000  
 98  9 28 11 31 44.9970000  0  4G18G14G16G19
   3969417.001           0.000    19946297.332           0.000  
  -1684652.003           0.000    23369606.944           0.000  
     91404.001           0.000    20663311.697           0.000  
 -20433642.999           0.000    22124991.190           0.000  
 98  9 28 11 31 45.9970000  0  4G18G14G16G19
   3966020.997           0.000    19945651.032           0.000  
  -1685379.000           0.000    23369468.613           0.000  
     89109.001           0.000    20662874.950           0.000  
 -20439877.999           0.000    22123804.613           0.000  
 98  9 28 11 31 46.9970000  0  4G18G14G16G19
   3962624.999           0.000    19945004.943           0.000  
  -1686104.999           0.000    23369330.363           0.000  
     86814.999           0.000    20662438.314           0.000  
 -20446112.999           0.000    22122618.224           0.000  
 98  9 28 11 31 47.9970000  0  4G18G14G16G19
   3959229.999           0.000    19944358.918           0.000  
  -1686830.998           0.000    23369192.094           0.000  
     84519.999           0.000    20662001.766           0.000  
 -20452347.000           0.000    22121431.889           0.000  
 98  9 28 11 31 48.9970000  0  4G18G14G16G19
   3955835.998           0.000    19943713.161           0.000  
  -1687555.998           0.000    23369053.983           0.000  
     82227.001           0.000    20661565.445           0.000  
 -20458579.998           0.000    22120245.772           0.000  
 98  9 28 11 31 49.9970000  0  4G18G14G16G19
   3952443.000           0.000    19943067.492           0.000  
  -1688280.999           0.000    23368915.974           0.000  
     79933.998           0.000    20661129.155           0.000  
 -20464813.001           0.000    22119059.689           0.000  
 98  9 28 11 31 50.9970000  0  4G18G14G16G19
   3949050.002           0.000    19942422.041           0.000  
  -1689005.999           0.000    23368777.993           0.000  
     77641.998           0.000    20660692.928           0.000  
 -20471045.998           0.000    22117873.737           0.000  
 98  9 28 11 31 51.9970000  0  4G18G14G16G19
   3945657.998           0.000    19941776.694           0.000  
  -1689730.001           0.000    23368640.097           0.000  
     75349.999           0.000    20660256.788           0.000  
 -20477276.999           0.000    22116687.835           0.000  
 98  9 28 11 31 52.9970000  0  4G18G14G16G19
   3942267.002           0.000    19941131.483           0.000  
  -1690453.998           0.000    23368502.317           0.000  
     73058.998           0.000    20659820.732           0.000  
 -20483508.998           0.000    22115502.129           0.000  
 98  9 28 11 31 53.9970000  0  4G18G14G16G19
   3938876.001           0.000    19940486.325           0.000  
  -1691178.000           0.000    23368364.562           0.000  
     70768.002           0.000    20659384.778           0.000  
 -20489739.999           0.000    22114316.475           0.000  
 98  9 28 11 31 54.9970000  0  4G18G14G16G19
   3935485.999           0.000    19939841.261           0.000  
  -1691902.002           0.000    23368226.861           0.000  
     68477.001           0.000    20658948.874           0.000  
 -20495970.001           0.000    22113130.969           0.000  
 98  9 28 11 31 55.9970000  0  4G18G14G16G19
   3932096.002           0.000    19939196.370           0.000  
  -1692625.000           0.000    23368089.191           0.000  
     66186.998           0.000    20658513.054           0.000  
 -20502199.998           0.000    22111945.501           0.000  
 98  9 28 11 31 56.9970000  0  4G18G14G16G19
   3928706.998           0.000    19938551.497           0.000  
  -1693347.999           0.000    23367951.620           0.000  
     63897.001           0.000    20658077.357           0.000  
 -20508430.000           0.000    22110760.083           0.000  
 98  9 28 11 31 57.9970000  0  4G18G14G16G19
   3925318.998           0.000    19937906.894           0.000  
  -1694069.999           0.000    23367814.223           0.000  
     61609.001           0.000    20657641.837           0.000  
 -20514658.000           0.000    22109574.845           0.000  
 98  9 28 11 31 58.9970000  0  4G18G14G16G19
   3921932.001           0.000    19937262.372           0.000  
  -1694791.000           0.000    23367676.957           0.000  
     59321.000           0.000    20657206.440           0.000  
 -20520886.000           0.000    22108389.750           0.000  
 98  9 28 11 31 59.9970000  0  4G18G14G16G19
   3918545.998           0.000    19936617.913           0.000  
  -1695512.001           0.000    23367539.662           0.000  
     57033.000           0.000    20656771.122           0.000  
 -20527113.001           0.000    22107204.705           0.000  
 98  9 28 11 32  0.9970000  0  4G18G14G16G19
   3915160.000           0.000    19935973.544           0.000  
  -1696233.003           0.000    23367402.486           0.000  
     54745.998           0.000    20656335.888           0.000  
 -20533339.998           0.000    22106019.782           0.000  
 98  9 28 11 32  1.9970000  0  4G18G14G16G19
   3911775.999           0.000    19935329.567           0.000  
  -1696953.000           0.000    23367265.493           0.000  
     52460.000           0.000    20655900.823           0.000  
 -20539565.002           0.000    22104835.031           0.000  
 98  9 28 11 32  2.9970000  0  4G18G14G16G19
   3908391.998           0.000    19934685.627           0.000  
  -1697672.998           0.000    23367128.615           0.000  
     50175.000           0.000    20655465.957           0.000  
 -20545790.002           0.000    22103650.427           0.000  
 98  9 28 11 32  3.9970000  0  5G18G14G16G 4G19
   3905009.999           0.000    19934041.978           0.000  
  -1698390.999           0.000    23366991.857           0.000  
     47890.000           0.000    20655031.202           0.000  
   4722991.999           0.000    20607001.980           0.000  
 -20552015.001           0.000    22102465.927           0.000  
 98  9 28 11 32  4.9970000  0  5G18G14G16G 4G19
   3901628.000           0.000    19933398.564           0.000  
  -1699109.998           0.000    23366855.230           0.000  
     45605.999           0.000    20654596.604           0.000  
   4718905.000           0.000    20606230.276           0.000  
 -20558237.999           0.000    22101281.607           0.000  
 98  9 28 11 32  5.9970000  0  5G18G14G16G 4G19
   3898246.001           0.000    19932755.204           0.000  
  -1699827.999           0.000    23366718.640           0.000  
     43323.001           0.000    20654162.093           0.000  
   4714819.998           0.000    20605453.016           0.000  
 -20564461.001           0.000    22100097.329           0.000  
 98  9 28 11 32  6.9970000  0  5G18G14G16G 4G19
   3894865.999           0.000    19932111.895           0.000  
  -1700545.999           0.000    23366582.097           0.000  
     41039.998           0.000    20653727.664           0.000  
   4710735.001           0.000    20604674.272           0.000  
 -20570683.998           0.000    22098913.123           0.000  
 98  9 28 11 32  7.9970000  0  5G18G14G16G 4G19
   3891486.002           0.000    19931468.774           0.000  
  -1701263.002           0.000    23366445.584           0.000  
     38757.001           0.000    20653293.393           0.000  
   4706653.000           0.000    20603897.612           0.000  
 -20576906.002           0.000    22097729.017           0.000  
 98  9 28 11 32  8.9970000  0  5G18G14G16G 4G19
   3888106.999           0.000    19930825.545           0.000  
  -1701979.999           0.000    23366309.205           0.000  
     36475.001           0.000    20652859.190           0.000  
   4702570.001           0.000    20603114.741           0.000  
 -20583127.003           0.000    22096545.011           0.000  
 98  9 28 11 32  9.9970000  0  5G18G14G16G 4G19
   3884728.999           0.000    19930182.527           0.000  
  -1702696.003           0.000    23366173.001           0.000  
     34194.999           0.000    20652425.189           0.000  
   4698491.000           0.000    20602338.674           0.000  
 -20589347.998           0.000    22095361.253           0.000  
 98  9 28 11 32 10.9970000  0  5G18G14G16G 4G19
   3881353.001           0.000    19929539.821           0.000  
  -1703411.003           0.000    23366036.897           0.000  
     31915.002           0.000    20651991.364           0.000  
   4694411.001           0.000    20601559.734           0.000  
 -20595567.001           0.000    22094177.681           0.000  
 98  9 28 11 32 11.9970000  0  5G18G14G16G 4G19
   3877976.000           0.000    19928897.229           0.000  
  -1704125.998           0.000    23365900.880           0.000  
     29635.000           0.000    20651557.658           0.000  
   4690332.999           0.000    20600783.456           0.000  
 -20601785.999           0.000    22092994.175           0.000  
 98  9 28 11 32 12.9970000  0  5G18G14G16G 4G19
   3874601.000           0.000    19928254.582           0.000  
  -1704840.998           0.000    23365764.924           0.000  
     27356.002           0.000    20651124.026           0.000  
   4686253.998           0.000    20600005.928           0.000  
 -20608003.999           0.000    22091810.714           0.000  
 98  9 28 11 32 13.9970000  0  5G18G14G16G 4G19
   3871226.001           0.000    19927609.371           0.000  
  -1705554.999           0.000    23365629.092           0.000  
     25078.001           0.000    20650690.529           0.000  
   4682176.001           0.000    20599230.772           0.000  
 -20614221.999           0.000    22090627.396           0.000  
 98  9 28 11 32 14.9970000  0  5G18G14G16G 4G19
   3867852.000           0.000    19926962.354           0.000  
  -1706269.001           0.000    23365493.292           0.000  
     22800.001           0.000    20650257.105           0.000  
   4678101.000           0.000    20598455.795           0.000  
 -20620439.998           0.000    22089444.206           0.000  
 98  9 28 11 32 15.9970000  0  5G18G14G16G 4G19
   3864478.000           0.000    19926319.536           0.000  
  -1706981.999           0.000    23365357.539           0.000  
     20522.001           0.000    20649823.752           0.000  
   4674024.002           0.000    20597680.703           0.000  
 -20626656.001           0.000    22088261.133           0.000  
 98  9 28 11 32 16.9970000  0  5G18G14G16G 4G19
   3861105.003           0.000    19925677.779           0.000  
  -1707695.002           0.000    23365221.835           0.000  
     18245.000           0.000    20649390.521           0.000  
   4669949.000           0.000    20596906.563           0.000  
 -20632873.002           0.000    22087078.194           0.000  
 98  9 28 11 32 17.9970000  0  5G18G14G16G 4G19
   3857732.999           0.000    19925035.322           0.000  
  -1708408.000           0.000    23365086.250           0.000  
     15969.002           0.000    20648957.411           0.000  
   4665873.000           0.000    20596131.382           0.000  
 -20639088.001           0.000    22085895.416           0.000  
 98  9 28 11 32 18.9970000  0  5G18G14G16G 4G19
   3854361.999           0.000    19924394.410           0.000  
  -1709120.000           0.000    23364950.821           0.000  
     13694.002           0.000    20648524.483           0.000  
   4661800.001           0.000    20595355.485           0.000  
 -20645303.000           0.000    22084712.846           0.000  
 98  9 28 11 32 19.9970000  0  5G18G14G16G 4G19
   3850992.002           0.000    19923753.902           0.000  
  -1709831.999           0.000    23364815.471           0.000  
     11418.998           0.000    20648091.694           0.000  
   4657727.001           0.000    20594579.741           0.000  
 -20651517.001           0.000    22083530.419           0.000  
 98  9 28 11 32 20.9970000  0  5G18G14G16G 4G19
   3847622.999           0.000    19923112.902           0.000  
  -1710542.002           0.000    23364680.252           0.000  
      9145.002           0.000    20647659.059           0.000  
   4653655.001           0.000    20593803.503           0.000  
 -20657729.998           0.000    22082348.170           0.000  
 98  9 28 11 32 21.9970000  0  5G18G14G16G 4G19
   3844254.001           0.000    19922472.283           0.000  
  -1711252.998           0.000    23364545.125           0.000  
      6871.999           0.000    20647226.461           0.000  
   4649583.998           0.000    20593020.893           0.000  
 -20663942.002           0.000    22081166.017           0.000  
 98  9 28 11 32 22.9970000  0  5G18G14G16G 4G19
   3840887.000           0.000    19921831.978           0.000  
  -1711963.000           0.000    23364410.081           0.000  
      4599.002           0.000    20646794.051           0.000  
   4645513.999           0.000    20592245.012           0.000  
 -20670154.000           0.000    22079983.992           0.000  
 98  9 28 11 32 23.9970000  0  5G18G14G16G 4G19
   3837519.999           0.000    19921192.032           0.000  
  -1712671.999           0.000    23364275.168           0.000  
      2326.998           0.000    20646361.772           0.000  
   4641444.999           0.000    20591473.502           0.000  
 -20676365.000           0.000    22078802.159           0.000  
 98  9 28 11 32 24.9970000  0  5G18G14G16G 4G19
   3834154.001           0.000    19920552.257           0.000  
  -1713380.998           0.000    23364140.328           0.000  
        54.999           0.000    20645929.574           0.000  
   4637379.000           0.000    20590705.001           0.000  
 -20682575.002           0.000    22077620.372           0.000  
 98  9 28 11 32 25.9970000  0  5G18G14G16G 4G19
   3830787.999           0.000    19919912.570           0.000  
  -1714090.002           0.000    23364005.597           0.000  
     -2215.003           0.000    20645497.494           0.000  
   4633313.000           0.000    20589934.243           0.000  
 -20688784.998           0.000    22076438.731           0.000  
 98  9 28 11 32 26.9970000  0  5G18G14G16G 4G19
   3827423.000           0.000    19919272.996           0.000  
  -1714798.002           0.000    23363870.848           0.000  
     -4485.998           0.000    20645065.445           0.000  
   4629246.002           0.000    20589169.846           0.000  
 -20694995.000           0.000    22075257.109           0.000  
 98  9 28 11 32 27.9970000  0  5G18G14G16G 4G19
   3824058.999           0.000    19918633.516           0.000  
  -1715505.998           0.000    23363736.223           0.000  
     -6756.000           0.000    20644633.545           0.000  
   4625181.001           0.000    20588402.320           0.000  
 -20701202.999           0.000    22074075.711           0.000  
 98  9 28 11 32 28.9970000  0  5G18G14G16G 4G19
   3820695.997           0.000    19917994.113           0.000  
  -1716213.000           0.000    23363601.723           0.000  
     -9024.998           0.000    20644201.790           0.000  
   4621118.002           0.000    20587628.328           0.000  
 -20707410.998           0.000    22072894.431           0.000  
 98  9 28 11 32 29.9970000  0  5G18G14G16G 4G19
   3817333.999           0.000    19917354.823           0.000  
  -1716920.002           0.000    23363467.339           0.000  
    -11292.998           0.000    20643770.179           0.000  
   4617054.998           0.000    20586852.606           0.000  
 -20713617.999           0.000    22071713.324           0.000  
 98  9 28 11 32 30.9970000  0  5G18G14G16G 4G19
   3813972.001           0.000    19916715.579           0.000  
  -1717626.000           0.000    23363332.971           0.000  
    -13561.003           0.000    20643338.635           0.000  
   4612994.001           0.000    20586070.404           0.000  
 -20719825.000           0.000    22070532.263           0.000  
 98  9 28 11 32 31.9970000  0  5G18G14G16G 4G19
   3810611.001           0.000    19916076.307           0.000  
  -1718331.000           0.000    23363198.759           0.000  
    -15827.999           0.000    20642907.260           0.000  
   4608934.002           0.000    20585293.537           0.000  
 -20726031.003           0.000    22069351.407           0.000  
 98  9 28 11 32 32.9970000  0  5G18G14G16G 4G19
   3807251.000           0.000    19915437.084           0.000  
  -1719036.998           0.000    23363064.577           0.000  
    -18095.000           0.000    20642475.930           0.000  
   4604875.002           0.000    20584519.161           0.000  
 -20732236.001           0.000    22068170.570           0.000  
 98  9 28 11 32 33.9970000  0  5G18G14G16G 4G19
   3803890.998           0.000    19914797.980           0.000  
  -1719741.998           0.000    23362930.487           0.000  
    -20361.003           0.000    20642044.728           0.000  
   4600814.999           0.000    20583747.292           0.000  
 -20738441.000           0.000    22066989.836           0.000  
 98  9 28 11 32 34.9970000  0  5G18G14G16G 4G19
   3800532.999           0.000    19914159.191           0.000  
  -1720447.003           0.000    23362796.448           0.000  
    -22627.000           0.000    20641613.643           0.000  
   4596755.999           0.000    20582975.820           0.000  
 -20744645.000           0.000    22065809.228           0.000  
 98  9 28 11 32 35.9970000  0  5G18G14G16G 4G19
   3797174.002           0.000    19913520.320           0.000  
  -1721150.999           0.000    23362662.450           0.000  
    -24891.999           0.000    20641182.608           0.000  
   4592697.998           0.000    20582205.326           0.000  
 -20750849.001           0.000    22064628.732           0.000  
 98  9 28 11 32 36.9970000  0  4G18G14G16G19
   3793817.999           0.000    19912881.719           0.000  
  -1721854.002           0.000    23362528.681           0.000  
    -27156.000           0.000    20640751.832           0.000  
 -20757050.999           0.000    22063448.478           0.000  
 98  9 28 11 32 37.9960000  0  4G18G14G16G19
   5365884.998           0.000    20212036.467           0.000  
   -147136.999           0.000    23662187.541           0.000  
   1546003.000           0.000    20940114.017           0.000  
 -19187827.001           0.000    22362061.916           0.000  
 98  9 28 11 32 38.9960000  0  4G18G14G16G19
   5362529.001           0.000    20211398.063           0.000  
   -147838.998           0.000    23662053.915           0.000  
   1543739.998           0.000    20939683.467           0.000  
 -19194028.000           0.000    22360881.874           0.000  
 98  9 28 11 32 39.9960000  0  4G18G14G16G19
   5359174.002           0.000    20210759.668           0.000  
   -148540.998           0.000    23661920.344           0.000  
   1541477.999           0.000    20939253.013           0.000  
 -19200229.000           0.000    22359701.924           0.000  
 98  9 28 11 32 40.9960000  0  4G18G14G16G19
   5355820.002           0.000    20210121.299           0.000  
   -149243.002           0.000    23661786.870           0.000  
   1539216.999           0.000    20938822.650           0.000  
 -19206429.001           0.000    22358522.140           0.000  
 98  9 28 11 32 41.9960000  0  4G18G14G16G19
   5352467.000           0.000    20209483.156           0.000  
   -149944.003           0.000    23661653.483           0.000  
   1536955.999           0.000    20938392.458           0.000  
 -19212627.999           0.000    22357342.539           0.000  
 98  9 28 11 32 42.9960000  0  4G18G14G16G19
   5349115.002           0.000    20208845.104           0.000  
   -150644.998           0.000    23661520.079           0.000  
   1534694.999           0.000    20937962.289           0.000  
 -19218827.002           0.000    22356162.964           0.000  
 98  9 28 11 32 43.9960000  0  4G18G14G16G19
   5345762.999           0.000    20208207.149           0.000  
   -151345.000           0.000    23661386.853           0.000  
   1532436.001           0.000    20937532.290           0.000  
 -19225025.001           0.000    22354983.575           0.000  
 98  9 28 11 32 44.9960000  0  4G18G14G16G19
   5342412.000           0.000    20207569.033           0.000  
   -152045.003           0.000    23661253.717           0.000  
   1530176.000           0.000    20937102.420           0.000  
 -19231222.001           0.000    22353804.292           0.000  
 98  9 28 11 32 45.9960000  0  4G18G14G16G19
   5339061.999           0.000    20206931.177           0.000  
   -152745.000           0.000    23661120.644           0.000  
   1527918.000           0.000    20936672.642           0.000  
 -19237419.002           0.000    22352625.095           0.000  
 98  9 28 11 32 46.9960000  0  4G18G14G16G19
   5335711.998           0.000    20206293.462           0.000  
   -153443.998           0.000    23660987.697           0.000  
   1525660.001           0.000    20936243.003           0.000  
 -19243614.999           0.000    22351446.105           0.000  
 98  9 28 11 32 47.9960000  0  4G18G14G16G19
   5332363.000           0.000    20205655.925           0.000  
   -154141.998           0.000    23660854.790           0.000  
   1523403.000           0.000    20935813.481           0.000  
 -19249810.002           0.000    22350267.284           0.000  
 98  9 28 11 32 48.9960000  0  4G18G14G16G19
   5329015.001           0.000    20205018.661           0.000  
   -154839.998           0.000    23660721.993           0.000  
   1521146.997           0.000    20935384.078           0.000  
 -19256005.001           0.000    22349088.617           0.000  
 98  9 28 11 32 49.9960000  0  4G18G14G16G19
   5325666.997           0.000    20204381.568           0.000  
   -155537.999           0.000    23660589.112           0.000  
   1518890.002           0.000    20934954.642           0.000  
 -19262199.999           0.000    22347909.928           0.000  
 98  9 28 11 32 50.9960000  0  4G18G14G16G19
   5322320.002           0.000    20203744.613           0.000  
   -156237.002           0.000    23660456.265           0.000  
   1516633.999           0.000    20934525.229           0.000  
 -19268393.999           0.000    22346731.324           0.000  
 98  9 28 11 32 51.9960000  0  4G18G14G16G19
   5318974.000           0.000    20203107.723           0.000  
   -156933.999           0.000    23660323.540           0.000  
   1514378.002           0.000    20934096.042           0.000  
 -19274587.999           0.000    22345552.900           0.000  
 98  9 28 11 32 52.9960000  0  4G18G14G16G19
   5315627.998           0.000    20202471.176           0.000  
   -157631.000           0.000    23660190.977           0.000  
   1512124.002           0.000    20933667.004           0.000  
 -19280780.002           0.000    22344374.646           0.000  
 98  9 28 11 32 53.9960000  0  4G18G14G16G19
   5312283.998           0.000    20201834.742           0.000  
   -158326.998           0.000    23660058.520           0.000  
   1509870.001           0.000    20933238.129           0.000  
 -19286972.000           0.000    22343196.516           0.000  
 98  9 28 11 32 54.9960000  0  4G18G14G16G19
   5308939.999           0.000    20201198.475           0.000  
   -159023.001           0.000    23659926.190           0.000  
   1507616.999           0.000    20932809.400           0.000  
 -19293162.999           0.000    22342018.471           0.000  
 98  9 28 11 32 55.9960000  0  4G18G14G16G19
   5305598.001           0.000    20200562.344           0.000  
   -159717.002           0.000    23659794.008           0.000  
   1505366.000           0.000    20932380.869           0.000  
 -19299353.000           0.000    22340840.641           0.000  
 98  9 28 11 32 56.9960000  0  4G18G14G16G19
   5302255.998           0.000    20199926.444           0.000  
   -160412.002           0.000    23659661.948           0.000  
   1503114.002           0.000    20931952.480           0.000  
 -19305542.002           0.000    22339662.947           0.000  
 98  9 28 11 32 57.9960000  0  4G18G14G16G19
   5298914.001           0.000    20199290.516           0.000  
   -161105.998           0.000    23659529.876           0.000  
   1500863.002           0.000    20931524.118           0.000  
 -19311731.000           0.000    22338485.284           0.000  
 98  9 28 11 32 58.9960000  0  4G18G14G16G19
   5295574.000           0.000    20198655.082           0.000  
   -161799.000           0.000    23659397.959           0.000  
   1498613.001           0.000    20931095.936           0.000  
 -19317918.998           0.000    22337307.806           0.000  
 98  9 28 11 32 59.9960000  0  4G18G14G16G19
   5292233.999           0.000    20198019.670           0.000  
   -162492.003           0.000    23659266.104           0.000  
   1496363.998           0.000    20930667.912           0.000  
 -19324107.002           0.000    22336130.435           0.000  
 98  9 28 11 33  0.9960000  0  4G18G14G16G19
   5288895.002           0.000    20197384.513           0.000  
   -163185.000           0.000    23659134.353           0.000  
   1494115.000           0.000    20930239.985           0.000  
 -19330292.999           0.000    22334953.277           0.000  
 98  9 28 11 33  1.9960000  0  4G18G14G16G19
   5285556.998           0.000    20196749.545           0.000  
   -163876.999           0.000    23659002.665           0.000  
   1491865.998           0.000    20929812.203           0.000  
 -19336479.001           0.000    22333776.220           0.000  
 98  9 28 11 33  2.9960000  0  4G18G14G16G19
   5282219.000           0.000    20196114.605           0.000  
   -164568.998           0.000    23658871.054           0.000  
   1489619.002           0.000    20929384.499           0.000  
 -19342665.002           0.000    22332599.247           0.000  
 98  9 28 11 33  3.9960000  0  4G18G14G16G19
   5278882.998           0.000    20195479.775           0.000  
   -165259.998           0.000    23658739.548           0.000  
   1487372.002           0.000    20928956.943           0.000  
 -19348850.000           0.000    22331422.361           0.000  
 98  9 28 11 33  4.9960000  0  4G18G14G16G19
   5275545.998           0.000    20194844.913           0.000  
   -165952.002           0.000    23658608.047           0.000  
   1485125.001           0.000    20928529.403           0.000  
 -19355034.000           0.000    22330245.562           0.000  
 98  9 28 11 33  5.9960000  0  4G18G14G16G19
   5272211.000           0.000    20194210.146           0.000  
   -166643.003           0.000    23658476.610           0.000  
   1482878.999           0.000    20928101.913           0.000  
 -19361218.000           0.000    22329068.867           0.000  
 98  9 28 11 33  6.9960000  0  4G18G14G16G19
   5268874.999           0.000    20193575.570           0.000  
   -167332.999           0.000    23658345.207           0.000  
   1480633.002           0.000    20927674.559           0.000  
 -19367401.999           0.000    22327892.321           0.000  
 98  9 28 11 33  7.9960000  0  4G18G14G16G19
   5265540.999           0.000    20192941.034           0.000  
   -168023.001           0.000    23658213.923           0.000  
   1478387.998           0.000    20927247.357           0.000  
 -19373584.002           0.000    22326715.872           0.000  
 98  9 28 11 33  8.9960000  0  4G18G14G16G19
   5262207.998           0.000    20192306.710           0.000  
   -168712.998           0.000    23658082.764           0.000  
   1476143.998           0.000    20926820.280           0.000  
 -19379765.999           0.000    22325539.577           0.000  
 98  9 28 11 33  9.9960000  0  4G18G14G16G19
   5258874.997           0.000    20191672.567           0.000  
   -169402.001           0.000    23657951.662           0.000  
   1473899.998           0.000    20926393.341           0.000  
 -19385948.002           0.000    22324363.423           0.000  
 98  9 28 11 33 10.9960000  0  4G18G14G16G19
   5255543.000           0.000    20191038.258           0.000  
   -170090.999           0.000    23657820.591           0.000  
   1471657.002           0.000    20925966.464           0.000  
 -19392129.001           0.000    22323187.305           0.000  
 98  9 28 11 33 11.9960000  0  4G18G14G16G19
   5252212.001           0.000    20190404.085           0.000  
   -170778.999           0.000    23657689.660           0.000  
   1469414.000           0.000    20925539.679           0.000  
 -19398309.002           0.000    22322011.293           0.000  
 98  9 28 11 33 12.9960000  0  4G18G14G16G19
   5248881.002           0.000    20189770.042           0.000  
   -171466.999           0.000    23657558.787           0.000  
   1467171.997           0.000    20925113.025           0.000  
 -19404487.998           0.000    22320835.426           0.000  
 98  9 28 11 33 14.9960000  0  4G18G14G16G19
   5242221.002           0.000    20188497.469           0.000  
   -172842.998           0.000    23657297.186           0.000  
   1462689.000           0.000    20924259.892           0.000  
 -19416846.003           0.000    22318483.796           0.000  
 98  9 28 11 33 15.9960000  0  4G18G14G16G19
   5238892.000           0.000    20187862.710           0.000  
   -173530.000           0.000    23657166.448           0.000  
   1460448.001           0.000    20923833.510           0.000  
 -19423024.999           0.000    22317308.190           0.000  
 98  9 28 11 33 16.9960000  0  4G18G14G16G19
   5235562.998           0.000    20187230.262           0.000  
   -174217.001           0.000    23657035.806           0.000  
   1458208.000           0.000    20923407.229           0.000  
 -19429201.999           0.000    22316132.708           0.000  
 98  9 28 11 33 17.9960000  0  4G18G14G16G19
   5232235.998           0.000    20186596.032           0.000  
   -174902.999           0.000    23656905.325           0.000  
   1455968.997           0.000    20922981.152           0.000  
 -19435378.999           0.000    22314957.407           0.000  
 98  9 28 11 33 18.9960000  0  4G18G14G16G19
   5228910.002           0.000    20185961.249           0.000  
   -175587.998           0.000    23656774.992           0.000  
   1453730.000           0.000    20922555.239           0.000  
 -19441555.001           0.000    22313782.246           0.000  
 98  9 28 11 33 19.9960000  0  4G18G14G16G19
   5225584.001           0.000    20185326.770           0.000  
   -176273.002           0.000    23656644.769           0.000  
   1451493.000           0.000    20922129.445           0.000  
 -19447729.000           0.000    22312607.277           0.000  
 98  9 28 11 33 20.9960000  0  4G18G14G16G19
   5222258.998           0.000    20184693.765           0.000  
   -176958.001           0.000    23656514.571           0.000  
   1449255.001           0.000    20921703.671           0.000  
 -19453903.998           0.000    22311432.415           0.000  
 98  9 28 11 33 21.9960000  0  4G18G14G16G19
   5218934.999           0.000    20184060.952           0.000  
   -177642.002           0.000    23656384.451           0.000  
   1447018.999           0.000    20921278.058           0.000  
 -19460078.002           0.000    22310257.650           0.000  
 98  9 28 11 33 22.9960000  0  4G18G14G16G19
   5215611.998           0.000    20183428.720           0.000  
   -178326.003           0.000    23656254.440           0.000  
   1444782.998           0.000    20920852.584           0.000  
 -19466250.998           0.000    22309083.023           0.000  
 98  9 28 11 33 23.9960000  0  4G18G14G16G19
   5212290.001           0.000    20182798.079           0.000  
   -179009.000           0.000    23656124.531           0.000  
   1442547.001           0.000    20920427.287           0.000  
 -19472423.000           0.000    22307908.558           0.000  
 98  9 28 11 33 24.9960000  0  4G18G14G16G19
   5208967.999           0.000    20182168.866           0.000  
   -179690.998           0.000    23655994.696           0.000  
   1440313.001           0.000    20920002.139           0.000  
 -19478595.003           0.000    22306734.203           0.000  
 98  9 28 11 33 25.9960000  0  4G18G14G16G19
   5205647.999           0.000    20181539.124           0.000  
   -180374.000           0.000    23655864.992           0.000  
   1438079.002           0.000    20919577.048           0.000  
 -19484765.003           0.000    22305560.006           0.000  
 98  9 28 11 33 26.9960000  0  4G18G14G16G19
   5202327.000           0.000    20180909.401           0.000  
   -181055.000           0.000    23655735.292           0.000  
   1435846.000           0.000    20919152.049           0.000  
 -19490936.001           0.000    22304385.875           0.000  
 98  9 28 11 33 27.9960000  0  4G18G14G16G19
   5199007.999           0.000    20180277.987           0.000  
   -181736.999           0.000    23655605.631           0.000  
   1433612.999           0.000    20918727.162           0.000  
 -19497104.998           0.000    22303211.857           0.000  
 98  9 28 11 33 28.9960000  0  4G18G14G16G19
   5195689.002           0.000    20179647.024           0.000  
   -182417.999           0.000    23655476.095           0.000  
   1431381.002           0.000    20918302.355           0.000  
 -19503274.000           0.000    22302037.957           0.000  
 98  9 28 11 33 29.9960000  0  4G18G14G16G19
   5192370.999           0.000    20179016.271           0.000  
   -183098.999           0.000    23655346.635           0.000  
   1429148.999           0.000    20917877.635           0.000  
 -19509443.001           0.000    22300864.116           0.000  
 98  9 28 11 33 30.9960000  0  4G18G14G16G19
   5189054.000           0.000    20178385.443           0.000  
   -183779.001           0.000    23655217.256           0.000  
   1426918.000           0.000    20917453.077           0.000  
 -19515611.000           0.000    22299690.465           0.000  
 98  9 28 11 33 31.9960000  0  4G18G14G16G19
   5185737.001           0.000    20177754.318           0.000  
   -184459.002           0.000    23655087.939           0.000  
   1424687.001           0.000    20917028.593           0.000  
 -19521777.999           0.000    22298516.980           0.000  
 98  9 28 11 33 32.9960000  0  4G18G14G16G19
   5182421.000           0.000    20177123.318           0.000  
   -185138.998           0.000    23654958.587           0.000  
   1422457.000           0.000    20916604.177           0.000  
 -19527944.999           0.000    22297343.565           0.000  
 98  9 28 11 33 33.9960000  0  4G18G14G16G19
   5179106.002           0.000    20176492.716           0.000  
   -185818.002           0.000    23654829.374           0.000  
   1420227.000           0.000    20916179.905           0.000  
 -19534111.000           0.000    22296170.261           0.000  
 98  9 28 11 33 34.9960000  0  4G18G14G16G19
   5175791.998           0.000    20175861.728           0.000  
   -186496.999           0.000    23654700.279           0.000  
   1417999.001           0.000    20915755.744           0.000  
 -19540276.002           0.000    22294997.085           0.000  
 98  9 28 11 33 35.9960000  0  4G18G14G16G19
   5172478.998           0.000    20175230.398           0.000  
   -187174.999           0.000    23654571.219           0.000  
   1415770.998           0.000    20915331.740           0.000  
 -19546440.001           0.000    22293824.051           0.000  
 98  9 28 11 33 36.9960000  0  4G18G14G16G19
   5169165.998           0.000    20174600.420           0.000  
   -187852.000           0.000    23654442.299           0.000  
   1413542.999           0.000    20914907.848           0.000  
 -19552604.000           0.000    22292651.111           0.000  
 98  9 28 11 33 37.9960000  0  4G18G14G16G19
   5165854.001           0.000    20173970.430           0.000  
   -188529.999           0.000    23654313.416           0.000  
   1411315.999           0.000    20914484.010           0.000  
 -19558767.001           0.000    22291478.218           0.000  
 98  9 28 11 33 38.9960000  0  4G18G14G16G19
   5162542.998           0.000    20173339.763           0.000  
   -189207.000           0.000    23654184.663           0.000  
   1409089.998           0.000    20914060.369           0.000  
 -19564930.001           0.000    22290305.490           0.000  
 98  9 28 11 33 39.9960000  0  4G18G14G16G19
   5159232.998           0.000    20172709.179           0.000  
   -189883.003           0.000    23654055.954           0.000  
   1406864.002           0.000    20913636.835           0.000  
 -19571091.000           0.000    22289132.947           0.000  
 98  9 28 11 33 40.9960000  0  4G18G14G16G19
   5155924.002           0.000    20172079.456           0.000  
   -190559.000           0.000    23653927.292           0.000  
   1404638.999           0.000    20913213.314           0.000  
 -19577253.002           0.000    22287960.548           0.000  
 98  9 28 11 33 41.9960000  0  4G18G14G16G19
   5152614.002           0.000    20171449.408           0.000  
   -191235.003           0.000    23653798.749           0.000  
   1402414.999           0.000    20912789.872           0.000  
 -19583414.000           0.000    22286788.199           0.000  
 98  9 28 11 33 42.9960000  0  4G18G14G16G19
   5149305.999           0.000    20170819.076           0.000  
   -191911.000           0.000    23653670.233           0.000  
   1400190.001           0.000    20912366.572           0.000  
 -19589574.000           0.000    22285615.949           0.000  
 98  9 28 11 33 43.9960000  0  4G18G14G16G19
   5145999.000           0.000    20170189.470           0.000  
   -192585.999           0.000    23653541.748           0.000  
   1397967.001           0.000    20911943.384           0.000  
 -19595733.001           0.000    22284443.840           0.000  
 98  9 28 11 33 44.9960000  0  4G18G14G16G19
   5142692.001           0.000    20169559.750           0.000  
   -193261.003           0.000    23653413.374           0.000  
   1395744.000           0.000    20911520.300           0.000  
 -19601892.003           0.000    22283271.853           0.000  
 98  9 28 11 33 45.9960000  0  4G18G14G16G19
   5139386.001           0.000    20168924.743           0.000  
   -193934.998           0.000    23653285.036           0.000  
   1393521.997           0.000    20911097.316           0.000  
 -19608050.999           0.000    22282099.921           0.000  
 98  9 28 11 33 46.9960000  0  4G18G14G16G19
   5136080.999           0.000    20168295.557           0.000  
   -194610.002           0.000    23653156.762           0.000  
   1391300.000           0.000    20910674.412           0.000  
 -19614209.002           0.000    22280928.127           0.000  
 98  9 28 11 33 47.9960000  0  4G18G14G16G19
   5132776.002           0.000    20167667.168           0.000  
   -195282.998           0.000    23653028.490           0.000  
   1389077.998           0.000    20910251.534           0.000  
 -19620366.001           0.000    22279756.396           0.000  
 98  9 28 11 33 48.9960000  0  4G18G14G16G19
   5129471.998           0.000    20167039.168           0.000  
   -195956.999           0.000    23652900.340           0.000  
   1386856.999           0.000    20909828.852           0.000  
 -19626522.002           0.000    22278584.818           0.000  
 98  9 28 11 33 49.9960000  0  4G18G14G16G19
   5126168.998           0.000    20166410.153           0.000  
   -196630.001           0.000    23652772.289           0.000  
   1384636.999           0.000    20909406.281           0.000  
 -19632678.003           0.000    22277413.333           0.000  
 98  9 28 11 33 50.9960000  0  4G18G14G16G19
   5122867.002           0.000    20165781.853           0.000  
   -197301.999           0.000    23652644.234           0.000  
   1382416.999           0.000    20908983.856           0.000  
 -19638833.998           0.000    22276241.956           0.000  
 98  9 28 11 33 51.9960000  0  4G18G14G16G19
   5119565.000           0.000    20165154.342           0.000  
   -197974.002           0.000    23652516.218           0.000  
   1380198.002           0.000    20908561.520           0.000  
 -19644989.001           0.000    22275070.702           0.000  
 98  9 28 11 33 52.9960000  0  4G18G14G16G19
   5116265.001           0.000    20164526.634           0.000  
   -198646.000           0.000    23652388.376           0.000  
   1377979.999           0.000    20908139.303           0.000  
 -19651142.999           0.000    22273899.598           0.000  
 98  9 28 11 33 53.9960000  0  4G18G14G16G19
   5112965.001           0.000    20163898.938           0.000  
   -199317.000           0.000    23652260.667           0.000  
   1375762.001           0.000    20907717.253           0.000  
 -19657295.999           0.000    22272728.660           0.000  
 98  9 28 11 33 54.9960000  0  4G18G14G16G19
   5109666.000           0.000    20163271.770           0.000  
   -199988.000           0.000    23652132.989           0.000  
   1373545.001           0.000    20907295.264           0.000  
 -19663448.001           0.000    22271557.822           0.000  
 98  9 28 11 33 55.9960000  0  4G18G14G16G19
   5106367.000           0.000    20162644.879           0.000  
   -200658.001           0.000    23652005.355           0.000  
   1371328.001           0.000    20906873.420           0.000  
 -19669600.003           0.000    22270387.137           0.000  
 98  9 28 11 33 56.9960000  0  4G18G14G16G19
   5103070.001           0.000    20162017.143           0.000  
   -201329.001           0.000    23651877.743           0.000  
   1369112.000           0.000    20906451.637           0.000  
 -19675751.999           0.000    22269216.530           0.000  
 98  9 28 11 33 57.9960000  0  4G18G14G16G19
   5099773.002           0.000    20161389.758           0.000  
   -201997.998           0.000    23651750.306           0.000  
   1366895.999           0.000    20906029.996           0.000  
 -19681903.002           0.000    22268046.043           0.000  
 98  9 28 11 33 58.9960000  0  4G18G14G16G19
   5096475.998           0.000    20160762.975           0.000  
   -202667.001           0.000    23651622.914           0.000  
   1364681.002           0.000    20905608.530           0.000  
 -19688053.002           0.000    22266875.655           0.000  
 98  9 28 11 33 59.9960000  0  4G18G14G16G19
   5093181.001           0.000    20160142.106           0.000  
   -203335.999           0.000    23651495.667           0.000  
   1362466.997           0.000    20905187.225           0.000  
 -19694201.998           0.000    22265705.458           0.000  
 98  9 28 11 34  0.9960000  0  4G18G14G16G19
   5089886.998           0.000    20159517.903           0.000  
   -204003.998           0.000    23651368.473           0.000  
   1360252.998           0.000    20904765.945           0.000  
 -19700350.999           0.000    22264535.351           0.000  
 98  9 28 11 34  1.9960000  0  5G 7G18G14G16G19
   6300941.000           0.000    24271924.139           0.000  
   5086593.000           0.000    20158892.026           0.000  
   -204672.002           0.000    23651241.356           0.000  
   1358039.998           0.000    20904344.718           0.000  
 -19706499.002           0.000    22263365.319           0.000  
 98  9 28 11 34  2.9960000  0  5G 7G18G14G16G19
   6300562.002           0.000    24271848.206           0.000  
   5083299.002           0.000    20158265.238           0.000  
   -205341.000           0.000    23651114.224           0.000  
   1355826.997           0.000    20903923.583           0.000  
 -19712646.999           0.000    22262195.326           0.000  
 98  9 28 11 34  3.9960000  0  5G 7G18G14G16G19
   6300184.002           0.000    24271778.396           0.000  
   5080006.002           0.000    20157638.867           0.000  
   -206008.000           0.000    23650987.054           0.000  
   1353614.002           0.000    20903502.511           0.000  
 -19718795.002           0.000    22261025.421           0.000  
 98  9 28 11 34  4.9960000  0  5G 7G18G14G16G19
   6299807.000           0.000    24271708.837           0.000  
   5076714.001           0.000    20157012.213           0.000  
   -206675.999           0.000    23650860.001           0.000  
   1351402.000           0.000    20903081.615           0.000  
 -19724942.000           0.000    22259855.650           0.000  
 98  9 28 11 34  5.9960000  0  5G 7G18G14G16G19
   6299431.002           0.000    24271637.303           0.000  
   5073422.998           0.000    20156384.854           0.000  
   -207342.002           0.000    23650733.157           0.000  
   1349192.000           0.000    20902660.903           0.000  
 -19731087.002           0.000    22258686.027           0.000  
 98  9 28 11 34  6.9960000  0  5G 7G18G14G16G19
   6299054.999           0.000    24271565.634           0.000  
   5070132.001           0.000    20155757.986           0.000  
   -208009.002           0.000    23650606.337           0.000  
   1346981.002           0.000    20902240.200           0.000  
 -19737232.998           0.000    22257516.495           0.000  
 98  9 28 11 34  7.9960000  0  5G 7G18G14G16G19
   6298677.998           0.000    24271492.933           0.000  
   5066842.002           0.000    20155131.734           0.000  
   -208674.999           0.000    23650479.556           0.000  
   1344769.998           0.000    20901819.522           0.000  
 -19743378.000           0.000    22256347.087           0.000  
 98  9 28 11 34  8.9960000  0  5G 7G18G14G16G19
   6298301.002           0.000    24271425.511           0.000  
   5063553.001           0.000    20154505.189           0.000  
   -209341.001           0.000    23650352.854           0.000  
   1342561.002           0.000    20901399.012           0.000  
 -19749521.998           0.000    22255177.846           0.000  
 98  9 28 11 34  9.9960000  0  5G 7G18G14G16G19
   6297924.000           0.000    24271355.073           0.000  
   5060264.999           0.000    20153879.224           0.000  
   -210006.000           0.000    23650226.261           0.000  
   1340352.000           0.000    20900978.609           0.000  
 -19755666.001           0.000    22254008.725           0.000  
 98  9 28 11 34 10.9960000  0  5G 7G18G14G16G19
   6297546.999           0.000    24271282.542           0.000  
   5056977.002           0.000    20153253.371           0.000  
   -210670.998           0.000    23650099.770           0.000  
   1338142.999           0.000    20900558.363           0.000  
 -19761809.001           0.000    22252839.773           0.000  
 98  9 28 11 34 11.9960000  0  5G 7G18G14G16G19
   6297171.999           0.000    24271209.639           0.000  
   5053689.999           0.000    20152628.075           0.000  
   -211334.998           0.000    23649973.342           0.000  
   1335935.001           0.000    20900138.223           0.000  
 -19767952.001           0.000    22251670.914           0.000  
 98  9 28 11 34 12.9960000  0  6G 7G18G14G16G 4G19
   6296797.000           0.000    24271139.235           0.000  
   5050405.002           0.000    20152003.196           0.000  
   -211998.998           0.000    23649847.058           0.000  
   1333728.002           0.000    20899718.293           0.000  
   6297668.001           0.000    20807919.756           0.000  
 -19774092.999           0.000    22250502.219           0.000  
 98  9 28 11 34 13.9960000  0  6G 7G18G14G16G 4G19
   6296422.999           0.000    24271069.268           0.000  
   5047120.001           0.000    20151378.468           0.000  
   -212662.000           0.000    23649720.851           0.000  
   1331522.001           0.000    20899298.470           0.000  
   6293698.001           0.000    20807152.212           0.000  
 -19780234.002           0.000    22249333.643           0.000  
 98  9 28 11 34 14.9960000  0  6G 7G18G14G16G 4G19
   6296048.000           0.000    24270997.832           0.000  
   5043834.999           0.000    20150753.983           0.000  
   -213325.001           0.000    23649594.667           0.000  
   1329316.000           0.000    20898878.703           0.000  
   6289730.002           0.000    20806397.196           0.000  
 -19786374.001           0.000    22248165.157           0.000  
 98  9 28 11 34 15.9960000  0  6G 7G18G14G16G 4G19
   6295673.999           0.000    24270926.138           0.000  
   5040552.000           0.000    20150129.886           0.000  
   -213987.998           0.000    23649468.500           0.000  
   1327110.998           0.000    20898459.002           0.000  
   6285763.002           0.000    20805640.727           0.000  
 -19792514.000           0.000    22246996.804           0.000  
 98  9 28 11 34 16.9960000  0  6G 7G18G14G16G 4G19
   6295299.000           0.000    24270854.570           0.000  
   5037269.001           0.000    20149505.809           0.000  
   -214650.001           0.000    23649342.413           0.000  
   1324906.001           0.000    20898039.467           0.000  
   6281793.001           0.000    20804888.052           0.000  
 -19798653.001           0.000    22245828.588           0.000  
 98  9 28 11 34 17.9960000  0  6G 7G18G14G16G 4G19
   6294927.001           0.000    24270783.363           0.000  
   5033987.000           0.000    20148881.509           0.000  
   -215311.999           0.000    23649216.429           0.000  
   1322702.002           0.000    20897620.058           0.000  
   6277826.001           0.000    20804133.825           0.000  
 -19804790.998           0.000    22244660.454           0.000  
 98  9 28 11 34 18.9960000  0  6G 7G18G14G16G 4G19
   6294553.000           0.000    24270712.547           0.000  
   5030704.999           0.000    20148257.398           0.000  
   -215972.998           0.000    23649090.489           0.000  
   1320497.998           0.000    20897200.676           0.000  
   6273859.001           0.000    20803379.388           0.000  
 -19810929.000           0.000    22243492.376           0.000  
 98  9 28 11 34 19.9960000  0  6G 7G18G14G16G 4G19
   6294178.999           0.000    24270641.478           0.000  
   5027425.000           0.000    20147633.618           0.000  
   -216634.003           0.000    23648964.634           0.000  
   1318294.998           0.000    20896781.468           0.000  
   6269893.998           0.000    20802623.390           0.000  
 -19817065.999           0.000    22242324.452           0.000  
 98  9 28 11 34 20.9960000  0  6G 7G18G14G16G 4G19
   6293806.002           0.000    24270570.828           0.000  
   5024145.001           0.000    20147010.033           0.000  
   -217295.002           0.000    23648838.839           0.000  
   1316093.002           0.000    20896362.380           0.000  
   6265929.999           0.000    20801868.153           0.000  
 -19823203.003           0.000    22241156.616           0.000  
 98  9 28 11 34 21.9960000  0  6G 7G18G14G16G 4G19
   6293433.000           0.000    24270499.277           0.000  
   5020864.998           0.000    20146386.528           0.000  
   -217956.001           0.000    23648713.091           0.000  
   1313891.000           0.000    20895943.348           0.000  
   6261966.000           0.000    20801113.810           0.000  
 -19829339.003           0.000    22239988.927           0.000  
 98  9 28 11 34 22.9960000  0  6G 7G18G14G16G 4G19
   6293058.999           0.000    24270427.591           0.000  
   5017587.001           0.000    20145762.977           0.000  
   -218616.002           0.000    23648587.430           0.000  
   1311688.998           0.000    20895524.375           0.000  
   6258002.999           0.000    20800358.632           0.000  
 -19835474.998           0.000    22238821.301           0.000  
 98  9 28 11 34 23.9960000  0  6G 7G18G14G16G 4G19
   6292687.000           0.000    24270357.199           0.000  
   5014308.001           0.000    20145139.340           0.000  
   -219275.998           0.000    23648461.808           0.000  
   1309488.000           0.000    20895105.512           0.000  
   6254041.001           0.000    20799598.846           0.000  
 -19841609.999           0.000    22237653.794           0.000  
 98  9 28 11 34 24.9960000  0  6G 7G18G14G16G 4G19
   6292312.999           0.000    24270285.447           0.000  
   5011029.999           0.000    20144515.708           0.000  
   -219935.999           0.000    23648336.194           0.000  
   1307287.002           0.000    20894686.670           0.000  
   6250081.001           0.000    20798842.447           0.000  
 -19847745.001           0.000    22236486.361           0.000  
 98  9 28 11 34 25.9960000  0  5G18G14G16G 4G19
   5007753.999           0.000    20143892.105           0.000  
   -220595.001           0.000    23648210.668           0.000  
   1305085.999           0.000    20894267.965           0.000  
   6246118.999           0.000    20798091.711           0.000  
 -19853878.999           0.000    22235319.057           0.000  
 98  9 28 11 34 26.9960000  0  5G18G14G16G 4G19
   5004477.001           0.000    20143268.441           0.000  
   -221253.999           0.000    23648085.294           0.000  
   1302886.998           0.000    20893849.371           0.000  
   6242158.998           0.000    20797338.459           0.000  
 -19860013.002           0.000    22234151.920           0.000  
 98  9 28 11 34 27.9960000  0  5G18G14G16G 4G19
   5001202.000           0.000    20142644.964           0.000  
   -221913.001           0.000    23647960.030           0.000  
   1300688.002           0.000    20893430.909           0.000  
   6238201.000           0.000    20796584.478           0.000  
 -19866144.998           0.000    22232984.872           0.000  
 98  9 28 11 34 28.9960000  0  6G 7G18G14G16G 4G19
   6301112.997           0.000    24269999.889           0.000  
   4997927.997           0.000    20142021.524           0.000  
   -222571.000           0.000    23647834.801           0.000  
   1298489.001           0.000    20893012.630           0.000  
   6234241.000           0.000    20795831.104           0.000  
 -19872276.999           0.000    22231817.999           0.000  
 98  9 28 11 34 29.9960000  0  6G 7G18G14G16G 4G19
   6300749.002           0.000    24269933.944           0.000  
   4994654.000           0.000    20141398.375           0.000  
   -223228.000           0.000    23647709.676           0.000  
   1296292.002           0.000    20892594.413           0.000  
   6230284.000           0.000    20795079.850           0.000  
 -19878408.002           0.000    22230651.223           0.000  
 98  9 28 11 34 30.9960000  0  6G 7G18G14G16G 4G19
   6300379.000           0.000    24269863.709           0.000  
   4991381.999           0.000    20140775.415           0.000  
   -223885.000           0.000    23647584.740           0.000  
   1294094.997           0.000    20892176.426           0.000  
   6226327.999           0.000    20794326.948           0.000  
 -19884538.999           0.000    22229484.649           0.000  
 98  9 28 11 34 31.9960000  0  6G 7G18G14G16G 4G19
   6300010.002           0.000    24269796.839           0.000  
   4988109.999           0.000    20140152.601           0.000  
   -224541.002           0.000    23647459.854           0.000  
   1291899.002           0.000    20891758.513           0.000  
   6222373.002           0.000    20793574.026           0.000  
 -19890667.999           0.000    22228318.217           0.000  
 98  9 28 11 34 32.9960000  0  6G 7G18G14G16G 4G19
   6299640.999           0.000    24269726.359           0.000  
   4984839.002           0.000    20139530.050           0.000  
   -225196.999           0.000    23647335.031           0.000  
   1289703.002           0.000    20891340.712           0.000  
   6218417.999           0.000    20792821.862           0.000  
 -19896797.000           0.000    22227151.880           0.000  
 98  9 28 11 34 33.9960000  0  6G 7G18G14G16G 4G19
   6299272.001           0.000    24269654.301           0.000  
   4981568.998           0.000    20138907.610           0.000  
   -225852.002           0.000    23647210.274           0.000  
   1287508.000           0.000    20890922.979           0.000  
   6214464.000           0.000    20792069.668           0.000  
 -19902926.000           0.000    22225985.660           0.000  
 98  9 28 11 34 34.9960000  0  6G 7G18G14G16G 4G19
   6298902.998           0.000    24269581.991           0.000  
   4978299.000           0.000    20138285.381           0.000  
   -226507.000           0.000    23647085.680           0.000  
   1285314.001           0.000    20890505.367           0.000  
   6210511.998           0.000    20791318.450           0.000  
 -19909052.998           0.000    22224819.607           0.000  
 98  9 28 11 34 35.9960000  0  6G 7G18G14G16G 4G19
   6298534.998           0.000    24269512.250           0.000  
   4975030.999           0.000    20137663.264           0.000  
   -227161.998           0.000    23646961.108           0.000  
   1283119.998           0.000    20890087.864           0.000  
   6206560.001           0.000    20790567.245           0.000  
 -19915180.002           0.000    22223653.697           0.000  
 98  9 28 11 34 36.9960000  0  6G 7G18G14G16G 4G19
   6298168.002           0.000    24269442.497           0.000  
   4971763.002           0.000    20137041.278           0.000  
   -227815.998           0.000    23646836.604           0.000  
   1280926.998           0.000    20889670.465           0.000  
   6202610.001           0.000    20789815.180           0.000  
 -19921307.000           0.000    22222487.878           0.000  
 98  9 28 11 34 37.9960000  0  6G 7G18G14G16G 4G19
   6297800.002           0.000    24269371.300           0.000  
   4968495.001           0.000    20136419.173           0.000  
   -228471.001           0.000    23646712.053           0.000  
   1278732.999           0.000    20889253.035           0.000  
   6198659.002           0.000    20789063.367           0.000  
 -19927433.000           0.000    22221322.050           0.000  
 98  9 28 11 34 40.9960000  0  6G 7G18G14G16G 4G19
   6296698.999           0.000    24269160.570           0.000  
   4958695.999           0.000    20134546.273           0.000  
   -230432.002           0.000    23646338.758           0.000  
   1272157.000           0.000    20888001.461           0.000  
   6186816.002           0.000    20786811.813           0.000  
 -19945809.002           0.000    22217825.237           0.000  
 98  9 28 11 34 41.9960000  0  6G 7G18G14G16G 4G19
   6296331.998           0.000    24269090.427           0.000  
   4955430.998           0.000    20133923.610           0.000  
   -231084.998           0.000    23646214.494           0.000  
   1269965.998           0.000    20887584.533           0.000  
   6182870.001           0.000    20786060.852           0.000  
 -19951933.000           0.000    22216659.960           0.000  
 98  9 28 11 34 42.9960000  0  6G 7G18G14G16G 4G19
   6295966.000           0.000    24269020.882           0.000  
   4952168.000           0.000    20133300.245           0.000  
   -231737.001           0.000    23646090.377           0.000  
   1267775.998           0.000    20887167.721           0.000  
   6178924.001           0.000    20785310.115           0.000  
 -19958055.999           0.000    22215494.860           0.000  
 98  9 28 11 34 43.9960000  0  6G 7G18G14G16G 4G19
   6295601.001           0.000    24268951.467           0.000  
   4948906.000           0.000    20132679.219           0.000  
   -232388.000           0.000    23645966.494           0.000  
   1265586.997           0.000    20886751.132           0.000  
   6174978.000           0.000    20784559.355           0.000  
 -19964177.001           0.000    22214329.925           0.000  
 98  9 28 11 34 44.9960000  0  6G 7G18G14G16G 4G19
   6295237.001           0.000    24268882.054           0.000  
   4945643.999           0.000    20132059.150           0.000  
   -233038.999           0.000    23645842.627           0.000  
   1263398.002           0.000    20886334.670           0.000  
   6171034.001           0.000    20783808.923           0.000  
 -19970299.002           0.000    22213165.097           0.000  
 98  9 28 11 34 45.9960000  0  6G 7G18G14G16G 4G19
   6294873.000           0.000    24268812.329           0.000  
   4942384.001           0.000    20131438.650           0.000  
   -233688.999           0.000    23645718.847           0.000  
   1261210.000           0.000    20885918.368           0.000  
   6167091.001           0.000    20783059.826           0.000  
 -19976419.001           0.000    22212000.447           0.000  
 98  9 28 11 34 46.9960000  0  6G 7G18G14G16G 4G19
   6294509.998           0.000    24268742.923           0.000  
   4939123.998           0.000    20130819.456           0.000  
   -234339.000           0.000    23645595.233           0.000  
   1259023.001           0.000    20885502.193           0.000  
   6163149.997           0.000    20782310.501           0.000  
 -19982538.999           0.000    22210835.965           0.000  
 98  9 28 11 34 47.9960000  0  6G 7G18G14G16G 4G19
   6294147.001           0.000    24268674.102           0.000  
   4935866.002           0.000    20130199.262           0.000  
   -234986.998           0.000    23645471.845           0.000  
   1256837.999           0.000    20885086.326           0.000  
   6159211.001           0.000    20781561.761           0.000  
 -19988657.001           0.000    22209671.772           0.000  
 98  9 28 11 34 48.9960000  0  6G 7G18G14G16G 4G19
   6293786.001           0.000    24268605.123           0.000  
   4932609.998           0.000    20129580.163           0.000  
   -235633.998           0.000    23645348.632           0.000  
   1254654.001           0.000    20884670.729           0.000  
   6155275.001           0.000    20780813.180           0.000  
 -19994773.999           0.000    22208507.875           0.000  
 98  9 28 11 34 49.9960000  0  6G 7G18G14G16G 4G19
   6293426.998           0.000    24268536.423           0.000  
   4929354.997           0.000    20128960.189           0.000  
   -236280.000           0.000    23645225.657           0.000  
   1252471.002           0.000    20884255.364           0.000  
   6151338.002           0.000    20780065.584           0.000  
 -20000889.000           0.000    22207344.236           0.000  
 98  9 28 11 34 50.9960000  0  6G 7G18G14G16G 4G19
   6293067.002           0.000    24268468.041           0.000  
   4926101.001           0.000    20128341.182           0.000  
   -236926.001           0.000    23645102.830           0.000  
   1250289.001           0.000    20883840.143           0.000  
   6147403.000           0.000    20779317.469           0.000  
 -20007004.001           0.000    22206180.694           0.000  
 98  9 28 11 34 51.9960000  0  6G 7G18G14G16G 4G19
   6292707.999           0.000    24268399.263           0.000  
   4922846.999           0.000    20127721.023           0.000  
   -237570.999           0.000    23644980.022           0.000  
   1248107.000           0.000    20883425.001           0.000  
   6143469.001           0.000    20778569.093           0.000  
 -20013117.998           0.000    22205017.272           0.000  
 98  9 28 11 34 52.9960000  0  6G 7G18G14G16G 4G19
   6292349.001           0.000    24268330.678           0.000  
   4919594.999           0.000    20127101.851           0.000  
   -238216.002           0.000    23644857.268           0.000  
   1245926.002           0.000    20883010.000           0.000  
   6139534.998           0.000    20777820.188           0.000  
 -20019232.001           0.000    22203853.937           0.000  
 98  9 28 11 34 53.9960000  0  6G 7G18G14G16G 4G19
   6291989.998           0.000    24268261.895           0.000  
   4916342.000           0.000    20126483.301           0.000  
   -238861.000           0.000    23644734.474           0.000  
   1243745.000           0.000    20882594.973           0.000  
   6135603.002           0.000    20777072.349           0.000  
 -20025344.999           0.000    22202690.633           0.000  
 98  9 28 11 34 54.9960000  0  6G 7G18G14G16G 4G19
   6291630.002           0.000    24268193.036           0.000  
   4913090.999           0.000    20125865.408           0.000  
   -239505.998           0.000    23644611.696           0.000  
   1241564.002           0.000    20882180.016           0.000  
   6131671.000           0.000    20776324.119           0.000  
 -20031457.998           0.000    22201527.399           0.000  
 98  9 28 11 34 55.9960000  0  6G 7G18G14G16G 4G19
   6291271.998           0.000    24268124.645           0.000  
   4909839.998           0.000    20125247.472           0.000  
   -240150.003           0.000    23644489.020           0.000  
   1239383.998           0.000    20881765.154           0.000  
   6127740.002           0.000    20775576.461           0.000  
 -20037571.002           0.000    22200364.314           0.000  
 98  9 28 11 34 56.9960000  0  6G 7G18G14G16G 4G19
   6290913.000           0.000    24268056.265           0.000  
   4906589.001           0.000    20124629.995           0.000  
   -240794.002           0.000    23644366.349           0.000  
   1237203.999           0.000    20881350.392           0.000  
   6123808.999           0.000    20774829.535           0.000  
 -20043683.003           0.000    22199201.323           0.000  
 98  9 28 11 34 57.9960000  0  6G 7G18G14G16G 4G19
   6290555.001           0.000    24267987.665           0.000  
   4903340.002           0.000    20124012.643           0.000  
   -241438.001           0.000    23644243.852           0.000  
   1235024.999           0.000    20880935.729           0.000  
   6119881.002           0.000    20774090.351           0.000  
 -20049793.999           0.000    22198038.414           0.000  
 98  9 28 11 34 58.9960000  0  6G 7G18G14G16G 4G19
   6290198.000           0.000    24267919.318           0.000  
   4900090.998           0.000    20123395.332           0.000  
   -242081.002           0.000    23644121.504           0.000  
   1232847.002           0.000    20880521.221           0.000  
   6115949.999           0.000    20773340.985           0.000  
 -20055905.001           0.000    22196875.706           0.000  
 98  9 28 11 34 59.9960000  0  5G18G14G16G 4G19
   4896844.001           0.000    20122778.282           0.000  
   -242722.999           0.000    23643999.312           0.000  
   1230669.998           0.000    20880106.895           0.000  
   6112023.999           0.000    20772595.731           0.000  
 -20062014.001           0.000    22195713.212           0.000  
 98  9 28 11 35  0.9960000  0  5G18G14G16G 4G19
   4893599.000           0.000    20122161.047           0.000  
   -243363.000           0.000    23643877.448           0.000  
   1228495.002           0.000    20879692.983           0.000  
   6108100.001           0.000    20771849.087           0.000  
 -20068122.002           0.000    22194551.116           0.000  
 98  9 28 11 35  1.9960000  0  5G18G14G16G 4G19
   4890357.001           0.000    20121544.216           0.000  
   -244000.998           0.000    23643755.961           0.000  
   1226321.998           0.000    20879279.498           0.000  
   6104177.001           0.000    20771103.681           0.000  
 -20074226.998           0.000    22193389.429           0.000  
 98  9 28 11 35  2.9960000  0  5G18G14G16G 4G19
   4887116.000           0.000    20120927.906           0.000  
   -244638.002           0.000    23643634.731           0.000  
   1224150.002           0.000    20878866.243           0.000  
   6100255.000           0.000    20770358.819           0.000  
 -20080331.000           0.000    22192227.988           0.000  
 98  9 28 11 35  3.9960000  0  5G18G14G16G 4G19
   4883877.001           0.000    20120311.904           0.000  
   -245273.998           0.000    23643513.805           0.000  
   1221979.998           0.000    20878453.271           0.000  
   6096336.998           0.000    20769613.548           0.000  
 -20086433.000           0.000    22191066.875           0.000  
 98  9 28 11 35  4.9960000  0  5G18G14G16G 4G19
   4880639.999           0.000    20119696.282           0.000  
   -245906.999           0.000    23643393.303           0.000  
   1219812.002           0.000    20878040.792           0.000  
   6092420.000           0.000    20768868.106           0.000  
 -20092532.998           0.000    22189906.235           0.000  
 98  9 28 11 35  5.9960000  0  5G18G14G16G 4G19
   4877407.001           0.000    20119081.186           0.000  
   -246538.003           0.000    23643273.209           0.000  
   1217647.001           0.000    20877628.676           0.000  
   6088507.001           0.000    20768123.856           0.000  
 -20098630.000           0.000    22188746.069           0.000  
 98  9 28 11 35  6.9960000  0  5G18G14G16G 4G19
   4874173.000           0.000    20118466.048           0.000  
   -247169.001           0.000    23643153.128           0.000  
   1215482.000           0.000    20877216.611           0.000  
   6084592.998           0.000    20767379.233           0.000  
 -20104726.998           0.000    22187585.890           0.000  
 98  9 28 11 35  7.9960000  0  5G18G14G16G 4G19
   4870940.002           0.000    20117850.861           0.000  
   -247800.998           0.000    23643033.038           0.000  
   1213316.000           0.000    20876804.566           0.000  
   6080681.002           0.000    20766634.102           0.000  
 -20110824.000           0.000    22186425.688           0.000  
 98  9 28 11 35  8.9960000  0  5G18G14G16G 4G19
   4867706.001           0.000    20117235.529           0.000  
   -248433.000           0.000    23642912.736           0.000  
   1211150.001           0.000    20876392.395           0.000  
   6076766.999           0.000    20765889.523           0.000  
 -20116922.001           0.000    22185265.359           0.000  
 98  9 28 11 35  9.9960000  0  5G18G14G16G 4G19
   4864471.001           0.000    20116620.205           0.000  
   -249066.000           0.000    23642792.188           0.000  
   1208984.002           0.000    20875980.054           0.000  
   6072854.000           0.000    20765146.088           0.000  
 -20123020.002           0.000    22184104.826           0.000  
 98  9 28 11 35 10.9960000  0  4G18G14G16G19
   4861237.000           0.000    20116004.892           0.000  
   -249699.001           0.000    23642671.610           0.000  
   1206816.998           0.000    20875567.673           0.000  
 -20129119.002           0.000    22182944.273           0.000  
 98  9 28 11 35 11.9960000  0  4G18G14G16G19
   4858002.998           0.000    20115389.626           0.000  
   -250333.000           0.000    23642551.053           0.000  
   1204650.000           0.000    20875155.366           0.000  
 -20135217.003           0.000    22181783.824           0.000  
 98  9 28 11 35 12.9960000  0  4G18G14G16G19
   4854770.999           0.000    20114774.782           0.000  
   -250965.002           0.000    23642430.641           0.000  
   1202484.001           0.000    20874743.204           0.000  
 -20141314.998           0.000    22180623.569           0.000  
 98  9 28 11 35 13.9960000  0  4G18G14G16G19
   4851539.998           0.000    20114160.133           0.000  
   -251596.001           0.000    23642310.592           0.000  
   1200319.998           0.000    20874331.397           0.000  
 -20147409.999           0.000    22179463.673           0.000  
 98  9 28 11 35 14.9960000  0  4G18G14G16G19
   4848311.000           0.000    20113545.607           0.000  
   -252226.000           0.000    23642190.694           0.000  
   1198156.999           0.000    20873919.789           0.000  
 -20153504.000           0.000    22178303.964           0.000  
 98  9 28 11 35 15.9960000  0  4G18G14G16G19
   4845083.000           0.000    20112931.416           0.000  
   -252853.998           0.000    23642071.002           0.000  
   1195995.997           0.000    20873508.430           0.000  
 -20159596.999           0.000    22177144.492           0.000  
 98  9 28 11 35 16.9960000  0  4G18G14G16G19
   4841857.002           0.000    20112317.496           0.000  
   -253481.003           0.000    23641951.629           0.000  
   1193835.999           0.000    20873097.504           0.000  
 -20165688.000           0.000    22175985.408           0.000  
 98  9 28 11 35 17.9960000  0  4G18G14G16G19
   4838633.001           0.000    20111704.076           0.000  
   -254106.998           0.000    23641832.530           0.000  
   1191677.998           0.000    20872686.844           0.000  
 -20171778.003           0.000    22174826.635           0.000  
 98  9 28 11 35 18.9960000  0  4G18G14G16G19
   4835409.998           0.000    20111090.908           0.000  
   -254732.001           0.000    23641713.502           0.000  
   1189520.002           0.000    20872276.272           0.000  
 -20177867.002           0.000    22173667.937           0.000  
 98  9 28 11 35 19.9960000  0  4G18G14G16G19
   4832187.001           0.000    20110477.796           0.000  
   -255356.998           0.000    23641594.535           0.000  
   1187362.000           0.000    20871865.695           0.000  
 -20183956.001           0.000    22172509.281           0.000  
 98  9 28 11 35 20.9960000  0  4G18G14G16G19
   4828966.000           0.000    20109864.823           0.000  
   -255982.000           0.000    23641475.683           0.000  
   1185206.001           0.000    20871455.299           0.000  
 -20190044.001           0.000    22171350.795           0.000  
 98  9 28 11 35 21.9960000  0  4G18G14G16G19
   4825745.000           0.000    20109252.037           0.000  
   -256605.000           0.000    23641357.011           0.000  
   1183050.002           0.000    20871045.186           0.000  
 -20196130.000           0.000    22170192.573           0.000  
 98  9 28 11 35 22.9960000  0  4G18G14G16G19
   4822526.002           0.000    20108639.286           0.000  
   -257228.001           0.000    23641238.395           0.000  
   1180895.001           0.000    20870635.114           0.000  
 -20202215.998           0.000    22169034.419           0.000  
 98  9 28 11 35 23.9960000  0  4G18G14G16G19
   4819306.998           0.000    20108026.722           0.000  
   -257850.002           0.000    23641119.853           0.000  
   1178740.999           0.000    20870225.183           0.000  
 -20208302.002           0.000    22167876.411           0.000  
 98  9 28 11 35 24.9960000  0  4G18G14G16G19
   4816088.998           0.000    20107414.169           0.000  
   -258473.003           0.000    23641001.358           0.000  
   1176587.002           0.000    20869815.361           0.000  
 -20214387.002           0.000    22166718.474           0.000  
 98  9 28 11 35 25.9960000  0  4G18G14G16G19
   4812872.002           0.000    20106801.946           0.000  
   -259094.001           0.000    23640882.963           0.000  
   1174433.998           0.000    20869405.595           0.000  
 -20220470.998           0.000    22165560.668           0.000  
 98  9 28 11 35 26.9960000  0  4G18G14G16G19
   4809655.001           0.000    20106189.650           0.000  
   -259716.002           0.000    23640764.673           0.000  
   1172281.000           0.000    20868995.912           0.000  
 -20226555.000           0.000    22164402.985           0.000  
 98  9 28 11 35 27.9960000  0  4G18G14G16G19
   4806441.000           0.000    20105577.809           0.000  
   -260334.998           0.000    23640646.690           0.000  
   1170129.998           0.000    20868586.562           0.000  
 -20232636.999           0.000    22163245.585           0.000  
 98  9 28 11 35 28.9960000  0  4G18G14G16G19
   4803226.999           0.000    20104966.314           0.000  
   -260954.998           0.000    23640528.728           0.000  
   1167979.002           0.000    20868177.376           0.000  
 -20238718.000           0.000    22162088.312           0.000  
 98  9 28 11 35 29.9960000  0  4G18G14G16G19
   4800014.002           0.000    20104354.902           0.000  
   -261573.999           0.000    23640410.880           0.000  
   1165828.999           0.000    20867768.266           0.000  
 -20244799.001           0.000    22160931.187           0.000  
 98  9 28 11 35 30.9960000  0  4G18G14G16G19
   4796801.999           0.000    20103743.553           0.000  
   -262192.002           0.000    23640293.206           0.000  
   1163679.999           0.000    20867359.333           0.000  
 -20250878.998           0.000    22159774.238           0.000  
 98  9 28 11 35 31.9960000  0  4G18G14G16G19
   4793592.002           0.000    20103132.575           0.000  
   -262808.002           0.000    23640175.774           0.000  
   1161533.002           0.000    20866950.659           0.000  
 -20256956.999           0.000    22158617.587           0.000  
 98  9 28 11 35 32.9960000  0  4G18G14G16G19
   4790382.999           0.000    20102521.802           0.000  
   -263425.001           0.000    23640058.475           0.000  
   1159385.999           0.000    20866542.078           0.000  
 -20263034.999           0.000    22157461.087           0.000  
 98  9 28 11 35 33.9960000  0  4G18G14G16G19
   4787174.001           0.000    20101910.279           0.000  
   -264041.002           0.000    23639941.211           0.000  
   1157239.002           0.000    20866133.565           0.000  
 -20269112.001           0.000    22156304.596           0.000  
 98  9 28 11 35 34.9960000  0  4G18G14G16G19
   4783966.002           0.000    20101295.529           0.000  
   -264655.999           0.000    23639824.081           0.000  
   1155092.998           0.000    20865725.211           0.000  
 -20275187.999           0.000    22155148.246           0.000  
 98  9 28 11 35 35.9960000  0  5G 7G18G14G16G19
   6301282.998           0.000    24265485.575           0.000  
   4780759.001           0.000    20100683.894           0.000  
   -265271.999           0.000    23639707.011           0.000  
   1152946.999           0.000    20865316.905           0.000  
 -20281265.001           0.000    22153991.980           0.000  
 98  9 28 11 35 36.9960000  0  5G 7G18G14G16G19
   6300948.998           0.000    24265423.032           0.000  
   4777552.998           0.000    20100073.355           0.000  
   -265886.003           0.000    23639590.051           0.000  
   1150802.997           0.000    20864908.819           0.000  
 -20287340.000           0.000    22152835.881           0.000  
 98  9 28 11 35 37.9960000  0  5G 7G18G14G16G19
   6300620.002           0.000    24265362.731           0.000  
   4774348.998           0.000    20099461.485           0.000  
   -266499.003           0.000    23639473.330           0.000  
   1148659.001           0.000    20864500.940           0.000  
 -20293414.002           0.000    22151679.995           0.000  
 98  9 28 11 35 38.9960000  0  5G 7G18G14G16G19
   6300287.999           0.000    24265301.555           0.000  
   4771144.997           0.000    20098851.434           0.000  
   -267112.002           0.000    23639356.788           0.000  
   1146517.001           0.000    20864093.267           0.000  
 -20299486.001           0.000    22150524.348           0.000  
 98  9 28 11 35 39.9960000  0  4G18G14G16G19
   4767942.999           0.000    20098241.592           0.000  
   -267723.000           0.000    23639240.457           0.000  
   1144375.999           0.000    20863685.765           0.000  
 -20305558.000           0.000    22149368.845           0.000  
 98  9 28 11 35 40.9960000  0  4G18G14G16G19
   4764741.999           0.000    20097630.822           0.000  
   -268335.002           0.000    23639124.126           0.000  
   1142234.998           0.000    20863278.297           0.000  
 -20311629.999           0.000    22148213.354           0.000  
 98  9 28 11 35 41.9960000  0  4G18G14G16G19
   4761541.000           0.000    20097021.882           0.000  
   -268945.999           0.000    23639007.885           0.000  
   1140095.001           0.000    20862870.988           0.000  
 -20317700.001           0.000    22147058.016           0.000  
 98  9 28 11 35 42.9960000  0  4G18G14G16G19
   4758340.998           0.000    20096412.504           0.000  
   -269555.999           0.000    23638891.733           0.000  
   1137954.998           0.000    20862463.791           0.000  
 -20323771.002           0.000    22145902.851           0.000  
 98  9 28 11 35 43.9960000  0  4G18G14G16G19
   4755142.001           0.000    20095804.197           0.000  
   -270165.998           0.000    23638775.763           0.000  
   1135815.999           0.000    20862056.786           0.000  
 -20329840.000           0.000    22144747.905           0.000  
 98  9 28 11 35 44.9960000  0  4G18G14G16G19
   4751945.999           0.000    20095196.621           0.000  
   -270773.002           0.000    23638660.191           0.000  
   1133679.002           0.000    20861650.176           0.000  
 -20335907.001           0.000    22143593.292           0.000  
 98  9 28 11 35 45.9960000  0  4G18G14G16G19
   4748751.998           0.000    20094589.432           0.000  
   -271379.002           0.000    23638545.030           0.000  
   1131545.000           0.000    20861244.050           0.000  
 -20341972.001           0.000    22142439.213           0.000  
 98  9 28 11 35 46.9960000  0  4G18G14G16G19
   4745560.001           0.000    20093982.377           0.000  
   -271983.000           0.000    23638430.000           0.000  
   1129412.002           0.000    20860838.148           0.000  
 -20348034.998           0.000    22141285.368           0.000  
 98  9 28 11 35 47.9960000  0  4G18G14G16G19
   4742369.001           0.000    20093375.399           0.000  
   -272586.000           0.000    23638315.227           0.000  
   1127279.998           0.000    20860432.470           0.000  
 -20354097.002           0.000    22140131.708           0.000  
 98  9 28 11 35 48.9960000  0  4G18G14G16G19
   4739178.002           0.000    20092768.503           0.000  
   -273188.999           0.000    23638200.585           0.000  
   1125149.002           0.000    20860026.954           0.000  
 -20360159.001           0.000    22138978.205           0.000  
 98  9 28 11 35 49.9960000  0  4G18G14G16G19
   4735988.001           0.000    20092161.832           0.000  
   -273791.999           0.000    23638085.872           0.000  
   1123018.001           0.000    20859621.434           0.000  
 -20366220.001           0.000    22137824.708           0.000  
 98  9 28 11 35 50.9960000  0  4G18G14G16G19
   4732798.998           0.000    20091555.509           0.000  
   -274394.000           0.000    23637971.298           0.000  
   1120887.000           0.000    20859216.043           0.000  
 -20372281.001           0.000    22136671.376           0.000  
 98  9 28 11 35 51.9960000  0  4G18G14G16G19
   4729610.999           0.000    20090949.070           0.000  
   -274996.001           0.000    23637856.740           0.000  
   1118756.997           0.000    20858810.672           0.000  
 -20378340.998           0.000    22135518.034           0.000  
 98  9 28 11 35 52.9960000  0  4G18G14G16G19
   4726423.001           0.000    20090342.781           0.000  
   -275596.998           0.000    23637742.372           0.000  
   1116627.999           0.000    20858405.478           0.000  
 -20384401.000           0.000    22134364.809           0.000  
 98  9 28 11 35 53.9960000  0  5G 7G18G14G16G19
   6301376.001           0.000    24264358.278           0.000  
   4723236.000           0.000    20089737.019           0.000  
   -276198.001           0.000    23637628.095           0.000  
   1114499.000           0.000    20858000.446           0.000  
 -20390459.998           0.000    22133211.778           0.000  
 98  9 28 11 35 54.9960000  0  5G 7G18G14G16G19
   6301054.998           0.000    24264304.666           0.000  
   4720049.998           0.000    20089131.037           0.000  
   -276798.000           0.000    23637513.907           0.000  
   1112370.999           0.000    20857595.528           0.000  
 -20396518.003           0.000    22132058.910           0.000  
 98  9 28 11 35 55.9960000  0  5G 7G18G14G16G19
   6300733.999           0.000    24264247.187           0.000  
   4716865.000           0.000    20088525.406           0.000  
   -277397.999           0.000    23637399.907           0.000  
   1110243.998           0.000    20857190.799           0.000  
 -20402576.002           0.000    22130906.224           0.000  
 98  9 28 11 35 56.9960000  0  5G 7G18G14G16G19
   6300413.000           0.000    24264184.415           0.000  
   4713681.001           0.000    20087919.639           0.000  
   -277996.999           0.000    23637285.989           0.000  
   1108117.001           0.000    20856786.167           0.000  
 -20408632.998           0.000    22129753.592           0.000  
 98  9 28 11 35 57.9960000  0  5G 7G18G14G16G19
   6300093.999           0.000    24264122.323           0.000  
   4710498.998           0.000    20087313.905           0.000  
   -278595.001           0.000    23637172.334           0.000  
   1105992.001           0.000    20856381.794           0.000  
 -20414688.002           0.000    22128601.236           0.000  
 98  9 28 11 35 58.9960000  0  5G 7G18G14G16G19
   6299776.001           0.000    24264060.833           0.000  
   4707317.999           0.000    20086708.318           0.000  
   -279191.001           0.000    23637058.810           0.000  
   1103868.000           0.000    20855977.660           0.000  
 -20420741.998           0.000    22127449.136           0.000  
 98  9 28 11 35 59.9960000  0  5G 7G18G14G16G19
   6299460.000           0.000    24264000.164           0.000  
   4704137.000           0.000    20086095.705           0.000  
   -279787.001           0.000    23636945.414           0.000  
   1101744.997           0.000    20855573.682           0.000  
 -20426795.998           0.000    22126297.249           0.000  
 98  9 28 11 36  0.9960000  0  5G 7G18G14G16G19
   6299143.000           0.000    24263938.437           0.000  
   4700959.001           0.000    20085493.749           0.000  
   -280382.002           0.000    23636832.349           0.000  
   1099622.998           0.000    20855169.970           0.000  
 -20432848.002           0.000    22125145.614           0.000  
 98  9 28 11 36  1.9960000  0  5G 7G18G14G16G19
   6298830.000           0.000    24263877.200           0.000  
   4697782.001           0.000    20084890.318           0.000  
   -280975.002           0.000    23636719.478           0.000  
   1097503.001           0.000    20854766.499           0.000  
 -20438897.998           0.000    22123994.292           0.000  
 98  9 28 11 36  2.9960000  0  5G 7G18G14G16G19
   6298516.999           0.000    24263817.833           0.000  
   4694606.000           0.000    20084285.709           0.000  
   -281568.001           0.000    23636606.674           0.000  
   1095382.999           0.000    20854363.152           0.000  
 -20444948.000           0.000    22122843.094           0.000  
 98  9 28 11 36  3.9960000  0  5G 7G18G14G16G19
   6298203.001           0.000    24263757.923           0.000  
   4691429.998           0.000    20083681.326           0.000  
   -282161.000           0.000    23636493.901           0.000  
   1093264.001           0.000    20853959.918           0.000  
 -20450998.001           0.000    22121691.913           0.000  
 98  9 28 11 36  4.9960000  0  5G 7G18G14G16G19
   6297887.998           0.000    24263697.274           0.000  
   4688255.000           0.000    20083075.657           0.000  
   -282753.001           0.000    23636381.247           0.000  
   1091145.002           0.000    20853556.758           0.000  
 -20457046.999           0.000    22120540.782           0.000  
 98  9 28 11 36  5.9960000  0  5G 7G18G14G16G19
   6297573.999           0.000    24263637.314           0.000  
   4685080.002           0.000    20082472.147           0.000  
   -283345.001           0.000    23636268.702           0.000  
   1089027.002           0.000    20853153.727           0.000  
 -20463094.998           0.000    22119389.770           0.000  
 98  9 28 11 36  6.9960000  0  5G 7G18G14G16G19
   6297263.001           0.000    24263577.491           0.000  
   4681907.001           0.000    20081869.571           0.000  
   -283935.999           0.000    23636156.258           0.000  
   1086909.002           0.000    20852750.801           0.000  
 -20469143.003           0.000    22118238.902           0.000  
 98  9 28 11 36  7.9960000  0  5G 7G18G14G16G19
   6296947.998           0.000    24263517.721           0.000  
   4678734.999           0.000    20081266.233           0.000  
   -284527.001           0.000    23636043.889           0.000  
   1084792.999           0.000    20852348.052           0.000  
 -20475189.000           0.000    22117088.230           0.000  
 98  9 28 11 36  8.9960000  0  5G 7G18G14G16G19
   6296633.999           0.000    24263457.990           0.000  
   4675564.000           0.000    20080664.102           0.000  
   -285116.001           0.000    23635931.748           0.000  
   1082677.001           0.000    20851945.467           0.000  
 -20481235.002           0.000    22115937.779           0.000  
 98  9 28 11 36  9.9960000  0  5G 7G18G14G16G19
   6296324.998           0.000    24263399.081           0.000  
   4672391.998           0.000    20080061.142           0.000  
   -285705.001           0.000    23635819.770           0.000  
   1080563.000           0.000    20851543.080           0.000  
 -20487279.002           0.000    22114787.532           0.000  
 98  9 28 11 36 10.9960000  0  5G 7G18G14G16G19
   6296014.998           0.000    24263339.501           0.000  
   4669224.000           0.000    20079457.886           0.000  
   -286291.999           0.000    23635707.941           0.000  
   1078448.999           0.000    20851140.969           0.000  
 -20493323.003           0.000    22113637.489           0.000  
 98  9 28 11 36 11.9960000  0  5G 7G18G14G16G19
   6295707.001           0.000    24263280.363           0.000  
   4666057.000           0.000    20078855.116           0.000  
   -286877.999           0.000    23635596.432           0.000  
   1076337.999           0.000    20850739.188           0.000  
 -20499364.002           0.000    22112487.813           0.000  
 98  9 28 11 36 12.9960000  0  5G 7G18G14G16G19
   6295397.999           0.000    24263221.444           0.000  
   4662890.000           0.000    20078252.095           0.000  
   -287463.000           0.000    23635485.176           0.000  
   1074226.999           0.000    20850337.636           0.000  
 -20505405.002           0.000    22111338.342           0.000  
 98  9 28 11 36 13.9960000  0  5G 7G18G14G16G19
   6295093.002           0.000    24263163.904           0.000  
   4659726.001           0.000    20077649.817           0.000  
   -288047.002           0.000    23635374.088           0.000  
   1072118.001           0.000    20849936.293           0.000  
 -20511443.999           0.000    22110189.132           0.000  
 98  9 28 11 36 14.9960000  0  5G 7G18G14G16G19
   6294784.999           0.000    24263105.640           0.000  
   4656563.001           0.000    20077048.579           0.000  
   -288631.000           0.000    23635263.010           0.000  
   1070008.997           0.000    20849534.971           0.000  
 -20517483.002           0.000    22109039.988           0.000  
 98  9 28 11 36 15.9960000  0  5G 7G18G14G16G19
   6294481.001           0.000    24263048.240           0.000  
   4653400.998           0.000    20076447.563           0.000  
   -289213.999           0.000    23635152.077           0.000  
   1067900.998           0.000    20849133.828           0.000  
 -20523521.001           0.000    22107890.953           0.000  
 98  9 28 11 36 16.9960000  0  5G 7G18G14G16G19
   6294175.000           0.000    24262989.942           0.000  
   4650239.002           0.000    20075846.793           0.000  
   -289795.999           0.000    23635041.274           0.000  
   1065792.998           0.000    20848732.814           0.000  
 -20529559.000           0.000    22106742.107           0.000  
 98  9 28 11 36 17.9960000  0  5G 7G18G14G16G19
   6293871.002           0.000    24262932.285           0.000  
   4647080.000           0.000    20075245.692           0.000  
   -290377.001           0.000    23634930.687           0.000  
   1063687.000           0.000    20848332.051           0.000  
 -20535595.002           0.000    22105593.445           0.000  
 98  9 28 11 36 18.9960000  0  5G 7G18G14G16G19
   6293565.999           0.000    24262874.350           0.000  
   4643919.002           0.000    20074645.159           0.000  
   -290956.999           0.000    23634820.358           0.000  
   1061582.001           0.000    20847931.577           0.000  
 -20541630.000           0.000    22104445.097           0.000  
 98  9 28 11 36 19.9960000  0  5G 7G18G14G16G19
   6293262.001           0.000    24262815.965           0.000  
   4640763.001           0.000    20074044.000           0.000  
   -291535.999           0.000    23634710.323           0.000  
   1059478.999           0.000    20847531.390           0.000  
 -20547663.002           0.000    22103297.111           0.000  
 98  9 28 11 36 20.9960000  0  5G 7G18G14G16G19
   6292959.999           0.000    24262758.660           0.000  
   4637607.000           0.000    20073443.879           0.000  
   -292113.002           0.000    23634600.549           0.000  
   1057377.001           0.000    20847131.493           0.000  
 -20553694.001           0.000    22102149.384           0.000  
 98  9 28 11 36 21.9960000  0  5G 7G18G14G16G19
   6292660.000           0.000    24262701.219           0.000  
   4634454.000           0.000    20072844.706           0.000  
   -292688.003           0.000    23634491.157           0.000  
   1055277.998           0.000    20846731.964           0.000  
 -20559724.002           0.000    22101002.032           0.000  
 98  9 28 11 36 22.9960000  0  5G 7G18G14G16G19
   6292360.000           0.000    24262645.188           0.000  
   4631301.998           0.000    20072245.858           0.000  
   -293262.000           0.000    23634381.984           0.000  
   1053179.000           0.000    20846332.678           0.000  
 -20565752.000           0.000    22099854.937           0.000  
 98  9 28 11 36 23.9960000  0  5G 7G18G14G16G19
   6292060.001           0.000    24262588.718           0.000  
   4628151.000           0.000    20071645.635           0.000  
   -293836.002           0.000    23634272.815           0.000  
   1051081.001           0.000    20845933.479           0.000  
 -20571779.999           0.000    22098707.940           0.000  
 98  9 28 11 36 24.9960000  0  5G 7G18G14G16G19
   6291761.000           0.000    24262532.592           0.000  
   4625001.000           0.000    20071046.118           0.000  
   -294409.000           0.000    23634163.733           0.000  
   1048984.000           0.000    20845534.385           0.000  
 -20577806.999           0.000    22097561.059           0.000  
 98  9 28 11 36 25.9960000  0  5G 7G18G14G16G19
   6291461.000           0.000    24262475.713           0.000  
   4621851.000           0.000    20070446.437           0.000  
   -294981.999           0.000    23634054.734           0.000  
   1046886.999           0.000    20845135.317           0.000  
 -20583833.999           0.000    22096414.190           0.000  
 98  9 28 11 36 26.9960000  0  5G 7G18G14G16G19
   6291165.000           0.000    24262419.911           0.000  
   4618701.001           0.000    20069847.365           0.000  
   -295555.003           0.000    23633945.792           0.000  
   1044789.998           0.000    20844736.364           0.000  
 -20589860.001           0.000    22095267.429           0.000  
 98  9 28 11 36 27.9960000  0  5G 7G18G14G16G19
   6290865.999           0.000    24262363.662           0.000  
   4615552.000           0.000    20069248.307           0.000  
   -296126.998           0.000    23633836.928           0.000  
   1042694.001           0.000    20844337.564           0.000  
 -20595886.003           0.000    22094120.770           0.000  
 98  9 28 11 36 28.9960000  0  6G 7G18G14G16G 4G19
   6290568.002           0.000    24262308.360           0.000  
   4612404.002           0.000    20068649.408           0.000  
   -296698.998           0.000    23633728.173           0.000  
   1040599.002           0.000    20843938.869           0.000  
   6297049.000           0.000    20707011.665           0.000  
 -20601911.001           0.000    22092974.231           0.000  
 98  9 28 11 36 29.9960000  0  6G 7G18G14G16G 4G19
   6290270.997           0.000    24262252.944           0.000  
   4609256.998           0.000    20068051.374           0.000  
   -297269.999           0.000    23633619.442           0.000  
   1038503.998           0.000    20843540.270           0.000  
   6293229.998           0.000    20706283.466           0.000  
 -20607935.000           0.000    22091827.817           0.000  
 98  9 28 11 36 30.9960000  0  6G 7G18G14G16G 4G19
   6289973.999           0.000    24262197.367           0.000  
   4606110.997           0.000    20067452.996           0.000  
   -297841.001           0.000    23633510.881           0.000  
   1036409.998           0.000    20843141.853           0.000  
   6289414.999           0.000    20705560.994           0.000  
 -20613958.001           0.000    22090681.597           0.000  
 98  9 28 11 36 31.9960000  0  6G 7G18G14G16G 4G19
   6289679.002           0.000    24262142.198           0.000  
   4602966.000           0.000    20066855.115           0.000  
   -298410.001           0.000    23633402.396           0.000  
   1034317.001           0.000    20842743.608           0.000  
   6285600.001           0.000    20704837.150           0.000  
 -20619981.003           0.000    22089535.578           0.000  
 98  9 28 11 36 32.9960000  0  6G 7G18G14G16G 4G19
   6289383.002           0.000    24262086.905           0.000  
   4599822.002           0.000    20066257.099           0.000  
   -298979.000           0.000    23633294.244           0.000  
   1032226.002           0.000    20842345.672           0.000  
   6281786.002           0.000    20704109.851           0.000  
 -20626002.001           0.000    22088389.899           0.000  
 98  9 28 11 36 33.9960000  0  6G 7G18G14G16G 4G19
   6289090.002           0.000    24262032.110           0.000  
   4596679.002           0.000    20065658.807           0.000  
   -299546.003           0.000    23633186.272           0.000  
   1030135.002           0.000    20841947.872           0.000  
   6277974.997           0.000    20703383.569           0.000  
 -20632022.002           0.000    22087244.376           0.000  
 98  9 28 11 36 34.9960000  0  6G 7G18G14G16G 4G19
   6288798.999           0.000    24261977.127           0.000  
   4593538.998           0.000    20065062.108           0.000  
   -300112.001           0.000    23633078.584           0.000  
   1028045.999           0.000    20841550.419           0.000  
   6274166.001           0.000    20702661.194           0.000  
 -20638040.000           0.000    22086099.225           0.000  
 98  9 28 11 36 35.9960000  0  6G 7G18G14G16G 4G19
   6288506.998           0.000    24261922.371           0.000  
   4590400.002           0.000    20064464.598           0.000  
   -300677.002           0.000    23632971.030           0.000  
   1025958.000           0.000    20841153.160           0.000  
   6270356.998           0.000    20701937.319           0.000  
 -20644057.000           0.000    22084954.232           0.000  
 98  9 28 11 36 36.9960000  0  6G 7G18G14G16G 4G19
   6288216.999           0.000    24261867.379           0.000  
   4587262.000           0.000    20063867.373           0.000  
   -301240.998           0.000    23632863.697           0.000  
   1023871.998           0.000    20840756.122           0.000  
   6266551.002           0.000    20701213.257           0.000  
 -20650073.001           0.000    22083809.466           0.000  
 98  9 28 11 36 37.9960000  0  6G 7G18G14G16G 4G19
   6287925.002           0.000    24261811.965           0.000  
   4584125.999           0.000    20063270.377           0.000  
   -301804.002           0.000    23632756.553           0.000  
   1021786.001           0.000    20840359.269           0.000  
   6262745.999           0.000    20700490.079           0.000  
 -20656087.999           0.000    22082664.878           0.000  
 98  9 28 11 36 38.9960000  0  6G 7G18G14G16G 4G19
   6287637.000           0.000    24261758.460           0.000  
   4580989.999           0.000    20062673.612           0.000  
   -302367.000           0.000    23632649.413           0.000  
   1019700.998           0.000    20839962.518           0.000  
   6258941.001           0.000    20699766.394           0.000  
 -20662101.998           0.000    22081520.391           0.000  
 98  9 28 11 36 39.9960000  0  6G 7G18G14G16G 4G19
   6287348.998           0.000    24261703.594           0.000  
   4577854.997           0.000    20062077.151           0.000  
   -302929.000           0.000    23632542.418           0.000  
   1017615.999           0.000    20839565.956           0.000  
   6255138.999           0.000    20699042.180           0.000  
 -20668116.003           0.000    22080376.091           0.000  
 98  9 28 11 36 40.9960000  0  6G 7G18G14G16G 4G19
   6287061.001           0.000    24261649.190           0.000  
   4574720.999           0.000    20061480.838           0.000  
   -303490.001           0.000    23632435.540           0.000  
   1015531.999           0.000    20839169.485           0.000  
   6251335.998           0.000    20698319.552           0.000  
 -20674128.000           0.000    22079231.939           0.000  
 98  9 28 11 36 41.9960000  0  6G 7G18G14G16G 4G19
   6286772.999           0.000    24261594.897           0.000  
   4571588.000           0.000    20060884.778           0.000  
   -304051.003           0.000    23632328.841           0.000  
   1013450.002           0.000    20838773.217           0.000  
   6247538.000           0.000    20697596.958           0.000  
 -20680140.002           0.000    22078088.008           0.000  
 98  9 28 11 36 42.9960000  0  6G 7G18G14G16G 4G19
   6286488.003           0.000    24261541.246           0.000  
   4568455.999           0.000    20060288.996           0.000  
   -304610.002           0.000    23632222.314           0.000  
   1011367.999           0.000    20838377.117           0.000  
   6243738.998           0.000    20696873.560           0.000  
 -20686150.002           0.000    22076944.268           0.000  
 98  9 28 11 36 43.9960000  0  6G 7G18G14G16G 4G19
   6286200.999           0.000    24261486.481           0.000  
   4565325.001           0.000    20059693.287           0.000  
   -305169.001           0.000    23632115.862           0.000  
   1009286.999           0.000    20837981.162           0.000  
   6239941.000           0.000    20696151.150           0.000  
 -20692160.002           0.000    22075800.660           0.000  
 98  9 28 11 36 44.9960000  0  6G 7G18G14G16G 4G19
   6285913.002           0.000    24261432.314           0.000  
   4562195.002           0.000    20059097.782           0.000  
   -305728.000           0.000    23632009.561           0.000  
   1007206.998           0.000    20837585.348           0.000  
   6236141.000           0.000    20695429.417           0.000  
 -20698168.999           0.000    22074657.238           0.000  
 98  9 28 11 36 45.9960000  0  6G 7G18G14G16G 4G19
   6285628.000           0.000    24261377.435           0.000  
   4559067.000           0.000    20058502.416           0.000  
   -306285.002           0.000    23631903.482           0.000  
   1005128.001           0.000    20837189.716           0.000  
   6232345.997           0.000    20694708.559           0.000  
 -20704177.002           0.000    22073513.970           0.000  
 98  9 28 11 36 46.9960000  0  6G 7G18G14G16G 4G19
   6285344.002           0.000    24261323.420           0.000  
   4555938.998           0.000    20057907.321           0.000  
   -306841.999           0.000    23631797.587           0.000  
   1003049.997           0.000    20836794.325           0.000  
   6228551.000           0.000    20693987.146           0.000  
 -20710184.002           0.000    22072370.984           0.000  
 98  9 28 11 36 47.9960000  0  6G 7G18G14G16G 4G19
   6285059.999           0.000    24261269.721           0.000  
   4552812.998           0.000    20057312.560           0.000  
   -307396.999           0.000    23631691.926           0.000  
   1000973.002           0.000    20836399.102           0.000  
   6224757.999           0.000    20693270.509           0.000  
 -20716190.003           0.000    22071228.189           0.000  
 98  9 28 11 36 48.9960000  0  6G 7G18G14G16G 4G19
   6284774.998           0.000    24261216.403           0.000  
   4549686.998           0.000    20056717.885           0.000  
   -307951.999           0.000    23631586.363           0.000  
    998897.001           0.000    20836004.042           0.000  
   6220965.997           0.000    20692552.949           0.000  
 -20722195.000           0.000    22070085.561           0.000  
 98  9 28 11 36 49.9960000  0  6G 7G18G14G16G 4G19
   6284491.000           0.000    24261161.404           0.000  
   4546563.001           0.000    20056123.398           0.000  
   -308506.001           0.000    23631480.957           0.000  
    996820.999           0.000    20835609.141           0.000  
   6217175.998           0.000    20691832.496           0.000  
 -20728198.999           0.000    22068943.087           0.000  
 98  9 28 11 36 50.9960000  0  6G 7G18G14G16G 4G19
   6284208.999           0.000    24261107.415           0.000  
   4543440.001           0.000    20055529.116           0.000  
   -309058.999           0.000    23631375.623           0.000  
    994746.001           0.000    20835214.323           0.000  
   6213384.001           0.000    20691111.828           0.000  
 -20734201.999           0.000    22067800.715           0.000  
 98  9 28 11 36 51.9960000  0  6G 7G18G14G16G 4G19
   6283925.001           0.000    24261052.780           0.000  
   4540317.002           0.000    20054935.155           0.000  
   -309612.002           0.000    23631270.450           0.000  
    992672.001           0.000    20834819.674           0.000  
   6209594.999           0.000    20690389.231           0.000  
 -20740205.000           0.000    22066658.527           0.000  
 98  9 28 11 36 52.9960000  0  6G 7G18G14G16G 4G19
   6283643.000           0.000    24260999.001           0.000  
   4537195.001           0.000    20054341.262           0.000  
   -310164.001           0.000    23631165.391           0.000  
    990599.000           0.000    20834425.163           0.000  
   6205805.998           0.000    20689667.964           0.000  
 -20746207.002           0.000    22065516.479           0.000  
 98  9 28 11 36 53.9960000  0  5G 7G18G14G16G19
   6283361.997           0.000    24260946.271           0.000  
   4534074.997           0.000    20053747.475           0.000  
   -310716.001           0.000    23631060.466           0.000  
    988526.997           0.000    20834030.848           0.000  
 -20752207.002           0.000    22064374.628           0.000  
 98  9 28 11 36 54.9960000  0  5G 7G18G14G16G19
   6283081.000           0.000    24260892.203           0.000  
   4530955.997           0.000    20053154.163           0.000  
   -311265.000           0.000    23630955.894           0.000  
    986455.998           0.000    20833636.857           0.000  
 -20758205.998           0.000    22063233.117           0.000  
 98  9 28 11 36 55.9960000  0  5G 7G18G14G16G19
   6282801.001           0.000    24260838.689           0.000  
   4527839.998           0.000    20052561.236           0.000  
   -311813.000           0.000    23630851.633           0.000  
    984387.002           0.000    20833243.206           0.000  
 -20764203.002           0.000    22062091.977           0.000  
 98  9 28 11 36 56.9960000  0  5G 7G18G14G16G19
   6282523.998           0.000    24260786.022           0.000  
   4524725.002           0.000    20051968.486           0.000  
   -312360.002           0.000    23630747.664           0.000  
    982320.002           0.000    20832849.805           0.000  
 -20770199.003           0.000    22060951.045           0.000  
 98  9 28 11 36 57.9960000  0  5G 7G18G14G16G19
   6282249.002           0.000    24260732.946           0.000  
   4521610.999           0.000    20051375.953           0.000  
   -312906.000           0.000    23630643.777           0.000  
    980253.002           0.000    20832456.532           0.000  
 -20776194.000           0.000    22059810.228           0.000  
 98  9 28 11 36 58.9960000  0  5G 7G18G14G16G19
   6281971.998           0.000    24260679.622           0.000  
   4518497.002           0.000    20050783.591           0.000  
   -313451.998           0.000    23630539.887           0.000  
    978187.000           0.000    20832063.332           0.000  
 -20782189.002           0.000    22058669.482           0.000  
 98  9 28 11 36 59.9960000  0  5G 7G18G14G16G19
   6281695.999           0.000    24260626.649           0.000  
   4515383.998           0.000    20050191.421           0.000  
   -313996.998           0.000    23630436.201           0.000  
    976120.999           0.000    20831670.270           0.000  
 -20788183.001           0.000    22057528.956           0.000  
 98  9 28 11 37  0.9960000  0  5G 7G18G14G16G19
   6281420.997           0.000    24260573.435           0.000  
   4512272.002           0.000    20049599.269           0.000  
   -314541.998           0.000    23630332.573           0.000  
    974056.001           0.000    20831277.354           0.000  
 -20794176.001           0.000    22056388.586           0.000  
 98  9 28 11 37  1.9960000  0  5G 7G18G14G16G19
   6281144.998           0.000    24260520.562           0.000  
   4509161.000           0.000    20049007.391           0.000  
   -315085.999           0.000    23630229.041           0.000  
    971992.002           0.000    20830884.545           0.000  
 -20800168.002           0.000    22055248.345           0.000  
 98  9 28 11 37  2.9960000  0  5G 7G18G14G16G19
   6280870.002           0.000    24260467.883           0.000  
   4506051.002           0.000    20048415.730           0.000  
   -315629.002           0.000    23630125.660           0.000  
    969929.001           0.000    20830491.898           0.000  
 -20806159.000           0.000    22054108.298           0.000  
 98  9 28 11 37  3.9960000  0  5G 7G18G14G16G19
   6280596.997           0.000    24260414.930           0.000  
   4502942.002           0.000    20047824.237           0.000  
   -316171.999           0.000    23630022.353           0.000  
    967866.000           0.000    20830099.372           0.000  
 -20812149.998           0.000    22052968.366           0.000  
 98  9 28 11 37  4.9960000  0  5G 7G18G14G16G19
   6280323.000           0.000    24260362.089           0.000  
   4499834.001           0.000    20047232.751           0.000  
   -316713.998           0.000    23629919.171           0.000  
    965803.998           0.000    20829706.925           0.000  
 -20818139.998           0.000    22051828.543           0.000  
 98  9 28 11 37  5.9960000  0  5G 7G18G14G16G19
   6280049.002           0.000    24260309.702           0.000  
   4496725.999           0.000    20046641.442           0.000  
   -317255.998           0.000    23629816.072           0.000  
    963742.001           0.000    20829314.543           0.000  
 -20824130.002           0.000    22050688.792           0.000  
 98  9 28 11 37  6.9960000  0  5G 7G18G14G16G19
   6279774.001           0.000    24260256.753           0.000  
   4493619.002           0.000    20046050.360           0.000  
   -317798.002           0.000    23629713.033           0.000  
    961681.002           0.000    20828922.328           0.000  
 -20830118.998           0.000    22049549.196           0.000  
 98  9 28 11 37  7.9960000  0  5G 7G18G14G16G19
   6279502.000           0.000    24260203.571           0.000  
   4490512.997           0.000    20045459.386           0.000  
   -318337.999           0.000    23629610.240           0.000  
    959621.002           0.000    20828530.334           0.000  
 -20836106.002           0.000    22048409.816           0.000  
 98  9 28 11 37  8.9960000  0  5G 7G18G14G16G19
   6279230.000           0.000    24260150.880           0.000  
   4487409.000           0.000    20044868.717           0.000  
   -318877.003           0.000    23629507.665           0.000  
    957562.999           0.000    20828138.605           0.000  
 -20842093.001           0.000    22047270.739           0.000  
 98  9 28 11 37  9.9960000  0  5G 7G18G14G16G19
   6278957.999           0.000    24260098.063           0.000  
   4484304.998           0.000    20044278.254           0.000  
   -319416.001           0.000    23629405.161           0.000  
    955505.001           0.000    20827746.945           0.000  
 -20848077.998           0.000    22046131.700           0.000  
 98  9 28 11 37 10.9960000  0  5G 7G18G14G16G19
   6278689.998           0.000    24260047.415           0.000  
   4481202.998           0.000    20043688.086           0.000  
   -319954.001           0.000    23629302.767           0.000  
    953448.001           0.000    20827355.446           0.000  
 -20854063.000           0.000    22044992.869           0.000  
 98  9 28 11 37 11.9960000  0  5G 7G18G14G16G19
   6278416.998           0.000    24259996.407           0.000  
   4478100.998           0.000    20043097.913           0.000  
   -320491.003           0.000    23629200.534           0.000  
    951391.002           0.000    20826964.141           0.000  
 -20860046.998           0.000    22043854.172           0.000  
 98  9 28 11 37 12.9960000  0  5G 7G18G14G16G19
   6278147.000           0.000    24259945.474           0.000  
   4475001.000           0.000    20042508.052           0.000  
   -321027.999           0.000    23629098.448           0.000  
    949335.999           0.000    20826572.992           0.000  
 -20866029.998           0.000    22042715.663           0.000  
 98  9 28 11 37 13.9960000  0  5G 7G18G14G16G19
   6277878.998           0.000    24259895.626           0.000  
   4471902.000           0.000    20041918.350           0.000  
   -321564.002           0.000    23628996.492           0.000  
    947281.002           0.000    20826181.979           0.000  
 -20872011.999           0.000    22041577.321           0.000  
 98  9 28 11 37 14.9960000  0  5G 7G18G14G16G19
   6277612.001           0.000    24259844.576           0.000  
   4468803.001           0.000    20041328.828           0.000  
   -322099.001           0.000    23628894.684           0.000  
    945226.998           0.000    20825791.107           0.000  
 -20877993.002           0.000    22040439.133           0.000  
 98  9 28 11 37 15.9960000  0  5G 7G18G14G16G19
   6277343.999           0.000    24259793.873           0.000  
   4465705.998           0.000    20040739.607           0.000  
   -322633.002           0.000    23628793.066           0.000  
    943175.001           0.000    20825400.522           0.000  
 -20883973.001           0.000    22039301.265           0.000  
 98  9 28 11 37 16.9960000  0  5G 7G18G14G16G19
   6277077.001           0.000    24259743.405           0.000  
   4462610.998           0.000    20040150.857           0.000  
   -323165.001           0.000    23628691.822           0.000  
    941123.997           0.000    20825010.278           0.000  
 -20889950.998           0.000    22038163.737           0.000  
 98  9 28 11 37 17.9960000  0  5G 7G18G14G16G19
   6276812.999           0.000    24259693.988           0.000  
   4459517.001           0.000    20039562.277           0.000  
   -323696.002           0.000    23628590.800           0.000  
    939075.001           0.000    20824620.265           0.000  
 -20895926.998           0.000    22037026.434           0.000  
 98  9 28 11 37 18.9960000  0  5G 7G18G14G16G19
   6276550.000           0.000    24259644.920           0.000  
   4456423.997           0.000    20038973.730           0.000  
   -324225.998           0.000    23628489.892           0.000  
    937026.000           0.000    20824230.412           0.000  
 -20901902.998           0.000    22035889.284           0.000  
 98  9 28 11 37 19.9960000  0  5G 7G18G14G16G19
   6276284.001           0.000    24259594.571           0.000  
   4453333.001           0.000    20038385.270           0.000  
   -324756.000           0.000    23628389.117           0.000  
    934979.001           0.000    20823840.649           0.000  
 -20907878.000           0.000    22034752.302           0.000  
 98  9 28 11 37 20.9960000  0  5G 7G18G14G16G19
   6276021.002           0.000    24259544.309           0.000  
   4450241.001           0.000    20037796.926           0.000  
   -325284.998           0.000    23628288.393           0.000  
    932930.998           0.000    20823451.004           0.000  
 -20913851.998           0.000    22033615.431           0.000  
 98  9 28 11 37 21.9960000  0  5G 7G18G14G16G19
   6275756.999           0.000    24259494.692           0.000  
   4447150.999           0.000    20037208.664           0.000  
   -325814.002           0.000    23628187.805           0.000  
    930885.002           0.000    20823061.506           0.000  
 -20919826.001           0.000    22032478.719           0.000  
 98  9 28 11 37 22.9960000  0  5G 7G18G14G16G19
   6275495.998           0.000    24259445.872           0.000  
   4444061.999           0.000    20036620.562           0.000  
   -326342.001           0.000    23628087.307           0.000  
    928839.001           0.000    20822672.182           0.000  
 -20925798.002           0.000    22031342.189           0.000  
 98  9 28 11 37 23.9960000  0  5G 7G18G14G16G19
   6275234.002           0.000    24259396.229           0.000  
   4440973.000           0.000    20036032.529           0.000  
   -326869.002           0.000    23627986.897           0.000  
    926793.999           0.000    20822282.966           0.000  
 -20931770.003           0.000    22030205.803           0.000  
 98  9 28 11 37 24.9960000  0  5G 7G18G14G16G19
   6274970.998           0.000    24259347.751           0.000  
   4437884.999           0.000    20035444.789           0.000  
   -327395.998           0.000    23627886.663           0.000  
    924749.002           0.000    20821893.856           0.000  
 -20937741.999           0.000    22029069.555           0.000  
 98  9 28 11 37 25.9960000  0  5G 7G18G14G16G19
   6274710.002           0.000    24259299.508           0.000  
   4434799.001           0.000    20034857.172           0.000  
   -327923.000           0.000    23627786.578           0.000  
    922704.998           0.000    20821504.895           0.000  
 -20943712.003           0.000    22027933.450           0.000  
 98  9 28 11 37 26.9960000  0  5G 7G18G14G16G19
   6274451.002           0.000    24259251.171           0.000  
   4431713.002           0.000    20034269.752           0.000  
   -328447.999           0.000    23627686.567           0.000  
    920663.002           0.000    20821116.091           0.000  
 -20949680.998           0.000    22026797.513           0.000  
 98  9 28 11 37 27.9960000  0  4G 7G14G16G19
   6274189.002           0.000    24259202.398           0.000  
   -328972.998           0.000    23627586.698           0.000  
    918621.000           0.000    20820727.481           0.000  
 -20955649.998           0.000    22025661.714           0.000  
 98  9 28 11 37 28.9960000  0  5G 7G18G14G16G19
   6273928.998           0.000    24259153.944           0.000  
   6299222.998           0.000    20033100.713           0.000  
   -329496.998           0.000    23627487.026           0.000  
    916580.002           0.000    20820339.083           0.000  
 -20961617.001           0.000    22024526.168           0.000  
 98  9 28 11 37 29.9960000  0  5G 7G18G14G16G19
   6273669.000           0.000    24259105.128           0.000  
   6296140.000           0.000    20032508.260           0.000  
   -330020.001           0.000    23627387.446           0.000  
    914539.997           0.000    20819950.803           0.000  
 -20967584.000           0.000    22023390.722           0.000  
 98  9 28 11 37 30.9960000  0  5G 7G18G14G16G19
   6273410.999           0.000    24259055.935           0.000  
   6293058.999           0.000    20031921.908           0.000  
   -330541.999           0.000    23627288.050           0.000  
    912501.001           0.000    20819562.728           0.000  
 -20973549.001           0.000    22022255.480           0.000  
 98  9 28 11 37 31.9960000  0  5G 7G18G14G16G19
   6273151.999           0.000    24259007.238           0.000  
   6289977.998           0.000    20031336.251           0.000  
   -331064.003           0.000    23627188.820           0.000  
    910462.999           0.000    20819174.875           0.000  
 -20979512.998           0.000    22021120.498           0.000  
 98  9 28 11 37 32.9960000  0  5G 7G18G14G16G19
   6272896.000           0.000    24258959.329           0.000  
   6286899.997           0.000    20030761.351           0.000  
   -331583.000           0.000    23627089.865           0.000  
    908426.998           0.000    20818787.348           0.000  
 -20985475.998           0.000    22019985.839           0.000  
 98  9 28 11 37 33.9960000  0  5G 7G18G14G16G19
   6272641.998           0.000    24258911.537           0.000  
   6283822.002           0.000    20030175.775           0.000  
   -332103.002           0.000    23626991.069           0.000  
    906390.998           0.000    20818399.984           0.000  
 -20991437.000           0.000    22018851.402           0.000  
 98  9 28 11 37 34.9960000  0  5G 7G18G14G16G19
   6272386.998           0.000    24258862.931           0.000  
   6280745.999           0.000    20029589.864           0.000  
   -332619.998           0.000    23626892.499           0.000  
    904357.000           0.000    20818012.875           0.000  
 -20997396.998           0.000    22017717.210           0.000  
 98  9 28 11 37 35.9960000  0  5G 7G18G14G16G19
   6272133.001           0.000    24258815.246           0.000  
   6277671.997           0.000    20029003.792           0.000  
   -333136.999           0.000    23626794.169           0.000  
    902324.998           0.000    20817626.039           0.000  
 -21003355.998           0.000    22016583.290           0.000  
 98  9 28 11 37 36.9960000  0  5G 7G18G14G16G19
   6271881.001           0.000    24258768.038           0.000  
   6274599.000           0.000    20028418.564           0.000  
   -333653.001           0.000    23626696.006           0.000  
    900293.002           0.000    20817239.445           0.000  
 -21009313.001           0.000    22015449.622           0.000  
 98  9 28 11 37 37.9960000  0  5G 7G18G14G16G19
   6271629.001           0.000    24258721.303           0.000  
   6271527.001           0.000    20027831.802           0.000  
   -334168.000           0.000    23626597.989           0.000  
    898261.999           0.000    20816852.978           0.000  
 -21015269.999           0.000    22014316.102           0.000  
 98  9 28 11 37 38.9960000  0  5G 7G18G14G16G19
   6271376.002           0.000    24258674.336           0.000  
   6268455.001           0.000    20027246.023           0.000  
   -334682.000           0.000    23626500.137           0.000  
    896232.000           0.000    20816466.648           0.000  
 -21021225.999           0.000    22013182.750           0.000  
 98  9 28 11 37 39.9960000  0  5G 7G18G14G16G19
   6271125.001           0.000    24258627.596           0.000  
   6265384.999           0.000    20026661.804           0.000  
   -335196.000           0.000    23626402.426           0.000  
    894203.998           0.000    20816080.533           0.000  
 -21027180.001           0.000    22012049.597           0.000  
 98  9 28 11 37 40.9960000  0  5G 7G18G14G16G19
   6270876.002           0.000    24258580.154           0.000  
   6262316.999           0.000    20026077.508           0.000  
   -335707.998           0.000    23626304.907           0.000  
    892176.001           0.000    20815694.660           0.000  
 -21033133.998           0.000    22010916.710           0.000  
 98  9 28 11 37 41.9960000  0  5G 7G18G14G16G19
   6270625.999           0.000    24258533.168           0.000  
   6259249.998           0.000    20025493.706           0.000  
   -336218.998           0.000    23626207.608           0.000  
    890150.001           0.000    20815309.048           0.000  
 -21039085.000           0.000    22009784.057           0.000  
 98  9 28 11 37 42.9960000  0  5G 7G18G14G16G19
   6270379.001           0.000    24258485.630           0.000  
   6256183.001           0.000    20024909.431           0.000  
   -336728.999           0.000    23626110.505           0.000  
    888124.999           0.000    20814923.627           0.000  
 -21045036.002           0.000    22008651.607           0.000  
 98  9 28 11 37 43.9960000  0  5G 7G18G14G16G19
   6270130.002           0.000    24258437.894           0.000  
   6253118.002           0.000    20024325.035           0.000  
   -337239.000           0.000    23626013.448           0.000  
    886099.998           0.000    20814538.332           0.000  
 -21050986.999           0.000    22007519.283           0.000  
 98  9 28 11 37 44.9960000  0  5G 7G18G14G16G19
   6269882.001           0.000    24258391.389           0.000  
   6250054.001           0.000    20023741.616           0.000  
   -337749.002           0.000    23625916.537           0.000  
    884076.000           0.000    20814153.183           0.000  
 -21056935.998           0.000    22006387.163           0.000  
 98  9 28 11 37 45.9960000  0  5G 7G18G14G16G19
   6269636.002           0.000    24258344.179           0.000  
   6246990.000           0.000    20023158.584           0.000  
   -338257.001           0.000    23625819.698           0.000  
    882053.000           0.000    20813768.142           0.000  
 -21062884.000           0.000    22005255.211           0.000  
 98  9 28 11 37 46.9960000  0  5G 7G18G14G16G19
   6269389.000           0.000    24258297.452           0.000  
   6243928.001           0.000    20022575.574           0.000  
   -338765.000           0.000    23625722.967           0.000  
    880030.999           0.000    20813383.235           0.000  
 -21068832.001           0.000    22004123.386           0.000  
 98  9 28 11 37 47.9960000  0  5G 7G18G14G16G19
   6269141.998           0.000    24258251.196           0.000  
   6240867.001           0.000    20021992.837           0.000  
   -339272.000           0.000    23625626.473           0.000  
    878010.002           0.000    20812998.601           0.000  
 -21074778.000           0.000    22002991.873           0.000  
 98  9 28 11 37 48.9960000  0  5G 7G18G14G16G19
   6268898.999           0.000    24258210.235           0.000  
   6237806.000           0.000    20021410.674           0.000  
   -339778.002           0.000    23625530.104           0.000  
    875989.998           0.000    20812614.095           0.000  
 -21080723.000           0.000    22001860.511           0.000  
 98  9 28 11 37 49.9960000  0  5G 7G18G14G16G19
   6268656.001           0.000    24258166.190           0.000  
   6234747.002           0.000    20020828.395           0.000  
   -340283.999           0.000    23625433.807           0.000  
    873969.999           0.000    20812229.750           0.000  
 -21086668.001           0.000    22000729.282           0.000  
 98  9 28 11 37 50.9960000  0  5G 7G18G14G16G19
   6268412.998           0.000    24258122.033           0.000  
   6231689.002           0.000    20020246.168           0.000  
   -340788.998           0.000    23625337.692           0.000  
    871952.002           0.000    20811845.559           0.000  
 -21092611.998           0.000    21999598.257           0.000  
 98  9 28 11 37 51.9960000  0  5G 7G18G14G16G19
   6268169.001           0.000    24258074.398           0.000  
   6228632.001           0.000    20019664.037           0.000  
   -341293.003           0.000    23625241.730           0.000  
    869934.000           0.000    20811461.488           0.000  
 -21098553.998           0.000    21998467.388           0.000  
 98  9 28 11 37 52.9960000  0  5G 7G18G14G16G19
   6267925.998           0.000    24258027.795           0.000  
   6225575.998           0.000    20019082.091           0.000  
   -341797.003           0.000    23625145.904           0.000  
    867917.002           0.000    20811077.583           0.000  
 -21104495.998           0.000    21997336.742           0.000  
 98  9 28 11 37 53.9960000  0  5G 7G18G14G16G19
   6267682.002           0.000    24257980.316           0.000  
   6222520.001           0.000    20018500.728           0.000  
   -342299.999           0.000    23625050.144           0.000  
    865901.002           0.000    20810693.764           0.000  
 -21110436.999           0.000    21996206.237           0.000  
 98  9 28 11 37 54.9960000  0  5G 7G18G14G16G19
   6267440.002           0.000    24257933.565           0.000  
   6219466.000           0.000    20017919.488           0.000  
   -342803.000           0.000    23624954.564           0.000  
    863886.001           0.000    20810310.171           0.000  
 -21116377.002           0.000    21995075.894           0.000  
 98  9 28 11 37 55.9960000  0  5G 7G18G14G16G19
   6267198.002           0.000    24257887.220           0.000  
   6216411.999           0.000    20017338.506           0.000  
   -343304.000           0.000    23624859.119           0.000  
    861871.000           0.000    20809926.767           0.000  
 -21122316.002           0.000    21993945.765           0.000  
 98  9 28 11 37 56.9960000  0  5G 7G18G14G16G19
   6266958.000           0.000    24257840.169           0.000  
   6213360.001           0.000    20016757.343           0.000  
   -343804.999           0.000    23624763.760           0.000  
    859858.000           0.000    20809543.524           0.000  
 -21128254.003           0.000    21992815.809           0.000  
 98  9 28 11 37 57.9960000  0  5G 7G18G14G16G19
   6266718.002           0.000    24257793.554           0.000  
   6210309.001           0.000    20016176.788           0.000  
   -344305.000           0.000    23624668.604           0.000  
    857845.001           0.000    20809160.485           0.000  
 -21134191.000           0.000    21991686.048           0.000  
 98  9 28 11 37 58.9960000  0  5G 7G18G14G16G19
   6266478.998           0.000    24257747.359           0.000  
   6207258.999           0.000    20015596.176           0.000  
   -344805.001           0.000    23624573.456           0.000  
    855833.001           0.000    20808777.482           0.000  
 -21140128.002           0.000    21990556.349           0.000  
 98  9 28 11 37 59.9960000  0  5G 7G18G14G16G19
   6266239.000           0.000    24257701.315           0.000  
   6204208.998           0.000    20015015.716           0.000  
   -345303.998           0.000    23624478.466           0.000  
    853821.998           0.000    20808394.678           0.000  
 -21146063.003           0.000    21989426.836           0.000  
 98  9 28 11 38  0.9960000  0  5G 7G18G14G16G19
   6266001.000           0.000    24257655.837           0.000  
   6201160.000           0.000    20014435.470           0.000  
   -345803.000           0.000    23624383.636           0.000  
    851811.001           0.000    20808012.005           0.000  
 -21151997.998           0.000    21988297.500           0.000  
 98  9 28 11 38  1.9960000  0  5G 7G18G14G16G19
   6265762.999           0.000    24257610.366           0.000  
   6198112.999           0.000    20013855.454           0.000  
   -346300.001           0.000    23624288.952           0.000  
    849802.001           0.000    20807629.590           0.000  
 -21157931.001           0.000    21987168.382           0.000  
 98  9 28 11 38  2.9960000  0  5G 7G18G14G16G19
   6265524.999           0.000    24257565.818           0.000  
   6195067.002           0.000    20013275.599           0.000  
   -346797.001           0.000    23624194.417           0.000  
    847794.000           0.000    20807247.338           0.000  
 -21163863.999           0.000    21986039.475           0.000  
 98  9 28 11 38  3.9960000  0  5G 7G18G14G16G19
   6265289.999           0.000    24257521.130           0.000  
   6192021.998           0.000    20012696.137           0.000  
   -347291.999           0.000    23624100.186           0.000  
    845787.002           0.000    20806865.430           0.000  
 -21169795.000           0.000    21984910.911           0.000  
 98  9 28 11 38  4.9960000  0  5G 7G18G14G16G19
   6265054.999           0.000    24257475.838           0.000  
   6188979.001           0.000    20012116.856           0.000  
   -347787.002           0.000    23624006.110           0.000  
    843780.997           0.000    20806483.714           0.000  
 -21175723.999           0.000    21983782.608           0.000  
 98  9 28 11 38  5.9960000  0  5G 7G18G14G16G19
   6264819.999           0.000    24257430.906           0.000  
   6185936.998           0.000    20011537.730           0.000  
   -348281.002           0.000    23623912.072           0.000  
    841776.002           0.000    20806102.106           0.000  
 -21181652.998           0.000    21982654.414           0.000  
 98  9 28 11 38  6.9960000  0  5G 7G18G14G16G19
   6264584.000           0.000    24257385.973           0.000  
   6182895.000           0.000    20010958.832           0.000  
   -348773.998           0.000    23623818.139           0.000  
    839771.999           0.000    20805720.672           0.000  
 -21187580.999           0.000    21981526.366           0.000  
 98  9 28 11 38  7.9960000  0  5G 7G18G14G16G19
   6264352.001           0.000    24257340.567           0.000  
   6179854.998           0.000    20010380.077           0.000  
   -349266.999           0.000    23623724.359           0.000  
    837769.000           0.000    20805339.431           0.000  
 -21193508.001           0.000    21980398.546           0.000  
 98  9 28 11 38  8.9960000  0  4G18G14G16G19
   6176816.001           0.000    20009801.537           0.000  
   -349759.002           0.000    23623630.817           0.000  
    835766.001           0.000    20804958.416           0.000  
 -21199433.999           0.000    21979270.930           0.000  
 98  9 28 11 38  9.9960000  0  5G 7G18G14G16G19
   6263887.997           0.000    24257246.827           0.000  
   6173776.998           0.000    20009223.250           0.000  
   -350250.001           0.000    23623537.357           0.000  
    833764.999           0.000    20804577.562           0.000  
 -21205358.001           0.000    21978143.475           0.000  
 98  9 28 11 38 10.9960000  0  5G 7G18G14G16G19
   6263657.002           0.000    24257195.108           0.000  
   6170741.001           0.000    20008645.380           0.000  
   -350740.001           0.000    23623444.106           0.000  
    831765.001           0.000    20804196.943           0.000  
 -21211282.002           0.000    21977016.285           0.000  
 98  9 28 11 38 11.9960000  0  5G 7G18G14G16G19
   6263426.999           0.000    24257152.534           0.000  
   6167704.999           0.000    20008067.596           0.000  
   -351228.998           0.000    23623350.886           0.000  
    829764.998           0.000    20803816.422           0.000  
 -21217205.000           0.000    21975889.189           0.000  
 98  9 28 11 38 12.9960000  0  5G 7G18G14G16G19
   6263197.002           0.000    24257108.138           0.000  
   6164670.001           0.000    20007490.116           0.000  
   -351718.000           0.000    23623257.883           0.000  
    827767.002           0.000    20803436.114           0.000  
 -21223126.999           0.000    21974762.340           0.000  
 98  9 28 11 38 13.9960000  0  5G 7G18G14G16G19
   6262966.001           0.000    24257063.096           0.000  
   6161636.001           0.000    20006912.994           0.000  
   -352205.998           0.000    23623165.068           0.000  
    825769.001           0.000    20803055.963           0.000  
 -21229047.002           0.000    21973635.711           0.000  
 98  9 28 11 38 14.9960000  0  5G 7G18G14G16G19
   6262736.997           0.000    24257019.741           0.000  
   6158602.999           0.000    20006335.938           0.000  
   -352694.002           0.000    23623072.260           0.000  
    823771.998           0.000    20802675.869           0.000  
 -21234966.999           0.000    21972509.136           0.000  
 98  9 28 11 38 15.9960000  0  5G 7G18G14G16G19
   6262510.001           0.000    24256976.602           0.000  
   6155572.000           0.000    20005759.009           0.000  
   -353181.002           0.000    23622979.624           0.000  
    821775.999           0.000    20802295.995           0.000  
 -21240885.998           0.000    21971382.788           0.000  
 98  9 28 11 38 16.9960000  0  5G 7G18G14G16G19
   6262282.001           0.000    24256932.692           0.000  
   6152541.000           0.000    20005182.413           0.000  
   -353666.998           0.000    23622887.183           0.000  
    819780.998           0.000    20801916.357           0.000  
 -21246803.998           0.000    21970256.633           0.000  
 98  9 28 11 38 17.9960000  0  5G 7G18G14G16G19
   6262054.000           0.000    24256887.845           0.000  
   6149511.998           0.000    20004605.863           0.000  
   -354152.001           0.000    23622794.872           0.000  
    817787.001           0.000    20801536.907           0.000  
 -21252721.000           0.000    21969130.728           0.000  
 98  9 28 11 38 18.9960000  0  5G 7G18G14G16G19
   6261829.001           0.000    24256844.092           0.000  
   6146483.999           0.000    20004029.589           0.000  
   -354636.000           0.000    23622702.794           0.000  
    815793.997           0.000    20801157.686           0.000  
 -21258635.999           0.000    21968005.037           0.000  
 98  9 28 11 38 19.9960000  0  5G 7G18G14G16G19
   6261605.000           0.000    24256800.866           0.000  
   6143456.999           0.000    20003453.638           0.000  
   -355120.000           0.000    23622610.815           0.000  
    813801.997           0.000    20800778.621           0.000  
 -21264550.001           0.000    21966879.553           0.000  
 98  9 28 11 38 20.9960000  0  5G 7G18G14G16G19
   6261379.002           0.000    24256757.113           0.000  
   6140431.002           0.000    20002877.775           0.000  
   -355602.002           0.000    23622518.967           0.000  
    811811.001           0.000    20800399.723           0.000  
 -21270464.002           0.000    21965754.269           0.000  
 98  9 28 11 38 21.9960000  0  5G 7G18G14G16G19
   6261155.000           0.000    24256713.334           0.000  
   6137406.997           0.000    20002302.143           0.000  
   -356083.999           0.000    23622427.268           0.000  
    809820.998           0.000    20800021.038           0.000  
 -21276376.001           0.000    21964629.176           0.000  
 98  9 28 11 38 22.9960000  0  5G 7G18G14G16G19
   6260931.998           0.000    24256670.022           0.000  
   6134384.001           0.000    20001726.966           0.000  
   -356564.998           0.000    23622335.875           0.000  
    807833.002           0.000    20799642.732           0.000  
 -21282286.003           0.000    21963504.448           0.000  
 98  9 28 11 38 23.9960000  0  5G 7G18G14G16G19
   6260711.003           0.000    24256628.587           0.000  
   6131362.997           0.000    20001152.315           0.000  
   -357043.001           0.000    23622244.862           0.000  
    805846.998           0.000    20799264.748           0.000  
 -21288195.001           0.000    21962380.125           0.000  
 98  9 28 11 38 24.9960000  0  5G 7G18G14G16G19
   6260491.000           0.000    24256586.234           0.000  
   6128344.999           0.000    20000578.098           0.000  
   -357520.001           0.000    23622154.190           0.000  
    803861.998           0.000    20798887.162           0.000  
 -21294100.999           0.000    21961256.166           0.000  
 98  9 28 11 38 25.9960000  0  5G 7G18G14G16G19
   6260272.002           0.000    24256543.812           0.000  
   6125327.999           0.000    20000003.899           0.000  
   -357996.002           0.000    23622063.689           0.000  
    801879.000           0.000    20798509.769           0.000  
 -21300005.998           0.000    21960132.426           0.000  
 98  9 28 11 38 26.9960000  0  5G 7G18G14G16G19
   6260054.002           0.000    24256501.811           0.000  
   6122311.997           0.000    19999429.887           0.000  
   -358472.003           0.000    23621973.287           0.000  
    799896.002           0.000    20798132.512           0.000  
 -21305911.003           0.000    21959008.878           0.000  
 98  9 28 11 38 27.9960000  0  5G 7G18G14G16G19
   6259837.999           0.000    24256459.949           0.000  
   6119296.001           0.000    19998856.123           0.000  
   -358946.002           0.000    23621883.003           0.000  
    797914.002           0.000    20797755.425           0.000  
 -21311814.000           0.000    21957885.517           0.000  
 98  9 28 11 38 28.9960000  0  5G 7G18G14G16G19
   6259620.998           0.000    24256417.791           0.000  
   6116283.000           0.000    19998282.445           0.000  
   -359420.001           0.000    23621792.930           0.000  
    795933.999           0.000    20797378.553           0.000  
 -21317715.998           0.000    21956762.402           0.000  
 98  9 28 11 38 29.9960000  0  5G 7G18G14G16G19
   6259405.000           0.000    24256375.181           0.000  
   6113270.998           0.000    19997709.292           0.000  
   -359892.003           0.000    23621703.168           0.000  
    793955.000           0.000    20797002.042           0.000  
 -21323616.000           0.000    21955639.644           0.000  
 98  9 28 11 38 30.9960000  0  5G 7G18G14G16G19
   6259190.999           0.000    24256333.810           0.000  
   6110260.998           0.000    19997136.617           0.000  
   -360363.001           0.000    23621613.598           0.000  
    791977.998           0.000    20796625.854           0.000  
 -21329514.000           0.000    21954517.203           0.000  
 98  9 28 11 38 31.9960000  0  5G 7G18G14G16G19
   6258979.001           0.000    24256292.627           0.000  
   6107253.000           0.000    19996564.033           0.000  
   -360832.002           0.000    23621524.296           0.000  
    790001.999           0.000    20796249.873           0.000  
 -21335411.001           0.000    21953395.030           0.000  
 98  9 28 11 38 32.9960000  0  5G 7G18G14G16G19
   6258765.000           0.000    24256250.644           0.000  
   6104245.002           0.000    19995991.633           0.000  
   -361302.002           0.000    23621434.996           0.000  
    788027.000           0.000    20795874.012           0.000  
 -21341308.002           0.000    21952272.957           0.000  
 98  9 28 11 38 33.9960000  0  5G 7G18G14G16G19
   6258551.997           0.000    24256209.261           0.000  
   6101236.998           0.000    19995419.353           0.000  
   -361770.998           0.000    23621345.709           0.000  
    786052.000           0.000    20795498.175           0.000  
 -21347203.999           0.000    21951150.914           0.000  
 98  9 28 11 38 34.9960000  0  5G 7G18G14G16G19
   6258339.999           0.000    24256168.627           0.000  
   6098231.002           0.000    19994847.144           0.000  
   -362240.000           0.000    23621256.509           0.000  
    784077.000           0.000    20795122.447           0.000  
 -21353098.998           0.000    21950029.029           0.000  
 98  9 28 11 38 35.9960000  0  4G 7G14G16G19
   6258127.002           0.000    24256127.058           0.000  
   -362709.001           0.000    23621167.432           0.000  
    782102.998           0.000    20794746.904           0.000  
 -21358994.002           0.000    21948907.349           0.000  
 98  9 28 11 38 36.9960000  0  5G 7G18G14G16G19
   6257917.000           0.000    24256087.116           0.000  
   6092219.998           0.000    19993697.772           0.000  
   -363176.999           0.000    23621078.372           0.000  
    780130.000           0.000    20794371.466           0.000  
 -21364887.998           0.000    21947785.784           0.000  
 98  9 28 11 38 37.9960000  0  5G 7G18G14G16G19
   6257706.000           0.000    24256047.307           0.000  
   6089215.999           0.000    19993128.333           0.000  
   -363643.998           0.000    23620989.429           0.000  
    778158.001           0.000    20793996.149           0.000  
 -21370781.000           0.000    21946664.359           0.000  
 98  9 28 11 38 38.9960000  0  5G 7G18G14G16G19
   6257495.998           0.000    24256008.108           0.000  
   6086213.997           0.000    19992557.440           0.000  
   -364111.003           0.000    23620900.605           0.000  
    776186.001           0.000    20793620.991           0.000  
 -21376672.998           0.000    21945543.098           0.000  
 98  9 28 11 38 39.9960000  0  5G 7G18G14G16G19
   6257286.002           0.000    24255968.447           0.000  
   6083211.002           0.000    19991988.487           0.000  
   -364578.002           0.000    23620811.888           0.000  
    774215.001           0.000    20793245.943           0.000  
 -21382563.998           0.000    21944422.012           0.000  
 98  9 28 11 38 40.9960000  0  5G 7G18G14G16G19
   6257075.001           0.000    24255927.964           0.000  
   6080209.999           0.000    19991416.436           0.000  
   -365044.003           0.000    23620723.206           0.000  
    772244.000           0.000    20792871.039           0.000  
 -21388454.998           0.000    21943301.105           0.000  
 98  9 28 11 38 41.9960000  0  5G 7G18G14G16G19
   6256865.998           0.000    24255887.629           0.000  
   6077209.999           0.000    19990846.020           0.000  
   -365509.000           0.000    23620634.720           0.000  
    770275.001           0.000    20792496.332           0.000  
 -21394344.999           0.000    21942180.351           0.000  
 98  9 28 11 38 42.9960000  0  5G 7G18G14G16G19
   6256659.002           0.000    24255847.355           0.000  
   6074211.002           0.000    19990273.796           0.000  
   -365974.002           0.000    23620546.324           0.000  
    768306.002           0.000    20792121.793           0.000  
 -21400232.998           0.000    21941059.757           0.000  
 98  9 28 11 38 43.9960000  0  5G 7G18G14G16G19
   6256449.001           0.000    24255806.960           0.000  
   6071212.999           0.000    19989702.673           0.000  
   -366438.001           0.000    23620458.015           0.000  
    766338.002           0.000    20791747.380           0.000  
 -21406120.998           0.000    21939939.364           0.000  
 98  9 28 11 38 44.9960000  0  5G 7G18G14G16G19
   6256241.001           0.000    24255767.323           0.000  
   6068216.000           0.000    19989131.895           0.000  
   -366901.999           0.000    23620369.818           0.000  
    764371.000           0.000    20791373.095           0.000  
 -21412007.998           0.000    21938819.079           0.000  
 98  9 28 11 38 45.9960000  0  5G 7G18G14G16G19
   6256034.000           0.000    24255727.950           0.000  
   6065219.999           0.000    19988560.285           0.000  
   -367364.999           0.000    23620281.734           0.000  
    762405.002           0.000    20790998.999           0.000  
 -21417894.001           0.000    21937698.962           0.000  
 98  9 28 11 38 46.9960000  0  5G 7G18G14G16G19
   6255826.000           0.000    24255688.374           0.000  
   6062223.998           0.000    19987989.247           0.000  
   -367828.000           0.000    23620193.691           0.000  
    760438.999           0.000    20790624.960           0.000  
 -21423779.998           0.000    21936578.981           0.000  
 98  9 28 11 38 47.9960000  0  5G 7G18G14G16G19
   6255619.998           0.000    24255648.944           0.000  
   6059230.000           0.000    19987418.728           0.000  
   -368290.001           0.000    23620105.862           0.000  
    758473.999           0.000    20790251.124           0.000  
 -21429663.998           0.000    21935459.241           0.000  
 98  9 28 11 38 48.9960000  0  5G 7G18G14G16G19
   6255414.999           0.000    24255609.840           0.000  
   6056237.000           0.000    19986848.086           0.000  
   -368750.999           0.000    23620018.187           0.000  
    756511.002           0.000    20789877.544           0.000  
 -21435547.000           0.000    21934339.697           0.000  
