     2.10           OBSERVATION DATA    G (GPS)             RINEX VERSION / TYPE
rinexwrt            gAGE                20100505 12:46:02UTCPGM / RUN BY / DATE
gAGE                                                        MARKER NAME
gAGE                gAGE                                    OBSERVER / AGENCY
Unknown             Unknown             Unknown             REC # / TYPE / VERS
Unknown             Unknown                                 ANT # / TYPE
  5436447.3690 -1496036.6390  2971380.3580                  APPROX POSITION XYZ
        0.0000        0.0000        0.0000                  ANTENNA: DELTA H/E/N
     1     1                                                WAVELENGTH FACT L1/2
     4    L1    L2    C1    P2                              # / TYPES OF OBSERV
  1998     9    30    11    23   20.9990000     GPS         TIME OF FIRST OBS
                                                            END OF HEADER
 98  9 30 11 23 20.9990000  0  4G14G18G19G16
   2860105.998           0.000    23345169.068           0.000  
   1063982.002           0.000    19939572.665           0.000  
  -4352053.002           0.000    22123438.322           0.000  
    539998.001           0.000    20653631.857           0.000  
 98  9 30 11 23 21.9990000  0  4G14G18G19G16
   2859809.998           0.000    23345112.749           0.000  
   1061014.000           0.000    19939007.879           0.000  
  -4357856.001           0.000    22122334.164           0.000  
    538135.002           0.000    20653277.310           0.000  
 98  9 30 11 23 22.9990000  0  4G14G18G19G16
   2859512.999           0.000    23345056.337           0.000  
   1058045.998           0.000    19938443.281           0.000  
  -4363659.000           0.000    22121229.918           0.000  
    536271.997           0.000    20652922.706           0.000  
 98  9 30 11 23 23.9990000  0  4G14G18G19G16
   2859216.000           0.000    23344999.720           0.000  
   1055076.998           0.000    19937878.464           0.000  
  -4369462.998           0.000    22120125.482           0.000  
    534408.000           0.000    20652568.021           0.000  
 98  9 30 11 23 24.9990000  0  4G14G18G19G16
   2858917.998           0.000    23344942.985           0.000  
   1052107.997           0.000    19937313.562           0.000  
  -4375267.999           0.000    22119020.968           0.000  
    532542.998           0.000    20652213.190           0.000  
 98  9 30 11 23 25.9990000  0  4G14G18G19G16
   2858620.000           0.000    23344886.060           0.000  
   1049139.002           0.000    19936748.588           0.000  
  -4381073.000           0.000    22117916.403           0.000  
    530679.000           0.000    20651858.278           0.000  
 98  9 30 11 23 26.9990000  0  4G14G18G19G16
   2858320.999           0.000    23344829.093           0.000  
   1046170.002           0.000    19936183.614           0.000  
  -4386878.001           0.000    22116811.815           0.000  
    528813.000           0.000    20651503.326           0.000  
 98  9 30 11 23 27.9990000  0  4G14G18G19G16
   2858021.000           0.000    23344772.029           0.000  
   1043199.998           0.000    19935618.702           0.000  
  -4392683.003           0.000    22115707.199           0.000  
    526947.998           0.000    20651148.292           0.000  
 98  9 30 11 23 28.9990000  0  4G14G18G19G16
   2857721.999           0.000    23344714.911           0.000  
   1040231.002           0.000    19935053.908           0.000  
  -4398489.002           0.000    22114602.537           0.000  
    525081.998           0.000    20650793.242           0.000  
 98  9 30 11 23 29.9990000  0  4G14G18G19G16
   2857421.001           0.000    23344657.666           0.000  
   1037262.002           0.000    19934488.940           0.000  
  -4404295.002           0.000    22113497.813           0.000  
    523215.998           0.000    20650438.124           0.000  
 98  9 30 11 23 30.9990000  0  5G 4G14G18G19G16
   1573185.002           0.000    20607227.302           0.000  
   2857119.998           0.000    23344600.315           0.000  
   1034291.998           0.000    19933923.855           0.000  
  -4410101.002           0.000    22112392.946           0.000  
    521349.000           0.000    20650082.920           0.000  
 98  9 30 11 23 31.9990000  0  5G 4G14G18G19G16
   1569508.001           0.000    20606533.096           0.000  
   2856818.001           0.000    23344542.755           0.000  
   1031321.000           0.000    19933358.802           0.000  
  -4415908.998           0.000    22111287.847           0.000  
    519480.998           0.000    20649727.540           0.000  
 98  9 30 11 23 32.9990000  0  5G 4G14G18G19G16
   1565831.000           0.000    20605827.223           0.000  
   2856515.001           0.000    23344484.972           0.000  
   1028349.998           0.000    19932793.584           0.000  
  -4421717.000           0.000    22110182.563           0.000  
    517613.001           0.000    20649371.987           0.000  
 98  9 30 11 23 33.9990000  0  5G 4G14G18G19G16
   1562154.998           0.000    20605124.528           0.000  
   2856211.003           0.000    23344427.120           0.000  
   1025378.002           0.000    19932228.284           0.000  
  -4427525.002           0.000    22109077.263           0.000  
    515744.000           0.000    20649016.357           0.000  
 98  9 30 11 23 34.9990000  0  5G 4G14G18G19G16
   1558479.001           0.000    20604423.701           0.000  
   2855906.999           0.000    23344369.198           0.000  
   1022406.999           0.000    19931662.915           0.000  
  -4433334.002           0.000    22107971.920           0.000  
    513874.001           0.000    20648660.660           0.000  
 98  9 30 11 23 35.9990000  0  5G 4G14G18G19G16
   1554802.998           0.000    20603721.329           0.000  
   2855602.002           0.000    23344311.195           0.000  
   1019434.998           0.000    19931097.501           0.000  
  -4439143.002           0.000    22106866.489           0.000  
    512005.000           0.000    20648304.891           0.000  
 98  9 30 11 23 36.9990000  0  5G 4G14G18G19G16
   1551127.999           0.000    20603020.727           0.000  
   2855297.000           0.000    23344253.168           0.000  
   1016464.001           0.000    19930532.135           0.000  
  -4444952.003           0.000    22105761.158           0.000  
    510135.001           0.000    20647949.193           0.000  
 98  9 30 11 23 37.9990000  0  5G 4G14G18G19G16
   1547454.998           0.000    20602317.408           0.000  
   2854992.003           0.000    23344195.083           0.000  
   1013492.998           0.000    19929966.770           0.000  
  -4450760.998           0.000    22104655.800           0.000  
    508265.002           0.000    20647593.495           0.000  
 98  9 30 11 23 38.9990000  0  5G 4G14G18G19G16
   1543779.999           0.000    20601615.386           0.000  
   2854687.000           0.000    23344136.956           0.000  
   1010521.002           0.000    19929401.457           0.000  
  -4456569.998           0.000    22103550.407           0.000  
    506396.001           0.000    20647237.764           0.000  
 98  9 30 11 23 39.9990000  0  5G 4G14G18G19G16
   1540102.998           0.000    20600915.399           0.000  
   2854381.000           0.000    23344078.640           0.000  
   1007550.000           0.000    19928835.871           0.000  
  -4462380.002           0.000    22102444.904           0.000  
    504524.999           0.000    20646881.881           0.000  
 98  9 30 11 23 40.9990000  0  5G 4G14G18G19G16
   1536428.998           0.000    20600219.014           0.000  
   2854074.999           0.000    23344020.255           0.000  
   1004579.002           0.000    19928270.239           0.000  
  -4468189.002           0.000    22101339.390           0.000  
    502654.001           0.000    20646525.923           0.000  
 98  9 30 11 23 41.9990000  0  5G 4G14G18G19G16
   1532753.001           0.000    20599522.436           0.000  
   2853768.000           0.000    23343961.924           0.000  
   1001607.001           0.000    19927704.706           0.000  
  -4473999.001           0.000    22100233.906           0.000  
    500784.002           0.000    20646169.988           0.000  
 98  9 30 11 23 42.9990000  0  5G 4G14G18G19G16
   1529078.002           0.000    20598829.757           0.000  
   2853461.001           0.000    23343903.350           0.000  
    998635.999           0.000    19927134.413           0.000  
  -4479809.000           0.000    22099128.296           0.000  
    498912.001           0.000    20645813.864           0.000  
 98  9 30 11 23 43.9990000  0  5G 4G14G18G19G16
   1525402.998           0.000    20598129.930           0.000  
   2853152.998           0.000    23343844.627           0.000  
    995662.999           0.000    19926559.686           0.000  
  -4485620.002           0.000    22098022.500           0.000  
    497039.999           0.000    20645457.605           0.000  
 98  9 30 11 23 44.9990000  0  5G 4G14G18G19G16
   1521726.002           0.000    20597429.227           0.000  
   2852844.002           0.000    23343785.805           0.000  
    992690.998           0.000    19925994.077           0.000  
  -4491431.998           0.000    22096916.608           0.000  
    495167.000           0.000    20645101.277           0.000  
 98  9 30 11 23 45.9990000  0  5G 4G14G18G19G16
   1518050.000           0.000    20596725.668           0.000  
   2852535.000           0.000    23343726.901           0.000  
    989717.999           0.000    19925429.456           0.000  
  -4497243.000           0.000    22095810.594           0.000  
    493294.000           0.000    20644744.849           0.000  
 98  9 30 11 23 46.9990000  0  4G 4G14G19G16
   1514372.001           0.000    20596023.012           0.000  
   2852225.001           0.000    23343667.859           0.000  
  -4503055.001           0.000    22094704.547           0.000  
    491421.000           0.000    20644388.379           0.000  
 98  9 30 11 23 47.9990000  0  5G 4G14G18G19G16
   1510695.000           0.000    20595323.035           0.000  
   2851915.001           0.000    23343608.744           0.000  
    983772.998           0.000    19924303.581           0.000  
  -4508867.002           0.000    22093598.519           0.000  
    489548.000           0.000    20644031.879           0.000  
 98  9 30 11 23 48.9990000  0  5G 4G14G18G19G16
   1507020.001           0.000    20594624.195           0.000  
   2851605.001           0.000    23343549.610           0.000  
    980801.002           0.000    19923739.976           0.000  
  -4514680.002           0.000    22092492.437           0.000  
    487674.002           0.000    20643675.344           0.000  
 98  9 30 11 23 49.9990000  0  5G 4G14G18G19G16
   1503343.999           0.000    20593925.686           0.000  
   2851294.003           0.000    23343490.419           0.000  
    977827.997           0.000    19923174.006           0.000  
  -4520492.002           0.000    22091386.219           0.000  
    485799.999           0.000    20643318.723           0.000  
 98  9 30 11 23 50.9990000  0  5G 4G14G18G19G16
   1499668.002           0.000    20593227.833           0.000  
   2850982.001           0.000    23343431.108           0.000  
    974854.998           0.000    19922607.955           0.000  
  -4526305.002           0.000    22090280.047           0.000  
    483926.001           0.000    20642962.063           0.000  
 98  9 30 11 23 51.9990000  0  5G 4G14G18G19G16
   1495991.999           0.000    20592529.232           0.000  
   2850671.002           0.000    23343371.787           0.000  
    971883.002           0.000    19922041.595           0.000  
  -4532118.001           0.000    22089173.785           0.000  
    482050.999           0.000    20642605.410           0.000  
 98  9 30 11 23 52.9990000  0  5G 4G14G18G19G16
   1492316.002           0.000    20591830.086           0.000  
   2850359.001           0.000    23343312.340           0.000  
    968909.997           0.000    19921475.705           0.000  
  -4537931.001           0.000    22088067.392           0.000  
    480177.000           0.000    20642248.682           0.000  
 98  9 30 11 23 53.9990000  0  5G 4G14G18G19G16
   1488640.998           0.000    20591130.988           0.000  
   2850046.000           0.000    23343252.836           0.000  
    965936.998           0.000    19920910.806           0.000  
  -4543744.000           0.000    22086961.082           0.000  
    478301.998           0.000    20641891.915           0.000  
 98  9 30 11 23 54.9990000  0  5G 4G14G18G19G16
   1484965.001           0.000    20590431.484           0.000  
   2849733.998           0.000    23343193.260           0.000  
    962963.998           0.000    19920345.288           0.000  
  -4549556.999           0.000    22085854.700           0.000  
    476427.002           0.000    20641535.129           0.000  
 98  9 30 11 23 55.9990000  0  5G 4G14G18G19G16
   1481288.998           0.000    20589731.386           0.000  
   2849419.999           0.000    23343133.522           0.000  
    959990.999           0.000    19919779.000           0.000  
  -4555372.001           0.000    22084748.199           0.000  
    474551.001           0.000    20641178.173           0.000  
 98  9 30 11 23 56.9990000  0  5G 4G14G18G19G16
   1477614.000           0.000    20589031.431           0.000  
   2849106.000           0.000    23343073.759           0.000  
    957017.999           0.000    19919213.648           0.000  
  -4561185.999           0.000    22083641.652           0.000  
    472675.001           0.000    20640821.177           0.000  
 98  9 30 11 23 57.9990000  0  5G 4G14G18G19G16
   1473937.997           0.000    20588331.368           0.000  
   2848790.998           0.000    23343013.892           0.000  
    954045.000           0.000    19918648.176           0.000  
  -4567000.002           0.000    22082535.064           0.000  
    470798.002           0.000    20640464.103           0.000  
 98  9 30 11 23 58.9990000  0  5G 4G14G18G19G16
   1470262.000           0.000    20587631.797           0.000  
   2848476.000           0.000    23342953.950           0.000  
    951071.002           0.000    19918082.761           0.000  
  -4572814.998           0.000    22081428.526           0.000  
    468920.998           0.000    20640107.004           0.000  
 98  9 30 11 23 59.9990000  0  5G 4G14G18G19G16
   1466587.002           0.000    20586932.428           0.000  
   2848160.998           0.000    23342893.926           0.000  
    948096.998           0.000    19917517.416           0.000  
  -4578630.000           0.000    22080321.969           0.000  
    467043.999           0.000    20639749.849           0.000  
 98  9 30 11 24  0.9990000  0  5G 4G14G18G19G16
   1462910.001           0.000    20586242.956           0.000  
   2847845.002           0.000    23342833.810           0.000  
    945123.999           0.000    19916951.629           0.000  
  -4584446.000           0.000    22079215.360           0.000  
    465167.001           0.000    20639392.623           0.000  
 98  9 30 11 24  1.9990000  0  5G 4G14G18G19G16
   1459233.000           0.000    20585543.490           0.000  
   2847528.003           0.000    23342773.538           0.000  
    942150.001           0.000    19916386.392           0.000  
  -4590262.000           0.000    22078108.699           0.000  
    463288.998           0.000    20639035.316           0.000  
 98  9 30 11 24  2.9990000  0  5G 4G14G18G19G16
   1455556.997           0.000    20584841.950           0.000  
   2847210.998           0.000    23342713.156           0.000  
    939175.998           0.000    19915820.733           0.000  
  -4596078.000           0.000    22077001.956           0.000  
    461411.001           0.000    20638677.942           0.000  
 98  9 30 11 24  3.9990000  0  5G 4G14G18G19G16
   1451881.999           0.000    20584144.690           0.000  
   2846893.000           0.000    23342652.751           0.000  
    936201.001           0.000    19915254.889           0.000  
  -4601894.000           0.000    22075895.183           0.000  
    459532.000           0.000    20638320.527           0.000  
 98  9 30 11 24  4.9990000  0  5G 4G14G18G19G16
   1448203.001           0.000    20583444.846           0.000  
   2846575.002           0.000    23342592.161           0.000  
    933226.998           0.000    19914689.184           0.000  
  -4607710.998           0.000    22074788.243           0.000  
    457652.999           0.000    20637963.013           0.000  
 98  9 30 11 24  5.9990000  0  5G 4G14G18G19G16
   1444526.000           0.000    20582742.860           0.000  
   2846256.000           0.000    23342531.517           0.000  
    930252.002           0.000    19914123.572           0.000  
  -4613528.002           0.000    22073681.275           0.000  
    455773.998           0.000    20637605.479           0.000  
 98  9 30 11 24  6.9990000  0  5G 4G14G18G19G16
   1440849.998           0.000    20582040.686           0.000  
   2845936.000           0.000    23342470.706           0.000  
    927277.000           0.000    19913557.568           0.000  
  -4619345.999           0.000    22072574.138           0.000  
    453893.998           0.000    20637247.807           0.000  
 98  9 30 11 24  7.9990000  0  5G 4G14G18G19G16
   1437173.002           0.000    20581339.485           0.000  
   2845616.000           0.000    23342409.856           0.000  
    924303.002           0.000    19912991.906           0.000  
  -4625164.001           0.000    22071467.115           0.000  
    452013.999           0.000    20636890.144           0.000  
 98  9 30 11 24  8.9990000  0  5G 4G14G18G19G16
   1433497.998           0.000    20580639.006           0.000  
   2845296.000           0.000    23342348.931           0.000  
    921328.000           0.000    19912426.158           0.000  
  -4630981.998           0.000    22070360.050           0.000  
    450133.999           0.000    20636532.397           0.000  
 98  9 30 11 24  9.9980000  0  5G 4G14G18G19G16
   3005246.998           0.000    20879732.781           0.000  
   4420396.000           0.000    23642080.468           0.000  
   2493775.999           0.000    20211653.366           0.000  
  -3061373.999           0.000    22369046.439           0.000  
   2023674.998           0.000    20935967.457           0.000  
 98  9 30 11 24 10.9980000  0  5G 4G14G18G19G16
   3001569.998           0.000    20879033.836           0.000  
   4420074.003           0.000    23642019.380           0.000  
   2490800.997           0.000    20211087.666           0.000  
  -3067192.999           0.000    22367939.165           0.000  
   2021794.001           0.000    20935609.561           0.000  
 98  9 30 11 24 11.9980000  0  5G 4G14G18G19G16
   2997894.999           0.000    20878334.225           0.000  
   4419752.000           0.000    23641958.138           0.000  
   2487826.001           0.000    20210521.950           0.000  
  -3073012.000           0.000    22366831.853           0.000  
   2019912.997           0.000    20935251.561           0.000  
 98  9 30 11 24 12.9980000  0  5G 4G14G18G19G16
   2994217.998           0.000    20877634.709           0.000  
   4419429.998           0.000    23641896.848           0.000  
   2484850.001           0.000    20209956.021           0.000  
  -3078831.000           0.000    22365724.484           0.000  
   2018031.001           0.000    20934893.573           0.000  
 98  9 30 11 24 13.9980000  0  5G 4G14G18G19G16
   2990541.002           0.000    20876935.573           0.000  
   4419107.003           0.000    23641835.419           0.000  
   2481874.999           0.000    20209390.117           0.000  
  -3084651.000           0.000    22364617.047           0.000  
   2016148.999           0.000    20934535.472           0.000  
 98  9 30 11 24 14.9980000  0  5G 4G14G18G19G16
   2986865.000           0.000    20876236.308           0.000  
   4418782.998           0.000    23641773.833           0.000  
   2478898.999           0.000    20208824.188           0.000  
  -3090470.999           0.000    22363509.487           0.000  
   2014265.999           0.000    20934177.216           0.000  
 98  9 30 11 24 15.9980000  0  5G 4G14G18G19G16
   2983186.002           0.000    20875534.586           0.000  
   4418458.000           0.000    23641712.110           0.000  
   2475922.999           0.000    20208257.921           0.000  
  -3096292.001           0.000    22362401.870           0.000  
   2012382.999           0.000    20933818.870           0.000  
 98  9 30 11 24 16.9980000  0  4G14G18G19G16
   4418133.003           0.000    23641650.281           0.000  
   2472946.000           0.000    20207691.643           0.000  
  -3102112.999           0.000    22361294.195           0.000  
   2010499.999           0.000    20933460.494           0.000  
 98  9 30 11 24 17.9980000  0  4G14G18G19G16
   4417808.000           0.000    23641588.301           0.000  
   2469970.000           0.000    20207125.358           0.000  
  -3107934.002           0.000    22360186.422           0.000  
   2008616.001           0.000    20933102.038           0.000  
 98  9 30 11 24 18.9980000  0  4G14G18G19G16
   4417481.000           0.000    23641526.287           0.000  
   2466993.001           0.000    20206559.008           0.000  
  -3113755.998           0.000    22359078.582           0.000  
   2006730.998           0.000    20932743.511           0.000  
 98  9 30 11 24 19.9980000  0  4G14G18G19G16
   4417154.999           0.000    23641464.152           0.000  
   2464017.001           0.000    20205992.612           0.000  
  -3119577.000           0.000    22357970.733           0.000  
   2004847.000           0.000    20932384.978           0.000  
 98  9 30 11 24 20.9980000  0  4G14G18G19G16
   4416827.999           0.000    23641401.949           0.000  
   2461039.997           0.000    20205426.412           0.000  
  -3125399.002           0.000    22356862.816           0.000  
   2002963.001           0.000    20932026.431           0.000  
 98  9 30 11 24 21.9980000  0  4G14G18G19G16
   4416500.999           0.000    23641339.758           0.000  
   2458063.997           0.000    20204860.027           0.000  
  -3131220.998           0.000    22355754.907           0.000  
   2001077.999           0.000    20931667.860           0.000  
 98  9 30 11 24 22.9980000  0  4G14G18G19G16
   4416173.999           0.000    23641277.513           0.000  
   2455088.002           0.000    20204293.614           0.000  
  -3137042.999           0.000    22354647.061           0.000  
   1999193.002           0.000    20931309.251           0.000  
 98  9 30 11 24 23.9980000  0  4G14G18G19G16
   4415845.002           0.000    23641215.131           0.000  
   2452110.998           0.000    20203727.105           0.000  
  -3142865.999           0.000    22353539.041           0.000  
   1997308.000           0.000    20930950.562           0.000  
 98  9 30 11 24 24.9980000  0  4G14G18G19G16
   4415516.000           0.000    23641152.440           0.000  
   2449133.001           0.000    20203160.406           0.000  
  -3148688.998           0.000    22352430.810           0.000  
   1995421.999           0.000    20930591.647           0.000  
 98  9 30 11 24 25.9980000  0  4G14G18G19G16
   4415186.000           0.000    23641089.690           0.000  
   2446155.997           0.000    20202593.577           0.000  
  -3154513.002           0.000    22351322.577           0.000  
   1993535.000           0.000    20930232.638           0.000  
 98  9 30 11 24 26.9980000  0  4G14G18G19G16
   4414855.001           0.000    23641026.903           0.000  
   2443178.000           0.000    20202026.994           0.000  
  -3160337.000           0.000    22350214.335           0.000  
   1991648.001           0.000    20929873.606           0.000  
 98  9 30 11 24 27.9980000  0  4G14G18G19G16
   4414525.000           0.000    23640964.042           0.000  
   2440199.998           0.000    20201460.433           0.000  
  -3166160.998           0.000    22349106.127           0.000  
   1989761.002           0.000    20929514.541           0.000  
 98  9 30 11 24 28.9980000  0  4G14G18G19G16
   4414194.002           0.000    23640901.117           0.000  
   2437222.999           0.000    20200893.737           0.000  
  -3171985.002           0.000    22347997.899           0.000  
   1987873.997           0.000    20929155.457           0.000  
 98  9 30 11 24 29.9980000  0  4G14G18G19G16
   4413861.999           0.000    23640838.097           0.000  
   2434246.001           0.000    20200327.187           0.000  
  -3177809.998           0.000    22346889.510           0.000  
   1985986.000           0.000    20928796.297           0.000  
 98  9 30 11 24 30.9980000  0  4G14G18G19G16
   4413531.000           0.000    23640775.072           0.000  
   2431267.999           0.000    20199760.633           0.000  
  -3183634.002           0.000    22345781.218           0.000  
   1984099.000           0.000    20928437.161           0.000  
 98  9 30 11 24 31.9980000  0  4G14G18G19G16
   4413197.999           0.000    23640711.862           0.000  
   2428291.000           0.000    20199194.108           0.000  
  -3189458.998           0.000    22344672.903           0.000  
   1982210.998           0.000    20928077.954           0.000  
 98  9 30 11 24 32.9980000  0  4G14G18G19G16
   4412866.002           0.000    23640648.602           0.000  
   2425314.001           0.000    20198627.584           0.000  
  -3195284.000           0.000    22343564.663           0.000  
   1980323.000           0.000    20927718.717           0.000  
 98  9 30 11 24 33.9980000  0  4G14G18G19G16
   4412533.000           0.000    23640585.313           0.000  
   2422335.999           0.000    20198060.998           0.000  
  -3201109.002           0.000    22342456.323           0.000  
   1978435.002           0.000    20927359.466           0.000  
 98  9 30 11 24 34.9980000  0  4G14G18G19G16
   4412199.001           0.000    23640521.869           0.000  
   2419358.002           0.000    20197494.362           0.000  
  -3206933.999           0.000    22341347.844           0.000  
   1976546.001           0.000    20927000.102           0.000  
 98  9 30 11 24 35.9980000  0  4G14G18G19G16
   4411863.998           0.000    23640458.156           0.000  
   2416380.000           0.000    20196927.717           0.000  
  -3212761.003           0.000    22340239.245           0.000  
   1974657.000           0.000    20926640.517           0.000  
 98  9 30 11 24 36.9980000  0  4G14G18G19G16
   4411529.000           0.000    23640394.392           0.000  
   2413400.999           0.000    20196360.985           0.000  
  -3218586.998           0.000    22339130.492           0.000  
   1972767.000           0.000    20926280.874           0.000  
 98  9 30 11 24 37.9980000  0  4G14G18G19G16
   4411192.998           0.000    23640330.558           0.000  
   2410421.998           0.000    20195794.233           0.000  
  -3224414.002           0.000    22338021.760           0.000  
   1970877.000           0.000    20925921.203           0.000  
 98  9 30 11 24 38.9980000  0  4G14G18G19G16
   4410857.001           0.000    23640266.715           0.000  
   2407444.001           0.000    20195227.567           0.000  
  -3230241.000           0.000    22336912.971           0.000  
   1968986.002           0.000    20925561.460           0.000  
 98  9 30 11 24 39.9980000  0  4G14G18G19G16
   4410521.000           0.000    23640202.775           0.000  
   2404465.000           0.000    20194660.861           0.000  
  -3236067.999           0.000    22335804.104           0.000  
   1967096.002           0.000    20925201.648           0.000  
 98  9 30 11 24 40.9980000  0  4G14G18G19G16
   4410184.000           0.000    23640138.675           0.000  
   2401485.999           0.000    20194094.110           0.000  
  -3241896.002           0.000    22334695.159           0.000  
   1965204.999           0.000    20924841.744           0.000  
 98  9 30 11 24 41.9980000  0  4G14G18G19G16
   4409846.999           0.000    23640074.610           0.000  
   2398508.002           0.000    20193527.499           0.000  
  -3247723.001           0.000    22333586.220           0.000  
   1963314.000           0.000    20924481.906           0.000  
 98  9 30 11 24 42.9980000  0  4G14G18G19G16
   4409509.001           0.000    23640010.395           0.000  
   2395529.002           0.000    20192967.691           0.000  
  -3253550.998           0.000    22332477.242           0.000  
   1961421.998           0.000    20924121.988           0.000  
 98  9 30 11 24 43.9980000  0  4G14G18G19G16
   4409171.002           0.000    23639946.140           0.000  
   2392550.001           0.000    20192399.146           0.000  
  -3259379.000           0.000    22331368.321           0.000  
   1959531.000           0.000    20923762.107           0.000  
 98  9 30 11 24 44.9980000  0  4G14G18G19G16
   4408834.002           0.000    23639881.853           0.000  
   2389571.998           0.000    20191832.319           0.000  
  -3265207.003           0.000    22330259.408           0.000  
   1957640.002           0.000    20923402.227           0.000  
 98  9 30 11 24 45.9980000  0  4G14G18G19G16
   4408495.000           0.000    23639817.569           0.000  
   2386592.998           0.000    20191264.946           0.000  
  -3271035.000           0.000    22329150.405           0.000  
   1955748.000           0.000    20923042.266           0.000  
 98  9 30 11 24 46.9980000  0  4G14G18G19G16
   4408157.001           0.000    23639753.250           0.000  
   2383615.001           0.000    20190696.944           0.000  
  -3276863.002           0.000    22328041.327           0.000  
   1953857.002           0.000    20922682.313           0.000  
 98  9 30 11 24 47.9980000  0  4G14G18G19G16
   4407817.999           0.000    23639688.929           0.000  
   2380636.998           0.000    20190129.264           0.000  
  -3282690.001           0.000    22326932.281           0.000  
   1951965.998           0.000    20922322.411           0.000  
 98  9 30 11 24 48.9980000  0  4G14G18G19G16
   4407480.000           0.000    23639624.469           0.000  
   2377659.001           0.000    20189561.724           0.000  
  -3288517.999           0.000    22325823.265           0.000  
   1950074.002           0.000    20921962.498           0.000  
 98  9 30 11 24 49.9980000  0  4G14G18G19G16
   4407139.999           0.000    23639559.942           0.000  
   2374680.999           0.000    20188993.251           0.000  
  -3294346.999           0.000    22324714.178           0.000  
   1948182.000           0.000    20921602.512           0.000  
 98  9 30 11 24 50.9980000  0  4G14G18G19G16
   4406799.998           0.000    23639495.375           0.000  
   2371703.002           0.000    20188425.738           0.000  
  -3300175.002           0.000    22323605.027           0.000  
   1946289.998           0.000    20921242.483           0.000  
 98  9 30 11 24 51.9980000  0  4G14G18G19G16
   4406459.998           0.000    23639430.694           0.000  
   2368724.999           0.000    20187858.649           0.000  
  -3306003.998           0.000    22322495.877           0.000  
   1944396.997           0.000    20920882.408           0.000  
 98  9 30 11 24 52.9980000  0  4G14G18G19G16
   4406120.002           0.000    23639365.971           0.000  
   2365747.002           0.000    20187291.391           0.000  
  -3311832.999           0.000    22321386.710           0.000  
   1942504.002           0.000    20920522.290           0.000  
 98  9 30 11 24 53.9980000  0  4G14G18G19G16
   4405778.998           0.000    23639301.169           0.000  
   2362768.002           0.000    20186723.638           0.000  
  -3317662.000           0.000    22320277.510           0.000  
   1940611.002           0.000    20920162.098           0.000  
 98  9 30 11 24 54.9980000  0  4G14G18G19G16
   4405437.000           0.000    23639236.198           0.000  
   2359789.001           0.000    20186148.893           0.000  
  -3323491.999           0.000    22319168.144           0.000  
   1938718.001           0.000    20919801.753           0.000  
 98  9 30 11 24 55.9980000  0  4G14G18G19G16
   4405093.999           0.000    23639171.030           0.000  
   2356810.000           0.000    20185580.508           0.000  
  -3329323.002           0.000    22318058.657           0.000  
   1936822.999           0.000    20919441.313           0.000  
 98  9 30 11 24 56.9980000  0  4G14G18G19G16
   4404751.002           0.000    23639105.803           0.000  
   2353830.999           0.000    20185015.596           0.000  
  -3335154.000           0.000    22316949.191           0.000  
   1934929.000           0.000    20919080.797           0.000  
 98  9 30 11 24 57.9980000  0  4G14G18G19G16
   4404408.001           0.000    23639040.598           0.000  
   2350851.999           0.000    20184447.999           0.000  
  -3340983.999           0.000    22315839.625           0.000  
   1933033.997           0.000    20918720.278           0.000  
 98  9 30 11 24 58.9980000  0  4G14G18G19G16
   4404065.000           0.000    23638975.356           0.000  
   2347872.998           0.000    20183879.227           0.000  
  -3346815.002           0.000    22314730.152           0.000  
   1931139.000           0.000    20918359.788           0.000  
 98  9 30 11 24 59.9980000  0  4G14G18G19G16
   4403721.000           0.000    23638910.034           0.000  
   2344895.001           0.000    20183311.769           0.000  
  -3352646.000           0.000    22313620.632           0.000  
   1929245.001           0.000    20917999.277           0.000  
 98  9 30 11 25  0.9980000  0  4G14G18G19G16
   4403377.000           0.000    23638844.606           0.000  
   2341916.000           0.000    20182744.624           0.000  
  -3358476.998           0.000    22312511.045           0.000  
   1927349.999           0.000    20917638.683           0.000  
 98  9 30 11 25  1.9980000  0  4G14G18G19G16
   4403032.001           0.000    23638779.129           0.000  
   2338936.999           0.000    20182177.156           0.000  
  -3364309.000           0.000    22311401.426           0.000  
   1925453.998           0.000    20917278.017           0.000  
 98  9 30 11 25  2.9980000  0  4G14G18G19G16
   4402686.998           0.000    23638713.515           0.000  
   2335957.000           0.000    20181610.290           0.000  
  -3370141.001           0.000    22310291.798           0.000  
   1923559.000           0.000    20916917.300           0.000  
 98  9 30 11 25  3.9980000  0  4G14G18G19G16
   4402342.000           0.000    23638647.820           0.000  
   2332977.999           0.000    20181044.133           0.000  
  -3375972.998           0.000    22309182.071           0.000  
   1921662.999           0.000    20916556.560           0.000  
 98  9 30 11 25  4.9980000  0  4G14G18G19G16
   4401996.003           0.000    23638582.031           0.000  
   2329998.998           0.000    20180478.144           0.000  
  -3381804.999           0.000    22308072.263           0.000  
   1919766.000           0.000    20916195.720           0.000  
 98  9 30 11 25  5.9980000  0  4G14G18G19G16
   4401649.002           0.000    23638516.166           0.000  
   2327019.998           0.000    20179912.038           0.000  
  -3387637.999           0.000    22306962.382           0.000  
   1917869.999           0.000    20915834.856           0.000  
 98  9 30 11 25  6.9980000  0  4G14G18G19G16
   4401303.000           0.000    23638450.249           0.000  
   2324039.998           0.000    20179345.904           0.000  
  -3393470.999           0.000    22305852.557           0.000  
   1915972.999           0.000    20915473.983           0.000  
 98  9 30 11 25  7.9980000  0  4G14G18G19G16
   4400956.000           0.000    23638384.166           0.000  
   2321060.997           0.000    20178779.789           0.000  
  -3399303.999           0.000    22304742.533           0.000  
   1914076.000           0.000    20915112.991           0.000  
 98  9 30 11 25  8.9980000  0  4G14G18G19G16
   4400608.001           0.000    23638317.994           0.000  
   2318080.998           0.000    20178213.706           0.000  
  -3405136.999           0.000    22303632.441           0.000  
   1912179.000           0.000    20914751.925           0.000  
 98  9 30 11 25  9.9980000  0  4G14G18G19G16
   4400260.002           0.000    23638251.769           0.000  
   2315100.999           0.000    20177647.337           0.000  
  -3410970.998           0.000    22302522.302           0.000  
   1910281.002           0.000    20914390.764           0.000  
 98  9 30 11 25 10.9980000  0  4G14G18G19G16
   4399910.999           0.000    23638185.462           0.000  
   2312121.000           0.000    20177080.477           0.000  
  -3416805.002           0.000    22301412.052           0.000  
   1908382.999           0.000    20914029.554           0.000  
 98  9 30 11 25 11.9980000  0  4G14G18G19G16
   4399562.002           0.000    23638119.057           0.000  
   2309141.001           0.000    20176513.910           0.000  
  -3422639.999           0.000    22300301.839           0.000  
   1906483.997           0.000    20913668.289           0.000  
 98  9 30 11 25 12.9980000  0  4G14G18G19G16
   4399211.002           0.000    23638052.458           0.000  
   2306159.998           0.000    20175955.836           0.000  
  -3428475.001           0.000    22299191.479           0.000  
   1904585.001           0.000    20913306.897           0.000  
 98  9 30 11 25 13.9980000  0  4G14G18G19G16
   4398861.001           0.000    23637985.814           0.000  
   2303179.000           0.000    20175390.900           0.000  
  -3434311.001           0.000    22298081.076           0.000  
   1902685.001           0.000    20912945.453           0.000  
 98  9 30 11 25 14.9980000  0  4G14G18G19G16
   4398510.001           0.000    23637919.076           0.000  
   2300199.001           0.000    20174822.810           0.000  
  -3440145.998           0.000    22296970.551           0.000  
   1900785.999           0.000    20912583.948           0.000  
 98  9 30 11 25 15.9980000  0  4G14G18G19G16
   4398157.998           0.000    23637852.156           0.000  
   2297216.999           0.000    20174254.369           0.000  
  -3445983.003           0.000    22295859.916           0.000  
   1898885.001           0.000    20912222.337           0.000  
 98  9 30 11 25 16.9980000  0  4G14G18G19G16
   4397806.000           0.000    23637785.195           0.000  
   2294236.002           0.000    20173686.216           0.000  
  -3451818.998           0.000    22294749.237           0.000  
   1896985.001           0.000    20911860.661           0.000  
 98  9 30 11 25 17.9980000  0  4G14G18G19G16
   4397454.002           0.000    23637718.239           0.000  
   2291254.999           0.000    20173118.243           0.000  
  -3457656.003           0.000    22293638.513           0.000  
   1895084.002           0.000    20911498.939           0.000  
 98  9 30 11 25 18.9980000  0  4G14G18G19G16
   4397101.000           0.000    23637651.169           0.000  
   2288274.001           0.000    20172550.302           0.000  
  -3463493.002           0.000    22292527.853           0.000  
   1893182.998           0.000    20911137.214           0.000  
 98  9 30 11 25 19.9980000  0  4G14G18G19G16
   4396747.998           0.000    23637583.994           0.000  
   2285292.998           0.000    20171983.002           0.000  
  -3469329.002           0.000    22291417.091           0.000  
   1891282.000           0.000    20910775.507           0.000  
 98  9 30 11 25 20.9980000  0  4G14G18G19G16
   4396395.002           0.000    23637516.773           0.000  
   2282312.000           0.000    20171415.720           0.000  
  -3475167.000           0.000    22290306.263           0.000  
   1889381.001           0.000    20910413.696           0.000  
 98  9 30 11 25 21.9980000  0  4G14G18G19G16
   4396041.002           0.000    23637449.565           0.000  
   2279330.997           0.000    20170841.810           0.000  
  -3481003.999           0.000    22289195.452           0.000  
   1887479.997           0.000    20910051.898           0.000  
 98  9 30 11 25 22.9980000  0  4G14G18G19G16
   4395687.002           0.000    23637382.275           0.000  
   2276350.998           0.000    20170275.667           0.000  
  -3486840.998           0.000    22288084.667           0.000  
   1885578.000           0.000    20909690.049           0.000  
 98  9 30 11 25 23.9980000  0  5G 4G14G18G19G16
   3146429.002           0.000    20827967.031           0.000  
   4395333.001           0.000    23637314.814           0.000  
   2273369.002           0.000    20169707.012           0.000  
  -3492678.003           0.000    22286973.786           0.000  
   1883675.998           0.000    20909328.057           0.000  
 98  9 30 11 25 24.9980000  0  5G 4G14G18G19G16
   3142756.000           0.000    20827268.944           0.000  
   4394978.003           0.000    23637247.324           0.000  
   2270387.999           0.000    20169139.798           0.000  
  -3498516.000           0.000    22285862.909           0.000  
   1881774.001           0.000    20908966.053           0.000  
 98  9 30 11 25 25.9980000  0  5G 4G14G18G19G16
   3139082.998           0.000    20826563.966           0.000  
   4394622.999           0.000    23637179.812           0.000  
   2267407.001           0.000    20168572.119           0.000  
  -3504353.998           0.000    22284752.005           0.000  
   1879871.999           0.000    20908604.046           0.000  
 98  9 30 11 25 26.9980000  0  5G 4G14G18G19G16
   3135407.001           0.000    20825861.645           0.000  
   4394267.002           0.000    23637112.191           0.000  
   2264425.998           0.000    20168004.502           0.000  
  -3510192.000           0.000    22283641.040           0.000  
   1877968.998           0.000    20908241.930           0.000  
 98  9 30 11 25 27.9980000  0  4G14G18G19G16
   4393911.998           0.000    23637044.499           0.000  
   2261445.001           0.000    20167437.864           0.000  
  -3516031.002           0.000    22282530.050           0.000  
   1876067.001           0.000    20907879.819           0.000  
 98  9 30 11 25 28.9980000  0  4G14G18G19G16
   4393555.002           0.000    23636976.705           0.000  
   2258463.998           0.000    20166870.503           0.000  
  -3521868.999           0.000    22281418.941           0.000  
   1874163.002           0.000    20907517.603           0.000  
 98  9 30 11 25 29.9980000  0  4G14G18G19G16
   4393198.001           0.000    23636908.830           0.000  
   2255482.002           0.000    20166302.774           0.000  
  -3527708.001           0.000    22280307.718           0.000  
   1872260.001           0.000    20907155.317           0.000  
 98  9 30 11 25 30.9980000  0  4G14G18G19G16
   4392841.000           0.000    23636840.829           0.000  
   2252500.999           0.000    20165734.937           0.000  
  -3533548.000           0.000    22279196.434           0.000  
   1870356.002           0.000    20906792.959           0.000  
 98  9 30 11 25 31.9980000  0  4G14G18G19G16
   4392483.001           0.000    23636772.765           0.000  
   2249519.002           0.000    20165167.004           0.000  
  -3539387.002           0.000    22278085.138           0.000  
   1868451.997           0.000    20906430.584           0.000  
 98  9 30 11 25 32.9980000  0  4G14G18G19G16
   4392125.002           0.000    23636704.558           0.000  
   2246537.001           0.000    20164594.911           0.000  
  -3545227.001           0.000    22276973.748           0.000  
   1866547.000           0.000    20906068.062           0.000  
 98  9 30 11 25 33.9980000  0  4G14G18G19G16
   4391765.999           0.000    23636636.369           0.000  
   2243555.000           0.000    20164025.458           0.000  
  -3551067.001           0.000    22275862.355           0.000  
   1864642.002           0.000    20905705.510           0.000  
 98  9 30 11 25 34.9980000  0  4G14G18G19G16
   4391407.001           0.000    23636567.989           0.000  
   2240572.998           0.000    20163457.110           0.000  
  -3556907.999           0.000    22274750.771           0.000  
   1862736.999           0.000    20905342.870           0.000  
 98  9 30 11 25 35.9980000  0  4G14G18G19G16
   4391047.000           0.000    23636499.463           0.000  
   2237591.002           0.000    20162891.237           0.000  
  -3562749.003           0.000    22273639.120           0.000  
   1860830.998           0.000    20904980.105           0.000  
 98  9 30 11 25 36.9980000  0  4G14G18G19G16
   4390686.000           0.000    23636430.820           0.000  
   2234608.002           0.000    20162325.166           0.000  
  -3568590.999           0.000    22272527.429           0.000  
   1858925.002           0.000    20904617.253           0.000  
 98  9 30 11 25 37.9980000  0  4G14G18G19G16
   4390325.000           0.000    23636362.190           0.000  
   2231625.002           0.000    20161758.749           0.000  
  -3574431.998           0.000    22271415.716           0.000  
   1857018.002           0.000    20904254.388           0.000  
 98  9 30 11 25 38.9980000  0  4G14G18G19G16
   4389964.000           0.000    23636293.438           0.000  
   2228641.997           0.000    20161192.223           0.000  
  -3580274.000           0.000    22270303.972           0.000  
   1855112.000           0.000    20903891.504           0.000  
 98  9 30 11 25 39.9980000  0  4G14G18G19G16
   4389603.000           0.000    23636224.601           0.000  
   2225658.997           0.000    20160625.171           0.000  
  -3586116.001           0.000    22269192.183           0.000  
   1853205.001           0.000    20903528.585           0.000  
 98  9 30 11 25 40.9980000  0  4G14G18G19G16
   4389241.002           0.000    23636155.692           0.000  
   2222675.997           0.000    20160058.345           0.000  
  -3591957.998           0.000    22268080.345           0.000  
   1851298.001           0.000    20903165.618           0.000  
 98  9 30 11 25 41.9980000  0  4G14G18G19G16
   4388878.000           0.000    23636086.714           0.000  
   2219692.998           0.000    20159491.366           0.000  
  -3597800.998           0.000    22266968.467           0.000  
   1849389.997           0.000    20902802.585           0.000  
 98  9 30 11 25 42.9980000  0  4G14G18G19G16
   4388515.003           0.000    23636017.589           0.000  
   2216709.998           0.000    20158924.538           0.000  
  -3603643.999           0.000    22265856.619           0.000  
   1847481.999           0.000    20902439.394           0.000  
 98  9 30 11 25 43.9980000  0  4G14G18G19G16
   4388151.002           0.000    23635948.287           0.000  
   2213725.999           0.000    20158357.469           0.000  
  -3609487.998           0.000    22264744.633           0.000  
   1845573.002           0.000    20902076.138           0.000  
 98  9 30 11 25 44.9980000  0  4G14G18G19G16
   4387787.002           0.000    23635878.923           0.000  
   2210742.001           0.000    20157797.250           0.000  
  -3615332.002           0.000    22263632.605           0.000  
   1843664.999           0.000    20901712.850           0.000  
 98  9 30 11 25 45.9980000  0  4G14G18G19G16
   4387422.003           0.000    23635809.517           0.000  
   2207757.998           0.000    20157230.806           0.000  
  -3621176.001           0.000    22262520.550           0.000  
   1841756.002           0.000    20901349.506           0.000  
 98  9 30 11 25 46.9980000  0  4G14G18G19G16
   4387056.998           0.000    23635740.067           0.000  
   2204773.999           0.000    20156662.388           0.000  
  -3627019.999           0.000    22261408.414           0.000  
   1839847.000           0.000    20900986.178           0.000  
 98  9 30 11 25 47.9980000  0  4G14G18G19G16
   4386691.999           0.000    23635670.515           0.000  
   2201790.001           0.000    20156093.826           0.000  
  -3632863.998           0.000    22260296.197           0.000  
   1837936.999           0.000    20900622.833           0.000  
 98  9 30 11 25 48.9980000  0  4G14G18G19G16
   4386327.000           0.000    23635600.981           0.000  
   2198807.001           0.000    20155525.490           0.000  
  -3638708.002           0.000    22259184.048           0.000  
   1836027.997           0.000    20900259.487           0.000  
 98  9 30 11 25 49.9980000  0  4G14G18G19G16
   4385960.998           0.000    23635531.399           0.000  
   2195822.997           0.000    20154957.260           0.000  
  -3644553.000           0.000    22258071.871           0.000  
   1834119.001           0.000    20899896.115           0.000  
 98  9 30 11 25 50.9980000  0  4G14G18G19G16
   4385595.000           0.000    23635461.712           0.000  
   2192838.999           0.000    20154389.395           0.000  
  -3650396.998           0.000    22256959.601           0.000  
   1832209.000           0.000    20899532.642           0.000  
 98  9 30 11 25 51.9980000  0  4G14G18G19G16
   4385229.003           0.000    23635392.024           0.000  
   2189855.999           0.000    20153821.481           0.000  
  -3656242.001           0.000    22255847.369           0.000  
   1830299.998           0.000    20899169.213           0.000  
 98  9 30 11 25 52.9980000  0  4G14G18G19G16
   4384863.000           0.000    23635322.284           0.000  
   2186872.001           0.000    20153254.310           0.000  
  -3662086.998           0.000    22254735.155           0.000  
   1828389.998           0.000    20898805.744           0.000  
 98  9 30 11 25 53.9980000  0  4G14G18G19G16
   4384495.999           0.000    23635252.496           0.000  
   2183887.997           0.000    20152686.955           0.000  
  -3667932.001           0.000    22253622.813           0.000  
   1826479.997           0.000    20898442.262           0.000  
 98  9 30 11 25 54.9980000  0  4G14G18G19G16
   4384127.999           0.000    23635182.512           0.000  
   2180903.999           0.000    20152119.504           0.000  
  -3673776.998           0.000    22252510.470           0.000  
   1824568.999           0.000    20898078.680           0.000  
 98  9 30 11 25 55.9980000  0  4G14G18G19G16
   4383759.001           0.000    23635112.291           0.000  
   2177919.002           0.000    20151551.991           0.000  
  -3679624.003           0.000    22251397.945           0.000  
   1822658.000           0.000    20897714.891           0.000  
 98  9 30 11 25 56.9980000  0  4G14G18G19G16
   4383389.998           0.000    23635041.989           0.000  
   2174934.999           0.000    20150984.237           0.000  
  -3685469.998           0.000    22250285.334           0.000  
   1820746.002           0.000    20897351.116           0.000  
 98  9 30 11 25 57.9980000  0  4G14G18G19G16
   4383021.000           0.000    23634971.664           0.000  
   2171950.002           0.000    20150416.736           0.000  
  -3691316.998           0.000    22249172.567           0.000  
   1818834.000           0.000    20896987.302           0.000  
 98  9 30 11 25 58.9980000  0  4G14G18G19G16
   4382652.002           0.000    23634901.417           0.000  
   2168965.000           0.000    20149849.238           0.000  
  -3697162.999           0.000    22248059.854           0.000  
   1816923.001           0.000    20896623.537           0.000  
 98  9 30 11 25 59.9980000  0  4G14G18G19G16
   4382282.000           0.000    23634830.998           0.000  
   2165981.002           0.000    20149281.646           0.000  
  -3703009.998           0.000    22246947.166           0.000  
   1815010.998           0.000    20896259.737           0.000  
 98  9 30 11 26  0.9980000  0  4G14G18G19G16
   4381911.000           0.000    23634760.414           0.000  
   2162995.001           0.000    20148713.931           0.000  
  -3708858.002           0.000    22245834.213           0.000  
   1813098.002           0.000    20895895.749           0.000  
 98  9 30 11 26  1.9980000  0  4G14G18G19G16
   4381539.999           0.000    23634689.775           0.000  
   2160009.999           0.000    20148145.933           0.000  
  -3714705.999           0.000    22244721.237           0.000  
   1811185.001           0.000    20895531.741           0.000  
 98  9 30 11 26  2.9980000  0  4G14G18G19G16
   4381168.001           0.000    23634619.093           0.000  
   2157025.002           0.000    20147577.988           0.000  
  -3720554.003           0.000    22243608.373           0.000  
   1809272.000           0.000    20895167.732           0.000  
 98  9 30 11 26  3.9980000  0  4G14G18G19G16
   4380797.000           0.000    23634548.338           0.000  
   2154039.002           0.000    20147010.099           0.000  
  -3726402.001           0.000    22242495.540           0.000  
   1807359.998           0.000    20894803.705           0.000  
 98  9 30 11 26  4.9980000  0  4G14G18G19G16
   4380425.002           0.000    23634477.610           0.000  
   2151054.000           0.000    20146441.997           0.000  
  -3732249.998           0.000    22241382.708           0.000  
   1805447.002           0.000    20894439.681           0.000  
 98  9 30 11 26  5.9980000  0  4G14G18G19G16
   4380052.998           0.000    23634406.782           0.000  
   2148068.998           0.000    20145874.024           0.000  
  -3738098.002           0.000    22240269.801           0.000  
   1803534.001           0.000    20894075.686           0.000  
 98  9 30 11 26  6.9980000  0  5G 7G14G18G19G16
   3150747.002           0.000    24264184.682           0.000  
   4379680.001           0.000    23634335.877           0.000  
   2145084.001           0.000    20145306.097           0.000  
  -3743945.999           0.000    22239156.884           0.000  
   1801620.001           0.000    20893711.624           0.000  
 98  9 30 11 26  7.9980000  0  5G 7G14G18G19G16
   3150662.001           0.000    24264171.800           0.000  
   4379308.002           0.000    23634264.996           0.000  
   2142099.997           0.000    20144738.311           0.000  
  -3749794.003           0.000    22238044.064           0.000  
   1799707.999           0.000    20893347.611           0.000  
 98  9 30 11 26  8.9980000  0  6G 4G 7G14G18G19G16
   3146393.000           0.000    20796493.864           0.000  
   3150578.998           0.000    24264156.967           0.000  
   4378934.999           0.000    23634194.021           0.000  
   2139115.001           0.000    20144170.330           0.000  
  -3755642.001           0.000    22236931.183           0.000  
   1797793.999           0.000    20892983.496           0.000  
 98  9 30 11 26  9.9980000  0  6G 4G 7G14G18G19G16
   3142719.000           0.000    20795794.385           0.000  
   3150496.000           0.000    24264143.105           0.000  
   4378562.002           0.000    23634123.033           0.000  
   2136129.999           0.000    20143602.428           0.000  
  -3761491.002           0.000    22235818.310           0.000  
   1795880.998           0.000    20892619.410           0.000  
 98  9 30 11 26 10.9980000  0  6G 4G 7G14G18G19G16
   3139045.998           0.000    20795095.364           0.000  
   3150413.002           0.000    24264129.713           0.000  
   4378188.001           0.000    23634051.983           0.000  
   2133146.000           0.000    20143034.437           0.000  
  -3767339.000           0.000    22234705.381           0.000  
   1793968.002           0.000    20892255.348           0.000  
 98  9 30 11 26 11.9980000  0  6G 4G 7G14G18G19G16
   3135374.000           0.000    20794397.376           0.000  
   3150329.000           0.000    24264113.494           0.000  
   4377814.999           0.000    23633980.915           0.000  
   2130162.002           0.000    20142466.241           0.000  
  -3773186.998           0.000    22233592.474           0.000  
   1792055.001           0.000    20891891.314           0.000  
 98  9 30 11 26 12.9980000  0  6G 4G 7G14G18G19G16
   3131702.002           0.000    20793699.363           0.000  
   3150243.002           0.000    24264099.000           0.000  
   4377440.998           0.000    23633909.802           0.000  
   2127177.000           0.000    20141898.012           0.000  
  -3779035.001           0.000    22232479.517           0.000  
   1790142.000           0.000    20891527.249           0.000  
 98  9 30 11 26 13.9980000  0  6G 4G 7G14G18G19G16
   3128032.000           0.000    20792995.227           0.000  
   3150159.000           0.000    24264083.376           0.000  
   4377067.003           0.000    23633838.580           0.000  
   2124193.002           0.000    20141329.924           0.000  
  -3784884.003           0.000    22231366.583           0.000  
   1788228.000           0.000    20891163.155           0.000  
 98  9 30 11 26 14.9980000  0  6G 4G 7G14G18G19G16
   3124358.000           0.000    20792305.839           0.000  
   3150073.001           0.000    24264067.840           0.000  
   4376693.002           0.000    23633767.335           0.000  
   2121208.998           0.000    20140761.919           0.000  
  -3790732.001           0.000    22230253.654           0.000  
   1786314.999           0.000    20890799.047           0.000  
 98  9 30 11 26 15.9980000  0  6G 4G 7G14G18G19G16
   3120684.998           0.000    20791609.797           0.000  
   3149985.000           0.000    24264051.698           0.000  
   4376318.002           0.000    23633695.964           0.000  
   2118225.000           0.000    20140193.876           0.000  
  -3796581.002           0.000    22229140.618           0.000  
   1784401.000           0.000    20890434.854           0.000  
 98  9 30 11 26 16.9980000  0  6G 4G 7G14G18G19G16
   3117013.000           0.000    20790912.192           0.000  
   3149897.998           0.000    24264035.009           0.000  
   4375942.998           0.000    23633624.530           0.000  
   2115239.998           0.000    20139625.869           0.000  
  -3802429.999           0.000    22228027.588           0.000  
   1782487.000           0.000    20890070.577           0.000  
 98  9 30 11 26 17.9980000  0  6G 4G 7G14G18G19G16
   3113341.002           0.000    20790212.971           0.000  
   3149811.999           0.000    24264019.001           0.000  
   4375567.000           0.000    23633553.029           0.000  
   2112255.999           0.000    20139057.633           0.000  
  -3808279.000           0.000    22226914.529           0.000  
   1780573.001           0.000    20889706.244           0.000  
 98  9 30 11 26 18.9980000  0  6G 4G 7G14G18G19G16
   3109668.001           0.000    20789513.349           0.000  
   3149723.000           0.000    24264000.862           0.000  
   4375191.002           0.000    23633481.412           0.000  
   2109270.997           0.000    20138489.603           0.000  
  -3814129.000           0.000    22225801.486           0.000  
   1778657.998           0.000    20889341.882           0.000  
 98  9 30 11 26 19.9980000  0  6G 4G 7G14G18G19G16
   3105997.001           0.000    20788813.991           0.000  
   3149634.001           0.000    24263983.427           0.000  
   4374814.999           0.000    23633409.743           0.000  
   2106286.001           0.000    20137921.379           0.000  
  -3819979.000           0.000    22224688.422           0.000  
   1776743.000           0.000    20888977.504           0.000  
 98  9 30 11 26 20.9980000  0  6G 4G 7G14G18G19G16
   3102323.001           0.000    20788114.028           0.000  
   3149545.002           0.000    24263965.977           0.000  
   4374437.998           0.000    23633338.014           0.000  
   2103300.998           0.000    20137353.298           0.000  
  -3825829.000           0.000    22223575.281           0.000  
   1774828.002           0.000    20888613.050           0.000  
 98  9 30 11 26 21.9980000  0  6G 4G 7G14G18G19G16
   3098650.997           0.000    20787414.908           0.000  
   3149457.001           0.000    24263948.934           0.000  
   4374059.998           0.000    23633266.229           0.000  
   2100317.000           0.000    20136785.307           0.000  
  -3831679.001           0.000    22222462.110           0.000  
   1772912.998           0.000    20888248.597           0.000  
 98  9 30 11 26 22.9980000  0  6G 4G 7G14G18G19G16
   3094978.999           0.000    20786716.492           0.000  
   3149366.998           0.000    24263932.239           0.000  
   4373681.998           0.000    23633194.363           0.000  
   2097331.998           0.000    20136217.293           0.000  
  -3837529.001           0.000    22221348.890           0.000  
   1770997.002           0.000    20887884.080           0.000  
 98  9 30 11 26 23.9980000  0  6G 4G 7G14G18G19G16
   3091308.998           0.000    20786018.704           0.000  
   3149277.000           0.000    24263914.653           0.000  
   4373303.998           0.000    23633122.415           0.000  
   2094347.001           0.000    20135649.015           0.000  
  -3843379.999           0.000    22220235.614           0.000  
   1769081.999           0.000    20887519.520           0.000  
 98  9 30 11 26 24.9980000  0  6G 4G 7G14G18G19G16
   3087633.999           0.000    20785319.787           0.000  
   3149187.002           0.000    24263898.144           0.000  
   4372924.999           0.000    23633050.379           0.000  
   2091361.001           0.000    20135080.654           0.000  
  -3849230.998           0.000    22219122.286           0.000  
   1767166.002           0.000    20887154.916           0.000  
 98  9 30 11 26 25.9980000  0  6G 4G 7G14G18G19G16
   3083963.000           0.000    20784621.660           0.000  
   3149095.002           0.000    24263880.488           0.000  
   4372546.001           0.000    23632978.277           0.000  
   2088375.999           0.000    20134512.449           0.000  
  -3855082.001           0.000    22218008.985           0.000  
   1765249.002           0.000    20886790.253           0.000  
 98  9 30 11 26 26.9980000  0  6G 4G 7G14G18G19G16
   3080291.002           0.000    20783922.348           0.000  
   3149004.001           0.000    24263863.420           0.000  
   4372167.003           0.000    23632906.097           0.000  
   2085391.002           0.000    20133944.234           0.000  
  -3860933.000           0.000    22216895.602           0.000  
   1763333.000           0.000    20886425.544           0.000  
 98  9 30 11 26 27.9980000  0  6G 4G 7G14G18G19G16
   3076620.002           0.000    20783223.292           0.000  
   3148913.000           0.000    24263846.452           0.000  
   4371787.000           0.000    23632833.839           0.000  
   2082406.000           0.000    20133376.089           0.000  
  -3866785.002           0.000    22215782.214           0.000  
   1761416.000           0.000    20886060.793           0.000  
 98  9 30 11 26 28.9980000  0  6G 4G 7G14G18G19G16
   3072950.001           0.000    20782524.555           0.000  
   3148820.001           0.000    24263828.459           0.000  
   4371406.998           0.000    23632761.552           0.000  
   2079420.000           0.000    20132807.910           0.000  
  -3872636.999           0.000    22214668.819           0.000  
   1759499.998           0.000    20885696.042           0.000  
 98  9 30 11 26 29.9980000  0  6G 4G 7G14G18G19G16
   3069277.998           0.000    20781825.290           0.000  
   3148726.998           0.000    24263811.002           0.000  
   4371027.001           0.000    23632689.225           0.000  
   2076434.997           0.000    20132239.764           0.000  
  -3878487.998           0.000    22213555.428           0.000  
   1757582.998           0.000    20885331.302           0.000  
 98  9 30 11 26 30.9980000  0  6G 4G 7G14G18G19G16
   3065606.998           0.000    20781126.620           0.000  
   3148633.999           0.000    24263793.184           0.000  
   4370646.001           0.000    23632616.855           0.000  
   2073450.001           0.000    20131671.593           0.000  
  -3884339.002           0.000    22212442.078           0.000  
   1755665.998           0.000    20884966.540           0.000  
 98  9 30 11 26 31.9980000  0  6G 4G 7G14G18G19G16
   3061937.002           0.000    20780427.753           0.000  
   3148541.001           0.000    24263775.167           0.000  
   4370265.000           0.000    23632544.431           0.000  
   2070464.999           0.000    20131103.423           0.000  
  -3890190.999           0.000    22211328.645           0.000  
   1753748.998           0.000    20884601.691           0.000  
 98  9 30 11 26 32.9980000  0  6G 4G 7G14G18G19G16
   3058266.002           0.000    20779729.557           0.000  
   3148446.000           0.000    24263757.219           0.000  
   4369884.000           0.000    23632471.945           0.000  
   2067480.002           0.000    20130535.222           0.000  
  -3896043.001           0.000    22210215.159           0.000  
   1751831.998           0.000    20884236.782           0.000  
 98  9 30 11 26 33.9980000  0  6G 4G 7G14G18G19G16
   3054594.998           0.000    20779030.886           0.000  
   3148351.000           0.000    24263738.835           0.000  
   4369502.001           0.000    23632399.312           0.000  
   2064495.000           0.000    20129966.943           0.000  
  -3901894.998           0.000    22209101.579           0.000  
   1749913.999           0.000    20883871.804           0.000  
 98  9 30 11 26 34.9980000  0  6G 4G 7G14G18G19G16
   3050923.000           0.000    20778332.243           0.000  
   3148255.001           0.000    24263720.298           0.000  
   4369120.002           0.000    23632326.551           0.000  
   2061508.999           0.000    20129398.658           0.000  
  -3907747.998           0.000    22207987.960           0.000  
   1747996.001           0.000    20883506.773           0.000  
 98  9 30 11 26 35.9980000  0  6G 4G 7G14G18G19G16
   3047252.000           0.000    20777633.732           0.000  
   3148159.002           0.000    24263702.543           0.000  
   4368736.999           0.000    23632253.692           0.000  
   2058522.999           0.000    20128830.500           0.000  
  -3913600.999           0.000    22206874.350           0.000  
   1746078.002           0.000    20883141.727           0.000  
 98  9 30 11 26 36.9980000  0  6G 4G 7G14G18G19G16
   3043580.002           0.000    20776935.046           0.000  
   3148064.001           0.000    24263684.328           0.000  
   4368354.001           0.000    23632180.766           0.000  
   2055538.002           0.000    20128262.408           0.000  
  -3919454.000           0.000    22205760.687           0.000  
   1744159.000           0.000    20882776.623           0.000  
 98  9 30 11 26 37.9980000  0  6G 4G 7G14G18G19G16
   3039910.001           0.000    20776236.542           0.000  
   3147966.000           0.000    24263665.427           0.000  
   4367970.999           0.000    23632107.837           0.000  
   2052552.002           0.000    20127694.431           0.000  
  -3925307.001           0.000    22204647.030           0.000  
   1742241.001           0.000    20882411.506           0.000  
 98  9 30 11 26 38.9980000  0  6G 4G 7G14G18G19G16
   3036239.999           0.000    20775538.351           0.000  
   3147870.001           0.000    24263647.054           0.000  
   4367588.001           0.000    23632034.846           0.000  
   2049567.000           0.000    20127126.467           0.000  
  -3931159.003           0.000    22203533.374           0.000  
   1740321.999           0.000    20882046.404           0.000  
 98  9 30 11 26 39.9980000  0  6G 4G 7G14G18G19G16
   3032571.002           0.000    20774839.729           0.000  
   3147772.000           0.000    24263628.704           0.000  
   4367204.000           0.000    23631961.823           0.000  
   2046580.999           0.000    20126558.560           0.000  
  -3937011.998           0.000    22202419.718           0.000  
   1738404.000           0.000    20881681.301           0.000  
 98  9 30 11 26 40.9980000  0  6G 4G 7G14G18G19G16
   3028900.002           0.000    20774141.193           0.000  
   3147673.999           0.000    24263610.306           0.000  
   4366819.000           0.000    23631888.653           0.000  
   2043594.999           0.000    20125990.488           0.000  
  -3942866.003           0.000    22201305.960           0.000  
   1736484.998           0.000    20881316.093           0.000  
 98  9 30 11 26 41.9980000  0  6G 4G 7G14G18G19G16
   3025231.998           0.000    20773443.949           0.000  
   3147574.999           0.000    24263591.391           0.000  
   4366434.001           0.000    23631815.401           0.000  
   2040608.998           0.000    20125422.474           0.000  
  -3948718.998           0.000    22200192.136           0.000  
   1734565.002           0.000    20880950.813           0.000  
 98  9 30 11 26 42.9980000  0  6G 4G 7G14G18G19G16
   3021562.002           0.000    20772745.930           0.000  
   3147475.001           0.000    24263571.780           0.000  
   4366049.001           0.000    23631741.983           0.000  
   2037622.998           0.000    20124854.235           0.000  
  -3954574.001           0.000    22199078.207           0.000  
   1732645.002           0.000    20880585.408           0.000  
 98  9 30 11 26 43.9980000  0  6G 4G 7G14G18G19G16
   3017890.997           0.000    20772048.268           0.000  
   3147374.998           0.000    24263553.355           0.000  
   4365661.999           0.000    23631668.391           0.000  
   2034635.999           0.000    20124286.090           0.000  
  -3960428.999           0.000    22197964.130           0.000  
   1730724.002           0.000    20880219.874           0.000  
 98  9 30 11 26 44.9980000  0  6G 4G 7G14G18G19G16
   3014219.998           0.000    20771350.382           0.000  
   3147274.001           0.000    24263533.930           0.000  
   4365275.002           0.000    23631594.681           0.000  
   2031648.001           0.000    20123717.760           0.000  
  -3966284.001           0.000    22196850.029           0.000  
   1728802.998           0.000    20879854.260           0.000  
 98  9 30 11 26 45.9980000  0  6G 4G 7G14G18G19G16
   3010550.002           0.000    20770652.877           0.000  
   3147172.001           0.000    24263514.585           0.000  
   4364887.002           0.000    23631520.927           0.000  
   2028661.002           0.000    20123149.393           0.000  
  -3972140.003           0.000    22195735.831           0.000  
   1726881.000           0.000    20879488.573           0.000  
 98  9 30 11 26 46.9980000  0  6G 4G 7G14G18G19G16
   3006879.002           0.000    20769955.481           0.000  
   3147069.002           0.000    24263494.381           0.000  
   4364499.002           0.000    23631447.087           0.000  
   2025673.000           0.000    20122580.911           0.000  
  -3977995.000           0.000    22194621.553           0.000  
   1724958.997           0.000    20879122.831           0.000  
 98  9 30 11 26 47.9980000  0  6G 4G 7G14G18G19G16
   3003206.999           0.000    20769258.369           0.000  
   3146965.000           0.000    24263474.843           0.000  
   4364111.002           0.000    23631373.164           0.000  
   2022686.001           0.000    20122012.433           0.000  
  -3983851.002           0.000    22193507.298           0.000  
   1723036.999           0.000    20878757.074           0.000  
 98  9 30 11 26 48.9980000  0  6G 4G 7G14G18G19G16
   2999535.001           0.000    20768560.325           0.000  
   3146860.997           0.000    24263454.580           0.000  
   4363721.998           0.000    23631299.169           0.000  
   2019697.998           0.000    20121444.046           0.000  
  -3989706.998           0.000    22192393.046           0.000  
   1721115.002           0.000    20878391.317           0.000  
 98  9 30 11 26 49.9980000  0  6G 4G 7G14G18G19G16
   2995864.001           0.000    20767862.042           0.000  
   3146757.000           0.000    24263434.670           0.000  
   4363332.999           0.000    23631225.175           0.000  
   2016710.999           0.000    20120875.686           0.000  
  -3995562.999           0.000    22191278.754           0.000  
   1719192.999           0.000    20878025.557           0.000  
 98  9 30 11 26 50.9980000  0  6G 4G 7G14G18G19G16
   2992193.002           0.000    20767164.721           0.000  
   3146651.999           0.000    24263415.123           0.000  
   4362944.000           0.000    23631151.100           0.000  
   2013723.002           0.000    20120307.298           0.000  
  -4001419.000           0.000    22190164.425           0.000  
   1717269.997           0.000    20877659.726           0.000  
 98  9 30 11 26 51.9980000  0  6G 4G 7G14G18G19G16
   2988522.002           0.000    20766467.099           0.000  
   3146546.999           0.000    24263394.217           0.000  
   4362555.001           0.000    23631076.979           0.000  
   2010735.998           0.000    20119738.868           0.000  
  -4007275.002           0.000    22189050.093           0.000  
   1715348.000           0.000    20877293.900           0.000  
 98  9 30 11 26 52.9980000  0  6G 4G 7G14G18G19G16
   2984853.998           0.000    20765769.069           0.000  
   3146443.001           0.000    24263374.714           0.000  
   4362164.999           0.000    23631002.757           0.000  
   2007748.999           0.000    20119170.312           0.000  
  -4013132.002           0.000    22187935.654           0.000  
   1713424.998           0.000    20876927.954           0.000  
 98  9 30 11 26 53.9980000  0  5G 7G14G18G19G16
   3146338.001           0.000    24263355.755           0.000  
   4361773.998           0.000    23630928.445           0.000  
   2004761.001           0.000    20118601.909           0.000  
  -4018989.001           0.000    22186821.082           0.000  
   1711500.998           0.000    20876561.929           0.000  
 98  9 30 11 26 54.9980000  0  5G 7G14G18G19G16
   3146233.998           0.000    24263334.971           0.000  
   4361383.002           0.000    23630854.083           0.000  
   2001772.999           0.000    20118033.535           0.000  
  -4024846.001           0.000    22185706.605           0.000  
   1709578.002           0.000    20876195.891           0.000  
 98  9 30 11 26 55.9980000  0  5G 7G14G18G19G16
   3146127.999           0.000    24263314.736           0.000  
   4360993.000           0.000    23630779.693           0.000  
   1998786.000           0.000    20117465.335           0.000  
  -4030702.002           0.000    22184592.149           0.000  
   1707655.001           0.000    20875829.938           0.000  
 98  9 30 11 26 56.9980000  0  5G 7G14G18G19G16
   3146022.000           0.000    24263293.561           0.000  
   4360601.999           0.000    23630705.217           0.000  
   1995798.002           0.000    20116897.062           0.000  
  -4036559.002           0.000    22183477.613           0.000  
   1705732.000           0.000    20875463.909           0.000  
 98  9 30 11 26 57.9980000  0  5G 7G14G18G19G16
   3145913.000           0.000    24263271.739           0.000  
   4360209.001           0.000    23630630.544           0.000  
   1992810.000           0.000    20116328.550           0.000  
  -4042416.002           0.000    22182362.883           0.000  
   1703808.000           0.000    20875097.725           0.000  
 98  9 30 11 26 58.9980000  0  5G 7G14G18G19G16
   3145803.001           0.000    24263250.312           0.000  
   4359817.002           0.000    23630555.809           0.000  
   1989822.002           0.000    20115760.079           0.000  
  -4048274.000           0.000    22181248.111           0.000  
   1701883.001           0.000    20874731.415           0.000  
 98  9 30 11 26 59.9980000  0  4G14G18G19G16
   4359423.999           0.000    23630480.928           0.000  
   1986833.999           0.000    20115191.561           0.000  
  -4054131.998           0.000    22180133.303           0.000  
   1699957.998           0.000    20874365.052           0.000  
 98  9 30 11 27  0.9980000  0  4G14G18G19G16
   4359030.002           0.000    23630406.010           0.000  
   1983844.998           0.000    20114622.935           0.000  
  -4059991.000           0.000    22179018.377           0.000  
   1698032.999           0.000    20873998.623           0.000  
 98  9 30 11 27  1.9980000  0  4G14G18G19G16
   4358635.002           0.000    23630330.927           0.000  
   1980855.997           0.000    20114054.293           0.000  
  -4065850.002           0.000    22177903.287           0.000  
   1696106.997           0.000    20873632.132           0.000  
 98  9 30 11 27  2.9980000  0  4G14G18G19G16
   4358240.002           0.000    23630255.652           0.000  
   1977865.998           0.000    20113485.613           0.000  
  -4071708.999           0.000    22176788.171           0.000  
   1694181.001           0.000    20873265.531           0.000  
 98  9 30 11 27  3.9980000  0  4G14G18G19G16
   4357845.002           0.000    23630180.288           0.000  
   1974877.002           0.000    20112916.912           0.000  
  -4077568.999           0.000    22175673.078           0.000  
   1692254.000           0.000    20872898.930           0.000  
 98  9 30 11 27  4.9980000  0  4G14G18G19G16
   4357448.000           0.000    23630104.785           0.000  
   1971888.001           0.000    20112348.205           0.000  
  -4083429.000           0.000    22174557.865           0.000  
   1690327.000           0.000    20872532.194           0.000  
 98  9 30 11 27  5.9980000  0  4G14G18G19G16
   4357052.002           0.000    23630029.132           0.000  
   1968898.001           0.000    20111779.244           0.000  
  -4089289.999           0.000    22173442.572           0.000  
   1688399.001           0.000    20872165.386           0.000  
 98  9 30 11 27  6.9980000  0  4G14G18G19G16
   4356655.000           0.000    23629953.418           0.000  
   1965908.002           0.000    20111210.242           0.000  
  -4095149.999           0.000    22172327.300           0.000  
   1686472.000           0.000    20871798.566           0.000  
 98  9 30 11 27  7.9980000  0  4G14G18G19G16
   4356258.003           0.000    23629877.841           0.000  
   1962919.000           0.000    20110641.313           0.000  
  -4101010.000           0.000    22171212.205           0.000  
   1684545.000           0.000    20871431.854           0.000  
 98  9 30 11 27  8.9980000  0  4G14G18G19G16
   4355861.001           0.000    23629802.267           0.000  
   1959929.999           0.000    20110072.564           0.000  
  -4106870.000           0.000    22170097.168           0.000  
   1682617.999           0.000    20871065.203           0.000  
 98  9 30 11 27  9.9980000  0  4G14G18G19G16
   4355465.002           0.000    23629726.770           0.000  
   1956942.002           0.000    20109503.909           0.000  
  -4112729.002           0.000    22168982.270           0.000  
   1680691.997           0.000    20870698.651           0.000  
 98  9 30 11 27 10.9980000  0  4G14G18G19G16
   4355068.000           0.000    23629651.255           0.000  
   1953953.999           0.000    20108935.497           0.000  
  -4118587.000           0.000    22167867.356           0.000  
   1678765.002           0.000    20870332.139           0.000  
 98  9 30 11 27 11.9980000  0  4G14G18G19G16
   4354672.002           0.000    23629575.610           0.000  
   1950967.000           0.000    20108366.838           0.000  
  -4124447.001           0.000    22166752.427           0.000  
   1676839.000           0.000    20869965.534           0.000  
 98  9 30 11 27 12.9980000  0  4G14G18G19G16
   4354274.999           0.000    23629499.951           0.000  
   1947978.998           0.000    20107798.214           0.000  
  -4130304.999           0.000    22165637.460           0.000  
   1674912.998           0.000    20869598.975           0.000  
 98  9 30 11 27 13.9980000  0  4G14G18G19G16
   4353876.999           0.000    23629424.278           0.000  
   1944991.999           0.000    20107229.633           0.000  
  -4136164.001           0.000    22164522.470           0.000  
   1672985.997           0.000    20869232.356           0.000  
 98  9 30 11 27 14.9980000  0  4G14G18G19G16
   4353480.002           0.000    23629348.618           0.000  
   1942005.000           0.000    20106660.910           0.000  
  -4142023.003           0.000    22163407.509           0.000  
   1671060.001           0.000    20868865.711           0.000  
 98  9 30 11 27 15.9980000  0  4G14G18G19G16
   4353082.001           0.000    23629272.780           0.000  
   1939017.002           0.000    20106092.226           0.000  
  -4147881.999           0.000    22162292.544           0.000  
   1669133.000           0.000    20868499.042           0.000  
 98  9 30 11 27 16.9980000  0  4G14G18G19G16
   4352684.001           0.000    23629196.871           0.000  
   1936029.998           0.000    20105523.439           0.000  
  -4153742.000           0.000    22161177.516           0.000  
   1667206.000           0.000    20868132.320           0.000  
 98  9 30 11 27 17.9980000  0  4G14G18G19G16
   4352286.000           0.000    23629121.047           0.000  
   1933042.999           0.000    20104954.802           0.000  
  -4159599.998           0.000    22160062.640           0.000  
   1665279.998           0.000    20867765.720           0.000  
 98  9 30 11 27 18.9980000  0  4G14G18G19G16
   4351887.999           0.000    23629045.182           0.000  
   1930056.999           0.000    20104379.667           0.000  
  -4165459.000           0.000    22158947.844           0.000  
   1663352.997           0.000    20867399.161           0.000  
 98  9 30 11 27 19.9980000  0  4G14G18G19G16
   4351489.999           0.000    23628969.274           0.000  
   1927070.000           0.000    20103807.300           0.000  
  -4171316.998           0.000    22157833.005           0.000  
   1661427.000           0.000    20867032.592           0.000  
 98  9 30 11 27 20.9980000  0  4G14G18G19G16
   4351090.001           0.000    23628893.171           0.000  
   1924083.001           0.000    20103236.554           0.000  
  -4177176.000           0.000    22156718.059           0.000  
   1659500.000           0.000    20866665.838           0.000  
 98  9 30 11 27 21.9980000  0  4G14G18G19G16
   4350689.998           0.000    23628817.023           0.000  
   1921096.002           0.000    20102665.473           0.000  
  -4183036.001           0.000    22155603.066           0.000  
   1657572.001           0.000    20866298.988           0.000  
 98  9 30 11 27 22.9980000  0  4G14G18G19G16
   4350290.001           0.000    23628740.847           0.000  
   1918108.998           0.000    20102095.984           0.000  
  -4188895.003           0.000    22154488.089           0.000  
   1655644.002           0.000    20865932.149           0.000  
 98  9 30 11 27 33.9980000  0  4G14G18G19G16
   4345871.998           0.000    23627899.333           0.000  
   3145344.000           0.000    20095862.785           0.000  
  -4253349.001           0.000    22142222.512           0.000  
   1634434.001           0.000    20861895.483           0.000  
 98  9 30 11 27 34.9980000  0  4G14G18G19G16
   4345466.998           0.000    23627822.292           0.000  
   3142358.000           0.000    20095288.086           0.000  
  -4259209.999           0.000    22141107.250           0.000  
   1632503.001           0.000    20861528.105           0.000  
 98  9 30 11 27 35.9980000  0  4G14G18G19G16
   4345062.003           0.000    23627745.319           0.000  
   3139372.998           0.000    20094716.833           0.000  
  -4265070.998           0.000    22139992.066           0.000  
   1630573.000           0.000    20861160.907           0.000  
 98  9 30 11 27 36.9980000  0  4G14G18G19G16
   4344658.001           0.000    23627668.463           0.000  
   3136387.002           0.000    20094150.366           0.000  
  -4270930.000           0.000    22138876.995           0.000  
   1628643.998           0.000    20860793.768           0.000  
 98  9 30 11 27 37.9980000  0  4G14G18G19G16
   4344253.999           0.000    23627591.554           0.000  
   3133399.998           0.000    20093583.991           0.000  
  -4276790.001           0.000    22137761.972           0.000  
   1626715.000           0.000    20860426.709           0.000  
 98  9 30 11 27 38.9980000  0  4G14G18G19G16
   4343850.002           0.000    23627514.702           0.000  
   3130416.000           0.000    20093019.240           0.000  
  -4282649.003           0.000    22136646.997           0.000  
   1624785.998           0.000    20860059.674           0.000  
 98  9 30 11 27 39.9980000  0  4G14G18G19G16
   4343446.000           0.000    23627437.752           0.000  
   3127430.998           0.000    20092451.244           0.000  
  -4288508.998           0.000    22135531.998           0.000  
   1622857.000           0.000    20859692.557           0.000  
 98  9 30 11 27 40.9980000  0  4G14G18G19G16
   4343041.000           0.000    23627360.730           0.000  
   3124447.000           0.000    20091879.260           0.000  
  -4294368.998           0.000    22134416.853           0.000  
   1620926.999           0.000    20859325.380           0.000  
 98  9 30 11 27 41.9980000  0  4G14G18G19G16
   4342635.001           0.000    23627283.586           0.000  
   3121464.998           0.000    20091309.234           0.000  
  -4300228.999           0.000    22133301.733           0.000  
   1618996.998           0.000    20858958.203           0.000  
 98  9 30 11 27 42.9980000  0  4G14G18G19G16
   4342229.002           0.000    23627206.381           0.000  
   3118480.001           0.000    20090741.208           0.000  
  -4306088.999           0.000    22132186.556           0.000  
   1617067.002           0.000    20858590.929           0.000  
 98  9 30 11 27 43.9980000  0  4G14G18G19G16
   4341822.000           0.000    23627129.016           0.000  
   3115491.999           0.000    20090171.967           0.000  
  -4311949.998           0.000    22131071.222           0.000  
   1615135.997           0.000    20858223.492           0.000  
 98  9 30 11 27 44.9980000  0  4G14G18G19G16
   4341413.999           0.000    23627051.458           0.000  
   3112504.001           0.000    20089603.516           0.000  
  -4317812.000           0.000    22129955.752           0.000  
   1613203.999           0.000    20857855.972           0.000  
 98  9 30 11 27 45.9980000  0  4G14G18G19G16
   4341005.998           0.000    23626973.812           0.000  
   3109517.002           0.000    20089034.996           0.000  
  -4323673.998           0.000    22128840.178           0.000  
   1611272.001           0.000    20857488.413           0.000  
 98  9 30 11 27 46.9980000  0  4G14G18G19G16
   4340598.002           0.000    23626896.108           0.000  
   3106529.998           0.000    20088467.100           0.000  
  -4329536.000           0.000    22127724.663           0.000  
   1609339.998           0.000    20857120.778           0.000  
 98  9 30 11 27 47.9980000  0  4G14G18G19G16
   4340188.998           0.000    23626818.472           0.000  
   3103542.001           0.000    20087898.267           0.000  
  -4335396.999           0.000    22126609.242           0.000  
   1607408.000           0.000    20856753.177           0.000  
 98  9 30 11 27 49.9980000  0  4G14G18G19G16
   4339373.001           0.000    23626663.252           0.000  
   3147319.000           0.000    20086764.455           0.000  
  -4347119.002           0.000    22124378.530           0.000  
   1603546.001           0.000    20856018.194           0.000  
 98  9 30 11 27 50.9980000  0  4G14G18G19G16
   4338965.000           0.000    23626585.706           0.000  
   3144332.001           0.000    20086196.176           0.000  
  -4352979.003           0.000    22123263.305           0.000  
   1601615.001           0.000    20855650.808           0.000  
 98  9 30 11 27 51.9980000  0  4G14G18G19G16
   4338556.999           0.000    23626508.163           0.000  
   3141347.998           0.000    20085628.854           0.000  
  -4358838.998           0.000    22122148.081           0.000  
   1599684.002           0.000    20855283.450           0.000  
 98  9 30 11 27 52.9980000  0  4G14G18G19G16
   4338148.998           0.000    23626430.549           0.000  
   3138363.999           0.000    20085060.774           0.000  
  -4364700.002           0.000    22121032.929           0.000  
   1597753.002           0.000    20854916.046           0.000  
 98  9 30 11 27 53.9980000  0  4G14G18G19G16
   4337741.002           0.000    23626352.906           0.000  
   3135380.001           0.000    20084491.821           0.000  
  -4370560.002           0.000    22119917.793           0.000  
   1595823.001           0.000    20854548.655           0.000  
 98  9 30 11 27 54.9980000  0  4G14G18G19G16
   4337331.998           0.000    23626275.219           0.000  
   3132394.999           0.000    20083922.665           0.000  
  -4376420.003           0.000    22118802.627           0.000  
   1593892.001           0.000    20854181.255           0.000  
 98  9 30 11 27 55.9980000  0  4G14G18G19G16
   4336924.002           0.000    23626197.513           0.000  
   3129411.001           0.000    20083355.158           0.000  
  -4382278.999           0.000    22117687.495           0.000  
   1591961.002           0.000    20853813.889           0.000  
 98  9 30 11 27 56.9980000  0  5G 7G14G18G19G16
   3150744.999           0.000    24261915.721           0.000  
   4336515.003           0.000    23626119.722           0.000  
   3126428.001           0.000    20082789.137           0.000  
  -4388139.000           0.000    22116572.488           0.000  
   1590030.002           0.000    20853446.547           0.000  
 98  9 30 11 27 57.9980000  0  5G 7G14G18G19G16
   3150615.000           0.000    24261896.137           0.000  
   4336105.998           0.000    23626041.884           0.000  
   3123444.002           0.000    20082222.096           0.000  
  -4393999.000           0.000    22115457.368           0.000  
   1588098.997           0.000    20853079.112           0.000  
 98  9 30 11 27 58.9980000  0  6G 4G 7G14G18G19G16
   3146390.998           0.000    20719732.548           0.000  
   3150486.000           0.000    24261871.345           0.000  
   4335696.000           0.000    23625963.928           0.000  
   3120460.997           0.000    20081655.384           0.000  
  -4399859.000           0.000    22114342.202           0.000  
   1586167.998           0.000    20852711.549           0.000  
 98  9 30 11 27 59.9980000  0  6G 4G 7G14G18G19G16
   3142732.999           0.000    20719037.868           0.000  
   3150353.000           0.000    24261847.677           0.000  
   4335284.999           0.000    23625885.767           0.000  
   3117476.999           0.000    20081087.525           0.000  
  -4405719.999           0.000    22113226.857           0.000  
   1584235.001           0.000    20852343.866           0.000  
 98  9 30 11 28  0.9980000  0  6G 4G 7G14G18G19G16
   3139075.000           0.000    20718342.552           0.000  
   3150220.999           0.000    24261819.484           0.000  
   4334874.002           0.000    23625807.531           0.000  
   3114493.001           0.000    20080520.284           0.000  
  -4411580.998           0.000    22112111.459           0.000  
   1582302.998           0.000    20851976.149           0.000  
 98  9 30 11 28  1.9980000  0  6G 4G 7G14G18G19G16
   3135418.000           0.000    20717641.045           0.000  
   3150091.998           0.000    24261793.525           0.000  
   4334463.001           0.000    23625729.354           0.000  
   3111509.002           0.000    20079952.700           0.000  
  -4417442.002           0.000    22110996.211           0.000  
   1580370.002           0.000    20851608.486           0.000  
 98  9 30 11 28  2.9980000  0  5G 4G14G18G19G16
   3131761.000           0.000    20716941.313           0.000  
   4334053.003           0.000    23625651.266           0.000  
   3108527.001           0.000    20079385.774           0.000  
  -4423302.003           0.000    22109881.128           0.000  
   1578439.002           0.000    20851240.950           0.000  
 98  9 30 11 28  3.9980000  0  5G 4G14G18G19G16
   3128106.002           0.000    20716246.762           0.000  
   4333643.000           0.000    23625573.263           0.000  
   3105544.001           0.000    20078817.308           0.000  
  -4429160.999           0.000    22108766.109           0.000  
   1576506.999           0.000    20850873.516           0.000  
 98  9 30 11 28  4.9980000  0  5G 4G14G18G19G16
   3124450.000           0.000    20715552.831           0.000  
   4333231.998           0.000    23625495.241           0.000  
   3102562.000           0.000    20078248.726           0.000  
  -4435021.000           0.000    22107651.167           0.000  
   1574575.999           0.000    20850506.082           0.000  
 98  9 30 11 28  5.9980000  0  5G 4G14G18G19G16
   3120796.001           0.000    20714858.160           0.000  
   4332822.000           0.000    23625417.188           0.000  
   3099579.998           0.000    20077680.591           0.000  
  -4440880.002           0.000    22106536.274           0.000  
   1572645.000           0.000    20850138.662           0.000  
 98  9 30 11 28  6.9980000  0  5G 4G14G18G19G16
   3117142.999           0.000    20714160.765           0.000  
   4332410.999           0.000    23625339.100           0.000  
   3096599.001           0.000    20077113.264           0.000  
  -4446738.998           0.000    22105421.296           0.000  
   1570714.000           0.000    20849771.244           0.000  
 98  9 30 11 28  7.9980000  0  5G 4G14G18G19G16
   3113489.000           0.000    20713465.353           0.000  
   4332000.002           0.000    23625260.864           0.000  
   3093616.999           0.000    20076545.903           0.000  
  -4452598.000           0.000    22104306.300           0.000  
   1568783.001           0.000    20849403.724           0.000  
 98  9 30 11 28  8.9980000  0  5G 4G14G18G19G16
   3109832.000           0.000    20712768.846           0.000  
   4331589.001           0.000    23625182.493           0.000  
   3090634.998           0.000    20075978.239           0.000  
  -4458458.001           0.000    22103191.323           0.000  
   1566850.997           0.000    20849036.151           0.000  
 98  9 30 11 28  9.9980000  0  5G 4G14G18G19G16
   3106178.999           0.000    20712073.594           0.000  
   4331177.001           0.000    23625104.166           0.000  
   3087651.998           0.000    20075411.079           0.000  
  -4464317.003           0.000    22102076.347           0.000  
   1564918.999           0.000    20848668.604           0.000  
 98  9 30 11 28 10.9980000  0  5G 4G14G18G19G16
   3102524.000           0.000    20711377.702           0.000  
   4330765.001           0.000    23625025.794           0.000  
   3084671.999           0.000    20074844.802           0.000  
  -4470176.000           0.000    22100961.416           0.000  
   1562987.001           0.000    20848301.040           0.000  
 98  9 30 11 28 11.9980000  0  5G 4G14G18G19G16
   3098871.998           0.000    20710681.944           0.000  
   4330353.001           0.000    23624947.396           0.000  
   3081688.999           0.000    20074277.570           0.000  
  -4476036.000           0.000    22099846.452           0.000  
   1561054.998           0.000    20847933.468           0.000  
 98  9 30 11 28 12.9980000  0  5G 4G14G18G19G16
   3095217.998           0.000    20709986.657           0.000  
   4329941.001           0.000    23624868.951           0.000  
   3078702.998           0.000    20073709.660           0.000  
  -4481895.002           0.000    22098731.580           0.000  
   1559123.000           0.000    20847565.876           0.000  
 98  9 30 11 28 13.9980000  0  5G 4G14G18G19G16
   3091565.002           0.000    20709291.983           0.000  
   4329529.001           0.000    23624790.591           0.000  
   3075725.001           0.000    20073143.448           0.000  
  -4487753.000           0.000    22097616.816           0.000  
   1557192.000           0.000    20847198.368           0.000  
 98  9 30 11 28 14.9980000  0  5G 4G14G18G19G16
   3087913.000           0.000    20708597.753           0.000  
   4329117.001           0.000    23624712.237           0.000  
   3072743.998           0.000    20072576.736           0.000  
  -4493612.002           0.000    22096502.079           0.000  
   1555260.002           0.000    20846830.858           0.000  
 98  9 30 11 28 15.9980000  0  5G 4G14G18G19G16
   3084261.002           0.000    20707903.239           0.000  
   4328704.002           0.000    23624633.777           0.000  
   3069762.002           0.000    20072009.964           0.000  
  -4499470.999           0.000    22095387.320           0.000  
   1553327.999           0.000    20846463.277           0.000  
 98  9 30 11 28 16.9980000  0  5G 4G14G18G19G16
   3080609.998           0.000    20707208.429           0.000  
   4328290.998           0.000    23624555.195           0.000  
   3066781.998           0.000    20071443.130           0.000  
  -4505330.001           0.000    22094272.490           0.000  
   1551396.001           0.000    20846095.632           0.000  
 98  9 30 11 28 17.9980000  0  5G 4G14G18G19G16
   3076957.002           0.000    20706513.434           0.000  
   4327878.000           0.000    23624476.585           0.000  
   3063801.000           0.000    20070876.244           0.000  
  -4511189.003           0.000    22093157.688           0.000  
   1549463.998           0.000    20845727.963           0.000  
 98  9 30 11 28 18.9980000  0  5G 4G14G18G19G16
   3073305.000           0.000    20705818.438           0.000  
   4327465.001           0.000    23624397.960           0.000  
   3060821.001           0.000    20070309.244           0.000  
  -4517047.999           0.000    22092042.865           0.000  
   1547531.001           0.000    20845360.281           0.000  
 98  9 30 11 28 19.9980000  0  5G 4G14G18G19G16
   3069653.002           0.000    20705123.931           0.000  
   4327050.999           0.000    23624319.323           0.000  
   3057839.998           0.000    20069741.604           0.000  
  -4522907.001           0.000    22090928.072           0.000  
   1545598.998           0.000    20844992.627           0.000  
 98  9 30 11 28 20.9980000  0  5G 4G14G18G19G16
   3066001.998           0.000    20704430.317           0.000  
   4326637.002           0.000    23624240.673           0.000  
   3054859.000           0.000    20069173.538           0.000  
  -4528765.000           0.000    22089813.352           0.000  
   1543667.000           0.000    20844624.971           0.000  
 98  9 30 11 28 21.9980000  0  5G 4G14G18G19G16
   3062350.001           0.000    20703734.779           0.000  
   4326223.000           0.000    23624161.862           0.000  
   3051879.001           0.000    20068605.899           0.000  
  -4534624.001           0.000    22088698.509           0.000  
   1541733.998           0.000    20844257.212           0.000  
 98  9 30 11 28 22.9980000  0  5G 4G14G18G19G16
   3058699.002           0.000    20703039.247           0.000  
   4325807.999           0.000    23624082.940           0.000  
   3048897.998           0.000    20068039.302           0.000  
  -4540484.002           0.000    22087583.633           0.000  
   1539801.002           0.000    20843889.370           0.000  
 98  9 30 11 28 23.9980000  0  5G 4G14G18G19G16
   3055046.000           0.000    20702344.199           0.000  
   4325392.999           0.000    23624003.934           0.000  
   3045917.999           0.000    20067472.086           0.000  
  -4546342.999           0.000    22086468.774           0.000  
   1537867.002           0.000    20843521.515           0.000  
 98  9 30 11 28 24.9980000  0  5G 4G14G18G19G16
   3051396.000           0.000    20701649.654           0.000  
   4324977.998           0.000    23623924.926           0.000  
   3042937.999           0.000    20066905.030           0.000  
  -4552202.001           0.000    22085353.915           0.000  
   1535934.000           0.000    20843153.631           0.000  
 98  9 30 11 28 25.9980000  0  5G 4G14G18G19G16
   3047745.999           0.000    20700954.704           0.000  
   4324561.999           0.000    23623845.883           0.000  
   3039958.000           0.000    20066337.934           0.000  
  -4558062.001           0.000    22084239.070           0.000  
   1534000.000           0.000    20842785.728           0.000  
 98  9 30 11 28 26.9980000  0  6G 4G 7G14G18G19G16
   3044095.001           0.000    20700259.465           0.000  
   3150632.999           0.000    24261159.153           0.000  
   4324146.000           0.000    23623766.733           0.000  
   3036978.001           0.000    20065770.919           0.000  
  -4563920.998           0.000    22083124.179           0.000  
   1532065.999           0.000    20842417.770           0.000  
 98  9 30 11 28 27.9980000  0  6G 4G 7G14G18G19G16
   3040445.000           0.000    20699564.666           0.000  
   3150492.999           0.000    24261127.293           0.000  
   4323730.001           0.000    23623687.456           0.000  
   3033998.002           0.000    20065203.811           0.000  
  -4569780.000           0.000    22082009.236           0.000  
   1530131.999           0.000    20842049.756           0.000  
 98  9 30 11 28 29.9980000  0  6G 4G 7G14G18G19G16
   3033150.002           0.000    20698175.906           0.000  
   3150214.998           0.000    24261075.293           0.000  
   4322896.999           0.000    23623528.972           0.000  
   3028039.002           0.000    20064069.692           0.000  
  -4581499.002           0.000    22079779.484           0.000  
   1526263.999           0.000    20841313.793           0.000  
 98  9 30 11 28 30.9980000  0  6G 4G 7G14G18G19G16
   3029501.000           0.000    20697481.632           0.000  
   3150074.000           0.000    24261048.693           0.000  
   4322480.001           0.000    23623449.691           0.000  
   3025059.002           0.000    20063502.723           0.000  
  -4587357.999           0.000    22078664.649           0.000  
   1524329.000           0.000    20840945.757           0.000  
 98  9 30 11 28 33.9980000  0  6G 4G 7G14G18G19G16
   3018560.000           0.000    20695408.749           0.000  
   3149654.002           0.000    24260969.587           0.000  
   4321230.002           0.000    23623211.694           0.000  
   3016122.999           0.000    20061802.562           0.000  
  -4604934.001           0.000    22075320.284           0.000  
   1518527.000           0.000    20839841.705           0.000  
 98  9 30 11 28 34.9980000  0  6G 4G 7G14G18G19G16
   3014910.998           0.000    20694714.906           0.000  
   3149512.000           0.000    24260945.229           0.000  
   4320812.000           0.000    23623132.285           0.000  
   3013143.998           0.000    20061235.823           0.000  
  -4610793.003           0.000    22074205.478           0.000  
   1516592.001           0.000    20839473.656           0.000  
 98  9 30 11 28 35.9980000  0  6G 4G 7G14G18G19G16
   3011263.000           0.000    20694030.352           0.000  
   3149369.998           0.000    24260917.599           0.000  
   4320395.003           0.000    23623052.849           0.000  
   3010165.002           0.000    20060669.340           0.000  
  -4616651.999           0.000    22073090.692           0.000  
   1514658.001           0.000    20839105.590           0.000  
 98  9 30 11 28 36.9980000  0  6G 4G 7G14G18G19G16
   3007615.002           0.000    20693338.256           0.000  
   3149229.001           0.000    24260890.467           0.000  
   4319977.001           0.000    23622973.409           0.000  
   3007187.000           0.000    20060102.901           0.000  
  -4622509.998           0.000    22071975.917           0.000  
   1512724.001           0.000    20838737.530           0.000  
 98  9 30 11 28 37.9980000  0  6G 4G 7G14G18G19G16
   3003969.000           0.000    20692641.889           0.000  
   3149086.999           0.000    24260864.161           0.000  
   4319559.999           0.000    23622893.957           0.000  
   3004208.998           0.000    20059536.390           0.000  
  -4628369.000           0.000    22070861.147           0.000  
   1510789.002           0.000    20838369.460           0.000  
 98  9 30 11 28 38.9980000  0  5G 7G14G18G19G16
   3148946.001           0.000    24260837.291           0.000  
   4319142.003           0.000    23622814.422           0.000  
   3001231.000           0.000    20058969.949           0.000  
  -4634226.998           0.000    22069746.367           0.000  
   1508853.998           0.000    20838001.360           0.000  
 98  9 30 11 28 39.9980000  0  5G 7G14G18G19G16
   3148803.001           0.000    24260809.785           0.000  
   4318723.003           0.000    23622734.765           0.000  
   2998252.998           0.000    20058403.436           0.000  
  -4640086.000           0.000    22068631.515           0.000  
   1506918.999           0.000    20837633.145           0.000  
 98  9 30 11 28 40.9980000  0  5G 7G14G18G19G16
   3148660.001           0.000    24260783.217           0.000  
   4318302.999           0.000    23622654.926           0.000  
   2995273.997           0.000    20057836.599           0.000  
  -4645946.000           0.000    22067516.514           0.000  
   1504983.002           0.000    20837264.725           0.000  
 98  9 30 11 28 41.9980000  0  5G 7G14G18G19G16
   3148514.999           0.000    24260755.390           0.000  
   4317883.001           0.000    23622574.993           0.000  
   2992295.002           0.000    20057269.742           0.000  
  -4651805.002           0.000    22066401.490           0.000  
   1503046.001           0.000    20836896.227           0.000  
 98  9 30 11 28 42.9980000  0  5G 7G14G18G19G16
   3148368.998           0.000    24260728.159           0.000  
   4317462.998           0.000    23622495.062           0.000  
   2989316.001           0.000    20056703.043           0.000  
  -4657665.003           0.000    22065286.492           0.000  
   1501109.999           0.000    20836527.757           0.000  
 98  9 30 11 28 43.9980000  0  5G 7G14G18G19G16
   3148222.998           0.000    24260701.116           0.000  
   4317042.999           0.000    23622415.221           0.000  
   2986337.999           0.000    20056136.392           0.000  
  -4663523.999           0.000    22064171.543           0.000  
   1499174.002           0.000    20836159.391           0.000  
 98  9 30 11 28 44.9980000  0  5G 7G14G18G19G16
   3148075.998           0.000    24260673.103           0.000  
   4316623.001           0.000    23622335.369           0.000  
   2983360.002           0.000    20055569.827           0.000  
  -4669383.001           0.000    22063056.631           0.000  
   1497238.000           0.000    20835791.001           0.000  
 98  9 30 11 28 45.9980000  0  5G 7G14G18G19G16
   3147931.002           0.000    24260645.395           0.000  
   4316202.998           0.000    23622255.465           0.000  
   2980381.999           0.000    20055003.214           0.000  
  -4675241.998           0.000    22061941.681           0.000  
   1495301.997           0.000    20835422.647           0.000  
 98  9 30 11 28 46.9980000  0  5G 7G14G18G19G16
   3147781.002           0.000    24260617.457           0.000  
   4315783.000           0.000    23622175.615           0.000  
   2977405.001           0.000    20054436.697           0.000  
  -4681100.001           0.000    22060826.796           0.000  
   1493366.000           0.000    20835054.298           0.000  
 98  9 30 11 28 47.9980000  0  5G 7G14G18G19G16
   3147633.997           0.000    24260589.204           0.000  
   4315363.001           0.000    23622095.694           0.000  
   2974428.002           0.000    20053870.010           0.000  
  -4686958.998           0.000    22059711.970           0.000  
   1491429.998           0.000    20834685.928           0.000  
 98  9 30 11 28 48.9980000  0  5G 7G14G18G19G16
   3147489.001           0.000    24260562.243           0.000  
   4314942.000           0.000    23622015.810           0.000  
   2971450.998           0.000    20053303.398           0.000  
  -4692817.002           0.000    22058597.193           0.000  
   1489494.999           0.000    20834317.578           0.000  
 98  9 30 11 28 49.9980000  0  5G 7G14G18G19G16
   3147339.999           0.000    24260532.953           0.000  
   4314522.001           0.000    23621935.936           0.000  
   2968474.000           0.000    20052737.070           0.000  
  -4698675.000           0.000    22057482.438           0.000  
   1487559.002           0.000    20833949.225           0.000  
 98  9 30 11 28 50.9980000  0  5G 7G14G18G19G16
   3147192.002           0.000    24260504.699           0.000  
   4314101.998           0.000    23621855.968           0.000  
   2965497.999           0.000    20052170.787           0.000  
  -4704532.998           0.000    22056367.732           0.000  
   1485623.000           0.000    20833580.862           0.000  
 98  9 30 11 28 51.9980000  0  5G 7G14G18G19G16
   3147046.001           0.000    24260476.597           0.000  
   4313681.001           0.000    23621776.006           0.000  
   2962521.999           0.000    20051604.574           0.000  
  -4710389.998           0.000    22055253.100           0.000  
   1483686.997           0.000    20833212.561           0.000  
 98  9 30 11 28 52.9980000  0  4G14G18G19G16
   4313260.998           0.000    23621695.987           0.000  
   2959545.999           0.000    20051038.213           0.000  
  -4716248.001           0.000    22054138.494           0.000  
   1481751.999           0.000    20832844.241           0.000  
 98  9 30 11 28 53.9980000  0  4G14G18G19G16
   4312840.001           0.000    23621615.962           0.000  
   2956569.999           0.000    20050472.081           0.000  
  -4722105.001           0.000    22053023.887           0.000  
   1479816.002           0.000    20832475.884           0.000  
 98  9 30 11 28 54.9980000  0  4G14G18G19G16
   4312418.999           0.000    23621535.893           0.000  
   2953594.997           0.000    20049906.009           0.000  
  -4727962.999           0.000    22051909.193           0.000  
   1477879.999           0.000    20832107.513           0.000  
 98  9 30 11 28 55.9980000  0  4G14G18G19G16
   4311998.003           0.000    23621455.767           0.000  
   2950619.002           0.000    20049339.942           0.000  
  -4733819.999           0.000    22050794.586           0.000  
   1475944.002           0.000    20831739.160           0.000  
 98  9 30 11 28 56.9980000  0  4G14G18G19G16
   4311577.001           0.000    23621375.648           0.000  
   2947644.001           0.000    20048773.943           0.000  
  -4739676.999           0.000    22049680.017           0.000  
   1474008.000           0.000    20831370.787           0.000  
 98  9 30 11 28 57.9980000  0  4G14G18G19G16
   4311155.000           0.000    23621295.524           0.000  
   2944668.999           0.000    20048207.908           0.000  
  -4745535.002           0.000    22048565.430           0.000  
   1472071.997           0.000    20831002.382           0.000  
 98  9 30 11 28 58.9980000  0  4G14G18G19G16
   4310733.998           0.000    23621215.367           0.000  
   2941693.997           0.000    20047641.970           0.000  
  -4751392.002           0.000    22047450.919           0.000  
   1470136.000           0.000    20830634.038           0.000  
 98  9 30 11 28 59.9980000  0  4G14G18G19G16
   4310311.998           0.000    23621135.223           0.000  
   2938719.999           0.000    20047075.964           0.000  
  -4757249.002           0.000    22046336.425           0.000  
   1468201.002           0.000    20830265.695           0.000  
 98  9 30 11 29  0.9980000  0  4G14G18G19G16
   4309891.001           0.000    23621055.041           0.000  
   2935746.001           0.000    20046510.060           0.000  
  -4763104.998           0.000    22045221.970           0.000  
   1466264.999           0.000    20829897.361           0.000  
 98  9 30 11 29  1.9980000  0  4G14G18G19G16
   4309469.999           0.000    23620974.824           0.000  
   2932771.000           0.000    20045944.097           0.000  
  -4768961.998           0.000    22044107.547           0.000  
   1464329.002           0.000    20829529.017           0.000  
 98  9 30 11 29  2.9980000  0  4G14G18G19G16
   4309047.999           0.000    23620894.529           0.000  
   2929797.002           0.000    20045378.184           0.000  
  -4774817.999           0.000    22042993.073           0.000  
   1462393.000           0.000    20829160.596           0.000  
 98  9 30 11 29  3.9980000  0  4G14G18G19G16
   4308625.999           0.000    23620814.284           0.000  
   2926824.002           0.000    20044812.256           0.000  
  -4780674.999           0.000    22041878.611           0.000  
   1460456.997           0.000    20828792.239           0.000  
 98  9 30 11 29  4.9980000  0  4G14G18G19G16
   4308203.998           0.000    23620733.968           0.000  
   2923849.999           0.000    20044246.237           0.000  
  -4786531.000           0.000    22040764.139           0.000  
   1458521.999           0.000    20828423.859           0.000  
 98  9 30 11 29  5.9980000  0  4G14G18G19G16
   4307780.999           0.000    23620653.641           0.000  
   2920876.001           0.000    20043680.288           0.000  
  -4792388.000           0.000    22039649.685           0.000  
   1456586.002           0.000    20828055.450           0.000  
 98  9 30 11 29  6.9980000  0  4G14G18G19G16
   4307358.001           0.000    23620573.202           0.000  
   2917903.001           0.000    20043114.350           0.000  
  -4798245.000           0.000    22038535.235           0.000  
   1454649.001           0.000    20827686.970           0.000  
 98  9 30 11 29  7.9980000  0  4G14G18G19G16
   4306936.000           0.000    23620492.842           0.000  
   2914930.002           0.000    20042548.447           0.000  
  -4804101.001           0.000    22037420.916           0.000  
   1452714.002           0.000    20827318.600           0.000  
 98  9 30 11 29  8.9980000  0  4G14G18G19G16
   4306514.000           0.000    23620412.479           0.000  
   2911957.002           0.000    20041982.581           0.000  
  -4809957.002           0.000    22036306.590           0.000  
   1450778.000           0.000    20826950.245           0.000  
 98  9 30 11 29  9.9980000  0  4G14G18G19G16
   4306092.000           0.000    23620332.093           0.000  
   2908985.001           0.000    20041416.734           0.000  
  -4815812.000           0.000    22035192.338           0.000  
   1448843.001           0.000    20826581.952           0.000  
 98  9 30 11 29 10.9980000  0  4G14G18G19G16
   4305669.999           0.000    23620251.789           0.000  
   2906013.999           0.000    20040851.258           0.000  
  -4821666.998           0.000    22034078.148           0.000  
   1446907.997           0.000    20826213.693           0.000  
 98  9 30 11 29 11.9980000  0  4G14G18G19G16
   4305247.000           0.000    23620171.376           0.000  
   2903041.998           0.000    20040285.586           0.000  
  -4827522.001           0.000    22032963.933           0.000  
   1444972.000           0.000    20825845.411           0.000  
 98  9 30 11 29 12.9980000  0  4G14G18G19G16
   4304825.000           0.000    23620090.974           0.000  
   2900070.002           0.000    20039720.140           0.000  
  -4833376.998           0.000    22031849.686           0.000  
   1443037.002           0.000    20825477.132           0.000  
 98  9 30 11 29 13.9980000  0  4G14G18G19G16
   4304402.001           0.000    23620010.555           0.000  
   2897098.999           0.000    20039154.896           0.000  
  -4839232.001           0.000    22030735.484           0.000  
   1441101.998           0.000    20825108.842           0.000  
 98  9 30 11 29 14.9980000  0  4G14G18G19G16
   4303980.001           0.000    23619930.145           0.000  
   2894128.002           0.000    20038589.618           0.000  
  -4845086.999           0.000    22029621.248           0.000  
   1439166.999           0.000    20824740.569           0.000  
 98  9 30 11 29 15.9980000  0  4G14G18G19G16
   4303557.002           0.000    23619849.812           0.000  
   2891157.998           0.000    20038024.500           0.000  
  -4850942.002           0.000    22028507.192           0.000  
   1437232.000           0.000    20824372.405           0.000  
 98  9 30 11 29 16.9980000  0  4G14G18G19G16
   4303135.002           0.000    23619769.468           0.000  
   2888187.999           0.000    20037459.526           0.000  
  -4856796.001           0.000    22027393.241           0.000  
   1435298.000           0.000    20824004.257           0.000  
 98  9 30 11 29 17.9980000  0  4G14G18G19G16
   4302713.001           0.000    23619689.147           0.000  
   2885218.000           0.000    20036894.433           0.000  
  -4862649.001           0.000    22026279.298           0.000  
   1433364.000           0.000    20823636.166           0.000  
 98  9 30 11 29 18.9980000  0  4G14G18G19G16
   4302291.001           0.000    23619608.814           0.000  
   2882248.999           0.000    20036329.433           0.000  
  -4868503.001           0.000    22025165.373           0.000  
   1431430.000           0.000    20823268.037           0.000  
 98  9 30 11 29 19.9980000  0  4G14G18G19G16
   4301868.002           0.000    23619528.451           0.000  
   2879279.999           0.000    20035764.245           0.000  
  -4874357.000           0.000    22024051.464           0.000  
   1429495.001           0.000    20822899.922           0.000  
 98  9 30 11 29 20.9980000  0  4G14G18G19G16
   4301446.002           0.000    23619448.040           0.000  
   2876310.998           0.000    20035199.228           0.000  
  -4880210.000           0.000    22022937.568           0.000  
   1427561.001           0.000    20822531.809           0.000  
 98  9 30 11 29 21.9980000  0  4G14G18G19G16
   4301022.998           0.000    23619367.537           0.000  
   2873341.998           0.000    20034634.266           0.000  
  -4886064.000           0.000    22021823.683           0.000  
   1425627.001           0.000    20822163.672           0.000  
 98  9 30 11 29 22.9980000  0  4G14G18G19G16
   4300599.999           0.000    23619287.107           0.000  
   2870372.998           0.000    20034069.155           0.000  
  -4891917.000           0.000    22020709.813           0.000  
   1423692.002           0.000    20821795.546           0.000  
 98  9 30 11 29 23.9980000  0  4G14G18G19G16
   4300177.998           0.000    23619206.736           0.000  
   2867405.001           0.000    20033504.149           0.000  
  -4897770.001           0.000    22019596.151           0.000  
   1421759.000           0.000    20821427.580           0.000  
 98  9 30 11 29 24.9980000  0  4G14G18G19G16
   4299755.998           0.000    23619126.514           0.000  
   2864438.003           0.000    20032939.319           0.000  
  -4903621.998           0.000    22018482.611           0.000  
   1419825.999           0.000    20821059.767           0.000  
 98  9 30 11 29 25.9980000  0  4G14G18G19G16
   4299335.001           0.000    23619046.305           0.000  
   2861470.999           0.000    20032374.616           0.000  
  -4909473.002           0.000    22017369.222           0.000  
   1417894.001           0.000    20820692.041           0.000  
 98  9 30 11 29 26.9980000  0  4G14G18G19G16
   4298913.001           0.000    23618966.070           0.000  
   2858504.999           0.000    20031802.644           0.000  
  -4915324.000           0.000    22016255.735           0.000  
   1415960.999           0.000    20820324.277           0.000  
 98  9 30 11 29 27.9980000  0  4G14G18G19G16
   4298491.999           0.000    23618885.787           0.000  
   2855538.999           0.000    20031235.423           0.000  
  -4921176.002           0.000    22015142.291           0.000  
   1414028.002           0.000    20819956.514           0.000  
 98  9 30 11 29 28.9980000  0  4G14G18G19G16
   4298069.999           0.000    23618805.501           0.000  
   2852572.999           0.000    20030670.431           0.000  
  -4927027.001           0.000    22014028.892           0.000  
   1412095.999           0.000    20819588.747           0.000  
 98  9 30 11 29 29.9980000  0  4G14G18G19G16
   4297647.998           0.000    23618725.120           0.000  
   2849606.001           0.000    20030106.257           0.000  
  -4932878.000           0.000    22012915.431           0.000  
   1410162.997           0.000    20819220.929           0.000  
 98  9 30 11 29 30.9980000  0  4G14G18G19G16
   4297225.000           0.000    23618644.656           0.000  
   2846640.001           0.000    20029542.228           0.000  
  -4938728.998           0.000    22011801.916           0.000  
   1408230.001           0.000    20818853.059           0.000  
 98  9 30 11 29 31.9980000  0  4G14G18G19G16
   4296802.999           0.000    23618564.269           0.000  
   2843674.002           0.000    20028978.551           0.000  
  -4944580.002           0.000    22010688.493           0.000  
   1406297.998           0.000    20818485.273           0.000  
 98  9 30 11 29 32.9980000  0  4G14G18G19G16
   4296380.999           0.000    23618484.044           0.000  
   2840709.999           0.000    20028414.087           0.000  
  -4950430.002           0.000    22009575.296           0.000  
   1404366.000           0.000    20818117.690           0.000  
 98  9 30 11 29 33.9980000  0  4G14G18G19G16
   4295960.002           0.000    23618403.803           0.000  
   2837744.997           0.000    20027850.648           0.000  
  -4956280.002           0.000    22008462.118           0.000  
   1402434.001           0.000    20817750.081           0.000  
 98  9 30 11 29 34.9980000  0  4G14G18G19G16
   4295539.000           0.000    23618323.497           0.000  
   2834781.000           0.000    20027287.393           0.000  
  -4962130.002           0.000    22007348.953           0.000  
   1400503.002           0.000    20817382.465           0.000  
 98  9 30 11 29 35.9980000  0  5G27G14G18G19G16
   3138942.001           0.000    24478832.318           0.000  
   4295117.000           0.000    23618243.248           0.000  
   2831818.000           0.000    20026724.496           0.000  
  -4967978.998           0.000    22006235.866           0.000  
   1398572.002           0.000    20817014.912           0.000  
 98  9 30 11 29 36.9980000  0  5G27G14G18G19G16
   3132309.000           0.000    24477568.384           0.000  
   4294695.998           0.000    23618163.036           0.000  
   2828855.001           0.000    20026161.396           0.000  
  -4973828.000           0.000    22005122.806           0.000  
   1396640.998           0.000    20816647.413           0.000  
 98  9 30 11 29 37.9980000  0  5G27G14G18G19G16
   3125676.000           0.000    24476305.766           0.000  
   4294275.001           0.000    23618082.831           0.000  
   2825892.002           0.000    20025597.701           0.000  
  -4979675.998           0.000    22004009.834           0.000  
   1394709.998           0.000    20816279.923           0.000  
 98  9 30 11 29 38.9980000  0  5G27G14G18G19G16
   3119043.000           0.000    24475043.888           0.000  
   4293853.999           0.000    23618002.638           0.000  
   2822928.998           0.000    20025034.234           0.000  
  -4985525.000           0.000    22002896.947           0.000  
   1392778.998           0.000    20815912.444           0.000  
 98  9 30 11 29 39.9980000  0  5G27G14G18G19G16
   3112409.999           0.000    24473781.252           0.000  
   4293433.003           0.000    23617922.404           0.000  
   2819967.002           0.000    20024470.903           0.000  
  -4991373.003           0.000    22001784.082           0.000  
   1390848.997           0.000    20815544.950           0.000  
 98  9 30 11 29 40.9980000  0  5G27G14G18G19G16
   3105776.000           0.000    24472519.220           0.000  
   4293011.002           0.000    23617842.146           0.000  
   2817003.998           0.000    20023907.124           0.000  
  -4997221.001           0.000    22000671.234           0.000  
   1388917.998           0.000    20815177.461           0.000  
 98  9 30 11 29 41.9980000  0  5G27G14G18G19G16
   3099142.002           0.000    24471257.313           0.000  
   4292590.000           0.000    23617761.849           0.000  
   2814042.002           0.000    20023343.744           0.000  
  -5003070.002           0.000    21999558.432           0.000  
   1386986.998           0.000    20814809.968           0.000  
 98  9 30 11 29 42.9980000  0  5G27G14G18G19G16
   3092507.997           0.000    24469995.079           0.000  
   4292168.000           0.000    23617681.539           0.000  
   2811080.001           0.000    20022780.422           0.000  
  -5008918.000           0.000    21998445.579           0.000  
   1385057.002           0.000    20814442.412           0.000  
 98  9 30 11 29 43.9980000  0  5G27G14G18G19G16
   3085873.999           0.000    24468732.652           0.000  
   4291746.998           0.000    23617601.321           0.000  
   2808118.001           0.000    20022217.013           0.000  
  -5014765.998           0.000    21997332.793           0.000  
   1383125.997           0.000    20814074.920           0.000  
 98  9 30 11 29 44.9980000  0  5G27G14G18G19G16
   3079239.001           0.000    24467470.180           0.000  
   4291326.001           0.000    23617521.136           0.000  
   2805156.998           0.000    20021654.066           0.000  
  -5020613.003           0.000    21996220.064           0.000  
   1381196.002           0.000    20813707.521           0.000  
 98  9 30 11 29 45.9980000  0  5G27G14G18G19G16
   3072604.997           0.000    24466207.858           0.000  
   4290904.001           0.000    23617440.941           0.000  
   2802196.001           0.000    20021090.991           0.000  
  -5026461.001           0.000    21995107.395           0.000  
   1379266.000           0.000    20813340.130           0.000  
 98  9 30 11 29 46.9980000  0  5G27G14G18G19G16
   3065970.000           0.000    24464945.656           0.000  
   4290482.999           0.000    23617360.701           0.000  
   2799235.998           0.000    20020528.074           0.000  
  -5032308.000           0.000    21993994.738           0.000  
   1377335.999           0.000    20812972.773           0.000  
 98  9 30 11 29 47.9980000  0  5G27G14G18G19G16
   3059336.001           0.000    24463683.350           0.000  
   4290062.003           0.000    23617280.563           0.000  
   2796275.999           0.000    20019964.955           0.000  
  -5038154.001           0.000    21992882.187           0.000  
   1375405.998           0.000    20812605.499           0.000  
 98  9 30 11 29 48.9980000  0  5G27G14G18G19G16
   3052700.999           0.000    24462420.911           0.000  
   4289640.002           0.000    23617200.299           0.000  
   2793316.000           0.000    20019401.507           0.000  
  -5044001.001           0.000    21991769.576           0.000  
   1373477.001           0.000    20812238.161           0.000  
 98  9 30 11 29 49.9980000  0  5G27G14G18G19G16
   3046064.998           0.000    24461158.310           0.000  
   4289219.000           0.000    23617119.986           0.000  
   2790356.002           0.000    20018838.103           0.000  
  -5049848.000           0.000    21990656.975           0.000  
   1371547.000           0.000    20811870.827           0.000  
 98  9 30 11 29 50.9980000  0  5G27G14G18G19G16
   3039430.000           0.000    24459895.840           0.000  
   4288797.000           0.000    23617039.718           0.000  
   2787395.998           0.000    20018274.790           0.000  
  -5055694.999           0.000    21989544.421           0.000  
   1369616.999           0.000    20811503.561           0.000  
 98  9 30 11 29 51.9980000  0  5G27G14G18G19G16
   3032793.999           0.000    24458633.032           0.000  
   4288375.998           0.000    23616959.444           0.000  
   2784435.999           0.000    20017711.452           0.000  
  -5061541.000           0.000    21988431.868           0.000  
   1367686.998           0.000    20811136.339           0.000  
 98  9 30 11 29 52.9980000  0  5G27G14G18G19G16
   3026157.998           0.000    24457370.189           0.000  
   4287953.998           0.000    23616879.184           0.000  
   2781476.999           0.000    20017148.199           0.000  
  -5067388.000           0.000    21987319.360           0.000  
   1365757.002           0.000    20810769.033           0.000  
 98  9 30 11 29 53.9980000  0  5G27G14G18G19G16
   3019521.998           0.000    24456107.329           0.000  
   4287532.003           0.000    23616798.801           0.000  
   2778517.001           0.000    20016584.909           0.000  
  -5073234.001           0.000    21986206.768           0.000  
   1363827.001           0.000    20810401.698           0.000  
 98  9 30 11 29 54.9980000  0  5G27G14G18G19G16
   3012884.998           0.000    24454844.388           0.000  
   4287110.002           0.000    23616718.448           0.000  
   2775558.001           0.000    20016021.744           0.000  
  -5079081.000           0.000    21985094.263           0.000  
   1361897.998           0.000    20810034.447           0.000  
 98  9 30 11 29 55.9980000  0  5G27G14G18G19G16
   3006249.002           0.000    24453581.494           0.000  
   4286688.002           0.000    23616638.152           0.000  
   2772599.000           0.000    20015458.824           0.000  
  -5084925.998           0.000    21983981.787           0.000  
   1359968.002           0.000    20809667.261           0.000  
 98  9 30 11 29 56.9980000  0  5G27G14G18G19G16
   2999611.998           0.000    24452318.647           0.000  
   4286266.001           0.000    23616557.864           0.000  
   2769640.999           0.000    20014895.969           0.000  
  -5090771.999           0.000    21982869.426           0.000  
   1358038.999           0.000    20809300.129           0.000  
 98  9 30 11 29 57.9980000  0  5G27G14G18G19G16
   2992976.002           0.000    24451055.759           0.000  
   4285845.000           0.000    23616477.617           0.000  
   2766683.002           0.000    20014333.096           0.000  
  -5096617.001           0.000    21981757.154           0.000  
   1356110.002           0.000    20808933.073           0.000  
 98  9 30 11 29 58.9980000  0  5G27G14G18G19G16
   2986338.997           0.000    24449792.882           0.000  
   4285422.999           0.000    23616397.391           0.000  
   2763725.001           0.000    20013770.215           0.000  
  -5102461.998           0.000    21980644.915           0.000  
   1354180.999           0.000    20808566.019           0.000  
 98  9 30 11 29 59.9980000  0  5G27G14G18G19G16
   2979701.998           0.000    24448529.899           0.000  
   4285000.999           0.000    23616317.116           0.000  
   2760767.998           0.000    20013207.541           0.000  
  -5108306.003           0.000    21979532.715           0.000  
   1352253.000           0.000    20808198.978           0.000  
 98  9 30 11 30  0.9980000  0  5G27G14G18G19G16
   2973064.998           0.000    24447266.991           0.000  
   4284580.002           0.000    23616236.904           0.000  
   2757810.001           0.000    20012644.987           0.000  
  -5114151.000           0.000    21978420.605           0.000  
   1350323.998           0.000    20807831.962           0.000  
 98  9 30 11 30  1.9980000  0  5G27G14G18G19G16
   2966427.999           0.000    24446004.052           0.000  
   4284159.000           0.000    23616156.635           0.000  
   2754854.002           0.000    20012082.658           0.000  
  -5119994.999           0.000    21977308.463           0.000  
   1348395.999           0.000    20807464.976           0.000  
 98  9 30 11 30  2.9980000  0  5G27G14G18G19G16
   2959790.999           0.000    24444740.968           0.000  
   4283737.000           0.000    23616076.302           0.000  
   2751896.998           0.000    20011520.165           0.000  
  -5125839.003           0.000    21976196.266           0.000  
   1346467.001           0.000    20807097.946           0.000  
 98  9 30 11 30  3.9980000  0  5G27G14G18G19G16
   2953153.002           0.000    24443477.882           0.000  
   4283314.999           0.000    23615995.975           0.000  
   2748940.001           0.000    20010957.640           0.000  
  -5131683.002           0.000    21975084.121           0.000  
   1344538.997           0.000    20806730.940           0.000  
 98  9 30 11 30  4.9980000  0  5G27G14G18G19G16
   2946514.998           0.000    24442214.760           0.000  
   4282892.999           0.000    23615915.606           0.000  
   2745983.003           0.000    20010395.201           0.000  
  -5137527.000           0.000    21973972.046           0.000  
   1342610.000           0.000    20806363.940           0.000  
 98  9 30 11 30  5.9980000  0  5G27G14G18G19G16
   2939877.000           0.000    24440951.581           0.000  
   4282470.999           0.000    23615835.258           0.000  
   2743026.998           0.000    20009832.759           0.000  
  -5143370.999           0.000    21972860.016           0.000  
   1340682.001           0.000    20805996.949           0.000  
 98  9 30 11 30  6.9980000  0  5G27G14G18G19G16
   2933238.997           0.000    24439688.441           0.000  
   4282048.998           0.000    23615754.961           0.000  
   2740070.998           0.000    20009270.511           0.000  
  -5149214.000           0.000    21971748.067           0.000  
   1338754.002           0.000    20805629.990           0.000  
 98  9 30 11 30  7.9980000  0  5G27G14G18G19G16
   2926600.001           0.000    24438425.276           0.000  
   4281626.998           0.000    23615674.727           0.000  
   2737115.997           0.000    20008708.384           0.000  
  -5155057.000           0.000    21970636.176           0.000  
   1336825.998           0.000    20805263.115           0.000  
 98  9 30 11 30  8.9980000  0  5G27G14G18G19G16
   2919961.998           0.000    24437162.140           0.000  
   4281206.001           0.000    23615594.521           0.000  
   2734161.002           0.000    20008146.424           0.000  
  -5160900.000           0.000    21969524.386           0.000  
   1334898.997           0.000    20804896.313           0.000  
 98  9 30 11 30  9.9980000  0  5G27G14G18G19G16
   2913324.000           0.000    24435898.978           0.000  
   4280784.001           0.000    23615514.358           0.000  
   2731206.999           0.000    20007584.287           0.000  
  -5166742.002           0.000    21968412.656           0.000  
   1332972.002           0.000    20804529.554           0.000  
 98  9 30 11 30 10.9980000  0  5G27G14G18G19G16
   2906686.002           0.000    24434635.834           0.000  
   4280362.999           0.000    23615434.194           0.000  
   2728253.002           0.000    20007022.108           0.000  
  -5172583.999           0.000    21967300.974           0.000  
   1331045.002           0.000    20804162.844           0.000  
 98  9 30 11 30 11.9980000  0  5G27G14G18G19G16
   2900047.999           0.000    24433372.627           0.000  
   4279942.002           0.000    23615354.068           0.000  
   2725298.999           0.000    20006460.009           0.000  
  -5178425.002           0.000    21966189.325           0.000  
   1329118.001           0.000    20803796.148           0.000  
 98  9 30 11 30 12.9980000  0  5G27G14G18G19G16
   2893410.001           0.000    24432109.418           0.000  
   4279520.002           0.000    23615273.906           0.000  
   2722346.000           0.000    20005898.029           0.000  
  -5184266.999           0.000    21965077.747           0.000  
   1327191.999           0.000    20803429.489           0.000  
 98  9 30 11 30 13.9980000  0  5G27G14G18G19G16
   2886770.999           0.000    24430846.186           0.000  
   4279099.000           0.000    23615193.723           0.000  
   2719391.998           0.000    20005336.118           0.000  
  -5190108.002           0.000    21963966.219           0.000  
   1325266.002           0.000    20803062.884           0.000  
 98  9 30 11 30 14.9980000  0  5G27G14G18G19G16
   2880131.998           0.000    24429582.885           0.000  
   4278677.998           0.000    23615113.497           0.000  
   2716438.999           0.000    20004774.339           0.000  
  -5195949.001           0.000    21962854.694           0.000  
   1323339.002           0.000    20802696.241           0.000  
 98  9 30 11 30 15.9980000  0  5G27G14G18G19G16
   2873493.001           0.000    24428319.568           0.000  
   4278255.998           0.000    23615033.313           0.000  
   2713486.000           0.000    20004212.702           0.000  
  -5201789.999           0.000    21961743.223           0.000  
   1321413.000           0.000    20802329.637           0.000  
 98  9 30 11 30 16.9980000  0  5G27G14G18G19G16
   2866854.000           0.000    24427056.205           0.000  
   4277835.001           0.000    23614953.101           0.000  
   2710533.999           0.000    20003651.003           0.000  
  -5207631.002           0.000    21960631.770           0.000  
   1319486.998           0.000    20801963.069           0.000  
 98  9 30 11 30 17.9980000  0  5G27G14G18G19G16
   2860214.000           0.000    24425792.746           0.000  
   4277413.001           0.000    23614872.849           0.000  
   2707581.001           0.000    20003089.189           0.000  
  -5213472.000           0.000    21959520.308           0.000  
   1317559.997           0.000    20801596.497           0.000  
 98  9 30 11 30 18.9980000  0  5G27G14G18G19G16
   2853574.000           0.000    24424529.232           0.000  
   4276991.000           0.000    23614792.593           0.000  
   2704629.000           0.000    20002527.388           0.000  
  -5219312.999           0.000    21958408.879           0.000  
   1315634.000           0.000    20801229.916           0.000  
 98  9 30 11 30 19.9980000  0  5G27G14G18G19G16
   2846934.000           0.000    24423265.740           0.000  
   4276569.000           0.000    23614712.337           0.000  
   2701677.000           0.000    20001965.666           0.000  
  -5225152.998           0.000    21957297.464           0.000  
   1313707.998           0.000    20800863.389           0.000  
 98  9 30 11 30 20.9980000  0  5G27G14G18G19G16
   2840294.000           0.000    24422002.189           0.000  
   4276147.000           0.000    23614632.093           0.000  
   2698724.999           0.000    20001403.834           0.000  
  -5230992.998           0.000    21956186.111           0.000  
   1311782.002           0.000    20800496.903           0.000  
 98  9 30 11 30 21.9980000  0  5G27G14G18G19G16
   2833653.999           0.000    24420738.628           0.000  
   4275724.999           0.000    23614551.804           0.000  
   2695772.999           0.000    20000842.126           0.000  
  -5236834.002           0.000    21955074.835           0.000  
   1309856.998           0.000    20800130.445           0.000  
 98  9 30 11 30 22.9980000  0  5G27G14G18G19G16
   2827013.001           0.000    24419475.014           0.000  
   4275302.001           0.000    23614471.502           0.000  
   2692822.002           0.000    20000280.643           0.000  
  -5242674.001           0.000    21953963.562           0.000  
   1307931.001           0.000    20799763.931           0.000  
 98  9 30 11 30 23.9980000  0  5G27G14G18G19G16
   2820371.997           0.000    24418211.298           0.000  
   4274880.000           0.000    23614391.149           0.000  
   2689871.000           0.000    19999718.973           0.000  
  -5248514.001           0.000    21952852.305           0.000  
   1306004.999           0.000    20799397.460           0.000  
 98  9 30 11 30 24.9980000  0  5G27G14G18G19G16
   2813730.999           0.000    24416947.587           0.000  
   4274457.001           0.000    23614310.751           0.000  
   2686919.998           0.000    19999157.235           0.000  
  -5254354.001           0.000    21951741.090           0.000  
   1304078.997           0.000    20799031.035           0.000  
 98  9 30 11 30 25.9980000  0  5G27G14G18G19G16
   2807090.000           0.000    24415683.818           0.000  
   4274035.001           0.000    23614230.352           0.000  
   2683969.002           0.000    19998595.642           0.000  
  -5260194.001           0.000    21950629.884           0.000  
   1302153.000           0.000    20798664.610           0.000  
 98  9 30 11 30 26.9980000  0  5G27G14G18G19G16
   2800447.998           0.000    24414419.961           0.000  
   4273612.002           0.000    23614149.875           0.000  
   2681018.000           0.000    19998034.037           0.000  
  -5266034.000           0.000    21949518.601           0.000  
   1300228.002           0.000    20798298.188           0.000  
 98  9 30 11 30 27.9980000  0  5G27G14G18G19G16
   2793806.001           0.000    24413156.107           0.000  
   4273188.998           0.000    23614069.428           0.000  
   2678066.998           0.000    19997472.467           0.000  
  -5271873.002           0.000    21948407.367           0.000  
   1298302.000           0.000    20797931.799           0.000  
 98  9 30 11 30 28.9980000  0  5G27G14G18G19G16
   2787163.999           0.000    24411892.234           0.000  
   4272765.999           0.000    23613989.014           0.000  
   2675116.999           0.000    19996911.035           0.000  
  -5277713.001           0.000    21947296.174           0.000  
   1296377.002           0.000    20797565.421           0.000  
 98  9 30 11 30 29.9980000  0  5G27G14G18G19G16
   2780520.998           0.000    24410628.283           0.000  
   4272343.000           0.000    23613908.546           0.000  
   2672165.998           0.000    19996349.549           0.000  
  -5283552.003           0.000    21946185.008           0.000  
   1294451.000           0.000    20797199.006           0.000  
 98  9 30 11 30 30.9980000  0  5G27G14G18G19G16
   2773879.001           0.000    24409364.308           0.000  
   4271920.002           0.000    23613828.056           0.000  
   2669215.999           0.000    19995788.066           0.000  
  -5289392.002           0.000    21945073.874           0.000  
   1292524.998           0.000    20796832.644           0.000  
 98  9 30 11 30 31.9980000  0  5G27G14G18G19G16
   2767236.000           0.000    24408100.249           0.000  
   4271495.999           0.000    23613747.517           0.000  
   2666266.001           0.000    19995226.636           0.000  
  -5295230.998           0.000    21943962.746           0.000  
   1290599.999           0.000    20796466.287           0.000  
 98  9 30 11 30 32.9980000  0  5G27G14G18G19G16
   2760593.000           0.000    24406836.133           0.000  
   4271073.000           0.000    23613666.999           0.000  
   2663317.001           0.000    19994665.433           0.000  
  -5301070.000           0.000    21942851.655           0.000  
   1288673.997           0.000    20796099.964           0.000  
 98  9 30 11 30 33.9980000  0  5G27G14G18G19G16
   2753949.000           0.000    24405572.058           0.000  
   4270648.998           0.000    23613586.456           0.000  
   2660366.998           0.000    19994104.133           0.000  
  -5306909.001           0.000    21941740.564           0.000  
   1286748.999           0.000    20795733.656           0.000  
 98  9 30 11 30 34.9980000  0  5G27G14G18G19G16
   2747306.000           0.000    24404307.999           0.000  
   4270225.999           0.000    23613506.002           0.000  
   2657417.998           0.000    19993542.930           0.000  
  -5312748.002           0.000    21940629.613           0.000  
   1284824.001           0.000    20795367.433           0.000  
 98  9 30 11 30 35.9980000  0  5G27G14G18G19G16
   2740662.999           0.000    24403043.911           0.000  
   4269803.000           0.000    23613425.532           0.000  
   2654470.002           0.000    19992981.963           0.000  
  -5318586.000           0.000    21939518.702           0.000  
   1282900.001           0.000    20795001.252           0.000  
 98  9 30 11 30 36.9980000  0  5G27G14G18G19G16
   2734019.998           0.000    24401779.756           0.000  
   4269380.001           0.000    23613345.003           0.000  
   2651521.002           0.000    19992420.612           0.000  
  -5324424.003           0.000    21938407.774           0.000  
   1280974.997           0.000    20794635.061           0.000  
 98  9 30 11 30 37.9980000  0  5G27G14G18G19G16
   2727376.998           0.000    24400515.614           0.000  
   4268957.002           0.000    23613264.538           0.000  
   2648573.001           0.000    19991859.619           0.000  
  -5330262.000           0.000    21937296.950           0.000  
   1279050.997           0.000    20794268.950           0.000  
 98  9 30 11 30 38.9980000  0  5G27G14G18G19G16
   2720732.999           0.000    24399251.469           0.000  
   4268533.000           0.000    23613184.085           0.000  
   2645624.999           0.000    19991298.425           0.000  
  -5336098.999           0.000    21936186.199           0.000  
   1277126.998           0.000    20793902.884           0.000  
 98  9 30 11 30 39.9980000  0  5G27G14G18G19G16
   2714088.999           0.000    24397987.180           0.000  
   4268110.001           0.000    23613103.513           0.000  
   2642678.002           0.000    19990737.459           0.000  
  -5341937.002           0.000    21935075.383           0.000  
   1275201.999           0.000    20793536.776           0.000  
 98  9 30 11 30 40.9980000  0  5G27G14G18G19G16
   2707445.000           0.000    24396722.784           0.000  
   4267685.998           0.000    23613022.840           0.000  
   2639730.001           0.000    19990176.291           0.000  
  -5347775.000           0.000    21933964.549           0.000  
   1273277.999           0.000    20793170.601           0.000  
 98  9 30 11 30 41.9980000  0  5G27G14G18G19G16
   2700799.997           0.000    24395458.376           0.000  
   4267262.001           0.000    23612942.192           0.000  
   2636781.999           0.000    19989615.075           0.000  
  -5353613.003           0.000    21932853.721           0.000  
   1271353.001           0.000    20792804.451           0.000  
 98  9 30 11 30 42.9980000  0  5G27G14G18G19G16
   2694155.000           0.000    24394193.945           0.000  
   4266837.999           0.000    23612861.580           0.000  
   2633833.998           0.000    19989054.256           0.000  
  -5359451.000           0.000    21931742.999           0.000  
   1269429.001           0.000    20792438.369           0.000  
 98  9 30 11 30 43.9980000  0  5G27G14G18G19G16
   2687511.001           0.000    24392929.484           0.000  
   4266414.001           0.000    23612780.973           0.000  
   2630887.000           0.000    19988493.436           0.000  
  -5365287.999           0.000    21930632.311           0.000  
   1267505.001           0.000    20792072.312           0.000  
 98  9 30 11 30 44.9980000  0  5G27G14G18G19G16
   2680865.998           0.000    24391665.026           0.000  
   4265991.003           0.000    23612700.385           0.000  
   2627941.001           0.000    19987932.721           0.000  
  -5371124.998           0.000    21929521.696           0.000  
   1265581.002           0.000    20791706.323           0.000  
 98  9 30 11 30 45.9980000  0  5G27G14G18G19G16
   2674221.000           0.000    24390400.593           0.000  
   4265567.000           0.000    23612619.768           0.000  
   2624993.998           0.000    19987371.950           0.000  
  -5376960.999           0.000    21928411.063           0.000  
   1263658.000           0.000    20791340.341           0.000  
 98  9 30 11 30 46.9980000  0  5G27G14G18G19G16
   2667575.997           0.000    24389136.137           0.000  
   4265143.003           0.000    23612539.192           0.000  
   2622047.999           0.000    19986811.247           0.000  
  -5382797.998           0.000    21927300.477           0.000  
   1261734.000           0.000    20790974.404           0.000  
 98  9 30 11 30 47.9980000  0  5G27G14G18G19G16
   2660931.000           0.000    24387871.665           0.000  
   4264719.000           0.000    23612458.596           0.000  
   2619102.000           0.000    19986250.687           0.000  
  -5388633.999           0.000    21926189.906           0.000  
   1259810.999           0.000    20790608.505           0.000  
 98  9 30 11 30 48.9980000  0  5G27G14G18G19G16
   2654286.002           0.000    24386607.127           0.000  
   4264294.998           0.000    23612377.988           0.000  
   2616156.999           0.000    19985690.259           0.000  
  -5394470.998           0.000    21925079.359           0.000  
   1257887.997           0.000    20790242.625           0.000  
 98  9 30 11 30 49.9980000  0  5G27G14G18G19G16
   2647640.001           0.000    24385342.534           0.000  
   4263871.000           0.000    23612297.359           0.000  
   2613211.000           0.000    19985129.746           0.000  
  -5400306.999           0.000    21923968.826           0.000  
   1255965.001           0.000    20789876.734           0.000  
 98  9 30 11 30 50.9980000  0  5G27G14G18G19G16
   2640994.998           0.000    24384077.989           0.000  
   4263448.002           0.000    23612216.771           0.000  
   2610265.999           0.000    19984569.355           0.000  
  -5406142.001           0.000    21922858.362           0.000  
   1254042.000           0.000    20789510.892           0.000  
 98  9 30 11 30 51.9980000  0  5G27G14G18G19G16
   2634350.000           0.000    24382813.460           0.000  
   4263023.999           0.000    23612136.192           0.000  
   2607322.002           0.000    19984008.978           0.000  
  -5411978.001           0.000    21921747.919           0.000  
   1252120.002           0.000    20789145.141           0.000  
 98  9 30 11 30 52.9980000  0  5G27G14G18G19G16
   2627703.999           0.000    24381548.889           0.000  
   4262600.002           0.000    23612055.616           0.000  
   2604377.002           0.000    19983448.894           0.000  
  -5417812.998           0.000    21920637.510           0.000  
   1250197.999           0.000    20788779.399           0.000  
 98  9 30 11 30 53.9980000  0  5G27G14G18G19G16
   2621057.998           0.000    24380284.279           0.000  
   4262175.999           0.000    23611974.952           0.000  
   2601432.999           0.000    19982888.777           0.000  
  -5423648.001           0.000    21919527.138           0.000  
   1248274.998           0.000    20788413.667           0.000  
 98  9 30 11 30 54.9980000  0  5G27G14G18G19G16
   2614412.002           0.000    24379019.620           0.000  
   4261752.002           0.000    23611894.304           0.000  
   2598488.997           0.000    19982328.703           0.000  
  -5429484.001           0.000    21918416.757           0.000  
   1246353.000           0.000    20788047.956           0.000  
 98  9 30 11 30 55.9980000  0  5G27G14G18G19G16
   2607766.000           0.000    24377754.881           0.000  
   4261327.999           0.000    23611813.592           0.000  
   2595545.000           0.000    19981768.764           0.000  
  -5435318.998           0.000    21917306.427           0.000  
   1244430.997           0.000    20787682.234           0.000  
 98  9 30 11 30 56.9980000  0  5G27G14G18G19G16
   2601119.999           0.000    24376490.108           0.000  
   4260904.002           0.000    23611732.863           0.000  
   2592602.002           0.000    19981208.829           0.000  
  -5441154.000           0.000    21916196.160           0.000  
   1242509.000           0.000    20787316.506           0.000  
 98  9 30 11 30 57.9980000  0  5G27G14G18G19G16
   2594473.998           0.000    24375225.386           0.000  
   4260480.000           0.000    23611652.194           0.000  
   2589658.998           0.000    19980648.811           0.000  
  -5446987.999           0.000    21915085.976           0.000  
   1240588.000           0.000    20786950.901           0.000  
 98  9 30 11 30 58.9980000  0  5G27G14G18G19G16
   2587828.002           0.000    24373960.714           0.000  
   4260056.002           0.000    23611571.583           0.000  
   2586715.999           0.000    19980088.849           0.000  
  -5452822.003           0.000    21913975.849           0.000  
   1238665.997           0.000    20786585.344           0.000  
 98  9 30 11 30 59.9980000  0  5G27G14G18G19G16
   2581181.002           0.000    24372695.919           0.000  
   4259632.000           0.000    23611490.855           0.000  
   2583773.001           0.000    19979528.855           0.000  
  -5458657.000           0.000    21912865.564           0.000  
   1236744.998           0.000    20786219.693           0.000  
 98  9 30 11 31  0.9980000  0  5G27G14G18G19G16
   2574534.002           0.000    24371431.035           0.000  
   4259208.002           0.000    23611410.124           0.000  
   2580830.002           0.000    19978968.959           0.000  
  -5464492.002           0.000    21911755.249           0.000  
   1234823.000           0.000    20785854.053           0.000  
 98  9 30 11 31  1.9980000  0  5G27G14G18G19G16
   2567887.002           0.000    24370166.111           0.000  
   4258783.001           0.000    23611329.367           0.000  
   2577888.002           0.000    19978409.155           0.000  
  -5470326.000           0.000    21910645.002           0.000  
   1232902.001           0.000    20785488.436           0.000  
 98  9 30 11 31  2.9980000  0  5G27G14G18G19G16
   2561238.999           0.000    24368901.117           0.000  
   4258358.000           0.000    23611248.586           0.000  
   2574944.998           0.000    19977849.452           0.000  
  -5476161.002           0.000    21909534.727           0.000  
   1230979.998           0.000    20785122.777           0.000  
 98  9 30 11 31  3.9980000  0  5G27G14G18G19G16
   2554591.001           0.000    24367636.079           0.000  
   4257932.999           0.000    23611167.748           0.000  
   2572002.998           0.000    19977289.771           0.000  
  -5481995.001           0.000    21908424.449           0.000  
   1229058.001           0.000    20784757.154           0.000  
 98  9 30 11 31  4.9980000  0  5G27G14G18G19G16
   2547943.002           0.000    24366371.038           0.000  
   4257507.998           0.000    23611086.895           0.000  
   2569060.998           0.000    19976730.049           0.000  
  -5487828.999           0.000    21907314.189           0.000  
   1227137.001           0.000    20784391.576           0.000  
 98  9 30 11 31  5.9980000  0  5G27G14G18G19G16
   2541294.999           0.000    24365105.988           0.000  
   4257083.003           0.000    23611006.021           0.000  
   2566118.998           0.000    19976170.437           0.000  
  -5493662.998           0.000    21906203.993           0.000  
   1225216.002           0.000    20784025.980           0.000  
 98  9 30 11 31  6.9980000  0  5G27G14G18G19G16
   2534647.001           0.000    24363840.904           0.000  
   4256659.000           0.000    23610925.183           0.000  
   2563178.002           0.000    19975610.992           0.000  
  -5499497.002           0.000    21905093.837           0.000  
   1223294.998           0.000    20783660.466           0.000  
 98  9 30 11 31  7.9980000  0  5G27G14G18G19G16
   2527999.002           0.000    24362575.856           0.000  
   4256233.999           0.000    23610844.345           0.000  
   2560237.000           0.000    19975051.371           0.000  
  -5505331.000           0.000    21903983.745           0.000  
   1221373.998           0.000    20783295.032           0.000  
 98  9 30 11 31  8.9980000  0  5G27G14G18G19G16
   2521350.999           0.000    24361310.788           0.000  
   4255808.998           0.000    23610763.584           0.000  
   2557295.999           0.000    19974491.966           0.000  
  -5511164.000           0.000    21902873.668           0.000  
   1219453.998           0.000    20782929.646           0.000  
 98  9 30 11 31  9.9980000  0  5G27G14G18G19G16
   2514703.001           0.000    24360045.674           0.000  
   4255385.001           0.000    23610682.804           0.000  
   2554356.001           0.000    19973932.546           0.000  
  -5516997.000           0.000    21901763.686           0.000  
   1217534.002           0.000    20782564.297           0.000  
 98  9 30 11 31 10.9980000  0  5G27G14G18G19G16
   2508054.997           0.000    24358780.562           0.000  
   4254960.000           0.000    23610601.994           0.000  
   2551415.997           0.000    19973373.043           0.000  
  -5522830.000           0.000    21900653.727           0.000  
   1215614.001           0.000    20782198.968           0.000  
 98  9 30 11 31 11.9980000  0  5G27G14G18G19G16
   2501406.999           0.000    24357515.396           0.000  
   4254534.999           0.000    23610521.149           0.000  
   2548476.000           0.000    19972813.580           0.000  
  -5528663.000           0.000    21899543.808           0.000  
   1213694.000           0.000    20781833.604           0.000  
 98  9 30 11 31 12.9980000  0  5G27G14G18G19G16
   2494758.002           0.000    24356250.158           0.000  
   4254109.998           0.000    23610440.197           0.000  
   2545536.002           0.000    19972254.119           0.000  
  -5534496.000           0.000    21898433.823           0.000  
   1211774.000           0.000    20781468.215           0.000  
 98  9 30 11 31 13.9980000  0  5G27G14G18G19G16
   2488109.999           0.000    24354984.981           0.000  
   4253685.002           0.000    23610359.360           0.000  
   2542597.002           0.000    19971694.642           0.000  
  -5540328.002           0.000    21897323.893           0.000  
   1209853.999           0.000    20781102.951           0.000  
 98  9 30 11 31 14.9980000  0  5G27G14G18G19G16
   2481461.002           0.000    24353719.807           0.000  
   4253261.000           0.000    23610278.560           0.000  
   2539657.998           0.000    19971135.239           0.000  
  -5546159.998           0.000    21896214.112           0.000  
   1207935.002           0.000    20780737.782           0.000  
 98  9 30 11 31 15.9980000  0  5G27G14G18G19G16
   2474812.999           0.000    24352454.608           0.000  
   4252835.999           0.000    23610197.789           0.000  
   2536720.002           0.000    19970576.134           0.000  
  -5551992.000           0.000    21895104.349           0.000  
   1206016.000           0.000    20780372.633           0.000  
 98  9 30 11 31 16.9980000  0  5G27G14G18G19G16
   2468164.002           0.000    24351189.310           0.000  
   4252410.998           0.000    23610116.961           0.000  
   2533782.001           0.000    19970017.015           0.000  
  -5557824.001           0.000    21893994.565           0.000  
   1204095.999           0.000    20780007.476           0.000  
 98  9 30 11 31 17.9980000  0  5G27G14G18G19G16
   2461515.000           0.000    24349924.038           0.000  
   4251987.000           0.000    23610036.153           0.000  
   2530844.000           0.000    19969458.042           0.000  
  -5563654.999           0.000    21892884.898           0.000  
   1202178.000           0.000    20779642.403           0.000  
 98  9 30 11 31 18.9980000  0  5G27G14G18G19G16
   2454865.998           0.000    24348658.743           0.000  
   4251561.999           0.000    23609955.280           0.000  
   2527905.999           0.000    19968899.052           0.000  
  -5569487.001           0.000    21891775.178           0.000  
   1200258.998           0.000    20779277.291           0.000  
 98  9 30 11 31 19.9980000  0  5G27G14G18G19G16
   2448215.998           0.000    24347393.318           0.000  
   4251136.000           0.000    23609874.376           0.000  
   2524967.998           0.000    19968339.861           0.000  
  -5575319.002           0.000    21890665.487           0.000  
   1198340.001           0.000    20778912.166           0.000  
 98  9 30 11 31 20.9980000  0  5G27G14G18G19G16
   2441565.997           0.000    24346127.772           0.000  
   4250710.001           0.000    23609793.339           0.000  
   2522030.002           0.000    19967780.637           0.000  
  -5581150.999           0.000    21889555.742           0.000  
   1196420.000           0.000    20778546.929           0.000  
 98  9 30 11 31 21.9980000  0  5G27G14G18G19G16
   2434914.998           0.000    24344862.156           0.000  
   4250284.001           0.000    23609712.275           0.000  
   2519092.001           0.000    19967221.509           0.000  
  -5586983.000           0.000    21888445.937           0.000  
   1194499.999           0.000    20778181.692           0.000  
 98  9 30 11 31 22.9980000  0  5G27G14G18G19G16
   2428264.998           0.000    24343596.515           0.000  
   4249858.002           0.000    23609631.170           0.000  
   2516154.999           0.000    19966662.384           0.000  
  -5592815.002           0.000    21887336.164           0.000  
   1192581.002           0.000    20777816.518           0.000  
 98  9 30 11 31 23.9980000  0  5G27G14G18G19G16
   2421613.999           0.000    24342330.861           0.000  
   4249432.002           0.000    23609550.023           0.000  
   2513216.998           0.000    19966103.425           0.000  
  -5598646.998           0.000    21886226.380           0.000  
   1190662.000           0.000    20777451.329           0.000  
 98  9 30 11 31 24.9980000  0  5G27G14G18G19G16
   2414963.000           0.000    24341065.062           0.000  
   4249004.999           0.000    23609468.762           0.000  
   2510280.000           0.000    19965544.521           0.000  
  -5604479.000           0.000    21885116.562           0.000  
   1188741.999           0.000    20777086.105           0.000  
 98  9 30 11 31 25.9980000  0  5G27G14G18G19G16
   2408310.998           0.000    24339799.187           0.000  
   4248578.001           0.000    23609387.463           0.000  
   2507341.999           0.000    19964985.540           0.000  
  -5610311.001           0.000    21884006.708           0.000  
   1186821.998           0.000    20776720.782           0.000  
 98  9 30 11 31 26.9980000  0  5G27G14G18G19G16
   2401659.000           0.000    24338533.262           0.000  
   4248150.998           0.000    23609306.175           0.000  
   2504405.002           0.000    19964426.590           0.000  
  -5616142.998           0.000    21882896.907           0.000  
   1184901.997           0.000    20776355.492           0.000  
 98  9 30 11 31 27.9980000  0  5G27G14G18G19G16
   2395006.998           0.000    24337267.395           0.000  
   4247724.000           0.000    23609224.878           0.000  
   2501467.999           0.000    19963867.931           0.000  
  -5621974.999           0.000    21881787.202           0.000  
   1182983.000           0.000    20775990.272           0.000  
 98  9 30 11 31 28.9980000  0  5G27G14G18G19G16
   2388354.002           0.000    24336001.428           0.000  
   4247295.998           0.000    23609143.594           0.000  
   2498531.002           0.000    19963309.348           0.000  
  -5627806.002           0.000    21880677.540           0.000  
   1181063.998           0.000    20775625.047           0.000  
 98  9 30 11 31 29.9980000  0  5G27G14G18G19G16
   2381702.000           0.000    24334735.466           0.000  
   4246869.001           0.000    23609062.315           0.000  
   2495594.998           0.000    19962750.735           0.000  
  -5633637.999           0.000    21879567.910           0.000  
   1179145.001           0.000    20775259.885           0.000  
 98  9 30 11 31 30.9980000  0  5G27G14G18G19G16
   2375050.002           0.000    24333469.464           0.000  
   4246442.003           0.000    23608981.048           0.000  
   2492658.999           0.000    19962192.209           0.000  
  -5639469.002           0.000    21878458.272           0.000  
   1177225.999           0.000    20774894.743           0.000  
 98  9 30 11 31 31.9980000  0  5G27G14G18G19G16
   2368397.001           0.000    24332203.471           0.000  
   4246014.999           0.000    23608899.803           0.000  
   2489723.999           0.000    19961633.846           0.000  
  -5645300.000           0.000    21877348.694           0.000  
   1175307.002           0.000    20774529.644           0.000  
 98  9 30 11 31 32.9980000  0  5G27G14G18G19G16
   2361744.999           0.000    24330937.477           0.000  
   4245588.002           0.000    23608818.524           0.000  
   2486788.999           0.000    19961075.600           0.000  
  -5651130.998           0.000    21876239.167           0.000  
   1173387.999           0.000    20774164.553           0.000  
 98  9 30 11 31 33.9980000  0  5G27G14G18G19G16
   2355091.998           0.000    24329671.456           0.000  
   4245160.998           0.000    23608737.290           0.000  
   2483853.998           0.000    19960517.415           0.000  
  -5656961.002           0.000    21875129.682           0.000  
   1171470.001           0.000    20773799.529           0.000  
 98  9 30 11 31 34.9980000  0  5G27G14G18G19G16
   2348440.000           0.000    24328405.428           0.000  
   4244734.000           0.000    23608656.084           0.000  
   2480918.998           0.000    19959959.036           0.000  
  -5662791.002           0.000    21874020.227           0.000  
   1169552.002           0.000    20773434.543           0.000  
 98  9 30 11 31 35.9980000  0  5G27G14G18G19G16
   2341786.999           0.000    24327139.314           0.000  
   4244307.003           0.000    23608574.817           0.000  
   2477985.001           0.000    19959400.719           0.000  
  -5668621.001           0.000    21872910.801           0.000  
   1167633.998           0.000    20773069.561           0.000  
 98  9 30 11 31 36.9980000  0  5G27G14G18G19G16
   2335133.000           0.000    24325873.173           0.000  
   4243879.999           0.000    23608493.549           0.000  
   2475050.999           0.000    19958842.490           0.000  
  -5674451.001           0.000    21871801.389           0.000  
   1165715.001           0.000    20772704.582           0.000  
 98  9 30 11 31 37.9980000  0  5G27G14G18G19G16
   2328479.999           0.000    24324607.028           0.000  
   4243453.001           0.000    23608412.242           0.000  
   2472116.997           0.000    19958284.290           0.000  
  -5680281.000           0.000    21870692.076           0.000  
   1163796.997           0.000    20772339.589           0.000  
 98  9 30 11 31 38.9980000  0  5G27G14G18G19G16
   2321826.998           0.000    24323340.908           0.000  
   4243025.998           0.000    23608331.004           0.000  
   2469183.999           0.000    19957726.131           0.000  
  -5686110.001           0.000    21869582.849           0.000  
   1161880.002           0.000    20771974.685           0.000  
 98  9 30 11 31 39.9980000  0  5G27G14G18G19G16
   2315172.998           0.000    24322074.706           0.000  
   4242599.000           0.000    23608249.737           0.000  
   2466251.001           0.000    19957167.902           0.000  
  -5691940.000           0.000    21868473.595           0.000  
   1159961.998           0.000    20771609.743           0.000  
 98  9 30 11 31 40.9980000  0  5G27G14G18G19G16
   2308519.997           0.000    24320808.478           0.000  
   4242170.999           0.000    23608168.376           0.000  
   2463317.997           0.000    19956609.737           0.000  
  -5697769.001           0.000    21867364.336           0.000  
   1158044.000           0.000    20771244.821           0.000  
 98  9 30 11 31 41.9980000  0  5G27G14G18G19G16
   2301864.999           0.000    24319542.149           0.000  
   4241743.002           0.000    23608086.972           0.000  
   2460384.999           0.000    19956051.390           0.000  
  -5703599.001           0.000    21866255.067           0.000  
   1156126.001           0.000    20770879.878           0.000  
 98  9 30 11 31 42.9980000  0  5G27G14G18G19G16
   2295211.000           0.000    24318275.729           0.000  
   4241315.001           0.000    23608005.486           0.000  
   2457452.001           0.000    19955493.056           0.000  
  -5709428.002           0.000    21865145.761           0.000  
   1154207.997           0.000    20770514.914           0.000  
 98  9 30 11 31 43.9980000  0  5G27G14G18G19G16
   2288556.002           0.000    24317009.264           0.000  
   4240886.999           0.000    23607924.018           0.000  
   2454520.001           0.000    19954934.895           0.000  
  -5715258.001           0.000    21864036.461           0.000  
   1152289.999           0.000    20770149.942           0.000  
 98  9 30 11 31 44.9980000  0  5G27G14G18G19G16
   2281900.000           0.000    24315742.709           0.000  
   4240458.998           0.000    23607842.507           0.000  
   2451586.998           0.000    19954376.957           0.000  
  -5721087.002           0.000    21862927.165           0.000  
   1150372.000           0.000    20769784.926           0.000  
 98  9 30 11 31 45.9980000  0  5G27G14G18G19G16
   2275245.002           0.000    24314476.200           0.000  
   4240030.003           0.000    23607760.951           0.000  
   2448654.998           0.000    19953818.908           0.000  
  -5726915.998           0.000    21861817.889           0.000  
   1148454.002           0.000    20769419.975           0.000  
 98  9 30 11 31 46.9980000  0  5G27G14G18G19G16
   2268589.999           0.000    24313209.688           0.000  
   4239602.001           0.000    23607679.457           0.000  
   2445722.998           0.000    19953261.210           0.000  
  -5732744.999           0.000    21860708.677           0.000  
   1146535.998           0.000    20769055.089           0.000  
 98  9 30 11 31 47.9980000  0  5G27G14G18G19G16
   2261933.997           0.000    24311943.076           0.000  
   4239173.001           0.000    23607597.901           0.000  
   2442792.002           0.000    19952703.376           0.000  
  -5738574.000           0.000    21859599.498           0.000  
   1144617.999           0.000    20768690.178           0.000  
 98  9 30 11 31 48.9980000  0  6G 4G27G14G18G19G16
   3145831.000           0.000    20561389.325           0.000  
   2255278.001           0.000    24310676.540           0.000  
   4238744.999           0.000    23607516.372           0.000  
   2439861.001           0.000    19952145.784           0.000  
  -5744403.001           0.000    21858490.359           0.000  
   1142700.999           0.000    20768325.328           0.000  
 98  9 30 11 31 49.9980000  0  6G 4G27G14G18G19G16
   3142255.001           0.000    20560710.603           0.000  
   2248621.999           0.000    24309409.954           0.000  
   4238315.999           0.000    23607434.812           0.000  
   2436930.000           0.000    19951588.325           0.000  
  -5750230.998           0.000    21857381.220           0.000  
   1140783.999           0.000    20767960.503           0.000  
 98  9 30 11 31 50.9980000  0  6G 4G27G14G18G19G16
   3138677.998           0.000    20560032.470           0.000  
   2241965.998           0.000    24308143.299           0.000  
   4237887.998           0.000    23607353.261           0.000  
   2433998.998           0.000    19951030.805           0.000  
  -5756059.000           0.000    21856272.153           0.000  
   1138866.000           0.000    20767595.663           0.000  
 98  9 30 11 31 51.9980000  0  6G 4G27G14G18G19G16
   3135105.998           0.000    20559357.024           0.000  
   2235310.001           0.000    24306876.506           0.000  
   4237458.998           0.000    23607271.600           0.000  
   2431068.002           0.000    19950473.232           0.000  
  -5761888.001           0.000    21855162.976           0.000  
   1136949.000           0.000    20767230.780           0.000  
 98  9 30 11 31 52.9980000  0  6G 4G27G14G18G19G16
   3131533.998           0.000    20558677.267           0.000  
   2228653.001           0.000    24305609.696           0.000  
   4237028.999           0.000    23607189.905           0.000  
   2428138.000           0.000    19949915.426           0.000  
  -5767717.002           0.000    21854053.848           0.000  
   1135031.001           0.000    20766865.904           0.000  
 98  9 30 11 31 53.9980000  0  6G 4G27G14G18G19G16
   3127958.998           0.000    20557997.668           0.000  
   2221994.997           0.000    24304342.825           0.000  
   4236599.999           0.000    23607108.110           0.000  
   2425206.998           0.000    19949357.739           0.000  
  -5773544.999           0.000    21852944.614           0.000  
   1133112.998           0.000    20766500.967           0.000  
 98  9 30 11 31 54.9980000  0  6G 4G27G14G18G19G16
   3124385.001           0.000    20557316.657           0.000  
   2215336.999           0.000    24303075.824           0.000  
   4236169.002           0.000    23607026.259           0.000  
   2422277.001           0.000    19948800.002           0.000  
  -5779374.000           0.000    21851835.379           0.000  
   1131194.999           0.000    20766135.978           0.000  
 98  9 30 11 31 55.9980000  0  6G 4G27G14G18G19G16
   3120810.000           0.000    20556635.936           0.000  
   2208679.000           0.000    24301808.740           0.000  
   4235738.998           0.000    23606944.371           0.000  
   2419345.999           0.000    19948242.330           0.000  
  -5785203.001           0.000    21850726.146           0.000  
   1129276.002           0.000    20765770.963           0.000  
 98  9 30 11 31 56.9980000  0  6G 4G27G14G18G19G16
   3117238.000           0.000    20555956.693           0.000  
   2202019.998           0.000    24300541.632           0.000  
   4235308.001           0.000    23606862.496           0.000  
   2416414.998           0.000    19947684.796           0.000  
  -5791032.002           0.000    21849616.949           0.000  
   1127357.998           0.000    20765405.943           0.000  
 98  9 30 11 31 57.9980000  0  5G 4G27G14G19G16
   3113665.002           0.000    20555276.398           0.000  
   2195361.001           0.000    24299274.420           0.000  
   4234876.999           0.000    23606780.540           0.000  
  -5796860.998           0.000    21848507.714           0.000  
   1125439.999           0.000    20765040.880           0.000  
 98  9 30 11 31 58.9980000  0  6G 4G27G14G18G19G16
   3110093.002           0.000    20554596.951           0.000  
   2188701.999           0.000    24298007.191           0.000  
   4234446.002           0.000    23606698.561           0.000  
   2410554.998           0.000    19946577.300           0.000  
  -5802689.999           0.000    21847398.538           0.000  
   1123521.002           0.000    20764675.860           0.000  
 98  9 30 11 31 59.9980000  0  6G 4G27G14G18G19G16
   3106519.998           0.000    20553916.187           0.000  
   2182043.002           0.000    24296739.969           0.000  
   4234015.000           0.000    23606616.601           0.000  
   2407625.000           0.000    19946012.312           0.000  
  -5808518.001           0.000    21846289.386           0.000  
   1121602.998           0.000    20764310.853           0.000  
 98  9 30 11 32  0.9980000  0  6G 4G27G14G18G19G16
   3102949.001           0.000    20553235.650           0.000  
   2175383.001           0.000    24295472.599           0.000  
   4233583.998           0.000    23606534.533           0.000  
   2404694.997           0.000    19945451.655           0.000  
  -5814347.002           0.000    21845180.153           0.000  
   1119685.000           0.000    20763945.773           0.000  
 98  9 30 11 32  1.9980000  0  6G 4G27G14G18G19G16
   3099375.998           0.000    20552554.360           0.000  
   2168723.000           0.000    24294205.124           0.000  
   4233150.998           0.000    23606452.381           0.000  
   2401765.000           0.000    19944892.800           0.000  
  -5820175.998           0.000    21844070.880           0.000  
   1117765.998           0.000    20763580.623           0.000  
 98  9 30 11 32  2.9980000  0  6G 4G27G14G18G19G16
   3095803.998           0.000    20551874.056           0.000  
   2162062.001           0.000    24292937.609           0.000  
   4232718.998           0.000    23606370.188           0.000  
   2398835.002           0.000    19944332.201           0.000  
  -5826006.003           0.000    21842961.625           0.000  
   1115847.000           0.000    20763215.426           0.000  
 98  9 30 11 32  3.9980000  0  6G 4G27G14G18G19G16
   3092234.998           0.000    20551193.751           0.000  
   2155401.002           0.000    24291670.070           0.000  
   4232287.002           0.000    23606287.988           0.000  
   2395904.999           0.000    19943781.022           0.000  
  -5831834.998           0.000    21841852.432           0.000  
   1113927.998           0.000    20762850.270           0.000  
 98  9 30 11 32  4.9980000  0  6G 4G27G14G18G19G16
   3088665.001           0.000    20550513.949           0.000  
   2148739.997           0.000    24290402.535           0.000  
   4231853.998           0.000    23606205.809           0.000  
   2392976.000           0.000    19943220.349           0.000  
  -5837663.001           0.000    21840743.215           0.000  
   1112009.001           0.000    20762485.133           0.000  
 98  9 30 11 32  5.9980000  0  6G 4G27G14G18G19G16
   3085094.997           0.000    20549835.288           0.000  
   2142080.002           0.000    24289135.002           0.000  
   4231422.002           0.000    23606123.666           0.000  
   2390047.001           0.000    19942662.205           0.000  
  -5843492.002           0.000    21839634.077           0.000  
   1110090.997           0.000    20762120.078           0.000  
 98  9 30 11 32  6.9980000  0  6G 4G27G14G18G19G16
   3081527.002           0.000    20549156.976           0.000  
   2135418.998           0.000    24287867.500           0.000  
   4230990.002           0.000    23606041.483           0.000  
   2387119.000           0.000    19942104.868           0.000  
  -5849319.999           0.000    21838524.971           0.000  
   1108172.999           0.000    20761755.053           0.000  
 98  9 30 11 32  7.9980000  0  6G 4G27G14G18G19G16
   3077958.002           0.000    20548477.616           0.000  
   2128757.000           0.000    24286599.906           0.000  
   4230557.003           0.000    23605959.215           0.000  
   2384190.001           0.000    19941545.265           0.000  
  -5855148.002           0.000    21837415.819           0.000  
   1106254.002           0.000    20761389.945           0.000  
 98  9 30 11 32  8.9980000  0  6G 4G27G14G18G19G16
   3074387.999           0.000    20547797.576           0.000  
   2122096.001           0.000    24285332.223           0.000  
   4230123.998           0.000    23605876.901           0.000  
   2381262.001           0.000    19940986.977           0.000  
  -5860975.999           0.000    21836306.685           0.000  
   1104335.998           0.000    20761024.815           0.000  
 98  9 30 11 32  9.9980000  0  6G 4G27G14G18G19G16
   3070819.998           0.000    20547113.014           0.000  
   2115433.998           0.000    24284064.432           0.000  
   4229690.999           0.000    23605794.533           0.000  
   2378333.002           0.000    19940429.064           0.000  
  -5866804.001           0.000    21835197.569           0.000  
   1102417.001           0.000    20760659.677           0.000  
 98  9 30 11 32 10.9980000  0  6G 4G27G14G18G19G16
   3067250.001           0.000    20546428.862           0.000  
   2108771.002           0.000    24282796.589           0.000  
   4229257.001           0.000    23605712.101           0.000  
   2375405.001           0.000    19939870.607           0.000  
  -5872633.002           0.000    21834088.381           0.000  
   1100497.998           0.000    20760294.493           0.000  
 98  9 30 11 32 11.9980000  0  6G 4G27G14G18G19G16
   3063679.997           0.000    20545747.405           0.000  
   2102108.000           0.000    24281528.567           0.000  
   4228822.999           0.000    23605629.527           0.000  
   2372476.002           0.000    19939313.520           0.000  
  -5878461.998           0.000    21832979.077           0.000  
   1098579.001           0.000    20759929.204           0.000  
 98  9 30 11 32 12.9980000  0  6G 4G27G14G18G19G16
   3060110.998           0.000    20545068.371           0.000  
   2095444.001           0.000    24280260.504           0.000  
   4228388.002           0.000    23605546.864           0.000  
   2369548.001           0.000    19938755.585           0.000  
  -5884290.999           0.000    21831869.796           0.000  
   1096659.999           0.000    20759563.935           0.000  
 98  9 30 11 32 13.9980000  0  6G 4G27G14G18G19G16
   3056538.998           0.000    20544389.912           0.000  
   2088780.001           0.000    24278992.382           0.000  
   4227954.000           0.000    23605464.223           0.000  
   2366619.002           0.000    19938199.720           0.000  
  -5890120.000           0.000    21830760.528           0.000  
   1094739.998           0.000    20759198.676           0.000  
 98  9 30 11 32 14.9980000  0  6G 4G27G14G18G19G16
   3052971.002           0.000    20543712.030           0.000  
   2082116.001           0.000    24277724.359           0.000  
   4227518.998           0.000    23605381.616           0.000  
   2363691.001           0.000    19937644.764           0.000  
  -5895948.002           0.000    21829651.354           0.000  
   1092821.001           0.000    20758833.468           0.000  
 98  9 30 11 32 15.9980000  0  6G 4G27G14G18G19G16
   3049404.998           0.000    20543035.121           0.000  
   2075453.000           0.000    24276456.296           0.000  
   4227085.001           0.000    23605298.997           0.000  
   2360763.999           0.000    19937087.918           0.000  
  -5901776.998           0.000    21828542.186           0.000  
   1090902.997           0.000    20758468.269           0.000  
 98  9 30 11 32 16.9980000  0  6G 4G27G14G18G19G16
   3045836.998           0.000    20542356.905           0.000  
   2068788.001           0.000    24275188.137           0.000  
   4226649.999           0.000    23605216.286           0.000  
   2357837.002           0.000    19936531.407           0.000  
  -5907605.001           0.000    21827433.058           0.000  
   1088984.000           0.000    20758103.065           0.000  
 98  9 30 11 32 17.9980000  0  6G 4G27G14G18G19G16
   3042270.000           0.000    20541678.625           0.000  
   2062122.998           0.000    24273919.813           0.000  
   4226214.000           0.000    23605133.429           0.000  
   2354909.001           0.000    19935974.785           0.000  
  -5913434.002           0.000    21826323.745           0.000  
   1087063.999           0.000    20757737.699           0.000  
 98  9 30 11 32 18.9980000  0  6G 4G27G14G18G19G16
   3038701.999           0.000    20541000.232           0.000  
   2055457.001           0.000    24272651.254           0.000  
   4225777.001           0.000    23605050.397           0.000  
   2351980.002           0.000    19935418.049           0.000  
  -5919264.001           0.000    21825214.340           0.000  
   1085143.999           0.000    20757372.216           0.000  
 98  9 30 11 32 19.9980000  0  6G 4G27G14G18G19G16
   3035133.000           0.000    20540320.992           0.000  
   2048790.001           0.000    24271382.647           0.000  
   4225339.998           0.000    23604967.254           0.000  
   2349052.002           0.000    19934861.351           0.000  
  -5925094.000           0.000    21824104.925           0.000  
   1083222.999           0.000    20757006.700           0.000  
 98  9 30 11 32 20.9980000  0  6G 4G27G14G18G19G16
   3031564.999           0.000    20539642.853           0.000  
   2042123.999           0.000    24270114.044           0.000  
   4224903.000           0.000    23604884.114           0.000  
   2346124.001           0.000    19934304.681           0.000  
  -5930923.001           0.000    21822995.551           0.000  
   1081302.999           0.000    20756641.234           0.000  
 98  9 30 11 32 21.9980000  0  6G 4G27G14G18G19G16
   3027998.002           0.000    20538964.296           0.000  
   2035458.002           0.000    24268845.529           0.000  
   4224467.000           0.000    23604801.070           0.000  
   2343196.999           0.000    19933748.761           0.000  
  -5936752.002           0.000    21821886.284           0.000  
   1079384.001           0.000    20756275.899           0.000  
 98  9 30 11 32 22.9980000  0  6G 4G27G14G18G19G16
   3024433.002           0.000    20538286.264           0.000  
   2028792.000           0.000    24267577.009           0.000  
   4224031.000           0.000    23604718.055           0.000  
   2340270.002           0.000    19933192.575           0.000  
  -5942579.999           0.000    21820777.124           0.000  
   1077464.001           0.000    20755910.611           0.000  
 98  9 30 11 32 23.9980000  0  6G 4G27G14G18G19G16
   3020869.000           0.000    20537609.308           0.000  
   2022125.998           0.000    24266308.482           0.000  
   4223594.002           0.000    23604635.017           0.000  
   2337343.998           0.000    19932635.748           0.000  
  -5948408.002           0.000    21819668.028           0.000  
   1075544.998           0.000    20755545.395           0.000  
 98  9 30 11 32 24.9980000  0  6G 4G27G14G18G19G16
   3017304.998           0.000    20536932.379           0.000  
   2015460.001           0.000    24265039.958           0.000  
   4223158.002           0.000    23604551.965           0.000  
   2334418.000           0.000    19932079.393           0.000  
  -5954236.998           0.000    21818558.925           0.000  
   1073626.001           0.000    20755180.168           0.000  
 98  9 30 11 32 25.9980000  0  6G 4G27G14G18G19G16
   3013739.998           0.000    20536254.027           0.000  
   2008793.001           0.000    24263771.367           0.000  
   4222720.998           0.000    23604468.851           0.000  
   2331492.001           0.000    19931522.655           0.000  
  -5960065.000           0.000    21817449.795           0.000  
   1071706.999           0.000    20754814.949           0.000  
 98  9 30 11 32 26.9980000  0  6G 4G27G14G18G19G16
   3010177.998           0.000    20535576.202           0.000  
   2002126.999           0.000    24262502.806           0.000  
   4222284.999           0.000    23604385.796           0.000  
   2328567.001           0.000    19930966.053           0.000  
  -5965891.999           0.000    21816340.775           0.000  
   1069789.000           0.000    20754449.819           0.000  
 98  9 30 11 32 27.9980000  0  6G 4G27G14G18G19G16
   3006615.000           0.000    20534898.036           0.000  
   1995459.998           0.000    24261234.290           0.000  
   4221848.000           0.000    23604302.749           0.000  
   2325642.001           0.000    19930409.136           0.000  
  -5971720.001           0.000    21815231.792           0.000  
   1067869.998           0.000    20754084.723           0.000  
 98  9 30 11 32 28.9980000  0  6G 4G27G14G18G19G16
   3003053.000           0.000    20534220.169           0.000  
   1988792.998           0.000    24259965.705           0.000  
   4221412.001           0.000    23604219.677           0.000  
   2322717.001           0.000    19929852.482           0.000  
  -5977547.000           0.000    21814122.828           0.000  
   1065951.999           0.000    20753719.652           0.000  
 98  9 30 11 32 29.9980000  0  6G 4G27G14G18G19G16
   2999491.000           0.000    20533542.380           0.000  
   1982127.001           0.000    24258697.188           0.000  
   4220976.001           0.000    23604136.715           0.000  
   2319792.999           0.000    19929296.349           0.000  
  -5983373.999           0.000    21813013.991           0.000  
   1064034.001           0.000    20753354.662           0.000  
 98  9 30 11 32 30.9980000  0  6G 4G27G14G18G19G16
   2995932.001           0.000    20532864.650           0.000  
   1975460.999           0.000    24257428.587           0.000  
   4220540.001           0.000    23604053.718           0.000  
   2316870.002           0.000    19928740.144           0.000  
  -5989199.999           0.000    21811905.189           0.000  
   1062116.002           0.000    20752989.670           0.000  
 98  9 30 11 32 31.9980000  0  6G 4G27G14G18G19G16
   2992371.000           0.000    20532186.291           0.000  
   1968793.999           0.000    24256159.954           0.000  
   4220102.998           0.000    23603970.701           0.000  
   2313946.000           0.000    19928183.839           0.000  
  -5995026.998           0.000    21810796.376           0.000  
   1060197.998           0.000    20752624.674           0.000  
 98  9 30 11 32 32.9980000  0  6G 4G27G14G18G19G16
   2988809.999           0.000    20531508.738           0.000  
   1962126.998           0.000    24254891.336           0.000  
   4219666.998           0.000    23603887.677           0.000  
   2311023.002           0.000    19927627.542           0.000  
  -6000852.998           0.000    21809687.663           0.000  
   1058280.998           0.000    20752259.760           0.000  
 98  9 30 11 32 33.9980000  0  6G 4G27G14G18G19G16
   2985251.000           0.000    20530831.716           0.000  
   1955459.998           0.000    24253622.653           0.000  
   4219230.000           0.000    23603804.571           0.000  
   2308099.999           0.000    19927071.149           0.000  
  -6006680.002           0.000    21808578.941           0.000  
   1056363.000           0.000    20751894.787           0.000  
 98  9 30 11 32 34.9980000  0  6G 4G27G14G18G19G16
   2981689.999           0.000    20530154.210           0.000  
   1948791.999           0.000    24252353.855           0.000  
   4218793.001           0.000    23603721.371           0.000  
   2305177.001           0.000    19926514.998           0.000  
  -6012506.003           0.000    21807470.137           0.000  
   1054445.001           0.000    20751529.721           0.000  
 98  9 30 11 32 35.9980000  0  6G 4G27G14G18G19G16
   2978128.997           0.000    20529476.829           0.000  
   1942124.000           0.000    24251085.019           0.000  
   4218354.999           0.000    23603638.133           0.000  
   2302253.000           0.000    19925958.914           0.000  
  -6018333.002           0.000    21806361.327           0.000  
   1052527.002           0.000    20751164.682           0.000  
 98  9 30 11 32 36.9980000  0  6G 4G27G14G18G19G16
   2974569.998           0.000    20528799.602           0.000  
   1935456.001           0.000    24249816.143           0.000  
   4217918.001           0.000    23603554.860           0.000  
   2299330.002           0.000    19925402.677           0.000  
  -6024160.000           0.000    21805252.493           0.000  
   1050608.999           0.000    20750799.621           0.000  
 98  9 30 11 32 37.9980000  0  6G 4G27G14G18G19G16
   2971011.998           0.000    20528121.834           0.000  
   1928788.002           0.000    24248547.188           0.000  
   4217479.999           0.000    23603471.543           0.000  
   2296408.002           0.000    19924846.621           0.000  
  -6029986.001           0.000    21804143.680           0.000  
   1048691.000           0.000    20750434.581           0.000  
 98  9 30 11 32 38.9970000  0  6G 4G27G14G18G19G16
   4542878.002           0.000    20827237.320           0.000  
   3497545.999           0.000    24547071.919           0.000  
   5792463.001           0.000    23903180.772           0.000  
   3868908.000           0.000    20224083.225           0.000  
  -4460386.998           0.000    22102828.509           0.000  
   2622194.000           0.000    21049862.362           0.000  
 98  9 30 11 32 39.9970000  0  6G 4G27G14G18G19G16
   4539318.997           0.000    20826558.899           0.000  
   3490877.002           0.000    24545802.956           0.000  
   5792024.999           0.000    23903097.453           0.000  
   3865986.000           0.000    20223527.428           0.000  
  -4466212.999           0.000    22101719.863           0.000  
   2620276.001           0.000    21049497.370           0.000  
 98  9 30 11 32 40.9970000  0  6G 4G27G14G18G19G16
   4535759.998           0.000    20825881.169           0.000  
   3484207.999           0.000    24544533.941           0.000  
   5791587.002           0.000    23903014.137           0.000  
   3863064.001           0.000    20222971.461           0.000  
  -4472038.999           0.000    22100611.196           0.000  
   2618359.001           0.000    21049132.407           0.000  
 98  9 30 11 32 41.9970000  0  6G 4G27G14G18G19G16
   4532200.999           0.000    20825203.956           0.000  
   3477539.002           0.000    24543264.884           0.000  
   5791149.000           0.000    23902930.718           0.000  
   3860142.002           0.000    20222415.424           0.000  
  -4477864.999           0.000    22099502.509           0.000  
   2616441.002           0.000    21048767.398           0.000  
 98  9 30 11 32 42.9970000  0  6G 4G27G14G18G19G16
   4528645.001           0.000    20824527.639           0.000  
   3470869.999           0.000    24541995.802           0.000  
   5790710.998           0.000    23902847.364           0.000  
   3857221.001           0.000    20221859.533           0.000  
  -4483691.000           0.000    22098393.930           0.000  
   2614522.998           0.000    21048402.462           0.000  
 98  9 30 11 32 43.9970000  0  6G 4G27G14G18G19G16
   4525090.001           0.000    20823851.724           0.000  
   3464199.998           0.000    24540726.731           0.000  
   5790271.998           0.000    23902763.929           0.000  
   3854300.000           0.000    20221303.793           0.000  
  -4489516.001           0.000    22097285.317           0.000  
   2612605.000           0.000    21048037.508           0.000  
 98  9 30 11 32 44.9970000  0  6G 4G27G14G18G19G16
   4521534.002           0.000    20823174.884           0.000  
   3457531.001           0.000    24539457.516           0.000  
   5789834.001           0.000    23902680.480           0.000  
   3851378.999           0.000    20220748.093           0.000  
  -4495342.002           0.000    22096176.735           0.000  
   2610687.001           0.000    21047672.530           0.000  
 98  9 30 11 32 45.9970000  0  6G 4G27G14G18G19G16
   4517977.000           0.000    20822498.355           0.000  
   3450861.000           0.000    24538188.320           0.000  
   5789395.001           0.000    23902597.054           0.000  
   3848457.998           0.000    20220192.193           0.000  
  -4501166.998           0.000    22095068.154           0.000  
   2608770.001           0.000    21047307.575           0.000  
 98  9 30 11 32 46.9970000  0  6G 4G27G14G18G19G16
   4514421.002           0.000    20821821.252           0.000  
   3444190.000           0.000    24536919.037           0.000  
   5788956.000           0.000    23902513.570           0.000  
   3845537.002           0.000    20219636.553           0.000  
  -4506992.999           0.000    22093959.594           0.000  
   2606851.997           0.000    21046942.615           0.000  
 98  9 30 11 32 47.9970000  0  6G 4G27G14G18G19G16
   4510864.998           0.000    20821133.101           0.000  
   3437519.999           0.000    24535649.807           0.000  
   5788517.999           0.000    23902430.107           0.000  
   3842617.000           0.000    20219080.751           0.000  
  -4512818.001           0.000    22092851.120           0.000  
   2604933.999           0.000    21046577.702           0.000  
 98  9 30 11 32 48.9970000  0  6G 4G27G14G18G19G16
   4507311.002           0.000    20820458.148           0.000  
   3430849.998           0.000    24534380.484           0.000  
   5788078.998           0.000    23902346.586           0.000  
   3839695.999           0.000    20218524.870           0.000  
  -4518643.002           0.000    22091742.627           0.000  
   2603016.998           0.000    21046212.778           0.000  
 98  9 30 11 32 49.9970000  0  6G 4G27G14G18G19G16
   4503757.000           0.000    20819785.971           0.000  
   3424178.999           0.000    24533111.133           0.000  
   5787639.998           0.000    23902263.054           0.000  
   3836776.001           0.000    20217969.055           0.000  
  -4524467.999           0.000    22090634.170           0.000  
   2601099.000           0.000    21045847.797           0.000  
 98  9 30 11 32 50.9970000  0  6G 4G27G14G18G19G16
   4500203.997           0.000    20819111.716           0.000  
   3417508.998           0.000    24531841.853           0.000  
   5787201.003           0.000    23902179.554           0.000  
   3833856.997           0.000    20217413.591           0.000  
  -4530293.001           0.000    22089525.818           0.000  
   2599182.000           0.000    21045482.861           0.000  
 98  9 30 11 32 51.9970000  0  6G 4G27G14G18G19G16
   4496651.998           0.000    20818435.508           0.000  
   3410837.998           0.000    24530572.470           0.000  
   5786762.002           0.000    23902096.044           0.000  
   3830937.999           0.000    20216858.182           0.000  
  -4536116.999           0.000    22088417.486           0.000  
   2597265.000           0.000    21045117.934           0.000  
 98  9 30 11 32 52.9970000  0  6G 4G27G14G18G19G16
   4493099.000           0.000    20817758.842           0.000  
   3404166.000           0.000    24529302.936           0.000  
   5786321.998           0.000    23902012.337           0.000  
   3828018.001           0.000    20216302.450           0.000  
  -4541942.001           0.000    22087309.075           0.000  
   2595347.001           0.000    21044752.928           0.000  
 98  9 30 11 32 53.9970000  0  6G 4G27G14G18G19G16
   4489548.998           0.000    20817082.846           0.000  
   3397494.002           0.000    24528033.245           0.000  
   5785881.999           0.000    23901928.521           0.000  
   3825097.999           0.000    20215746.412           0.000  
  -4547768.001           0.000    22086200.619           0.000  
   2593429.002           0.000    21044387.837           0.000  
 98  9 30 11 32 54.9970000  0  6G 4G27G14G18G19G16
   4485996.998           0.000    20816406.355           0.000  
   3390821.999           0.000    24526763.607           0.000  
   5785442.000           0.000    23901844.737           0.000  
   3822179.000           0.000    20215190.440           0.000  
  -4553592.998           0.000    22085092.168           0.000  
   2591510.998           0.000    21044022.792           0.000  
 98  9 30 11 32 55.9970000  0  6G 4G27G14G18G19G16
   4482444.001           0.000    20815729.739           0.000  
   3384150.001           0.000    24525494.001           0.000  
   5785002.001           0.000    23901761.020           0.000  
   3819260.001           0.000    20214627.995           0.000  
  -4559417.001           0.000    22083983.832           0.000  
   2589593.000           0.000    21043657.798           0.000  
 98  9 30 11 32 56.9970000  0  5G27G14G18G19G16
   3377477.998           0.000    24524224.337           0.000  
   5784562.003           0.000    23901677.275           0.000  
   3816341.002           0.000    20214069.697           0.000  
  -4565241.998           0.000    22082875.492           0.000  
   2587675.001           0.000    21043292.796           0.000  
 98  9 30 11 32 57.9970000  0  4G27G14G19G16
   3370805.001           0.000    24522954.682           0.000  
   5784121.998           0.000    23901593.536           0.000  
  -4571066.001           0.000    22081767.211           0.000  
   2585758.001           0.000    21042927.876           0.000  
 98  9 30 11 32 58.9970000  0  4G27G14G19G16
   3364132.998           0.000    24521684.968           0.000  
   5783682.000           0.000    23901509.804           0.000  
  -4576890.000           0.000    22080658.964           0.000  
   2583841.001           0.000    21042562.968           0.000  
 98  9 30 11 32 59.9970000  0  4G27G14G19G16
   3357461.000           0.000    24520415.265           0.000  
   5783242.001           0.000    23901426.064           0.000  
  -4582713.998           0.000    22079550.735           0.000  
   2581924.001           0.000    21042198.054           0.000  
 98  9 30 11 33  0.9970000  0  4G27G14G19G16
   3350787.998           0.000    24519145.554           0.000  
   5782802.002           0.000    23901342.322           0.000  
  -4588537.003           0.000    22078442.543           0.000  
   2580007.001           0.000    21041833.179           0.000  
 98  9 30 11 33  1.9970000  0  4G27G14G19G16
   3344116.001           0.000    24517875.874           0.000  
   5782361.998           0.000    23901258.586           0.000  
  -4594360.002           0.000    22077334.443           0.000  
   2578090.001           0.000    21041468.369           0.000  
 98  9 30 11 33  2.9970000  0  4G27G14G19G16
   3337442.999           0.000    24516606.102           0.000  
   5781921.999           0.000    23901174.798           0.000  
  -4600183.002           0.000    22076226.331           0.000  
   2576173.999           0.000    21041103.514           0.000  
 98  9 30 11 33  3.9970000  0  4G27G14G19G16
   3330770.002           0.000    24515336.233           0.000  
   5781482.000           0.000    23901090.950           0.000  
  -4606006.002           0.000    22075118.238           0.000  
   2574256.999           0.000    21040738.653           0.000  
 98  9 30 11 33  4.9970000  0  4G27G14G19G16
   3324096.002           0.000    24514066.292           0.000  
   5781041.003           0.000    23901006.990           0.000  
  -4611830.000           0.000    22074010.128           0.000  
   2572339.998           0.000    21040373.718           0.000  
 98  9 30 11 33  5.9970000  0  4G27G14G19G16
   3317422.002           0.000    24512796.355           0.000  
   5780600.999           0.000    23900923.154           0.000  
  -4617653.000           0.000    22072902.112           0.000  
   2570422.998           0.000    21040008.891           0.000  
 98  9 30 11 33  6.9970000  0  4G27G14G19G16
   3310749.000           0.000    24511526.357           0.000  
   5780160.001           0.000    23900839.263           0.000  
  -4623475.999           0.000    22071794.097           0.000  
   2568505.998           0.000    21039644.061           0.000  
 98  9 30 11 33  7.9970000  0  4G27G14G19G16
   3304075.000           0.000    24510256.321           0.000  
   5779718.999           0.000    23900755.360           0.000  
  -4629298.001           0.000    22070686.117           0.000  
   2566590.002           0.000    21039279.240           0.000  
 98  9 30 11 33  8.9970000  0  4G27G14G19G16
   3297400.002           0.000    24508986.223           0.000  
   5779278.001           0.000    23900671.437           0.000  
  -4635121.000           0.000    22069578.191           0.000  
   2564673.002           0.000    21038914.454           0.000  
 98  9 30 11 33  9.9970000  0  4G27G14G19G16
   3290726.002           0.000    24507716.090           0.000  
   5778836.999           0.000    23900587.538           0.000  
  -4640943.001           0.000    22068470.313           0.000  
   2562756.001           0.000    21038549.709           0.000  
 98  9 30 11 33 10.9970000  0  4G27G14G19G16
   3284050.998           0.000    24506445.860           0.000  
   5778396.001           0.000    23900503.508           0.000  
  -4646766.001           0.000    22067362.347           0.000  
   2560839.001           0.000    21038184.863           0.000  
 98  9 30 11 33 11.9970000  0  4G27G14G19G16
   3277375.999           0.000    24505175.576           0.000  
   5777954.000           0.000    23900419.423           0.000  
  -4652588.002           0.000    22066254.429           0.000  
   2558922.001           0.000    21037820.042           0.000  
 98  9 30 11 33 12.9970000  0  4G27G14G19G16
   3270700.002           0.000    24503905.327           0.000  
   5777512.998           0.000    23900335.306           0.000  
  -4658409.998           0.000    22065146.516           0.000  
   2557005.999           0.000    21037455.268           0.000  
 98  9 30 11 33 13.9970000  0  4G27G14G19G16
   3264024.998           0.000    24502634.963           0.000  
   5777071.002           0.000    23900251.234           0.000  
  -4664232.998           0.000    22064038.586           0.000  
   2555088.999           0.000    21037090.462           0.000  
 98  9 30 11 33 14.9970000  0  5G27G14G18G19G16
   3257349.001           0.000    24501364.501           0.000  
   5776629.001           0.000    23900167.123           0.000  
   4722169.002           0.000    20204085.976           0.000  
  -4670054.999           0.000    22062930.683           0.000  
   2553171.999           0.000    21036725.626           0.000  
 98  9 30 11 33 15.9970000  0  5G27G14G18G19G16
   3250672.999           0.000    24500094.031           0.000  
   5776187.000           0.000    23900082.976           0.000  
   4719255.999           0.000    20203532.516           0.000  
  -4675877.001           0.000    22061822.811           0.000  
   2551254.999           0.000    21036360.795           0.000  
 98  9 30 11 33 16.9970000  0  5G27G14G18G19G16
   3243995.998           0.000    24498823.515           0.000  
   5775744.999           0.000    23899998.811           0.000  
   4716344.000           0.000    20202977.066           0.000  
  -4681699.002           0.000    22060714.958           0.000  
   2549337.999           0.000    21035996.002           0.000  
 98  9 30 11 33 17.9970000  0  5G27G14G18G19G16
   3237320.001           0.000    24497552.929           0.000  
   5775301.999           0.000    23899914.589           0.000  
   4713428.002           0.000    20202421.157           0.000  
  -4687520.998           0.000    22059607.138           0.000  
   2547420.999           0.000    21035631.203           0.000  
 98  9 30 11 33 18.9970000  0  5G27G14G18G19G16
   3230643.000           0.000    24496282.329           0.000  
   5774859.998           0.000    23899830.315           0.000  
   4710515.998           0.000    20201867.394           0.000  
  -4693342.001           0.000    22058499.325           0.000  
   2545503.999           0.000    21035266.374           0.000  
 98  9 30 11 33 19.9970000  0  5G27G14G18G19G16
   3223965.001           0.000    24495011.646           0.000  
   5774416.999           0.000    23899745.995           0.000  
   4707603.000           0.000    20201318.014           0.000  
  -4699164.002           0.000    22057391.494           0.000  
   2543586.998           0.000    21034901.534           0.000  
 98  9 30 11 33 20.9970000  0  5G27G14G18G19G16
   3217287.002           0.000    24493740.848           0.000  
   5773973.999           0.000    23899661.594           0.000  
   4704688.999           0.000    20200764.083           0.000  
  -4704985.998           0.000    22056283.655           0.000  
   2541669.998           0.000    21034536.673           0.000  
 98  9 30 11 33 21.9970000  0  5G27G14G18G19G16
   3210608.997           0.000    24492469.958           0.000  
   5773530.002           0.000    23899577.167           0.000  
   4701776.001           0.000    20200207.718           0.000  
  -4710807.999           0.000    22055175.808           0.000  
   2539752.000           0.000    21034171.743           0.000  
 98  9 30 11 33 22.9970000  0  5G27G14G18G19G16
   3203930.000           0.000    24491198.994           0.000  
   5773085.998           0.000    23899492.723           0.000  
   4698861.002           0.000    20199652.935           0.000  
  -4716630.000           0.000    22054067.988           0.000  
   2537834.001           0.000    21033806.845           0.000  
 98  9 30 11 33 23.9970000  0  5G27G14G18G19G16
   3197251.002           0.000    24489928.039           0.000  
   5772642.000           0.000    23899408.220           0.000  
   4695947.999           0.000    20199096.904           0.000  
  -4722452.002           0.000    22052960.165           0.000  
   2535917.001           0.000    21033441.916           0.000  
 98  9 30 11 33 24.9970000  0  5G27G14G18G19G16
   3190572.997           0.000    24488657.111           0.000  
   5772199.001           0.000    23899323.844           0.000  
   4693036.000           0.000    20198543.449           0.000  
  -4728272.999           0.000    22051852.499           0.000  
   2534000.001           0.000    21033077.097           0.000  
 98  9 30 11 33 25.9970000  0  5G27G14G18G19G16
   3183894.000           0.000    24487386.243           0.000  
   5771756.001           0.000    23899239.539           0.000  
   4690124.999           0.000    20197989.537           0.000  
  -4734094.002           0.000    22050744.962           0.000  
   2532083.001           0.000    21032712.433           0.000  
 98  9 30 11 33 26.9970000  0  5G27G14G18G19G16
   3177216.000           0.000    24486115.398           0.000  
   5771313.002           0.000    23899155.266           0.000  
   4687213.000           0.000    20197434.594           0.000  
  -4739914.001           0.000    22049637.459           0.000  
   2530166.999           0.000    21032347.848           0.000  
 98  9 30 11 33 27.9970000  0  5G27G14G18G19G16
   3170538.001           0.000    24484844.494           0.000  
   5770870.002           0.000    23899070.934           0.000  
   4684302.000           0.000    20196880.440           0.000  
  -4745733.002           0.000    22048529.986           0.000  
   2528251.002           0.000    21031983.258           0.000  
 98  9 30 11 33 28.9970000  0  4G27G14G19G16
   3163858.998           0.000    24483573.545           0.000  
   5770425.999           0.000    23898986.588           0.000  
  -4751553.001           0.000    22047422.571           0.000  
   2526335.001           0.000    21031618.664           0.000  
 98  9 30 11 33 29.9970000  0  4G27G14G19G16
   3157180.001           0.000    24482302.561           0.000  
   5769983.000           0.000    23898902.257           0.000  
  -4757373.000           0.000    22046315.223           0.000  
   2524418.999           0.000    21031254.088           0.000  
 98  9 30 11 33 30.9970000  0  4G27G14G19G16
   3150502.001           0.000    24481031.583           0.000  
   5769540.000           0.000    23898817.982           0.000  
  -4763192.000           0.000    22045207.919           0.000  
   2522502.997           0.000    21030889.556           0.000  
 98  9 30 11 33 31.9970000  0  4G27G14G19G16
   3143822.000           0.000    24479760.542           0.000  
   5769097.001           0.000    23898733.600           0.000  
  -4769011.001           0.000    22044100.599           0.000  
   2520587.001           0.000    21030525.005           0.000  
 98  9 30 11 33 32.9970000  0  4G27G14G19G16
   3137143.002           0.000    24478489.430           0.000  
   5768653.003           0.000    23898649.220           0.000  
  -4774830.002           0.000    22042993.335           0.000  
   2518670.999           0.000    21030160.447           0.000  
 98  9 30 11 33 33.9970000  0  5G27G14G18G19G16
   3130463.001           0.000    24477218.262           0.000  
   5768209.000           0.000    23898564.831           0.000  
   4723892.002           0.000    20193557.281           0.000  
  -4780649.002           0.000    22041886.053           0.000  
   2516754.997           0.000    21029795.903           0.000  
 98  9 30 11 33 34.9970000  0  4G27G14G19G16
   3123783.000           0.000    24475947.016           0.000  
   5767766.000           0.000    23898480.341           0.000  
  -4786466.999           0.000    22040778.808           0.000  
   2514839.001           0.000    21029431.334           0.000  
 98  9 30 11 33 35.9970000  0  5G27G14G18G19G16
   3117102.998           0.000    24474675.768           0.000  
   5767320.998           0.000    23898395.842           0.000  
   4718074.998           0.000    20192441.018           0.000  
  -4792286.000           0.000    22039671.585           0.000  
   2512922.999           0.000    21029066.773           0.000  
 98  9 30 11 33 36.9970000  0  4G27G14G19G16
   3110421.998           0.000    24473404.467           0.000  
   5766877.000           0.000    23898311.385           0.000  
  -4798105.000           0.000    22038564.429           0.000  
   2511006.998           0.000    21028702.274           0.000  
 98  9 30 11 33 37.9970000  0  4G27G14G19G16
   3103740.998           0.000    24472133.104           0.000  
   5766433.003           0.000    23898226.913           0.000  
  -4803923.003           0.000    22037457.251           0.000  
   2509091.001           0.000    21028337.722           0.000  
 98  9 30 11 33 38.9970000  0  4G27G14G19G16
   3097059.999           0.000    24470861.709           0.000  
   5765988.999           0.000    23898142.415           0.000  
  -4809740.999           0.000    22036350.125           0.000  
   2507174.999           0.000    21027973.232           0.000  
 98  9 30 11 33 39.9970000  0  4G27G14G19G16
   3090378.999           0.000    24469590.275           0.000  
   5765543.998           0.000    23898057.890           0.000  
  -4815559.002           0.000    22035243.056           0.000  
   2505258.998           0.000    21027608.724           0.000  
 98  9 30 11 33 40.9970000  0  4G27G14G19G16
   3083697.999           0.000    24468318.803           0.000  
   5765100.000           0.000    23897973.324           0.000  
  -4821376.999           0.000    22034135.988           0.000  
   2503344.000           0.000    21027244.220           0.000  
 98  9 30 11 33 41.9970000  0  5G27G14G18G19G16
   3077016.001           0.000    24467047.250           0.000  
   5764654.998           0.000    23897888.725           0.000  
   4722238.001           0.000    20189132.080           0.000  
  -4827195.001           0.000    22033028.964           0.000  
   2501427.998           0.000    21026879.723           0.000  
 98  9 30 11 33 42.9970000  0  5G27G14G18G19G16
   3070334.002           0.000    24465775.697           0.000  
   5764210.002           0.000    23897804.106           0.000  
   4719330.999           0.000    20188574.624           0.000  
  -4833011.999           0.000    22031921.934           0.000  
   2499512.002           0.000    21026515.240           0.000  
 98  9 30 11 33 43.9970000  0  5G27G14G18G19G16
   3063651.000           0.000    24464503.934           0.000  
   5763765.000           0.000    23897719.329           0.000  
   4716422.999           0.000    20188017.312           0.000  
  -4838830.001           0.000    22030814.786           0.000  
   2497596.000           0.000    21026150.590           0.000  
 98  9 30 11 33 44.9970000  0  5G27G14G18G19G16
   3056967.000           0.000    24463232.005           0.000  
   5763318.001           0.000    23897634.400           0.000  
   4713514.001           0.000    20187462.989           0.000  
  -4844649.002           0.000    22029707.591           0.000  
   2495679.000           0.000    21025785.821           0.000  
 98  9 30 11 33 45.9970000  0  5G27G14G18G19G16
   3050282.999           0.000    24461959.982           0.000  
   5762872.001           0.000    23897549.425           0.000  
   4710606.999           0.000    20186911.170           0.000  
  -4850468.003           0.000    22028600.385           0.000  
   2493761.001           0.000    21025421.050           0.000  
 98  9 30 11 33 46.9970000  0  5G27G14G18G19G16
   3043598.999           0.000    24460687.952           0.000  
   5762425.003           0.000    23897464.458           0.000  
   4707698.999           0.000    20186362.077           0.000  
  -4856285.999           0.000    22027493.230           0.000  
   2491844.001           0.000    21025056.320           0.000  
 98  9 30 11 33 47.9970000  0  5G27G14G18G19G16
   3036914.000           0.000    24459415.849           0.000  
   5761977.999           0.000    23897379.437           0.000  
   4704790.999           0.000    20185809.175           0.000  
  -4862104.002           0.000    22026386.007           0.000  
   2489927.001           0.000    21024691.533           0.000  
 98  9 30 11 33 48.9970000  0  5G27G14G18G19G16
   3030229.001           0.000    24458143.733           0.000  
   5761531.000           0.000    23897294.396           0.000  
   4701882.001           0.000    20185254.422           0.000  
  -4867921.999           0.000    22025278.891           0.000  
   2488010.001           0.000    21024326.814           0.000  
 98  9 30 11 33 49.9970000  0  5G27G14G18G19G16
   3023545.000           0.000    24456871.642           0.000  
   5761084.002           0.000    23897209.405           0.000  
   4698974.999           0.000    20184700.781           0.000  
  -4873740.001           0.000    22024171.813           0.000  
   2486093.999           0.000    21023962.152           0.000  
 98  9 30 11 33 50.9970000  0  5G27G14G18G19G16
   3016860.001           0.000    24455599.464           0.000  
   5760636.998           0.000    23897124.380           0.000  
   4696069.001           0.000    20184148.959           0.000  
  -4879557.998           0.000    22023064.751           0.000  
   2484176.999           0.000    21023597.451           0.000  
 98  9 30 11 33 51.9970000  0  5G27G14G18G19G16
   3010174.997           0.000    24454327.278           0.000  
   5760189.999           0.000    23897039.384           0.000  
   4693162.998           0.000    20183597.328           0.000  
  -4885375.001           0.000    22021957.794           0.000  
   2482260.997           0.000    21023232.830           0.000  
 98  9 30 11 33 52.9970000  0  5G27G14G18G19G16
   3003489.998           0.000    24453055.193           0.000  
   5759743.999           0.000    23896954.517           0.000  
   4690257.001           0.000    20183045.502           0.000  
  -4891191.001           0.000    22020850.998           0.000  
   2480345.001           0.000    21022868.335           0.000  
 98  9 30 11 33 53.9970000  0  5G27G14G18G19G16
   2996804.999           0.000    24451783.101           0.000  
   5759297.999           0.000    23896869.633           0.000  
   4687353.000           0.000    20182493.335           0.000  
  -4897007.001           0.000    22019744.242           0.000  
   2478429.998           0.000    21022503.898           0.000  
 98  9 30 11 33 54.9970000  0  5G27G14G18G19G16
   2990120.999           0.000    24450511.033           0.000  
   5758851.001           0.000    23896784.797           0.000  
   4684447.002           0.000    20181941.617           0.000  
  -4902821.998           0.000    22018637.645           0.000  
   2476515.000           0.000    21022139.535           0.000  
 98  9 30 11 33 55.9970000  0  5G27G14G18G19G16
   2983436.000           0.000    24449238.970           0.000  
   5758405.000           0.000    23896699.939           0.000  
   4681543.001           0.000    20181389.467           0.000  
  -4908637.998           0.000    22017531.036           0.000  
   2474600.002           0.000    21021775.184           0.000  
 98  9 30 11 33 56.9970000  0  5G27G14G18G19G16
   2976752.000           0.000    24447966.860           0.000  
   5757959.000           0.000    23896615.071           0.000  
   4678638.002           0.000    20180837.040           0.000  
  -4914452.999           0.000    22016424.457           0.000  
   2472684.998           0.000    21021410.851           0.000  
 98  9 30 11 33 57.9970000  0  5G27G14G18G19G16
   2970066.002           0.000    24446694.653           0.000  
   5757512.002           0.000    23896530.082           0.000  
   4675734.999           0.000    20180285.053           0.000  
  -4920268.001           0.000    22015317.817           0.000  
   2470769.002           0.000    21021046.455           0.000  
 98  9 30 11 33 58.9970000  0  5G27G14G18G19G16
   2963380.998           0.000    24445422.395           0.000  
   5757064.998           0.000    23896445.031           0.000  
   4672830.998           0.000    20179732.543           0.000  
  -4926083.002           0.000    22014211.251           0.000  
   2468853.999           0.000    21020682.059           0.000  
 98  9 30 11 33 59.9970000  0  5G27G14G18G19G16
   2956695.001           0.000    24444150.077           0.000  
   5756617.999           0.000    23896359.970           0.000  
   4669927.002           0.000    20179179.895           0.000  
  -4931897.998           0.000    22013104.641           0.000  
   2466939.001           0.000    21020317.663           0.000  
 98  9 30 11 34  0.9970000  0  5G27G14G18G19G16
   2950007.999           0.000    24442877.691           0.000  
   5756170.002           0.000    23896274.793           0.000  
   4667023.002           0.000    20178627.539           0.000  
  -4937713.000           0.000    22011998.038           0.000  
   2465023.997           0.000    21019953.213           0.000  
 98  9 30 11 34  1.9970000  0  5G27G14G18G19G16
   2943322.002           0.000    24441605.251           0.000  
   5755722.999           0.000    23896189.603           0.000  
   4664119.999           0.000    20178075.274           0.000  
  -4943528.002           0.000    22010891.448           0.000  
   2463108.001           0.000    21019588.783           0.000  
 98  9 30 11 34  2.9970000  0  5G27G14G18G19G16
   2936635.001           0.000    24440332.783           0.000  
   5755275.001           0.000    23896104.419           0.000  
   4661215.998           0.000    20177522.966           0.000  
  -4949342.998           0.000    22009784.899           0.000  
   2461192.998           0.000    21019224.365           0.000  
 98  9 30 11 34  3.9970000  0  5G27G14G18G19G16
   2929948.000           0.000    24439060.315           0.000  
   5754826.999           0.000    23896019.238           0.000  
   4658313.001           0.000    20176970.652           0.000  
  -4955157.999           0.000    22008678.374           0.000  
   2459278.000           0.000    21018859.978           0.000  
 98  9 30 11 34  4.9970000  0  5G27G14G18G19G16
   2923260.999           0.000    24437787.827           0.000  
   5754380.001           0.000    23895934.042           0.000  
   4655409.999           0.000    20176418.042           0.000  
  -4960972.002           0.000    22007571.915           0.000  
   2457363.002           0.000    21018495.598           0.000  
 98  9 30 11 34  5.9970000  0  5G27G14G18G19G16
   2916573.998           0.000    24436515.249           0.000  
   5753931.000           0.000    23895848.768           0.000  
   4652507.001           0.000    20175866.022           0.000  
  -4966786.000           0.000    22006465.449           0.000  
   2455447.999           0.000    21018131.198           0.000  
 98  9 30 11 34  6.9970000  0  5G27G14G18G19G16
   2909885.998           0.000    24435242.635           0.000  
   5753482.998           0.000    23895763.453           0.000  
   4649604.997           0.000    20175314.082           0.000  
  -4972599.998           0.000    22005359.004           0.000  
   2453533.001           0.000    21017766.830           0.000  
 98  9 30 11 34  7.9970000  0  5G27G14G18G19G16
   2903197.999           0.000    24433970.037           0.000  
   5753035.001           0.000    23895678.201           0.000  
   4646702.000           0.000    20174762.009           0.000  
  -4978414.001           0.000    22004252.585           0.000  
   2451617.997           0.000    21017402.467           0.000  
 98  9 30 11 34  8.9970000  0  5G27G14G18G19G16
   2896510.997           0.000    24432697.428           0.000  
   5752586.998           0.000    23895592.961           0.000  
   4643801.000           0.000    20174209.777           0.000  
  -4984227.999           0.000    22003146.321           0.000  
   2449702.999           0.000    21017038.164           0.000  
 98  9 30 11 34  9.9970000  0  5G27G14G18G19G16
   2889822.998           0.000    24431424.811           0.000  
   5752139.001           0.000    23895507.761           0.000  
   4640899.001           0.000    20173657.652           0.000  
  -4990040.998           0.000    22002040.178           0.000  
   2447789.000           0.000    21016673.921           0.000  
 98  9 30 11 34 10.9970000  0  5G27G14G18G19G16
   2883134.998           0.000    24430152.174           0.000  
   5751690.999           0.000    23895422.451           0.000  
   4637998.001           0.000    20173105.817           0.000  
  -4995852.999           0.000    22000933.970           0.000  
   2445874.002           0.000    21016309.634           0.000  
 98  9 30 11 34 11.9970000  0  5G27G14G18G19G16
   2876446.999           0.000    24428879.389           0.000  
   5751241.998           0.000    23895337.089           0.000  
   4635097.000           0.000    20172553.901           0.000  
  -5001667.002           0.000    21999827.759           0.000  
   2443960.002           0.000    21015945.327           0.000  
 98  9 30 11 34 12.9970000  0  5G27G14G18G19G16
   2869758.999           0.000    24427606.650           0.000  
   5750794.001           0.000    23895251.751           0.000  
   4632195.002           0.000    20172001.882           0.000  
  -5007478.998           0.000    21998721.601           0.000  
   2442044.999           0.000    21015581.052           0.000  
 98  9 30 11 34 13.9970000  0  5G27G14G18G19G16
   2863070.001           0.000    24426333.948           0.000  
   5750345.000           0.000    23895166.404           0.000  
   4629295.000           0.000    20171449.995           0.000  
  -5013290.999           0.000    21997615.534           0.000  
   2440130.999           0.000    21015216.841           0.000  
 98  9 30 11 34 14.9970000  0  5G27G14G18G19G16
   2856382.002           0.000    24425061.154           0.000  
   5749896.998           0.000    23895081.031           0.000  
   4626394.998           0.000    20170898.371           0.000  
  -5019103.998           0.000    21996509.473           0.000  
   2438217.000           0.000    21014852.584           0.000  
 98  9 30 11 34 15.9970000  0  5G27G14G18G19G16
   2849692.998           0.000    24423788.388           0.000  
   5749449.001           0.000    23894995.673           0.000  
   4623495.001           0.000    20170346.681           0.000  
  -5024915.001           0.000    21995403.506           0.000  
   2436303.000           0.000    21014488.419           0.000  
 98  9 30 11 34 16.9970000  0  5G27G14G18G19G16
   2843004.000           0.000    24422515.484           0.000  
   5749000.000           0.000    23894910.209           0.000  
   4620595.000           0.000    20169794.854           0.000  
  -5030727.002           0.000    21994297.533           0.000  
   2434389.001           0.000    21014124.181           0.000  
 98  9 30 11 34 17.9970000  0  5G27G14G18G19G16
   2836315.002           0.000    24421242.611           0.000  
   5748551.000           0.000    23894824.848           0.000  
   4617694.998           0.000    20169243.435           0.000  
  -5036539.003           0.000    21993191.640           0.000  
   2432475.001           0.000    21013760.024           0.000  
 98  9 30 11 34 18.9970000  0  5G27G14G18G19G16
   2829625.999           0.000    24419969.711           0.000  
   5748101.999           0.000    23894739.458           0.000  
   4614796.000           0.000    20168692.009           0.000  
  -5042350.000           0.000    21992085.798           0.000  
   2430562.000           0.000    21013395.852           0.000  
 98  9 30 11 34 19.9970000  0  5G27G14G18G19G16
   2822937.001           0.000    24418696.786           0.000  
   5747654.002           0.000    23894654.065           0.000  
   4611897.002           0.000    20168140.548           0.000  
  -5048161.002           0.000    21990980.012           0.000  
   2428648.001           0.000    21013031.735           0.000  
 98  9 30 11 34 20.9970000  0  5G27G14G18G19G16
   2816246.999           0.000    24417423.703           0.000  
   5747204.003           0.000    23894568.509           0.000  
   4608997.000           0.000    20167588.737           0.000  
  -5053971.999           0.000    21989874.138           0.000  
   2426734.001           0.000    21012667.499           0.000  
 98  9 30 11 34 21.9970000  0  5G27G14G18G19G16
   2809555.999           0.000    24416150.474           0.000  
   5746753.998           0.000    23894482.853           0.000  
   4606098.002           0.000    20167036.833           0.000  
  -5059784.000           0.000    21988768.175           0.000  
   2424818.998           0.000    21012303.174           0.000  
 98  9 30 11 34 22.9970000  0  5G27G14G18G19G16
   2802864.999           0.000    24414877.213           0.000  
   5746303.999           0.000    23894397.160           0.000  
   4603198.000           0.000    20166484.904           0.000  
  -5065596.001           0.000    21987662.219           0.000  
   2422904.998           0.000    21011938.848           0.000  
 98  9 30 11 34 23.9970000  0  5G27G14G18G19G16
   2796173.999           0.000    24413603.999           0.000  
   5745854.000           0.000    23894311.588           0.000  
   4600299.002           0.000    20165933.233           0.000  
  -5071406.999           0.000    21986556.368           0.000  
   2420990.999           0.000    21011574.625           0.000  
 98  9 30 11 34 24.9970000  0  5G27G14G18G19G16
   2789482.999           0.000    24412330.835           0.000  
   5745404.999           0.000    23894226.021           0.000  
   4597401.002           0.000    20165381.872           0.000  
  -5077217.002           0.000    21985450.629           0.000  
   2419076.999           0.000    21011210.481           0.000  
 98  9 30 11 34 25.9970000  0  5G27G14G18G19G16
   2782793.002           0.000    24411057.806           0.000  
   5744955.998           0.000    23894140.600           0.000  
   4594504.001           0.000    20164830.594           0.000  
  -5083027.001           0.000    21984345.055           0.000  
   2417163.998           0.000    21010846.479           0.000  
 98  9 30 11 34 26.9970000  0  5G27G14G18G19G16
   2776103.000           0.000    24409784.748           0.000  
   5744506.998           0.000    23894055.132           0.000  
   4591607.000           0.000    20164279.246           0.000  
  -5088836.002           0.000    21983239.550           0.000  
   2415250.997           0.000    21010482.521           0.000  
 98  9 30 11 34 27.9970000  0  5G27G14G18G19G16
   2769412.000           0.000    24408511.701           0.000  
   5744058.002           0.000    23893969.659           0.000  
   4588709.998           0.000    20163728.043           0.000  
  -5094643.998           0.000    21982134.079           0.000  
   2413339.000           0.000    21010118.610           0.000  
 98  9 30 11 34 28.9970000  0  5G27G14G18G19G16
   2762721.998           0.000    24407238.551           0.000  
   5743610.000           0.000    23893884.154           0.000  
   4585814.001           0.000    20163176.911           0.000  
  -5100452.998           0.000    21981028.616           0.000  
   2411425.999           0.000    21009754.714           0.000  
 98  9 30 11 34 29.9970000  0  5G27G14G18G19G16
   2756030.998           0.000    24405965.367           0.000  
   5743160.001           0.000    23893798.558           0.000  
   4582917.000           0.000    20162625.819           0.000  
  -5106261.999           0.000    21979923.138           0.000  
   2409514.001           0.000    21009390.759           0.000  
 98  9 30 11 34 30.9970000  0  5G27G14G18G19G16
   2749339.998           0.000    24404692.141           0.000  
   5742711.000           0.000    23893713.036           0.000  
   4580021.002           0.000    20162074.939           0.000  
  -5112070.999           0.000    21978817.752           0.000  
   2407601.000           0.000    21009026.870           0.000  
 98  9 30 11 34 31.9970000  0  5G27G14G18G19G16
   2742647.999           0.000    24403418.856           0.000  
   5742261.999           0.000    23893627.539           0.000  
   4577125.998           0.000    20161524.218           0.000  
  -5117879.001           0.000    21977712.402           0.000  
   2405688.998           0.000    21008663.001           0.000  
 98  9 30 11 34 32.9970000  0  5G27G14G18G19G16
   2735956.999           0.000    24402145.577           0.000  
   5741812.998           0.000    23893542.009           0.000  
   4574230.000           0.000    20160973.373           0.000  
  -5123687.003           0.000    21976607.148           0.000  
   2403777.000           0.000    21008299.144           0.000  
 98  9 30 11 34 33.9970000  0  5G27G14G18G19G16
   2729265.999           0.000    24400872.261           0.000  
   5741363.998           0.000    23893456.504           0.000  
   4571335.001           0.000    20160422.641           0.000  
  -5129494.001           0.000    21975501.920           0.000  
   2401864.998           0.000    21007935.337           0.000  
 98  9 30 11 34 34.9970000  0  5G27G14G18G19G16
   2722574.000           0.000    24399598.945           0.000  
   5740915.002           0.000    23893371.030           0.000  
   4568441.001           0.000    20159872.107           0.000  
  -5135302.003           0.000    21974396.766           0.000  
   2399953.000           0.000    21007571.551           0.000  
 98  9 30 11 34 35.9970000  0  5G27G14G18G19G16
   2715882.002           0.000    24398325.569           0.000  
   5740464.998           0.000    23893285.522           0.000  
   4565546.002           0.000    20159321.578           0.000  
  -5141109.001           0.000    21973291.602           0.000  
   2398040.998           0.000    21007207.783           0.000  
 98  9 30 11 34 36.9970000  0  5G27G14G18G19G16
   2709189.998           0.000    24397052.118           0.000  
   5740016.002           0.000    23893199.967           0.000  
   4562652.001           0.000    20158770.951           0.000  
  -5146915.999           0.000    21972186.492           0.000  
   2396129.000           0.000    21006843.993           0.000  
 98  9 30 11 34 37.9970000  0  5G27G14G18G19G16
   2702497.999           0.000    24395778.683           0.000  
   5739567.002           0.000    23893114.358           0.000  
   4559758.001           0.000    20158220.244           0.000  
  -5152723.002           0.000    21971081.406           0.000  
   2394216.998           0.000    21006480.248           0.000  
 98  9 30 11 34 38.9970000  0  5G27G14G18G19G16
   2695805.002           0.000    24394505.171           0.000  
   5739117.002           0.000    23893028.675           0.000  
   4556864.000           0.000    20157669.445           0.000  
  -5158530.000           0.000    21969976.280           0.000  
   2392305.001           0.000    21006116.413           0.000  
 98  9 30 11 34 40.9970000  0  5G27G14G18G19G16
   2682418.997           0.000    24391957.873           0.000  
   5738216.000           0.000    23892857.206           0.000  
   4551075.999           0.000    20156568.177           0.000  
  -5170142.998           0.000    21967766.193           0.000  
   2388481.001           0.000    21005388.728           0.000  
 98  9 30 11 34 41.9970000  0  5G27G14G18G19G16
   2675726.000           0.000    24390684.250           0.000  
   5737766.001           0.000    23892771.550           0.000  
   4548183.002           0.000    20156017.807           0.000  
  -5175950.001           0.000    21966661.260           0.000  
   2386568.998           0.000    21005024.979           0.000  
 98  9 30 11 34 42.9970000  0  5G27G14G18G19G16
   2669032.998           0.000    24389410.656           0.000  
   5737317.000           0.000    23892685.917           0.000  
   4545290.000           0.000    20155467.496           0.000  
  -5181755.003           0.000    21965556.376           0.000  
   2384657.999           0.000    21004661.304           0.000  
 98  9 30 11 34 43.9970000  0  5G27G14G18G19G16
   2662340.001           0.000    24388137.043           0.000  
   5736867.001           0.000    23892600.318           0.000  
   4542396.998           0.000    20154917.207           0.000  
  -5187561.002           0.000    21964451.570           0.000  
   2382747.000           0.000    21004297.641           0.000  
 98  9 30 11 34 44.9970000  0  5G27G14G18G19G16
   2655646.998           0.000    24386863.424           0.000  
   5736418.000           0.000    23892514.728           0.000  
   4539505.998           0.000    20154366.965           0.000  
  -5193365.000           0.000    21963346.871           0.000  
   2380836.001           0.000    21003934.036           0.000  
 98  9 30 11 34 45.9970000  0  5G27G14G18G19G16
   2648952.998           0.000    24385589.773           0.000  
   5735968.001           0.000    23892429.161           0.000  
   4536613.999           0.000    20153816.655           0.000  
  -5199170.001           0.000    21962242.210           0.000  
   2378925.002           0.000    21003570.449           0.000  
 98  9 30 11 34 46.9970000  0  5G27G14G18G19G16
   2642260.001           0.000    24384316.100           0.000  
   5735518.002           0.000    23892343.545           0.000  
   4533722.999           0.000    20153266.446           0.000  
  -5204975.002           0.000    21961137.590           0.000  
   2377013.998           0.000    21003206.860           0.000  
 98  9 30 11 34 47.9970000  0  5G27G14G18G19G16
   2635566.000           0.000    24383042.378           0.000  
   5735069.001           0.000    23892257.986           0.000  
   4530831.001           0.000    20152716.179           0.000  
  -5210779.000           0.000    21960033.036           0.000  
   2375103.998           0.000    21002843.305           0.000  
 98  9 30 11 34 48.9970000  0  5G27G14G18G19G16
   2628871.999           0.000    24381768.527           0.000  
   5734619.002           0.000    23892172.269           0.000  
   4527940.001           0.000    20152165.938           0.000  
  -5216583.002           0.000    21958928.403           0.000  
   2373192.999           0.000    21002479.664           0.000  
 98  9 30 11 34 49.9970000  0  5G27G14G18G19G16
   2622177.998           0.000    24380494.677           0.000  
   5734168.998           0.000    23892086.549           0.000  
   4525049.001           0.000    20151615.587           0.000  
  -5222387.000           0.000    21957823.860           0.000  
   2371282.000           0.000    21002116.047           0.000  
 98  9 30 11 34 50.9970000  0  5G27G14G18G19G16
   2615482.999           0.000    24379220.831           0.000  
   5733718.998           0.000    23892000.875           0.000  
   4522159.000           0.000    20151061.238           0.000  
  -5228191.003           0.000    21956719.447           0.000  
   2369371.999           0.000    21001752.478           0.000  
 98  9 30 11 34 51.9970000  0  5G27G14G18G19G16
   2608788.998           0.000    24377946.920           0.000  
   5733268.001           0.000    23891915.177           0.000  
   4519268.000           0.000    20150507.407           0.000  
  -5233994.002           0.000    21955615.018           0.000  
   2367461.001           0.000    21001388.903           0.000  
 98  9 30 11 34 52.9970000  0  5G27G14G18G19G16
   2602093.000           0.000    24376672.862           0.000  
   5732818.002           0.000    23891829.362           0.000  
   4516377.998           0.000    20149957.203           0.000  
  -5239797.999           0.000    21954510.547           0.000  
   2365550.002           0.000    21001025.204           0.000  
 98  9 30 11 34 53.9970000  0  5G27G14G18G19G16
   2595396.997           0.000    24375398.723           0.000  
   5732366.000           0.000    23891743.523           0.000  
   4513486.998           0.000    20149406.744           0.000  
  -5245602.002           0.000    21953406.007           0.000  
   2363638.997           0.000    21000661.486           0.000  
 98  9 30 11 34 54.9970000  0  5G27G14G18G19G16
   2588701.000           0.000    24374124.550           0.000  
   5731915.003           0.000    23891657.703           0.000  
   4510597.002           0.000    20148857.066           0.000  
  -5251405.999           0.000    21952301.545           0.000  
   2361727.999           0.000    21000297.816           0.000  
 98  9 30 11 34 55.9970000  0  5G27G14G18G19G16
   2582005.002           0.000    24372850.326           0.000  
   5731464.000           0.000    23891571.790           0.000  
   4507706.002           0.000    20148307.805           0.000  
  -5257208.999           0.000    21951197.033           0.000  
   2359817.000           0.000    20999934.080           0.000  
 98  9 30 11 34 56.9970000  0  5G27G14G18G19G16
   2575308.999           0.000    24371576.093           0.000  
   5731013.002           0.000    23891485.942           0.000  
   4504816.999           0.000    20147757.468           0.000  
  -5263011.998           0.000    21950092.663           0.000  
   2357906.001           0.000    20999570.458           0.000  
 98  9 30 11 34 57.9970000  0  5G27G14G18G19G16
   2568613.001           0.000    24370301.874           0.000  
   5730561.999           0.000    23891400.139           0.000  
   4501928.001           0.000    20147209.026           0.000  
  -5268815.002           0.000    21948988.456           0.000  
   2355996.000           0.000    20999206.935           0.000  
 98  9 30 11 34 58.9970000  0  5G27G14G18G19G16
   2561916.998           0.000    24369027.640           0.000  
   5730111.001           0.000    23891314.383           0.000  
   4499038.998           0.000    20146660.230           0.000  
  -5274617.002           0.000    21947884.306           0.000  
   2354086.000           0.000    20998843.456           0.000  
 98  9 30 11 34 59.9970000  0  5G27G14G18G19G16
   2555220.002           0.000    24367753.448           0.000  
   5729659.998           0.000    23891228.642           0.000  
   4496150.999           0.000    20146111.538           0.000  
  -5280418.998           0.000    21946780.257           0.000  
   2352175.999           0.000    20998480.046           0.000  
 98  9 30 11 35  0.9970000  0  5G27G14G18G19G16
   2548523.999           0.000    24366479.298           0.000  
   5729209.999           0.000    23891142.929           0.000  
   4493263.998           0.000    20145562.963           0.000  
  -5286220.000           0.000    21945676.270           0.000  
   2350266.997           0.000    20998116.687           0.000  
 98  9 30 11 35  1.9970000  0  5G27G14G18G19G16
   2541828.001           0.000    24365205.025           0.000  
   5728760.000           0.000    23891057.183           0.000  
   4490375.998           0.000    20145013.371           0.000  
  -5292021.002           0.000    21944572.335           0.000  
   2348357.002           0.000    20997753.338           0.000  
 98  9 30 11 35  2.9970000  0  6G 4G27G14G18G19G16
   4722033.002           0.000    20730559.219           0.000  
   2535131.998           0.000    24363930.757           0.000  
   5728309.002           0.000    23890971.377           0.000  
   4487488.998           0.000    20144463.778           0.000  
  -5297821.999           0.000    21943468.407           0.000  
   2346448.000           0.000    20997389.981           0.000  
 98  9 30 11 35  3.9970000  0  6G 4G27G14G18G19G16
   4718534.998           0.000    20729890.946           0.000  
   2528435.002           0.000    24362656.404           0.000  
   5727858.000           0.000    23890885.581           0.000  
   4484602.002           0.000    20143914.704           0.000  
  -5303622.003           0.000    21942364.581           0.000  
   2344538.000           0.000    20997026.663           0.000  
 98  9 30 11 35  4.9970000  0  6G 4G27G14G18G19G16
   4715037.998           0.000    20729225.740           0.000  
   2521738.001           0.000    24361382.021           0.000  
   5727407.002           0.000    23890799.729           0.000  
   4481715.001           0.000    20143365.248           0.000  
  -5309422.999           0.000    21941260.775           0.000  
   2342628.998           0.000    20996663.344           0.000  
 98  9 30 11 35  5.9970000  0  6G 4G27G14G18G19G16
   4711540.998           0.000    20728562.372           0.000  
   2515040.999           0.000    24360107.610           0.000  
   5726955.999           0.000    23890713.933           0.000  
   4478828.999           0.000    20142816.816           0.000  
  -5315222.998           0.000    21940157.053           0.000  
   2340720.001           0.000    20996300.093           0.000  
 98  9 30 11 35  6.9970000  0  5G27G14G18G19G16
   2508343.998           0.000    24358833.266           0.000  
   5726505.001           0.000    23890628.182           0.000  
   4475943.002           0.000    20142267.832           0.000  
  -5321021.998           0.000    21939053.428           0.000  
   2338811.998           0.000    20995936.909           0.000  
 98  9 30 11 35  7.9970000  0  5G27G14G18G19G16
   2501647.002           0.000    24357558.871           0.000  
   5726055.002           0.000    23890542.369           0.000  
   4473057.998           0.000    20141719.348           0.000  
  -5326822.001           0.000    21937949.864           0.000  
   2336903.001           0.000    20995573.752           0.000  
 98  9 30 11 35  8.9970000  0  5G27G14G18G19G16
   2494950.000           0.000    24356284.473           0.000  
   5725603.999           0.000    23890456.611           0.000  
   4470172.999           0.000    20141169.919           0.000  
  -5332621.001           0.000    21936846.340           0.000  
   2334994.997           0.000    20995210.615           0.000  
 98  9 30 11 35  9.9970000  0  5G27G14G18G19G16
   2488252.000           0.000    24355010.087           0.000  
   5725154.000           0.000    23890370.890           0.000  
   4467288.000           0.000    20140613.606           0.000  
  -5338418.998           0.000    21935742.899           0.000  
   2333086.999           0.000    20994847.526           0.000  
 98  9 30 11 35 10.9970000  0  5G27G14G18G19G16
   2481554.999           0.000    24353735.726           0.000  
   5724703.002           0.000    23890285.198           0.000  
   4464404.000           0.000    20140059.067           0.000  
  -5344216.999           0.000    21934639.558           0.000  
   2331179.001           0.000    20994484.511           0.000  
 98  9 30 11 35 11.9970000  0  5G27G14G18G19G16
   2474859.001           0.000    24352461.393           0.000  
   5724254.002           0.000    23890199.563           0.000  
   4461520.998           0.000    20139511.215           0.000  
  -5350014.002           0.000    21933536.383           0.000  
   2329272.001           0.000    20994121.588           0.000  
 98  9 30 11 35 12.9970000  0  6G 4G27G14G18G19G16
   4720641.999           0.000    20723901.476           0.000  
   2468162.000           0.000    24351187.032           0.000  
   5723804.002           0.000    23890113.892           0.000  
   4458638.002           0.000    20138961.173           0.000  
  -5355811.998           0.000    21932433.196           0.000  
   2327365.001           0.000    20993758.686           0.000  
 98  9 30 11 35 13.9970000  0  5G27G14G18G19G16
   2461464.000           0.000    24349912.577           0.000  
   5723353.000           0.000    23890028.194           0.000  
   4455755.000           0.000    20138412.306           0.000  
  -5361609.001           0.000    21931330.007           0.000  
   2325458.001           0.000    20993395.744           0.000  
 98  9 30 11 35 14.9970000  0  5G27G14G18G19G16
   2454766.000           0.000    24348638.039           0.000  
   5722903.000           0.000    23889942.469           0.000  
   4452871.998           0.000    20137865.519           0.000  
  -5367405.999           0.000    21930226.811           0.000  
   2323551.001           0.000    20993032.803           0.000  
 98  9 30 11 35 15.9970000  0  5G27G14G18G19G16
   2448068.999           0.000    24347363.566           0.000  
   5722453.001           0.000    23889856.838           0.000  
   4449990.000           0.000    20137318.909           0.000  
  -5373201.999           0.000    21929123.814           0.000  
   2321645.000           0.000    20992669.972           0.000  
 98  9 30 11 35 16.9970000  0  5G27G14G18G19G16
   2441370.999           0.000    24346089.134           0.000  
   5722003.002           0.000    23889771.253           0.000  
   4447108.002           0.000    20136771.887           0.000  
  -5378997.998           0.000    21928020.945           0.000  
   2319738.999           0.000    20992307.223           0.000  
 98  9 30 11 35 17.9970000  0  5G27G14G18G19G16
   2434673.997           0.000    24344814.669           0.000  
   5721553.003           0.000    23889685.665           0.000  
   4444227.002           0.000    20136224.949           0.000  
  -5384792.999           0.000    21926918.119           0.000  
   2317832.997           0.000    20991944.497           0.000  
 98  9 30 11 35 18.9970000  0  5G27G14G18G19G16
   2427975.997           0.000    24343540.152           0.000  
   5721102.998           0.000    23889600.094           0.000  
   4441345.997           0.000    20135679.391           0.000  
  -5390588.000           0.000    21925815.341           0.000  
   2315927.001           0.000    20991581.811           0.000  
 98  9 30 11 35 19.9970000  0  5G27G14G18G19G16
   2421277.997           0.000    24342265.507           0.000  
   5720652.999           0.000    23889514.399           0.000  
   4438466.001           0.000    20135129.843           0.000  
  -5396383.999           0.000    21924712.553           0.000  
   2314021.000           0.000    20991219.075           0.000  
 98  9 30 11 35 20.9970000  0  5G27G14G18G19G16
   2414579.998           0.000    24340990.759           0.000  
   5720202.001           0.000    23889428.671           0.000  
   4435586.000           0.000    20134581.045           0.000  
  -5402179.000           0.000    21923609.767           0.000  
   2312114.999           0.000    20990856.312           0.000  
 98  9 30 11 35 21.9970000  0  5G27G14G18G19G16
   2407880.001           0.000    24339715.906           0.000  
   5719750.999           0.000    23889342.828           0.000  
   4432704.002           0.000    20134033.569           0.000  
  -5407974.999           0.000    21922506.883           0.000  
   2310207.999           0.000    20990493.458           0.000  
 98  9 30 11 35 22.9970000  0  5G27G14G18G19G16
   2401179.999           0.000    24338440.936           0.000  
   5719299.002           0.000    23889256.918           0.000  
   4429821.999           0.000    20133486.139           0.000  
  -5413770.000           0.000    21921403.997           0.000  
   2308300.999           0.000    20990130.576           0.000  
 98  9 30 11 35 23.9970000  0  5G27G14G18G19G16
   2394481.000           0.000    24337166.011           0.000  
   5718847.999           0.000    23889171.097           0.000  
   4426940.999           0.000    20132937.676           0.000  
  -5419565.001           0.000    21920301.265           0.000  
   2306394.998           0.000    20989767.778           0.000  
 98  9 30 11 35 24.9970000  0  5G27G14G18G19G16
   2387780.998           0.000    24335891.125           0.000  
   5718397.002           0.000    23889085.319           0.000  
   4424060.000           0.000    20132390.541           0.000  
  -5425360.002           0.000    21919198.681           0.000  
   2304489.001           0.000    20989405.117           0.000  
 98  9 30 11 35 25.9970000  0  5G27G14G18G19G16
   2381082.000           0.000    24334616.253           0.000  
   5717945.999           0.000    23888999.534           0.000  
   4421179.998           0.000    20131843.010           0.000  
  -5431153.001           0.000    21918096.192           0.000  
   2302583.998           0.000    20989042.502           0.000  
 98  9 30 11 35 26.9970000  0  5G27G14G18G19G16
   2374383.002           0.000    24333341.377           0.000  
   5717495.001           0.000    23888913.796           0.000  
   4418301.001           0.000    20131296.154           0.000  
  -5436946.998           0.000    21916993.784           0.000  
   2300679.001           0.000    20988679.956           0.000  
 98  9 30 11 35 27.9970000  0  5G27G14G18G19G16
   2367683.000           0.000    24332066.544           0.000  
   5717045.002           0.000    23888828.122           0.000  
   4415423.002           0.000    20130748.816           0.000  
  -5442740.002           0.000    21915891.483           0.000  
   2298773.998           0.000    20988317.464           0.000  
 98  9 30 11 35 28.9970000  0  5G27G14G18G19G16
   2360984.001           0.000    24330791.708           0.000  
   5716594.998           0.000    23888742.489           0.000  
   4412544.998           0.000    20130208.620           0.000  
  -5448532.002           0.000    21914789.279           0.000  
   2296869.999           0.000    20987955.049           0.000  
 98  9 30 11 35 29.9970000  0  5G27G14G18G19G16
   2354284.998           0.000    24329516.826           0.000  
   5716144.000           0.000    23888656.828           0.000  
   4409666.999           0.000    20129664.438           0.000  
  -5454324.002           0.000    21913687.105           0.000  
   2294966.000           0.000    20987592.706           0.000  
 98  9 30 11 35 30.9970000  0  5G27G14G18G19G16
   2347585.001           0.000    24328241.888           0.000  
   5715694.001           0.000    23888571.121           0.000  
   4406788.001           0.000    20129114.911           0.000  
  -5460117.001           0.000    21912584.949           0.000  
   2293062.000           0.000    20987230.341           0.000  
 98  9 30 11 35 31.9970000  0  5G27G14G18G19G16
   2340886.002           0.000    24326966.942           0.000  
   5715242.998           0.000    23888485.419           0.000  
   4403911.001           0.000    20128567.023           0.000  
  -5465908.003           0.000    21911482.879           0.000  
   2291158.001           0.000    20986868.049           0.000  
 98  9 30 11 35 32.9970000  0  5G27G14G18G19G16
   2334186.000           0.000    24325691.919           0.000  
   5714792.999           0.000    23888399.717           0.000  
   4401033.002           0.000    20128018.632           0.000  
  -5471699.998           0.000    21910380.830           0.000  
   2289254.002           0.000    20986505.758           0.000  
 98  9 30 11 35 33.9970000  0  5G27G14G18G19G16
   2327485.998           0.000    24324416.934           0.000  
   5714342.001           0.000    23888314.009           0.000  
   4398156.001           0.000    20127471.286           0.000  
  -5477490.999           0.000    21909278.821           0.000  
   2287349.998           0.000    20986143.527           0.000  
 98  9 30 11 35 34.9970000  0  5G27G14G18G19G16
   2320786.001           0.000    24323141.901           0.000  
   5713892.002           0.000    23888228.290           0.000  
   4395278.002           0.000    20126923.496           0.000  
  -5483282.001           0.000    21908176.875           0.000  
   2285447.002           0.000    20985781.323           0.000  
 98  9 30 11 35 35.9970000  0  5G27G14G18G19G16
   2314085.999           0.000    24321866.885           0.000  
   5713442.003           0.000    23888142.662           0.000  
   4392402.999           0.000    20126376.684           0.000  
  -5489071.999           0.000    21907075.056           0.000  
   2283544.001           0.000    20985419.197           0.000  
 98  9 30 11 35 36.9970000  0  5G27G14G18G19G16
   2307385.997           0.000    24320591.901           0.000  
   5712991.998           0.000    23888057.046           0.000  
   4389528.000           0.000    20125829.760           0.000  
  -5494860.999           0.000    21905973.353           0.000  
   2281641.999           0.000    20985057.184           0.000  
 98  9 30 11 35 37.9970000  0  5G27G14G18G19G16
   2300686.999           0.000    24319316.925           0.000  
   5712541.999           0.000    23887971.441           0.000  
   4386654.000           0.000    20125281.997           0.000  
  -5500649.999           0.000    21904871.709           0.000  
   2279738.998           0.000    20984695.247           0.000  
 98  9 30 11 35 38.9970000  0  5G27G14G18G19G16
   2293987.002           0.000    24318041.893           0.000  
   5712092.000           0.000    23887885.813           0.000  
   4383780.000           0.000    20124734.303           0.000  
  -5506440.002           0.000    21903770.106           0.000  
   2277837.001           0.000    20984333.304           0.000  
 98  9 30 11 35 39.9970000  0  5G27G14G18G19G16
   2287287.000           0.000    24316766.880           0.000  
   5711642.001           0.000    23887800.215           0.000  
   4380906.000           0.000    20124186.853           0.000  
  -5512227.998           0.000    21902668.598           0.000  
   2275934.999           0.000    20983971.411           0.000  
 98  9 30 11 35 40.9970000  0  5G27G14G18G19G16
   2280586.998           0.000    24315491.879           0.000  
   5711192.001           0.000    23887714.682           0.000  
   4378032.000           0.000    20123639.900           0.000  
  -5518015.999           0.000    21901567.185           0.000  
   2274034.000           0.000    20983609.593           0.000  
 98  9 30 11 35 41.9970000  0  5G27G14G18G19G16
   2273888.000           0.000    24314216.922           0.000  
   5710743.001           0.000    23887629.215           0.000  
   4375159.997           0.000    20123092.719           0.000  
  -5523804.000           0.000    21900465.885           0.000  
   2272133.002           0.000    20983247.888           0.000  
 98  9 30 11 35 42.9970000  0  5G27G14G18G19G16
   2267187.998           0.000    24312941.951           0.000  
   5710294.000           0.000    23887543.748           0.000  
   4372285.998           0.000    20122545.496           0.000  
  -5529591.003           0.000    21899364.660           0.000  
   2270233.002           0.000    20982886.210           0.000  
 98  9 30 11 35 43.9970000  0  5G27G14G18G19G16
   2260488.999           0.000    24311666.905           0.000  
   5709844.001           0.000    23887458.277           0.000  
   4369414.000           0.000    20121998.280           0.000  
  -5535378.000           0.000    21898263.457           0.000  
   2268331.998           0.000    20982524.535           0.000  
 98  9 30 11 35 44.9970000  0  4G27G14G19G16
   2253787.999           0.000    24310391.771           0.000  
   5709395.000           0.000    23887372.705           0.000  
  -5541164.998           0.000    21897162.252           0.000  
   2266430.999           0.000    20982162.818           0.000  
 98  9 30 11 35 45.9970000  0  4G27G14G19G16
   2247088.002           0.000    24309116.576           0.000  
   5708945.001           0.000    23887287.049           0.000  
  -5546952.000           0.000    21896061.057           0.000  
   2264530.001           0.000    20981801.086           0.000  
 98  9 30 11 35 46.9970000  0  4G27G14G19G16
   2240387.001           0.000    24307841.413           0.000  
   5708495.002           0.000    23887201.497           0.000  
  -5552737.999           0.000    21894959.970           0.000  
   2262630.001           0.000    20981439.485           0.000  
 98  9 30 11 35 47.9970000  0  4G27G14G19G16
   2233686.999           0.000    24306566.268           0.000  
   5708045.002           0.000    23887115.964           0.000  
  -5558523.998           0.000    21893858.969           0.000  
   2260730.000           0.000    20981077.890           0.000  
 98  9 30 11 35 48.9970000  0  4G27G14G19G16
   2226985.999           0.000    24305290.977           0.000  
   5707594.998           0.000    23887030.346           0.000  
  -5564310.003           0.000    21892757.934           0.000  
   2258829.002           0.000    20980716.250           0.000  
 98  9 30 11 35 49.9970000  0  4G27G14G19G16
   2220284.000           0.000    24304015.612           0.000  
   5707144.999           0.000    23886944.686           0.000  
  -5570096.002           0.000    21891656.915           0.000  
   2256929.002           0.000    20980354.601           0.000  
 98  9 30 11 35 50.9970000  0  4G27G14G19G16
   2213582.999           0.000    24302740.278           0.000  
   5706695.000           0.000    23886859.083           0.000  
  -5575882.001           0.000    21890555.974           0.000  
   2255029.002           0.000    20979993.038           0.000  
 98  9 30 11 35 51.9970000  0  5G27G14G18G19G16
   2206881.999           0.000    24301464.979           0.000  
   5706245.000           0.000    23886773.478           0.000  
   4722845.998           0.000    20117635.797           0.000  
  -5581667.001           0.000    21889455.151           0.000  
   2253129.002           0.000    20979631.553           0.000  
 98  9 30 11 35 52.9970000  0  5G27G14G18G19G16
   2200180.998           0.000    24300189.747           0.000  
   5705795.001           0.000    23886687.966           0.000  
   4719977.001           0.000    20117090.565           0.000  
  -5587450.998           0.000    21888354.467           0.000  
   2251230.000           0.000    20979270.182           0.000  
 98  9 30 11 35 53.9970000  0  5G27G14G18G19G16
   2193479.998           0.000    24298914.521           0.000  
   5705346.000           0.000    23886602.495           0.000  
   4717109.002           0.000    20116542.919           0.000  
  -5593235.000           0.000    21887253.875           0.000  
   2249330.998           0.000    20978908.882           0.000  
 98  9 30 11 35 54.9970000  0  5G27G14G18G19G16
   2186778.997           0.000    24297639.341           0.000  
   5704897.000           0.000    23886517.113           0.000  
   4714240.998           0.000    20115997.988           0.000  
  -5599017.999           0.000    21886153.398           0.000  
   2247433.000           0.000    20978547.693           0.000  
 98  9 30 11 35 55.9970000  0  5G27G14G18G19G16
   2180079.001           0.000    24296364.170           0.000  
   5704447.999           0.000    23886431.826           0.000  
   4711373.000           0.000    20115460.273           0.000  
  -5604801.002           0.000    21885053.024           0.000  
   2245535.002           0.000    20978186.573           0.000  
 98  9 30 11 35 56.9970000  0  5G27G14G18G19G16
   2173378.998           0.000    24295089.053           0.000  
   5704000.002           0.000    23886346.540           0.000  
   4708502.999           0.000    20114908.437           0.000  
  -5610583.002           0.000    21883952.772           0.000  
   2243637.998           0.000    20977825.505           0.000  
 98  9 30 11 35 57.9970000  0  5G27G14G18G19G16
   2166677.998           0.000    24293813.865           0.000  
   5703551.001           0.000    23886261.168           0.000  
   4705635.998           0.000    20114362.221           0.000  
  -5616365.002           0.000    21882852.526           0.000  
   2241740.998           0.000    20977464.438           0.000  
 98  9 30 11 35 58.9970000  0  5G27G14G18G19G16
   2159976.997           0.000    24292538.585           0.000  
   5703102.000           0.000    23886175.737           0.000  
   4702768.998           0.000    20113814.528           0.000  
  -5622147.002           0.000    21881752.249           0.000  
   2239843.000           0.000    20977103.330           0.000  
 98  9 30 11 35 59.9970000  0  5G27G14G18G19G16
   2153276.002           0.000    24291263.285           0.000  
   5702653.000           0.000    23886090.301           0.000  
   4699901.998           0.000    20113266.993           0.000  
  -5627929.002           0.000    21880652.019           0.000  
   2237946.001           0.000    20976742.239           0.000  
 98  9 30 11 36  0.9970000  0  5G27G14G18G19G16
   2146573.998           0.000    24289987.912           0.000  
   5702203.999           0.000    23886004.754           0.000  
   4697033.001           0.000    20112720.975           0.000  
  -5633711.002           0.000    21879551.786           0.000  
   2236047.998           0.000    20976381.142           0.000  
 98  9 30 11 36  1.9970000  0  5G27G14G18G19G16
   2139871.999           0.000    24288712.515           0.000  
   5701754.000           0.000    23885919.227           0.000  
   4694163.999           0.000    20112175.111           0.000  
  -5639493.002           0.000    21878451.555           0.000  
   2234150.998           0.000    20976020.052           0.000  
 98  9 30 11 36  2.9970000  0  4G27G14G19G16
   2133170.000           0.000    24287437.077           0.000  
   5701304.999           0.000    23885833.730           0.000  
  -5645273.998           0.000    21877351.410           0.000  
   2232253.000           0.000    20975659.008           0.000  
 98  9 30 11 36  3.9970000  0  4G27G14G19G16
   2126468.001           0.000    24286161.619           0.000  
   5700855.000           0.000    23885748.211           0.000  
  -5651055.998           0.000    21876251.328           0.000  
   2230356.001           0.000    20975297.962           0.000  
 98  9 30 11 36  4.9970000  0  4G27G14G19G16
   2119764.998           0.000    24284886.102           0.000  
   5700405.001           0.000    23885662.585           0.000  
  -5656836.999           0.000    21875151.209           0.000  
   2228459.001           0.000    20974936.870           0.000  
 98  9 30 11 36  5.9970000  0  4G27G14G19G16
   2113060.997           0.000    24283610.262           0.000  
   5699953.998           0.000    23885576.680           0.000  
  -5662619.998           0.000    21874050.850           0.000  
   2226559.999           0.000    20974575.553           0.000  
 98  9 30 11 36  6.9970000  0  4G27G14G19G16
   2106357.001           0.000    24282334.412           0.000  
   5699502.002           0.000    23885490.797           0.000  
  -5668402.003           0.000    21872950.534           0.000  
   2224660.998           0.000    20974214.264           0.000  
 98  9 30 11 36  7.9970000  0  4G27G14G19G16
   2099653.000           0.000    24281058.731           0.000  
   5699052.002           0.000    23885405.126           0.000  
  -5674182.999           0.000    21871850.481           0.000  
   2222763.998           0.000    20973853.170           0.000  
 98  9 30 11 36  8.9970000  0  4G27G14G19G16
   2092951.001           0.000    24279783.277           0.000  
   5698601.998           0.000    23885319.643           0.000  
  -5679963.002           0.000    21870750.662           0.000  
   2220867.997           0.000    20973492.276           0.000  
 98  9 30 11 36  9.9970000  0  4G27G14G19G16
   2086249.002           0.000    24278507.841           0.000  
   5698153.002           0.000    23885234.180           0.000  
  -5685742.001           0.000    21869650.951           0.000  
   2218972.001           0.000    20973131.488           0.000  
 98  9 30 11 36 10.9970000  0  4G27G14G19G16
   2079546.998           0.000    24277232.532           0.000  
   5697704.002           0.000    23885148.828           0.000  
  -5691520.002           0.000    21868551.420           0.000  
   2217076.999           0.000    20972770.901           0.000  
 98  9 30 11 36 11.9970000  0  4G27G14G19G16
   2072844.999           0.000    24275957.222           0.000  
   5697255.999           0.000    23885063.533           0.000  
  -5697296.999           0.000    21867451.956           0.000  
   2215183.000           0.000    20972410.359           0.000  
 98  9 30 11 36 12.9970000  0  4G27G14G19G16
   2066143.998           0.000    24274681.994           0.000  
   5696808.002           0.000    23884978.317           0.000  
  -5703074.002           0.000    21866352.650           0.000  
   2213289.001           0.000    20972049.955           0.000  
 98  9 30 11 36 13.9970000  0  4G27G14G19G16
   2059441.999           0.000    24273406.675           0.000  
   5696360.000           0.000    23884893.068           0.000  
  -5708850.999           0.000    21865253.418           0.000  
   2211395.002           0.000    20971689.569           0.000  
 98  9 30 11 36 14.9970000  0  5G27G14G18G19G16
   2052741.997           0.000    24272131.513           0.000  
   5695913.002           0.000    23884807.945           0.000  
   4722818.998           0.000    20105069.582           0.000  
  -5714627.003           0.000    21864154.349           0.000  
   2209502.002           0.000    20971329.322           0.000  
 98  9 30 11 36 15.9970000  0  5G27G14G18G19G16
   2046041.002           0.000    24270856.423           0.000  
   5695465.998           0.000    23884722.888           0.000  
   4719957.999           0.000    20104527.847           0.000  
  -5720402.003           0.000    21863055.401           0.000  
   2207610.000           0.000    20970969.207           0.000  
 98  9 30 11 36 16.9970000  0  5G27G14G18G19G16
   2039340.002           0.000    24269581.395           0.000  
   5695018.999           0.000    23884637.868           0.000  
   4717097.998           0.000    20103986.395           0.000  
  -5726176.998           0.000    21861956.541           0.000  
   2205717.998           0.000    20970609.139           0.000  
 98  9 30 11 36 17.9970000  0  5G27G14G18G19G16
   2032639.001           0.000    24268306.232           0.000  
   5694572.001           0.000    23884552.771           0.000  
   4714236.999           0.000    20103443.951           0.000  
  -5731951.000           0.000    21860857.642           0.000  
   2203824.998           0.000    20970249.060           0.000  
 98  9 30 11 36 18.9970000  0  5G27G14G18G19G16
   2025938.001           0.000    24267031.021           0.000  
   5694125.002           0.000    23884467.697           0.000  
   4711378.002           0.000    20102911.437           0.000  
  -5737726.000           0.000    21859758.776           0.000  
   2201933.001           0.000    20969888.938           0.000  
 98  9 30 11 36 19.9970000  0  5G27G14G18G19G16
   2019237.000           0.000    24265755.783           0.000  
   5693677.998           0.000    23884382.646           0.000  
   4708519.999           0.000    20102360.379           0.000  
  -5743500.001           0.000    21858659.919           0.000  
   2200040.999           0.000    20969528.867           0.000  
 98  9 30 11 36 20.9970000  0  5G27G14G18G19G16
   2012535.001           0.000    24264480.572           0.000  
   5693230.001           0.000    23884297.575           0.000  
   4705661.002           0.000    20101821.530           0.000  
  -5749273.998           0.000    21857561.178           0.000  
   2198149.002           0.000    20969168.840           0.000  
 98  9 30 11 36 21.9970000  0  5G27G14G18G19G16
   2005834.001           0.000    24263205.402           0.000  
   5692784.001           0.000    23884212.607           0.000  
   4702802.998           0.000    20101278.769           0.000  
  -5755047.001           0.000    21856462.571           0.000  
   2196257.999           0.000    20968808.958           0.000  
 98  9 30 11 36 22.9970000  0  5G27G14G18G19G16
   1999133.000           0.000    24261930.212           0.000  
   5692337.002           0.000    23884127.615           0.000  
   4699944.002           0.000    20100735.690           0.000  
  -5760819.999           0.000    21855363.981           0.000  
   2194366.002           0.000    20968449.087           0.000  
 98  9 30 11 36 23.9970000  0  5G27G14G18G19G16
   1992431.001           0.000    24260654.986           0.000  
   5691889.999           0.000    23884042.620           0.000  
   4697085.998           0.000    20100191.540           0.000  
  -5766593.003           0.000    21854265.447           0.000  
   2192474.999           0.000    20968089.249           0.000  
 98  9 30 11 36 24.9970000  0  5G27G14G18G19G16
   1985730.001           0.000    24259379.753           0.000  
   5691443.000           0.000    23883957.631           0.000  
   4694228.998           0.000    20099647.259           0.000  
  -5772366.001           0.000    21853166.939           0.000  
   2190584.000           0.000    20967729.404           0.000  
 98  9 30 11 36 25.9970000  0  5G27G14G18G19G16
   1979026.998           0.000    24258104.341           0.000  
   5690996.001           0.000    23883872.483           0.000  
   4691371.000           0.000    20099102.910           0.000  
  -5778138.999           0.000    21852068.351           0.000  
   2188693.002           0.000    20967369.432           0.000  
 98  9 30 11 36 26.9970000  0  4G27G14G19G16
   1972324.000           0.000    24256828.742           0.000  
   5690547.001           0.000    23883787.143           0.000  
  -5783912.002           0.000    21850969.679           0.000  
   2186800.002           0.000    20967009.388           0.000  
 98  9 30 11 36 27.9970000  0  4G27G14G19G16
   1965620.998           0.000    24255553.209           0.000  
   5690098.998           0.000    23883701.844           0.000  
  -5789685.000           0.000    21849871.132           0.000  
   2184908.998           0.000    20966649.426           0.000  
 98  9 30 11 36 28.9970000  0  4G27G14G19G16
   1958918.000           0.000    24254277.770           0.000  
   5689652.000           0.000    23883616.675           0.000  
  -5795457.000           0.000    21848772.727           0.000  
   2183018.000           0.000    20966289.588           0.000  
 98  9 30 11 36 29.9970000  0  4G27G14G19G16
   1952214.998           0.000    24253002.299           0.000  
   5689203.998           0.000    23883531.449           0.000  
  -5801228.999           0.000    21847674.368           0.000  
   2181127.002           0.000    20965929.742           0.000  
 98  9 30 11 36 30.9970000  0  4G27G14G19G16
   1945512.000           0.000    24251726.782           0.000  
   5688756.999           0.000    23883446.220           0.000  
  -5807000.999           0.000    21846576.039           0.000  
   2179235.998           0.000    20965569.932           0.000  
 98  9 30 11 36 31.9970000  0  4G27G14G19G16
   1938808.998           0.000    24250451.334           0.000  
   5688309.002           0.000    23883361.047           0.000  
  -5812772.000           0.000    21845477.820           0.000  
   2177345.000           0.000    20965210.217           0.000  
 98  9 30 11 36 32.9970000  0  4G27G14G19G16
   1932106.000           0.000    24249175.910           0.000  
   5687861.998           0.000    23883275.933           0.000  
  -5818542.003           0.000    21844379.707           0.000  
   2175455.000           0.000    20964850.594           0.000  
 98  9 30 11 36 33.9970000  0  4G27G14G19G16
   1925404.001           0.000    24247900.553           0.000  
   5687415.998           0.000    23883190.883           0.000  
  -5824312.000           0.000    21843281.683           0.000  
   2173565.999           0.000    20964491.075           0.000  
 98  9 30 11 36 34.9970000  0  4G27G14G19G16
   1918700.998           0.000    24246625.250           0.000  
   5686968.999           0.000    23883105.905           0.000  
  -5830082.003           0.000    21842183.773           0.000  
   2171676.998           0.000    20964131.644           0.000  
 98  9 30 11 36 35.9970000  0  4G27G14G19G16
   1911998.999           0.000    24245349.861           0.000  
   5686522.999           0.000    23883020.976           0.000  
  -5835851.002           0.000    21841085.942           0.000  
   2169788.002           0.000    20963772.263           0.000  
 98  9 30 11 36 36.9970000  0  4G27G14G19G16
   1905296.002           0.000    24244074.491           0.000  
   5686076.001           0.000    23882935.991           0.000  
  -5841620.001           0.000    21839988.168           0.000  
   2167899.000           0.000    20963412.897           0.000  
 98  9 30 11 36 37.9970000  0  4G27G14G19G16
   1898592.999           0.000    24242799.050           0.000  
   5685630.001           0.000    23882850.958           0.000  
  -5847389.000           0.000    21838890.437           0.000  
   2166010.997           0.000    20963053.509           0.000  
 98  9 30 11 36 38.9970000  0  4G27G14G19G16
   1891890.002           0.000    24241523.647           0.000  
   5685183.002           0.000    23882766.011           0.000  
  -5853157.000           0.000    21837792.760           0.000  
   2164123.000           0.000    20962694.238           0.000  
 98  9 30 11 36 39.9970000  0  4G27G14G19G16
   1885187.998           0.000    24240248.308           0.000  
   5684737.002           0.000    23882681.097           0.000  
  -5858925.001           0.000    21836695.220           0.000  
   2162235.002           0.000    20962335.073           0.000  
 98  9 30 11 36 40.9970000  0  4G27G14G19G16
   1878485.000           0.000    24238972.912           0.000  
   5684291.002           0.000    23882596.202           0.000  
  -5864692.003           0.000    21835597.742           0.000  
   2160346.999           0.000    20961975.935           0.000  
 98  9 30 11 36 41.9970000  0  4G27G14G19G16
   1871781.998           0.000    24237697.457           0.000  
   5683845.002           0.000    23882511.274           0.000  
  -5870458.999           0.000    21834500.249           0.000  
   2158460.000           0.000    20961616.772           0.000  
 98  9 30 11 36 42.9970000  0  4G27G14G19G16
   1865079.000           0.000    24236421.951           0.000  
   5683399.002           0.000    23882426.316           0.000  
  -5876226.001           0.000    21833402.804           0.000  
   2156571.997           0.000    20961257.638           0.000  
 98  9 30 11 36 43.9970000  0  4G27G14G19G16
   1858375.997           0.000    24235146.494           0.000  
   5682953.002           0.000    23882341.471           0.000  
  -5881992.998           0.000    21832305.500           0.000  
   2154684.998           0.000    20960898.587           0.000  
 98  9 30 11 36 44.9970000  0  4G27G14G19G16
   1851673.999           0.000    24233871.076           0.000  
   5682507.001           0.000    23882256.688           0.000  
  -5887759.002           0.000    21831208.270           0.000  
   2152798.997           0.000    20960539.633           0.000  
 98  9 30 11 36 45.9970000  0  4G27G14G19G16
   1844971.001           0.000    24232595.660           0.000  
   5682062.000           0.000    23882171.819           0.000  
  -5893525.000           0.000    21830111.064           0.000  
   2150911.998           0.000    20960180.659           0.000  
 98  9 30 11 36 46.9970000  0  4G27G14G19G16
   1838267.998           0.000    24231320.272           0.000  
   5681616.000           0.000    23882087.074           0.000  
  -5899290.000           0.000    21829013.987           0.000  
   2149025.997           0.000    20959821.806           0.000  
 98  9 30 11 36 47.9970000  0  4G27G14G19G16
   1831565.999           0.000    24230044.912           0.000  
   5681170.998           0.000    23882002.448           0.000  
  -5905054.001           0.000    21827917.015           0.000  
   2147141.000           0.000    20959463.039           0.000  
 98  9 30 11 36 48.9970000  0  4G27G14G19G16
   1824864.000           0.000    24228769.559           0.000  
   5680726.002           0.000    23881917.851           0.000  
  -5910818.003           0.000    21826820.131           0.000  
   2145255.998           0.000    20959104.355           0.000  
 98  9 30 11 36 49.9970000  0  5G 4G27G14G19G16
   4719354.999           0.000    20659877.109           0.000  
   1818162.001           0.000    24227494.278           0.000  
   5680281.998           0.000    23881833.327           0.000  
  -5916581.999           0.000    21825723.362           0.000  
   2143372.000           0.000    20958745.765           0.000  
 98  9 30 11 36 50.9970000  0  6G 4G27G14G18G19G16
   4715914.002           0.000    20659221.985           0.000  
   1811459.997           0.000    24226219.018           0.000  
   5679838.000           0.000    23881748.800           0.000  
   4722862.998           0.000    20085535.291           0.000  
  -5922343.998           0.000    21824626.696           0.000  
   2141488.001           0.000    20958387.246           0.000  
 98  9 30 11 36 51.9970000  0  6G 4G27G14G18G19G16
   4712473.998           0.000    20658566.414           0.000  
   1804757.998           0.000    24224943.822           0.000  
   5679394.002           0.000    23881664.383           0.000  
   4720018.001           0.000    20084997.482           0.000  
  -5928107.001           0.000    21823530.173           0.000  
   2139603.997           0.000    20958028.847           0.000  
 98  9 30 11 36 52.9970000  0  5G27G14G18G19G16
   1798056.998           0.000    24223668.583           0.000  
   5678949.999           0.000    23881580.020           0.000  
   4717172.998           0.000    20084454.842           0.000  
  -5933868.002           0.000    21822433.726           0.000  
   2137720.997           0.000    20957670.529           0.000  
 98  9 30 11 36 53.9970000  0  6G 4G27G14G18G19G16
   4705598.998           0.000    20657259.860           0.000  
   1791354.999           0.000    24222393.384           0.000  
   5678507.000           0.000    23881495.679           0.000  
   4714328.001           0.000    20083911.214           0.000  
  -5939630.001           0.000    21821337.340           0.000  
   2135837.997           0.000    20957312.291           0.000  
 98  9 30 11 36 54.9970000  0  6G 4G27G14G18G19G16
   4702159.997           0.000    20656606.658           0.000  
   1784653.998           0.000    24221118.253           0.000  
   5678064.000           0.000    23881411.430           0.000  
   4711484.002           0.000    20083370.327           0.000  
  -5945389.998           0.000    21820241.177           0.000  
   2133956.999           0.000    20956954.205           0.000  
 98  9 30 11 36 55.9970000  0  5G27G14G18G19G16
   1777952.998           0.000    24219843.132           0.000  
   5677621.001           0.000    23881327.159           0.000  
   4708641.001           0.000    20082829.899           0.000  
  -5951150.001           0.000    21819145.110           0.000  
   2132074.998           0.000    20956596.148           0.000  
 98  9 30 11 36 56.9970000  0  5G27G14G18G19G16
   1771251.997           0.000    24218567.979           0.000  
   5677179.000           0.000    23881242.930           0.000  
   4705798.001           0.000    20082289.170           0.000  
  -5956909.998           0.000    21818049.093           0.000  
   2130194.000           0.000    20956238.169           0.000  
 98  9 30 11 36 57.9970000  0  5G27G14G18G19G16
   1764551.002           0.000    24217292.850           0.000  
   5676736.000           0.000    23881158.762           0.000  
   4702955.000           0.000    20081747.653           0.000  
  -5962669.002           0.000    21816953.163           0.000  
   2128313.002           0.000    20955880.287           0.000  
 98  9 30 11 36 58.9970000  0  5G27G14G18G19G16
   1757851.000           0.000    24216017.829           0.000  
   5676293.999           0.000    23881074.692           0.000  
   4700114.002           0.000    20081205.954           0.000  
  -5968427.002           0.000    21815857.395           0.000  
   2126432.997           0.000    20955522.510           0.000  
 98  9 30 11 36 59.9970000  0  5G27G14G18G19G16
   1751150.998           0.000    24214742.791           0.000  
   5675853.002           0.000    23880990.660           0.000  
   4697272.998           0.000    20080663.725           0.000  
  -5974185.002           0.000    21814761.699           0.000  
   2124552.998           0.000    20955164.822           0.000  
 98  9 30 11 37  0.9970000  0  5G27G14G18G19G16
   1744449.997           0.000    24213467.730           0.000  
   5675411.001           0.000    23880906.660           0.000  
   4694432.000           0.000    20080121.343           0.000  
  -5979941.998           0.000    21813666.080           0.000  
   2122672.998           0.000    20954807.159           0.000  
 98  9 30 11 37  1.9970000  0  5G27G14G18G19G16
   1737750.000           0.000    24212192.734           0.000  
   5674969.998           0.000    23880822.718           0.000  
   4691591.002           0.000    20079580.927           0.000  
  -5985699.000           0.000    21812570.565           0.000  
   2120793.997           0.000    20954449.590           0.000  
 98  9 30 11 37  2.9970000  0  5G27G14G18G19G16
   1731049.998           0.000    24210917.724           0.000  
   5674529.001           0.000    23880738.828           0.000  
   4688752.000           0.000    20079040.034           0.000  
  -5991456.002           0.000    21811475.135           0.000  
   2118915.002           0.000    20954092.111           0.000  
 98  9 30 11 37  3.9970000  0  5G27G14G18G19G16
   1724348.998           0.000    24209642.686           0.000  
   5674087.000           0.000    23880654.897           0.000  
   4685912.001           0.000    20078498.758           0.000  
  -5997212.000           0.000    21810379.722           0.000  
   2117036.001           0.000    20953734.623           0.000  
 98  9 30 11 37  4.9970000  0  5G27G14G18G19G16
   1717649.001           0.000    24208367.585           0.000  
   5673646.003           0.000    23880570.942           0.000  
   4683072.999           0.000    20077957.322           0.000  
  -6002967.998           0.000    21809284.330           0.000  
   2115157.000           0.000    20953377.090           0.000  
 98  9 30 11 37  5.9970000  0  5G27G14G18G19G16
   1710948.001           0.000    24207092.509           0.000  
   5673205.000           0.000    23880486.973           0.000  
   4680233.998           0.000    20077416.111           0.000  
  -6008724.001           0.000    21808189.044           0.000  
   2113279.002           0.000    20953019.654           0.000  
 98  9 30 11 37  6.9970000  0  5G27G14G18G19G16
   1704247.999           0.000    24205817.471           0.000  
   5672764.003           0.000    23880403.108           0.000  
   4677396.000           0.000    20076875.324           0.000  
  -6014479.001           0.000    21807093.861           0.000  
   2111401.000           0.000    20952662.293           0.000  
 98  9 30 11 37  7.9970000  0  5G27G14G18G19G16
   1697546.998           0.000    24204542.385           0.000  
   5672323.000           0.000    23880319.256           0.000  
   4674557.997           0.000    20076334.634           0.000  
  -6020234.000           0.000    21805998.723           0.000  
   2109522.997           0.000    20952304.964           0.000  
 98  9 30 11 37  8.9970000  0  5G27G14G18G19G16
   1690845.997           0.000    24203267.201           0.000  
   5671880.999           0.000    23880235.266           0.000  
   4671719.001           0.000    20075794.570           0.000  
  -6025989.000           0.000    21804903.532           0.000  
   2107645.000           0.000    20951947.582           0.000  
 98  9 30 11 37  9.9970000  0  5G27G14G18G19G16
   1684143.999           0.000    24201991.975           0.000  
   5671440.002           0.000    23880151.262           0.000  
   4668880.998           0.000    20075254.429           0.000  
  -6031743.999           0.000    21803808.404           0.000  
   2105766.997           0.000    20951590.205           0.000  
 98  9 30 11 37 10.9970000  0  5G27G14G18G19G16
   1677442.998           0.000    24200716.813           0.000  
   5670998.999           0.000    23880067.314           0.000  
   4666043.999           0.000    20074714.491           0.000  
  -6037498.999           0.000    21802713.384           0.000  
   2103889.000           0.000    20951232.893           0.000  
 98  9 30 11 37 11.9970000  0  5G27G14G18G19G16
   1670743.001           0.000    24199441.652           0.000  
   5670558.002           0.000    23879983.497           0.000  
   4663207.000           0.000    20074174.392           0.000  
  -6043252.001           0.000    21801618.505           0.000  
   2102012.001           0.000    20950875.697           0.000  
 98  9 30 11 37 12.9970000  0  5G27G14G18G19G16
   1664042.001           0.000    24198166.556           0.000  
   5670116.999           0.000    23879899.692           0.000  
   4660370.999           0.000    20073634.742           0.000  
  -6049004.999           0.000    21800523.760           0.000  
   2100136.001           0.000    20950518.631           0.000  
 98  9 30 11 37 13.9970000  0  5G27G14G18G19G16
   1657341.000           0.000    24196891.528           0.000  
   5669677.000           0.000    23879815.905           0.000  
   4657536.002           0.000    20073095.230           0.000  
  -6054758.001           0.000    21799429.065           0.000  
   2098259.002           0.000    20950161.587           0.000  
 98  9 30 11 37 14.9970000  0  5G27G14G18G19G16
   1650640.998           0.000    24195616.498           0.000  
   5669237.002           0.000    23879732.136           0.000  
   4654700.001           0.000    20072555.512           0.000  
  -6060510.999           0.000    21798334.432           0.000  
   2096383.002           0.000    20949804.592           0.000  
 98  9 30 11 37 15.9970000  0  5G27G14G18G19G16
   1643941.001           0.000    24194341.499           0.000  
   5668797.003           0.000    23879648.469           0.000  
   4651864.999           0.000    20072016.340           0.000  
  -6066262.998           0.000    21797239.918           0.000  
   2094508.000           0.000    20949447.684           0.000  
 98  9 30 11 37 16.9970000  0  5G27G14G18G19G16
   1637240.001           0.000    24193066.503           0.000  
   5668356.999           0.000    23879564.845           0.000  
   4649031.000           0.000    20071477.170           0.000  
  -6072013.998           0.000    21796145.478           0.000  
   2092632.998           0.000    20949090.864           0.000  
 98  9 30 11 37 17.9970000  0  5G27G14G18G19G16
   1630539.999           0.000    24191791.519           0.000  
   5667917.998           0.000    23879481.255           0.000  
   4646198.000           0.000    20070938.334           0.000  
  -6077764.999           0.000    21795051.152           0.000  
   2090758.001           0.000    20948734.136           0.000  
 98  9 30 11 37 18.9970000  0  5G27G14G18G19G16
   1623841.000           0.000    24190516.651           0.000  
   5667478.998           0.000    23879397.767           0.000  
   4643365.000           0.000    20070399.501           0.000  
  -6083515.001           0.000    21793956.973           0.000  
   2088883.998           0.000    20948377.522           0.000  
 98  9 30 11 37 19.9970000  0  5G27G14G18G19G16
   1617140.998           0.000    24189241.692           0.000  
   5667040.003           0.000    23879314.273           0.000  
   4640532.998           0.000    20069860.472           0.000  
  -6089265.003           0.000    21792862.792           0.000  
   2087010.000           0.000    20948020.923           0.000  
 98  9 30 11 37 20.9970000  0  5G27G14G18G19G16
   1610441.001           0.000    24187966.794           0.000  
   5666602.001           0.000    23879230.849           0.000  
   4637701.002           0.000    20069321.664           0.000  
  -6095014.001           0.000    21791768.758           0.000  
   2085137.000           0.000    20947664.438           0.000  
 98  9 30 11 37 21.9970000  0  5G27G14G18G19G16
   1603741.998           0.000    24186691.941           0.000  
   5666163.999           0.000    23879147.441           0.000  
   4634869.000           0.000    20068782.900           0.000  
  -6100762.999           0.000    21790674.756           0.000  
   2083263.002           0.000    20947308.001           0.000  
