     2.10           OBSERVATION DATA    G (GPS)             RINEX VERSION / TYPE
teqc  2002Mar14                         20041212 00:33:36UTCPGM / RUN BY / DATE
GALB                                                        MARKER NAME
                                                            MARKER NUMBER
                    MSD                                     OBSERVER / AGENCY
80108               LEICA RS500         4.10                REC # / TYPE / VERS
2084                LEIAT303                                ANT # / TYPE
   475546.0224 -4925640.5090  4010733.3612                  APPROX POSITION XYZ
        0.0000        0.0000        0.0000                  ANTENNA: DELTA H/E/N
     1     1                                                WAVELENGTH FACT L1/2
     4    L1    C1    L2    P2                              # / TYPES OF OBSERV
    30.0000                                                 INTERVAL
    13                                                      LEAP SECONDS
Forced Modulo Decimation to 30 seconds                      COMMENT
  2004    12    11     0     0    0.0000000     GPS         TIME OF FIRST OBS
HP-UX 10.20|PA-RISC|cc A.10.32.03|=+|=|                     COMMENT
teqc  2002Mar14                         20041212 00:22:56UTCCOMMENT
     2              Observation Data                        COMMENT
CS 4.3              Leica Inc.          Fri 10 Dec 2004     COMMENT
BIT 2 OF LLI FLAGS DATA COLLECTED UNDER A/S CONDITION       COMMENT
SNR is mapped to RINEX snr flag value [2-9]                 COMMENT
L1&L2:  < 25dBHz -> 1; 25-27dBHz -> 2; 28-31dBHz -> 3       COMMENT
       32-35dBHz -> 4; 36-38dBHz -> 5; 39-41dBHz -> 6       COMMENT
       42-44dBHz -> 7; 45-48dBHz -> 8; 49-55dBHz -> 9       COMMENT
                                                            END OF HEADER
 04 12 11  0  0  0.0000000  0  9G 2G 4G 5G 7G10G13G17G24G30
 106638558.74549  20292624.654    83095017.19349  20292622.456
 112377398.99849  21384687.847    87566851.53149  21384687.670
 113578661.70348  21613293.468    88502857.24649  21613293.201
 122672428.31046  23343771.978    95588951.57847  23343773.234
 114228968.13148  21737041.554    89009598.85349  21737041.983
 125788800.60745  23936811.669    98017251.63946  23936811.362
 114351011.02248  21760262.000    89104721.26849  21760262.439
 109024722.59049  20746702.364    84954384.14349  20746702.954
 118013675.59547  22457251.494    91958727.80848  22457251.669
 04 12 11  0  0 30.0000000  0  9G 2G 4G 5G 7G10G13G17G24G30
 106626898.18149  20290405.717    83085931.04649  20290403.518
 112440182.93048  21396635.244    87615774.06449  21396635.090
 113588932.67748  21615247.975    88510860.59949  21615247.709
 122755646.51746  23359607.894    95653796.91347  23359609.181
 114136487.33548  21719443.008    88937535.93449  21719443.452
 125770650.21845  23933357.753    98003108.47146  23933357.487
 114304271.70048  21751367.791    89068301.03749  21751368.231
 109052819.20649  20752048.984    84976277.60649  20752049.569
 117965516.97847  22448087.202    91921201.63748  22448087.364
 04 12 11  0  1  0.0000000  0  9G 2G 4G 5G 7G10G13G17G24G30
 106615282.59049  20288195.343    83076879.94149  20288193.138
 112502841.93048  21408558.838    87664599.28149  21408558.684
 113599503.08848  21617259.445    88519097.28749  21617259.185
 122838810.28346  23375433.451    95718599.79847  23375434.776
 114044102.32048  21701862.695    88865547.64249  21701863.145
 125752750.68845  23929951.544    97989160.83846  23929951.272
 114257462.14148  21742460.216    89031826.07549  21742460.657
 109080859.54249  20757384.877    84998127.23049  20757385.455
 117917619.04047  22438972.509    91883878.57948  22438972.684
 04 12 11  0  1 30.0000000  0  9G 2G 4G 5G 7G10G13G17G24G30
 106604327.38049  20286110.630    83068343.42249  20286108.426
 112565991.04348  21420575.709    87713806.39049  21420575.555
 113610988.33548  21619445.027    88528046.81549  21619444.766
 122922534.60045  23391365.682    95783839.48747  23391367.020
 113952431.40448  21684418.270    88794115.79249  21684418.719
 125735719.41745  23926710.571    97975889.75246  23926710.283
 114211197.79148  21733656.385    88995775.95549  21733656.827
 109109458.52149  20762827.075    85020412.15549  20762827.653
 117870599.21047  22430024.909    91847239.78248  22430025.070
 04 12 11  0  2  0.0000000  0  9G 2G 4G 5G 7G10G13G17G24G30
 106593416.47649  20284034.354    83059841.42349  20284032.151
 112629013.15248  21432568.417    87762914.52949  21432568.264
 113622771.77448  21621687.353    88537228.70449  21621687.085
 123006203.10046  23407287.322    95849035.65547  23407288.705
 113860860.98848  21666992.981    88722762.26049  21666993.420
 125718942.06745  23923517.930    97962816.51046  23923517.641
 114164862.91048  21724839.133    88959670.87049  21724839.574
 109137999.32549  20768258.216    85042651.75249  20768258.783
 117823843.16747  22421127.518    91810806.52048  22421127.672
 04 12 11  0  2 30.0000000  0  9G 2G 4G 5G 7G10G13G17G24G30
 106583011.26449  20282054.302    83051733.47449  20282052.091
 112692369.33248  21444624.685    87812283.00249  21444624.519
 113635314.91048  21624074.244    88547002.56749  21624073.970
 123090276.59646  23423286.000    95914547.47447  23423287.345
 113769855.43048  21649675.175    88651848.86849  21649675.607
 125702881.99446  23920461.764    97950302.21546  23920461.461
 114118919.28448  21716096.322    88923870.68249  21716096.756
 109166942.73149  20773765.963    85065205.06249  20773766.531
 117777814.44647  22412368.544    91774939.98948  22412368.684
 04 12 11  0  3  0.0000000  0  9G 2G 4G 5G 7G10G13G17G24G30
 106572649.20349  20280082.467    83043659.14549  20280080.243
 112755595.78048  21456656.278    87861550.37149  21456656.114
 113648154.60748  21626517.563    88557007.51549  21626517.295
 123174292.21046  23439273.711    95980014.11348  23439275.066
 113678954.78548  21632377.322    88581017.23749  21632377.754
 125687078.33346  23917454.409    97937987.70446  23917454.086
 114072904.53148  21707339.987    88888015.05649  21707340.408
 109195825.58749  20779262.187    85087711.19249  20779262.750
 117732052.49447  22403660.316    91739281.34848  22403660.465
 04 12 11  0  3 30.0000000  0  9G 2G 4G 5G 7G10G13G17G24G30
 106562791.47249  20278206.615    83035977.78049  20278204.390
 112819153.37448  21468750.880    87911075.77949  21468750.709
 113661751.83548  21629105.054    88567602.73549  21629104.779
 123258710.87846  23455338.079    96045794.83947  23455339.467
 113588623.25448  21615187.774    88510629.06749  21615188.206
 125671993.79746  23914583.947    97926233.50046  23914583.559
 114027280.21948  21698657.952    88852463.67349  21698658.351
 109225108.88249  20784834.607    85110529.35449  20784835.179
 117687020.39847  22395090.987    91704191.40848  22395091.135
 04 12 11  0  4  0.0000000  0  9G 2G 4G 5G 7G10G13G17G24G30
 106553283.64349  20276397.336    83028569.08649  20276395.096
 112882886.61648  21480878.919    87960738.04649  21480878.742
 113675951.62549  21631807.190    88578667.50249  21631806.916
 123343377.48546  23471449.617    96111768.80347  23471451.006
 113498709.02348  21598077.635    88440566.06549  21598078.059
 125657475.85146  23911821.238    97914920.86046  23911820.798
 113981892.13548  21690020.875    88817096.35149  21690021.260
 109254637.39849  20790453.691    85133538.59749  20790454.255
 117642565.55247  22386631.500    91669551.28148  22386631.662
 04 12 11  0  4 30.0000000  0  9G 2G 4G 5G 7G10G13G17G24G30
 106544279.32549  20274683.871    83021552.73549  20274681.631
 112946948.52949  21493069.490    88010656.43349  21493069.299
 113690907.27748  21634653.168    88590321.24049  21634652.901
 123428445.23645  23487637.484    96178055.32647  23487638.867
 113409368.26848  21581076.636    88370949.92049  21581077.063
 125643679.26346  23909195.841    97904170.29447  23909195.354
 113936893.92548  21681457.988    88782032.82849  21681458.366
 109284563.79549  20796148.489    85156857.87349  20796149.053
 117598843.46247  22378311.445    91635482.14048  22378311.615
 04 12 11  0  5  0.0000000  0  9G 2G 4G 5G 7G10G13G17G24G30
 106535162.40049  20272948.984    83014448.63349  20272946.745
 113010722.59248  21505205.285    88060350.51749  21505205.079
 113706002.32648  21637525.660    88602083.61549  21637525.401
 123513297.66446  23503784.387    96244174.07047  23503785.763
 113319987.87848  21564068.096    88301302.87949  21564068.529
 125629989.61546  23906590.776    97893503.08046  23906590.235
 113891670.09548  21672852.167    88746793.50049  21672852.540
 109314271.75749  20801801.720    85180006.94549  20801802.278
 117555239.86047  22370013.943    91601505.32148  22370014.129
 04 12 11  0  5 30.0000000  0  9G 2G 4G 5G 7G10G13G17G24G30
 106526703.14549  20271339.241    83007857.01049  20271336.995
 113074977.93248  21517432.675    88110419.61849  21517432.457
 113722006.59248  21640571.182    88614554.44549  21640570.935
 123598704.66445  23520036.799    96310724.93647  23520038.194
 113231340.59648  21547199.067    88232227.09849  21547199.487
 125617179.05745  23904153.031    97883520.81746  23904152.434
 113846990.96348  21664349.994    88711978.60449  21664350.379
 109344530.58649  20807559.778    85203585.26249  20807560.328
 117512526.99047  22361885.972    91568222.55448  22361886.152
 04 12 11  0  6  0.0000000  0  9G 2G 4G 5G 7G10G13G17G24G30
 106518593.85649  20269796.089    83001538.08749  20269793.850
 113139406.44548  21529693.008    88160623.66349  21529692.782
 113738612.04348  21643731.101    88627493.75549  21643730.847
 123684357.94746  23536336.089    96377467.75547  23536337.450
 113143121.51848  21530411.511    88163484.98149  21530411.929
 125604941.78646  23901824.344    97873985.32646  23901823.670
 113802549.31848  21655893.018    88677348.77249  21655893.397
 109375032.33449  20813364.068    85227352.86449  20813364.604
 117470398.94247  22353869.271    91535395.50348  22353869.451
 04 12 11  0  6 30.0000000  0  9G 2G 4G 5G 7G10G13G17G24G30
 106510527.06649  20268261.030    82995252.28149  20268258.784
 113203699.95548  21541927.644    88210722.51349  21541927.426
 113755510.72248  21646946.818    88640661.54249  21646946.570
 123769949.63646  23552623.723    96444162.48247  23552625.105
 113055025.78748  21513647.439    88094838.97549  21513647.843
 125592971.60746  23899546.525    97864657.92047  23899545.792
 113758037.81248  21647422.742    88642664.50249  21647423.114
 109405468.77749  20819155.930    85251069.57649  20819156.452
 117428549.98047  22345905.673    91502785.93948  22345905.855
 04 12 11  0  7  0.0000000  0  9G 2G 4G 5G 7G10G13G17G24G30
 106503119.22249  20266851.358    82989479.93849  20266849.112
 113268474.24348  21554253.793    88261195.96849  21554253.589
 113773318.19748  21650335.480    88654537.48449  21650335.232
 123856095.50346  23569016.719    96511289.15547  23569018.071
 112967672.49848  21497024.637    88026771.50649  21497025.034
 125581886.46945  23897437.087    97856020.18146  23897436.299
 113714072.96448  21639056.510    88608406.18049  21639056.882
 109436455.83149  20825052.571    85275215.33649  20825053.093
 117387598.20348  22338112.814    91470875.47148  22338112.993
 04 12 11  0  7 30.0000000  0  9G 2G 4G 5G 7G10G13G17G24G30
 106495753.46349  20265449.677    82983740.41249  20265447.423
 113333111.48948  21566553.846    88311562.65949  21566553.650
 113791417.09548  21653779.598    88668640.50749  21653779.357
 123942178.38846  23585397.812    96578366.65247  23585399.172
 112880447.30648  21480426.223    87958803.84449  21480426.598
 125571070.84546  23895378.960    97847592.42446  23895378.155
 113670038.35048  21630676.995    88574093.50449  21630677.368
 109467375.86249  20830936.457    85299308.86749  20830936.972
 117346928.50747  22330373.635    91439184.79048  22330373.797
 04 12 11  0  8  0.0000000  0  9G 2G 4G 5G 7G10G13G17G24G30
 106488735.57249  20264114.217    82978271.92649  20264111.963
 113397917.30348  21578885.982    88362060.70949  21578885.774
 113810113.07248  21657337.330    88683208.79349  21657337.089
 124028503.77846  23601825.053    96645633.15247  23601826.415
 112793659.00548  21463910.940    87891176.61949  21463911.301
 125560832.33746  23893430.607    97839614.41846  23893429.783
 113626240.33748  21622342.487    88539965.20849  21622342.859
 109498534.34249  20836865.713    85323588.21349  20836866.221
 117306848.83347  22322746.738    91407953.87748  22322746.874
 04 12 11  0  8 30.0000000  0  9G 2G 4G 5G 7G10G13G17G24G30
 106482062.79749  20262844.418    82973072.36849  20262842.170
 113462888.45148  21591249.581    88412687.58849  21591249.344
 113829402.69248  21661008.022    88698239.66849  21661007.775
 124115068.20846  23618297.729    96713085.90947  23618299.120
 112707307.27248  21447478.740    87823889.57249  21447479.094
 125551169.56246  23891591.842    97832084.98546  23891591.004
 113582676.28548  21614052.511    88506019.20949  21614052.869
 109529927.72749  20842839.675    85348050.59649  20842840.170
 117267357.87547  22315231.871    91377181.70348  22315231.987
 04 12 11  0  9  0.0000000  0  9G 2G 4G 5G 7G10G13G17G24G30
 106475884.95349  20261668.789    82968258.48849  20261666.540
 113528173.77148  21603672.958    88463559.27749  21603672.715
 113849435.20848  21664820.077    88713849.41449  21664819.842
 124202021.13446  23634844.368    96780841.40847  23634845.736
 112621544.69448  21431158.640    87757061.62149  21431158.980
 125542233.99645  23889891.407    97825122.29746  23889890.499
 113539496.26148  21605835.614    88472372.45249  21605835.964
 109561705.46349  20848886.783    85372812.46649  20848887.279
 117228607.41947  22307857.916    91346986.55348  22307858.023
 04 12 11  0  9 30.0000000  0  9G 2G 4G 5G 7G10G13G17G24G30
 106470043.26149  20260557.140    82963706.52749  20260554.882
 113593613.95748  21616125.817    88514551.62449  21616125.567
 113870051.19148  21668743.180    88729913.81249  21668742.932
 124289203.48846  23651434.630    96848775.68847  23651435.996
 112536215.15448  21414920.945    87690571.10449  21414921.279
 125533868.12946  23888299.465    97818603.40547  23888298.550
 113496541.86948  21597661.659    88438901.50549  21597662.002
 109593708.33149  20854976.720    85397749.77049  20854977.215
 117190440.09047  22300594.903    91317245.80248  22300594.997
 04 12 11  0 10  0.0000000  0  9G 2G 4G 5G 7G10G13G17G24G30
 106464379.20449  20259479.300    82959292.98249  20259477.034
 113659049.64748  21628577.809    88565540.48449  21628577.560
 113891091.30648  21672746.981    88746308.71349  21672746.726
 124376455.70646  23668038.229    96916764.35447  23668039.660
 112451162.48048  21398735.935    87624296.32049  21398736.277
 125525915.13146  23886786.030    97812406.32247  23886785.082
 113453654.55548  21589500.469    88405482.81949  21589500.817
 109625777.19749  20861079.217    85422738.50249  20861079.719
 117152699.03147  22293413.012    91287837.19748  22293413.108
 04 12 11  0 10 30.0000000  0  9G 2G 4G 5G 7G10G13G17G24G30
 106459042.40249  20258463.723    82955134.44849  20258461.455
 113724630.54148  21641057.450    88616642.47149  21641057.187
 113912704.76048  21676859.891    88763150.35449  21676859.650
 124463927.38146  23684683.547    96984924.05646  23684684.986
 112366539.12448  21382632.628    87558356.05849  21382632.976
 125518525.72046  23885379.860    97806648.37646  23885378.918
 113410984.48548  21581380.612    88372233.42749  21581380.961
 109658061.22949  20867222.658    85447894.89549  20867223.159
 117115535.74047  22286341.055    91258878.80848  22286341.158
 04 12 11  0 11  0.0000000  0  9G 2G 4G 5G 7G10G13G17G24G30
 106454029.48849  20257509.797    82951228.28449  20257507.522
 113790352.02148  21653563.820    88667854.02949  21653563.557
 113934887.13948  21681081.063    88780435.32249  21681080.824
 124551614.26946  23701369.813    97053251.52047  23701371.152
 112282344.02648  21366610.810    87492749.52349  21366611.152
 125511697.93046  23884080.569    97801328.04646  23884079.624
 113368528.50048  21573301.501    88339150.84449  21573301.849
 109690556.30549  20873406.265    85473215.73549  20873406.767
 117078948.21847  22279378.669    91230369.06948  22279378.781
 04 12 11  0 11 30.0000000  0  9G 2G 4G 5G 7G10G13G17G24G30
 106449183.37349  20256587.600    82947452.10549  20256585.310
 113856056.33148  21666066.935    88719052.19949  21666066.650
 113957480.87748  21685380.508    88798040.82749  21685380.283
 124639358.96546  23718067.138    97121623.92947  23718068.484
 112198422.89648  21350641.103    87427356.48249  21350641.442
 125505275.78346  23882858.487    97796323.77247  23882857.559
 113326129.72448  21565233.270    88306112.86249  21565233.613
 109723104.95949  20879600.062    85498578.33649  20879600.566
 117042781.05247  22272496.268    91202186.89248  22272496.353
 04 12 11  0 12  0.0000000  0  9G 2G 4G 5G 7G10G13G17G24G30
 106444810.02349  20255755.361    82944044.31749  20255753.071
 113922049.30048  21678624.985    88770475.29049  21678624.687
 113980791.42448  21689816.364    88816204.88349  21689816.139
 124727466.69846  23734833.483    97190279.32647  23734834.787
 112115083.99448  21334782.219    87362417.10449  21334782.537
 125499566.74245  23881772.075    97791875.20946  23881771.137
 113284094.41048  21557234.216    88273358.07149  21557234.566
 109756012.59249  20885862.165    85524220.65349  20885862.682
 117007341.77647  22265752.375    91174571.90048  22265752.444
 04 12 11  0 12 30.0000000  0  9G 2G 4G 5G 7G10G13G17G24G30
 106440754.16249  20254983.563    82940883.90649  20254981.258
 113988174.82048  21691208.259    88822001.67249  21691207.940
 114004662.68048  21694358.907    88834805.87049  21694358.689
 124815781.82745  23751639.382    97259096.19147  23751640.744
 112032174.79148  21319005.087    87297812.56749  21319005.404
 125494417.01346  23880792.114    97787862.45347  23880791.173
 113242267.66948  21549274.846    88240765.80949  21549275.196
 109789123.39749  20892162.930    85550021.29149  20892163.446
 116972476.62146  22259117.750    91147404.27148  22259117.801
 04 12 11  0 13  0.0000000  0  9G 2G 4G 5G 7G10G13G17G24G30
 106437014.99949  20254272.012    82937970.29049  20254269.701
 114054431.82548  21703816.548    88873630.51549  21703816.208
 114029093.10048  21699007.855    88853842.55449  21699007.650
 124904303.11446  23768484.411    97328073.87047  23768485.683
 111949697.19748  21303310.093    87233544.34949  21303310.395
 125489826.86445  23879918.602    97784285.76246  23879917.655
 113200649.02548  21541355.075    88208335.70749  21541355.418
 109822436.31649  20898502.155    85575979.41549  20898502.677
 116938186.55647  22252592.544    91120684.77348  22252592.611
 04 12 11  0 13 30.0000000  0  9G 2G 4G 5G 7G10G13G17G24G30
 106433438.19149  20253591.362    82935183.17249  20253589.043
 114120665.11248  21716420.329    88925240.87149  21716419.969
 114053927.45948  21703733.677    88873193.99449  21703733.477
 124992875.63645  23785339.249    97397091.32847  23785340.581
 111867499.35349  21287668.339    87169494.11349  21287668.627
 125485643.32746  23879122.489    97781025.89546  23879121.517
 113159084.48048  21533445.594    88175947.76549  21533445.929
 109855796.17349  20904850.313    85601974.11549  20904850.833
 116904318.74547  22246147.702    91094294.29048  22246147.770
 04 12 11  0 14  0.0000000  0  9G 2G 4G 5G 7G10G13G17G24G30
 106430331.60449  20253000.186    82932762.46749  20252997.859
 114187182.48348  21729078.164    88977072.59149  21729077.804
 114079472.86648  21708594.800    88893099.50949  21708594.599
 125081806.68846  23802262.379    97466388.13747  23802263.768
 111785891.60049  21272138.876    87105903.69449  21272139.144
 125482175.83346  23878462.600    97778324.01146  23878461.605
 113117882.17548  21525605.050    88143842.08349  21525605.386
 109889510.38149  20911265.902    85628244.93649  20911266.413
 116871182.42448  22239842.064    91068473.79948  22239842.120
 04 12 11  0 14 30.0000000  0  8G 2G 4G 5G 7G10G17G24G30
 106427541.41049  20252469.242    82930588.27949  20252466.907
 114253829.19348  21741760.600    89029005.09949  21741760.245
 114105574.33248  21713561.750    88913438.30549  21713561.541
 125170941.91245  23819224.289    97535844.10247  23819225.700
 111704722.47149  21256692.881    87042655.05749  21256693.143
 113076888.57048  21517804.208    88111899.04349  21517804.539
 109923424.74449  20917719.584    85654671.71949  20917720.088
 116838625.47747  22233646.689    91043104.76248  22233646.734
 04 12 11  0 15  0.0000000  0  9G 2G 4G 5G 7G10G13G17G24G30
 106425067.77549  20251998.513    82928660.77749  20251996.192
 114320604.92248  21754467.598    89081038.13349  21754467.259
 114132231.25548  21718634.388    88934209.92649  21718634.183
 125260280.67946  23836224.939    97605458.66847  23836226.334
 111623994.49749  21241330.840    86979750.17549  21241331.090
 125476931.73646  23877465.234
 113036103.79348  21510043.105    88080118.71349  21510043.435
 109957538.87149  20924211.287    85681254.15949  20924211.784
 116806648.89847  22227561.730    91018187.97748  22227561.770
 04 12 11  0 15 30.0000000  0  9G 2G 4G 5G 7G10G13G17G24G30
 106422910.30149  20251587.959    82926979.63649  20251585.632
 114387508.76148  21767198.963    89133171.00349  21767198.623
 114159442.70348  21723812.560    88955413.64249  21723812.355
 125349822.17845  23853264.215    97675231.12147  23853265.686
 111543709.89649  21226053.165    86917190.77749  21226053.408
 125475156.35445  23877126.587    97772833.56056  23877123.696
 112995527.99948  21502321.777    88048501.21749  21502322.119
 109991851.89549  20930740.820    85707991.59649  20930741.308
 116775254.16947  22221587.494    90993724.57948  22221587.543
 04 12 11  0 16  0.0000000  0  9G 2G 4G 5G 7G10G13G17G24G30
 106421068.93549  20251237.541    82925544.82649  20251235.214
 114454539.91248  21779954.568    89185403.06349  21779954.233
 114187207.25048  21729095.972    88977048.35549  21729095.765
 125439565.51246  23870341.845    97745160.94947  23870343.340
 111463870.99249  21210860.303    86854978.67049  21210860.545
 125473946.97445  23876896.718    97771891.23947  23876894.503
 112955161.23448  21494640.201    88017046.63649  21494640.543
 110026363.33349  20937308.117    85734883.63149  20937308.610
 116744442.35147  22215724.188    90969715.38948  22215724.239
 04 12 11  0 16 30.0000000  0  9G 2G 4G 5G 7G10G13G17G24G30
 106419542.91249  20250947.148    82924355.71849  20250944.814
 114521697.52448  21792734.242    89237733.67249  21792733.910
 114215523.63748  21734484.401    88999113.06349  21734484.215
 125529509.70545  23887457.721    97815247.25447  23887459.239
 111384479.61249  21195752.590    86793115.30549  21195752.826
 125473304.21046  23876774.546    97771390.44046  23876772.271
 112915003.25348  21486998.379    87985754.71849  21486998.722
 110061072.05849  20943912.962    85761929.40249  20943913.449
 116714214.38347  22209971.991    90946161.13648  22209972.042
 04 12 11  0 17  0.0000000  0  9G 2G 4G 5G 7G10G13G17G24G30
 106418331.46949  20250716.607    82923411.75549  20250714.266
 114588980.00648  21805537.667    89290161.58749  21805537.350
 114244390.00048  21739977.481    89021606.32749  21739977.315
 125619653.31645  23904611.498    97885488.98246  23904613.055
 111305537.47548  21180730.371    86731601.98249  21180730.607
 125473228.73845  23876760.131    97771331.63347  23876757.872
 112875053.45548  21479396.168    87954625.02549  21479396.510
 110095976.71549  20950555.097    85789127.84349  20950555.570
 116684570.77047  22204330.970    90923062.25148  22204331.005
 04 12 11  0 17 30.0000000  0  9G 2G 4G 5G 7G10G13G17G24G30
 106417587.14649  20250574.973    82922831.75749  20250572.640
 114656539.70348  21818393.844    89342805.50049  21818393.547
 114273958.07648  21745604.087    89044646.38749  21745603.940
 125710148.27245  23921832.151    97956004.50447  23921833.673
 111227199.63749  21165823.152    86670559.53449  21165823.387
 125473873.61846  23876882.758    97771834.15647  23876880.570
 112835464.98148  21471862.714    87923776.88749  21471863.057
 110131229.48749  20957263.465    85816597.54549  20957263.945
 116655665.50547  22198830.463    90900538.67548  22198830.518
 04 12 11  0 18  0.0000000  0  9G 2G 4G 5G 7G10G13G17G24G30
 106417000.73349  20250463.376    82922374.81449  20250461.042
 114724066.93048  21831243.848    89395424.12149  21831243.543
 114303917.45848  21751305.162    89067991.34449  21751305.040
 125800684.73545  23939060.733    98026552.32647  23939062.324
 111149159.03349  21150972.489    86609748.71149  21150972.709
 125474930.47446  23877083.848    97772657.69747  23877081.741
 112795928.67948  21464339.188    87892969.39749  21464339.531
 110166520.41049  20963979.098    85844096.97849  20963979.572
 116627190.52547  22193411.831    90878350.40148  22193411.899
 04 12 11  0 18 30.0000000  0  9G 2G 4G 5G 7G10G13G17G24G30
 106416724.39449  20250410.778    82922159.50249  20250408.438
 114791713.18448  21844116.502    89448135.48949  21844116.206
 114334419.08848  21757109.435    89091758.82849  21757109.333
 125891414.24845  23956326.039    98097250.58146  23956327.682
 111071570.28049  21136207.829    86549289.96249  21136208.035
 125476552.81046  23877392.497    97773921.94547  23877390.399
 112756596.94548  21456854.590    87862321.31749  21456854.926
 110202001.49049  20970730.923    85871744.58049  20970731.383
 116599299.19647  22188104.275    90856616.90548  22188104.358
 04 12 11  0 19  0.0000000  0  9G 2G 4G 5G 7G10G13G17G24G30
 106416756.45149  20250416.867    82922184.49349  20250414.533
 114859476.26048  21857011.374    89500937.89149  21857011.084
 114365460.48148  21763016.398    89115946.92149  21763016.320
 125982334.51045  23973627.595    98168097.51347  23973629.212
 110994433.94049  21121529.253    86489183.75949  21121529.440
 125478739.82245  23877808.653    97775626.14246  23877806.627
 112717468.38649  21449408.655    87831831.56349  21449408.978
 110237670.57349  20977518.512    85899538.68949  20977518.958
 116571991.16847  22182907.712    90835337.92448  22182907.798
 04 12 11  0 19 30.0000000  0  9G 2G 4G 5G 7G10G13G17G24G30
 106417095.19849  20250481.310    82922448.46649  20250478.991
 114927354.16248  21869928.104    89553829.77149  21869927.806
 114397039.00048  21769025.585    89140553.55249  21769025.518
 126073443.07045  23990965.055    98239091.14447  23990966.673
 110917750.96449  21106936.951    86429430.82349  21106937.110
 125481490.88146  23878332.192    97777769.79146  23878330.181
 112678541.66448  21442001.128    87801499.07249  21442001.451
 110273525.65849  20984341.502    85927477.72749  20984341.949
 116545266.04047  22177822.090    90814513.13948  22177822.172
 04 12 11  0 20  0.0000000  0  9G 2G 4G 5G 7G10G13G17G24G30
 106417739.12149  20250603.833    82922950.23549  20250601.512
 114995344.90348  21882866.300    89606809.58149  21882866.001
 114429152.05148  21775136.477    89165576.71549  21775136.415
 126164738.06244  24008337.956    98310230.03047  24008339.607
 110841521.93449  21092431.025    86370031.61149  21092431.169
 125484805.40645  23878962.884    97780352.56746  23878960.899
 112639815.42348  21434631.752    87771322.80549  21434632.076
 110309564.79349  20991199.515    85955560.17149  20991199.968
 116519123.46247  22172847.316    90794142.31248  22172847.378
 04 12 11  0 20 30.0000000  0  9G 2G 4G 5G 7G10G13G17G24G30
 106418686.69749  20250784.139    82923688.62249  20250781.811
 115063446.57148  21895825.628    89659875.81549  21895825.325
 114461796.98948  21781348.602    89191014.31349  21781348.551
 126256217.03046  24025745.866    98381512.28947  24025747.570
 110765747.71649  21078011.641    86310986.80349  21078011.779
 125488682.69846  23879700.648    97783373.90946  23879698.741
 112601288.53848  21427300.317    87741301.87249  21427300.634
 110345785.76149  20998092.124    85983784.31949  20998092.586
 116493563.07447  22167983.342    90774225.12748  22167983.406
 04 12 11  0 21  0.0000000  0  9G 2G 4G 5G 7G10G13G17G24G30
 106419782.27749  20250992.615    82924542.33749  20250990.282
 115131503.05248  21908776.334    89712906.85649  21908776.039
 114494816.93448  21787632.095    89216744.12849  21787632.050
 126347723.84645  24043159.082    98452816.25246  24043160.779
 110690274.91949  21063649.621    86252176.86249  21063649.752
 125492968.01946  23880516.130    97786713.10947  23880514.239
 112562805.78148  21419977.274    87711315.32849  21419977.584
 110382032.76649  21004989.706    86012028.72949  21004990.175
 116468430.54147  22163200.768    90754641.35048  22163200.824
 04 12 11  0 21 30.0000000  0  9G 2G 4G 5G 7G10G13G17G24G30
 106421332.60449  20251287.626    82925750.39149  20251285.293
 115199820.42048  21921776.697    89766141.17049  21921776.410
 114528517.32148  21794045.071    89243004.16149  21794045.026
 126439564.39245  24060635.775    98524380.27847  24060637.491
 110615412.46949  21049403.741    86193842.51649  21049403.886
 125497968.65245  23881467.647    97790609.76246  23881465.795
 112524673.88649  21412720.998    87681602.18749  21412721.301
 110418611.93648  21011950.473    86040532.01049  21011950.921
 116444033.38347  22158558.138    90735630.58348  22158558.201
 04 12 11  0 22  0.0000000  0  9G 2G 4G 5G 7G10G13G17G24G30
 106423182.38549  20251639.616    82927191.79649  20251637.284
 115268243.27548  21934797.121    89819457.68849  21934796.833
 114562741.95348  21800557.808    89269672.69949  21800557.771
 126531582.92845  24078146.397    98596082.93447  24078148.157
 110541007.53549  21035244.911    86135864.68949  21035245.071
 125503530.28846  23882525.962    97794943.52146  23882524.144
 112486738.11349  21405502.043    87652041.86149  21405502.337
 110455367.53649  21018944.825    86069172.75149  21018945.252
 116420217.67647  22154026.153    90717072.89048  22154026.208
 04 12 11  0 22 30.0000000  0  9G 2G 4G 5G 7G10G13G17G24G30
 106425638.99049  20252107.086    82929106.04549  20252104.748
 115337078.28448  21947895.964    89873095.38249  21947895.675
 114597796.85648  21807228.546    89296988.19549  21807228.517
 126624085.93445  24095749.152    98668163.17246  24095750.910
 110467369.65049  21021232.052    86078484.56349  21021232.212
 125509961.29346  23883749.711    97799954.72047  23883747.960
 112449305.99348  21398378.935    87622873.99349  21398379.215
 110492606.54549  21026031.173    86098190.16649  21026031.594
 116397291.82047  22149663.508    90699208.59148  22149663.563
 04 12 11  0 23  0.0000000  0  9G 2G 4G 5G 7G10G13G17G24G30
 106427931.62449  20252543.354    82930892.52349  20252541.016
 115405554.71548  21960926.590    89926453.63649  21960926.314
 114632910.25548  21813910.422    89324349.26349  21813910.392
 126716302.18344  24113297.344    98740019.92046  24113299.130
 110393730.44849  21007218.954    86021103.39449  21007219.114
 125516491.54746  23884992.348    97805043.25247  23884990.647
 112411607.19249  21391205.074    87593498.32049  21391205.353
 110529557.87149  21033062.788    86126983.41049  21033063.190
 116374486.24347  22145323.721    90681438.03548  22145323.789
 04 12 11  0 23 30.0000000  0  9G 2G 4G 5G 7G10G13G17G24G30
 106430830.12549  20253094.909    82933151.11149  20253092.564
 115474441.55648  21974035.308    89980131.68749  21974035.065
 114668850.64648  21820749.656    89352354.76449  21820749.614
 126809000.85345  24130937.297    98812252.68547  24130939.041
 110320861.78749  20993352.491    85964322.64349  20993352.652
 125523891.84245  23886400.559    97810809.70847  23886398.935
 112374411.82549  21384127.001    87564514.94649  21384127.286
 110566991.23049  21040186.126    86156152.26049  21040186.521
 116352571.85847  22141153.546    90664361.90048  22141153.615
 04 12 11  0 24  0.0000000  0  9G 2G 4G 5G 7G10G13G17G24G30
 106433872.08949  20253673.769    82935521.48149  20253671.432
 115543276.36548  21987134.119    90033769.21649  21987133.874
 114705154.51948  21827658.072    89380643.48149  21827658.030
 126901718.78645  24148581.046    98884500.28547  24148582.879
 110248303.60949  20979545.099    85907783.83849  20979545.252
 125531700.33646  23887886.430    97816894.28547  23887884.836
 112337257.85848  21377056.819    87535563.82049  21377057.110
 110604443.94549  21047313.128    86185336.21749  21047313.511
 116331087.21447  22137065.167    90647620.61348  22137065.222
 04 12 11  0 24 30.0000000  0  9G 2G 4G 5G 7G10G13G17G24G30
 106437365.85049  20254338.604    82938243.90649  20254336.261
 115612366.57548  22000281.537    90087605.75349  22000281.299
 114742128.70848  21834694.032    89409454.53149  21834693.998
 126994763.29244  24166286.874    98957002.41446  24166288.792
 110176366.25649  20965855.846    85851728.80449  20965855.979
 125540225.78846  23889508.734    97823537.52247  23889507.159
 112300453.55349  21370053.168    87506885.17349  21370053.446
 110642223.38949  21054502.317    86214774.75449  21054502.687
 116310341.38547  22133117.337    90631455.06348  22133117.399
 04 12 11  0 25  0.0000000  0  9G 2G 4G 5G 7G10G13G17G24G30
 106441003.39049  20255030.811    82941078.35149  20255028.461
 115681404.23548  22013418.955    90141401.33449  22013418.737
 114779463.80447  21841798.688    89438546.79349  21841798.641
 127087826.07345  24183996.025    99029518.96347  24183997.883
 110104743.95848  20952226.546    85795919.26049  20952226.665
 125549161.32245  23891209.104    97830500.28346  23891207.552
 112263691.34249  21363057.546    87478239.30049  21363057.823
 110680021.30049  21061695.033    86244227.66949  21061695.398
 116290027.46147  22129251.726    90615626.02648  22129251.801
 04 12 11  0 25 30.0000000  0  9G 2G 4G 5G 7G10G13G17G24G30
 106445093.09249  20255809.043    82944265.14949  20255806.687
 115750697.23248  22026604.979    90195395.88449  22026604.757
 114817467.19348  21849030.511    89468159.81149  21849030.458
 127181214.46545  24201767.353    99102289.05147  24201769.219
 110033747.44848  20938716.336    85740597.33649  20938716.441
 125558815.56745  23893046.210    97838023.10746  23893044.680
 112227279.98148  21356128.671    87449866.84249  21356128.941
 110718145.82349  21068949.870    86273935.11249  21068950.236
 116270454.74047  22125527.155    90600374.57448  22125527.226
 04 12 11  0 26  0.0000000  0  9G 2G 4G 5G 7G10G13G17G24G30
 106449481.81449  20256644.195    82947684.92449  20256641.831
 115820092.13247  22039810.408    90249469.81849  22039810.187
 114855984.27047  21856360.078    89498173.09749  21856360.032
 127274774.89545  24219571.370    99175193.16746  24219573.309
 109963225.47849  20925296.421    85685645.18149  20925296.517
 125569036.02346  23894991.074    97845987.12047  23894989.565
 112191066.73548  21349237.513    87421648.73749  21349237.784
 110756443.46749  21076237.676    86303777.42749  21076238.049
 116251471.09847  22121914.682    90585582.13648  22121914.746
 04 12 11  0 26 30.0000000  0  9G 2G 4G 5G 7G10G13G17G24G30
 106454170.48349  20257536.413    82951338.43949  20257534.049
 115889589.38148  22053035.283    90303623.52648  22053035.061
 114895014.63848  21863787.322    89528586.35449  21863787.275
 127368507.36245  24237408.101    99248231.44247  24237410.002
 109893181.03449  20911967.371    85631065.12649  20911967.472
 125579824.23246  23897044.002    97854393.53846  23897042.498
 112155052.59549  21342384.245    87393585.78549  21342384.502
 110794914.70449  21083558.514    86333755.00749  21083558.888
 116233078.23247  22118414.630    90571250.04048  22118414.687
 04 12 11  0 27  0.0000000  0  9G 2G 4G 5G 7G10G13G17G24G30
 106459006.25449  20258456.624    82955106.57649  20258454.267
 115959035.76048  22066250.477    90357737.60348  22066250.240
 114934404.03248  21871282.905    89559279.37349  21871282.839
 127462258.38345  24255248.422    99321284.08346  24255250.379
 109823463.71549  20898700.577    85576739.97649  20898700.670
 125591028.11546  23899176.018    97863123.84647  23899174.552
 112119085.26449  21335539.877    87365559.31149  21335540.128
 110833406.41649  21090883.232    86363748.56949  21090883.599
 116215124.15447  22114998.082    90557259.85448  22114998.117
 04 12 11  0 27 30.0000000  0  9G 2G 4G 5G 7G10G13G17G24G30
 106464298.62049  20259463.716    82959230.51649  20259461.352
 116028740.48447  22079514.845    90412052.97948  22079514.587
 114974460.70748  21878905.448    89590492.35549  21878905.368
 127556336.74845  24273150.922    99394591.92046  24273152.848
 109754385.12449  20885555.322    85522912.54149  20885555.415
 125602957.71246  23901446.110    97872419.66547  23901444.663
 112083474.41148  21328763.363    87337810.58949  21328763.614
 110872227.95349  21098270.725    86393999.11449  21098271.099
 116197919.31347  22111724.104    90543853.49948  22111724.103
 04 12 11  0 28  0.0000000  0  9G 2G 4G 5G 7G10G13G17G24G30
 106470049.52149  20260558.076    82963711.73749  20260555.712
 116098705.36148  22092828.725    90466571.06949  22092828.446
 115015185.00548  21886655.054    89622225.55349  21886654.962
 127650743.73445  24291115.980    99468155.76447  24291117.943
 109685949.36449  20872532.394    85469586.01349  20872532.479
 125615615.41246  23903854.796    97882282.80047  23903853.379
 112048222.45148  21322055.126    87310341.55049  21322055.363
 110911380.73449  21105721.263    86424507.76149  21105721.645
 116181466.50447  22108593.239    90531033.13348  22108593.223
 04 12 11  0 28 30.0000000  0  9G 2G 4G 5G 7G10G13G17G24G30
 106475799.57749  20261652.269    82968192.31149  20261649.891
 116168470.37848  22106104.572    90520933.41548  22106104.286
 115056116.33448  21894444.039    89654120.08849  21894443.933
 127745018.91745  24309056.076    99541616.80647  24309058.109
 109617698.85549  20859544.719    85416403.83849  20859544.802
 125628542.31346  23906314.638    97892355.78447  23906313.259
 112012869.96049  21315327.747    87282794.17749  21315327.983
 110950405.04049  21113147.336    86454916.31349  21113147.732
 116165307.05047  22105518.203    90518441.35148  22105518.166
 04 12 11  0 29  0.0000000  0  9G 2G 4G 5G 7G10G13G17G24G30
 106481859.50149  20262805.428    82972914.33849  20262803.051
 116238346.23847  22119401.506    90575382.13648  22119401.213
 115097564.13348  21902331.311    89686417.05949  21902331.191
 127839472.59444  24327029.942    99615217.15245  24327031.966
 109549946.29949  20846651.806    85363609.68049  20846651.877
 125642049.69746  23908884.996    97902881.00646  23908883.671
 111977728.54148  21308640.563    87255411.25249  21308640.801
 110989611.31649  21120608.048    86485466.65449  21120608.444
 116149752.49447  22102558.257    90506320.94248  22102558.200
 04 12 11  0 29 30.0000000  0  9G 2G 4G 5G 7G10G13G17G24G30
 106488387.18149  20264047.599    82978000.84849  20264045.221
 116308490.12947  22132749.462    90630039.69549  22132749.170
 115139684.27248  21910346.525    89719237.92549  21910346.397
 127934261.73146  24345067.756    99689078.72947  24345069.809
 109482851.47349  20833884.044    85311328.04749  20833884.099
 125656295.44045  23911595.829    97913981.61246  23911594.560
 111942955.85248  21302023.535    87228315.66649  21302023.767
 111029156.97749  21128133.325    86516281.47249  21128133.715
 116134961.30248  22099743.587    90494795.33948  22099743.515
 04 12 11  0 30  0.0000000  0  9G 2G 4G 5G 7G10G13G17G24G30
 106495232.23549  20265350.169    82983334.66049  20265347.784
 116378751.54047  22146119.770    90684788.85549  22146119.458
 115182324.87048  21918460.785    89752464.34149  21918460.657
 128029234.87545  24363140.616    99763083.69446  24363142.714
 109416266.20049  20821213.264    85259443.45949  20821213.299
 125671129.89245  23914418.672    97925540.98346  23914417.401
 111908401.98549  21295448.147    87201390.58549  21295448.379
 111068891.56749  21135694.560    86547243.49349  21135694.957
 116120783.77648  22097045.687    90483747.92348  22097045.623
 04 12 11  0 30 30.0000000  0  9G 2G 4G 5G 7G10G13G17G24G30
 106502243.99149  20266684.450    82988798.37949  20266682.065
 116448979.45548  22159483.710    90739511.90949  22159483.395
 115225334.21248  21926645.208    89785978.09849  21926645.074
 128124241.08945  24381219.697    99837114.46546  24381221.846
 109350041.87949  20808611.165    85207840.13249  20808611.186
 125686402.94545  23917325.007    97937442.10446  23917323.699
 111873916.50349  21288885.772    87174518.78449  21288886.019
 111108664.14949  21143263.031    86578235.11649  21143263.427
 116107069.99948  22094436.037    90473061.88648  22094435.953
 04 12 11  0 31  0.0000000  0  9G 2G 4G 5G 7G10G13G17G24G30
 106509579.55449  20268080.349    82994514.41149  20268077.963
 116519330.72548  22172871.112    90794331.08348  22172870.789
 115268867.98848  21934929.440    89819900.50549  21934929.296
 128219436.35146  24399334.807    99911292.55647  24399336.901
 109284337.39749  20796107.988    85156641.86549  20796108.001
 125702271.83246  23920344.762    97949807.43947  23920343.471
 111839657.00849  21282366.383    87147823.09949  21282366.645
 111148631.12649  21150868.482    86609378.23049  21150868.879
 116093977.90647  22091944.700    90462860.25848  22091944.612
 04 12 11  0 31 30.0000000  0  9G 2G 4G 5G 7G10G13G17G24G30
 106517241.48549  20269538.361    83000484.75349  20269535.982
 116589807.76548  22186282.452    90849248.26248  22186282.118
 115312926.91948  21943313.605    89854232.11349  21943313.471
 128314822.62545  24417486.306    99985619.37446  24417488.475
 109219157.47749  20783704.638    85105852.33849  20783704.649
 125718739.57946  23923478.458    97962639.45347  23923477.180
 111805626.30849  21275890.550    87121305.67349  21275890.811
 111188794.95249  21158511.392    86640674.73049  21158511.781
 116081510.48948  22089572.241    90453145.37748  22089572.131
 04 12 11  0 32  0.0000000  0  9G 2G 4G 5G 7G10G13G17G24G30
 106525231.71249  20271058.832    83006710.92249  20271056.453
 116660412.05148  22199717.983    90904264.60248  22199717.639
 115357511.31748  21951797.752    89888973.18649  21951797.626
 128410400.97945  24435674.251   100060096.03046  24435676.389
 109154505.74349  20771401.798    85055474.39449  20771401.795
 125735808.38445  23926726.520    97975939.84546  23926725.264
 111771826.64449  21269458.664    87094968.29749  21269458.924
 111229157.40448  21166192.111    86672125.98649  21166192.499
 116069670.38948  22087319.157    90443919.31648  22087319.032
 04 12 11  0 32 30.0000000  0  9G 2G 4G 5G 7G10G13G17G24G30
 106533551.70649  20272642.063    83013194.04549  20272639.683
 116731144.62048  22213177.956    90959380.87348  22213177.626
 115402620.93848  21960381.845    89924123.52349  21960381.728
 128506171.78044  24453898.798   100134722.62346  24453900.958
 109090385.66549  20759200.123    85005510.72949  20759200.112
 125753479.76145  23930089.212    97989709.79847  23930087.989
 111738259.57448  21263071.057    87068812.14349  21263071.316
 111269719.44749  21173910.793    86703732.79749  21173911.182
 116058459.31648  22085185.761    90435183.42448  22085185.616
 04 12 11  0 33  0.0000000  0  9G 2G 4G 5G 7G10G13G17G24G30
 106542202.02949  20274288.164    83019934.55449  20274285.776
 116802006.03148  22226662.434    91014597.57048  22226662.092
 115448255.11948  21969065.771    89959682.59549  21969065.662
 128602135.14646  24472160.115   100209499.13146  24472162.320
 109026799.71349  20747100.089    84955963.26849  20747100.085
 125771754.72145  23933566.797    98003950.04847  23933565.603
 111704926.26849  21256727.922    87042838.15849  21256728.181
 111310481.50249  21181667.561    86735495.43249  21181667.957
 116047878.69347  22083172.341    90426938.79648  22083172.186
 04 12 11  0 33 30.0000000  0 10G 2G 4G 5G 6G 7G10G13G17G24G30
 106551028.44749  20275967.770    83026812.28349  20275965.380
 116872841.66947  22240142.025    91069794.16248  22240141.702
 115494257.88548  21977819.830    89995528.88849  21977819.731
 129685544.94246  24678337.639   101053656.18546  24678337.211
 128698135.80844  24490428.422   100284304.84746  24490430.678
 108963595.46849  20735072.709    84906713.23549  20735072.686
 125790479.27545  23937129.932    98018540.62446  23937128.779
 111671672.76949  21250399.985    87016926.35349  21250400.238
 111351288.90649  21189432.951    86767293.41549  21189433.349
 116037774.62547  22081249.631    90419065.47848  22081249.471
 04 12 11  0 34  0.0000000  0  9G 2G 4G 5G 6G10G13G17G24G30
 106560183.88649  20277709.986    83033946.40349  20277707.582
 116943804.31348  22253645.756    91125089.74048  22253645.432
 115540780.48348  21986672.804    90031780.23949  21986672.720
 129587153.89045  24659614.694   100976987.69745  24659614.029
 108900927.67349  20723147.406    84857881.21249  20723147.384
 125809806.48746  23940807.742    98033600.80347  23940806.636
 111638652.23748  21244116.375    86991196.08349  21244116.621
 111392294.76049  21197236.100    86799246.03649  21197236.490
 116028300.86648  22079446.817    90411683.35448  22079446.659
 04 12 11  0 34 30.0000000  0  9G 2G 4G 5G 6G10G13G17G24G30
 106569666.73849  20279514.507    83041335.63649  20279512.101
 117014891.92447  22267173.272    91180482.69048  22267172.940
 115587819.65548  21995624.096    90068434.11249  21995623.993
 129488797.90144  24640897.654   100900346.74645  24640897.411
 108838796.62948  20711324.244    84809467.44249  20711324.209
 125829735.15145  23944600.017    98049129.65347  23944598.924
 111605863.34748  21237876.845    86965646.31749  21237877.084
 111433496.77849  21205076.583    86831351.50149  21205076.980
 116019455.90847  22077763.677    90404791.17648  22077763.534
 04 12 11  0 35  0.0000000  0  9G 2G 4G 5G 6G10G13G17G24G30
 106579474.94249  20281380.940    83048978.40049  20281378.534
 117086102.23548  22280724.144    91235971.24248  22280723.812
 115635371.71948  22004672.989    90105487.64249  22004672.866
 129390476.79846  24622187.646   100823732.96947  24622187.751
 108777202.40249  20699603.235    84761471.97349  20699603.187
 125850263.10144  23948506.320    98065125.46346  23948505.265
 111573304.50849  21231681.098    86940275.80249  21231681.330
 111474892.57649  21212953.930    86863607.97649  21212954.334
 116011238.37647  22076199.933    90398387.91048  22076199.791
 04 12 11  0 35 30.0000000  0  9G 2G 4G 5G 6G10G13G17G24G30
 106589606.92549  20283308.980    83056873.46049  20283306.573
 117157433.53247  22294298.015    91291554.08648  22294297.679
 115683433.33648  22013818.828    90142938.23549  22013818.676
 129292191.22645  24603484.589   100747146.89447  24603484.801
 108716144.72749  20687984.316    84713894.60149  20687984.254
 125871388.81544  23952526.392    98081587.02446  23952525.392
 111540974.30449  21225528.865    86915083.43849  21225529.082
 111516480.44649  21220867.827    86896014.12349  21220868.238
 116003647.05147  22074755.369    90392472.58048  22074755.229
 04 12 11  0 36  0.0000000  0  9G 2G 4G 5G 6G10G13G17G24G30
 106599907.78249  20285269.156    83064900.10949  20285266.747
 117228730.36747  22307865.345    91347110.07448  22307864.996
 115731847.60948  22023031.788    90180663.61849  22023031.622
 129193787.93846  24584759.083   100670469.05547  24584759.374
 108655470.45549  20676438.350    84666615.98649  20676438.295
 125892957.92245  23956630.779    98098394.17746  23956629.801
 111508718.01749  21219390.679    86889948.69649  21219390.891
 111558104.84749  21228788.687    86928448.72549  21228789.099
 115996527.11147  22073400.484    90386924.59248  22073400.339
 04 12 11  0 36 30.0000000  0  9G 2G 4G 5G 6G10G13G17G24G30
 106610529.86749  20287290.466    83073177.06149  20287288.056
 117300145.22848  22321455.135    91402758.03448  22321454.758
 115780765.52548  22032340.576    90218781.45749  22032340.418
 129095421.50744  24566040.669   100593819.87546  24566040.884
 108595333.86549  20664994.719    84619756.32249  20664994.663
 125915122.37945  23960848.535    98115665.17046  23960847.531
 111476688.66549  21213295.696    86864990.76749  21213295.894
 111599918.55649  21236745.577    86961030.83749  21236745.984
 115990031.68747  22072164.464    90381863.20248  22072164.342
 04 12 11  0 37  0.0000000  0  9G 2G 4G 5G 6G10G13G17G24G30
 106621470.91549  20289372.466    83081702.56149  20289370.062
 117371675.40947  22335066.870    91458495.83048  22335066.520
 115830182.80148  22041744.406    90257288.38149  22041744.279
 128997091.55244  24547328.922   100517199.20346  24547329.181
 108535734.45049  20653653.298    84573315.24649  20653653.240
 125937879.97845  23965179.151    98133398.37246  23965178.130
 111444884.16849  21207243.472    86840208.08449  21207243.649
 111641918.91949  21244737.962    86993758.41649  21244738.370
 115984158.69047  22071046.887    90377286.83548  22071046.761
 04 12 11  0 37 30.0000000  0  9G 2G 4G 5G 6G10G13G17G24G30
 106632727.69549  20291514.561    83090474.07749  20291512.149
 117443317.66747  22348699.933    91514320.97848  22348699.576
 115880094.96148  22051242.393    90296180.95849  22051242.281
 128898797.10045  24528624.057   100440606.09346  24528624.331
 108476670.74649  20642413.831    84527291.60649  20642413.759
 125961227.74245  23969622.011    98151591.50246  23969620.994
 111413301.68249  21201233.537    86815598.34949  21201233.700
 111684102.48248  21252765.222    87026628.73449  21252765.629
 115978905.11047  22070047.176    90373193.13648  22070047.031
 04 12 11  0 38  0.0000000  0  9G 2G 4G 5G 6G10G13G17G24G30
 106644296.53049  20293716.037    83099488.75949  20293713.618
 117515067.59647  22362353.496    91570230.01048  22362353.171
 115930496.05248  22060833.431    90335454.51049  22060833.322
 128800536.20045  24509925.593   100364039.22347  24509925.858
 108418140.42449  20631275.869    84481683.57749  20631275.790
 125985161.93645  23974176.542    98170241.53646  23974175.492
 111381937.46949  21195265.114    86791158.71649  21195265.277
 111726464.90049  21260826.522    87059638.42149  21260826.917
 115974267.44847  22069164.653    90369579.37448  22069164.497
 04 12 11  0 38 30.0000000  0  9G 2G 4G 5G 6G10G13G17G24G30
 106656172.44749  20295975.948    83108742.72649  20295973.532
 117586920.60547  22376026.663    91626219.37548  22376026.322
 115981379.46448  22070516.252    90375103.88749  22070516.143
 128702306.11145  24491233.065   100287496.29447  24491233.308
 108360140.61049  20620238.854    84436488.95149  20620238.762
 126009677.40945  23978841.706    98189344.49147  23978840.622
 111350787.36749  21189337.434    86766885.92449  21189337.598
 111769001.37449  21268920.943    87092783.71849  21268921.337
 115970241.10947  22068398.466    90366441.95048  22068398.337
 04 12 11  0 39  0.0000000  0  9G 2G 4G 5G 6G10G13G17G24G30
 106668504.83049  20298322.717    83118352.37949  20298320.299
 117659025.86648  22389747.844    91682405.28648  22389747.526
 116032892.99248  22080318.962    90415244.28449  22080318.846
 128604258.24144  24472575.128   100211095.41546  24472575.380
 108302822.67149  20609331.595    84391825.64449  20609331.496
 126034923.76745  23983645.916    98209017.00847  23983644.828
 111320001.04649  21183479.010    86742896.55849  21183479.180
 111811861.22548  21277076.890    87126181.02149  21277077.277
 115966976.04347  22067777.115    90363897.76148  22067777.013
 04 12 11  0 39 30.0000000  0  9G 2G 4G 5G 6G10G13G17G24G30
 106680673.51849  20300638.341    83127834.47249  20300635.923
 117730762.51648  22403398.887    91738303.98148  22403398.528
 116084414.46148  22090123.190    90455390.86849  22090123.075
 128505774.26245  24453834.226   100134354.67947  24453834.531
 108245567.56749  20598436.299    84347211.30049  20598436.179
 126060280.51845  23988471.110    98228775.53146  23988470.069
 111288958.35049  21177571.782    86718707.45649  21177571.939
 111854423.80649  21285176.256    87159346.68749  21285176.640
 115963851.88747  22067182.589    90361463.34548  22067182.526
 04 12 11  0 40  0.0000000  0  9G 2G 4G 5G 6G10G13G17G24G30
 106693444.88149  20303068.645    83137786.19749  20303066.213
 117802897.19947  22417125.655    91794512.83848  22417125.290
 116136708.35948  22100074.406    90496139.34649  22100074.292
 128407622.88345  24435156.628   100057873.11746  24435156.953
 108189143.21549  20587699.084    84303244.30449  20587698.944
 126086514.08545  23993463.215    98249217.24347  23993462.213
 111258426.33649  21171761.721    86694916.29149  21171761.863
 111897455.15948  21293364.844    87192877.61149  21293365.227
 115961635.20347  22066760.751    90359736.06248  22066760.698
 04 12 11  0 40 30.0000000  0  9G 2G 4G 5G 6G10G13G17G24G30
 106706508.18749  20305554.509    83147965.39649  20305552.078
 117875118.82947  22430868.974    91850789.42948  22430868.600
 116189462.17548  22110113.135    90537246.19949  22110113.021
 128309495.27145  24416483.599    99981409.94146  24416483.941
 108133240.41249  20577061.122    84259683.70249  20577060.962
 126113313.53145  23998562.986    98270099.91047  23998562.019
 111228094.31449  21165989.717    86671280.97649  21165989.840
 111940644.55949  21301583.514    87226531.68949  21301583.881
 115960015.53848  22066452.545    90358473.96948  22066452.498
 04 12 11  0 41  0.0000000  0  9G 2G 4G 5G 6G10G13G17G24G30
 106719707.49249  20308066.254    83158250.57549  20308063.816
 117947271.28948  22444599.124    91907012.13648  22444598.752
 116242517.99248  22120209.339    90578588.37649  22120209.225
 128211237.60646  24397785.770    99904845.55546  24397786.036
 108077705.09949  20566493.098    84216409.43949  20566492.930
 126140522.79145  24003740.695    98291301.97747  24003739.719
 111197806.97349  21160226.210    86647680.46949  21160226.332
 111983836.18849  21309802.596    87260187.51149  21309802.954
 115958836.97047  22066228.259    90357555.61348  22066228.211
 04 12 11  0 41 30.0000000  0  9G 2G 4G 5G 6G10G13G17G24G30
 106733349.11449  20310662.156    83168880.42849  20310659.704
 118019660.78847  22458374.400    91963419.53148  22458374.029
 116296180.15748  22130420.939    90620403.02949  22130420.814
 128113158.37345  24379121.906    99828420.22947  24379122.130
 108022845.05349  20556053.560    84173661.37849  20556053.386
 126168447.95745  24009054.653    98313061.88546  24009053.673
 111167870.69049  21154529.524    86624353.49949  21154529.640
 112027335.72849  21318080.289    87294083.25649  21318080.626
 115958405.89247  22066146.215    90357219.70648  22066146.179
 04 12 11  0 42  0.0000000  0  9G 2G 4G 5G 6G10G13G17G24G30
 106747278.03849  20313312.742    83179734.13349  20313310.290
 118092131.78947  22472165.155    92019890.44748  22472164.773
 116350291.80648  22140718.044    90662567.94549  22140717.924
 128015103.97845  24360462.787    99752014.19846  24360463.020
 107968506.72349  20545713.302    84131319.84749  20545713.121
 126196933.64945  24014475.336    98335258.50846  24014474.338
 111138130.72049  21148870.178    86601179.51849  21148870.287
 112070987.60149  21326386.958    87328097.71449  21326387.288
 115958567.24147  22066176.907    90357345.43248  22066176.875
 04 12 11  0 42 30.0000000  0  9G 2G 4G 5G 6G10G13G17G24G30
 106761493.35949  20316017.828    83190811.01349  20316015.369
 118164683.42247  22485971.272    92076424.17148  22485970.917
 116404849.97648  22151100.142    90705080.77649  22151100.022
 127917076.17945  24341808.652    99675628.95746  24341808.933
 107914690.52849  20535472.397    84089385.18349  20535472.202
 126225978.57845  24020002.408    98357890.94446  24020001.364
 111108586.58749  21143248.105    86578158.13249  21143248.206
 112114790.78748  21334722.422    87362230.08049  21334722.738
 115959320.15247  22066320.176    90357932.11548  22066320.141
 04 12 11  0 43  0.0000000  0  9G 2G 4G 5G 6G10G13G17G24G30
 106775994.56449  20318777.309    83202110.66449  20318774.837
 118237315.03147  22499792.584    92133020.25448  22499792.212
 116459852.37348  22161566.768    90747939.76749  22161566.649
 127819076.60145  24323159.917    99599265.67246  24323160.231
 107861397.62149  20525331.082    84047858.26649  20525330.874
 126255582.44745  24025635.825    98380958.91847  24025634.761
 111079238.08949  21137663.265    86555289.18849  21137663.354
 112158744.85448  21343086.602    87396480.00849  21343086.920
 115960664.20547  22066575.934    90358979.42848  22066575.898
 04 12 11  0 43 30.0000000  0  9G 2G 4G 5G 6G10G13G17G24G30
 106790781.93849  20321591.247    83213633.30449  20321588.760
 118310026.78647  22513629.177    92189678.73748  22513628.854
 116515297.36148  22172117.616    90791143.63849  22172117.490
 127721107.80645  24304517.146    99522926.27146  24304517.431
 107808629.81449  20515289.690    84006740.51649  20515289.469
 126285745.24345  24031375.608    98404462.41647  24031374.547
 111050086.00449  21132115.826    86532573.26149  21132115.923
 112202850.14349  21351479.560    87430847.78049  21351479.866
 115962599.69947  22066944.217    90360487.62848  22066944.193
 04 12 11  0 44  0.0000000  0  9G 2G 4G 5G 6G10G13G17G24G30
 106805702.03049  20324430.440    83225259.36149  20324427.939
 118382665.10547  22527451.783    92246280.04248  22527451.440
 116571029.51348  22182723.110    90834571.27249  22182722.978
 127623018.07345  24285851.231    99446492.76546  24285851.489
 107756234.98049  20505319.273    83965913.39249  20505319.046
 126316312.95845  24037192.427    98428281.44346  24037191.389
 111020977.25749  21126576.622    86509891.11749  21126576.719
 112246952.91849  21359872.039    87465213.58349  21359872.338
 115964973.29447  22067395.897    90362337.17048  22067395.885
 04 12 11  0 44 30.0000000  0  9G 2G 4G 5G 6G10G13G17G24G30
 106821063.80749  20327353.683    83237229.58649  20327351.183
 118455538.71047  22541319.205    92303064.63548  22541318.894
 116627355.73948  22193441.652    90878461.82349  22193441.521
 127525118.67945  24267221.608    99370207.50947  24267221.866
 107704523.59149  20495478.911    83925618.82349  20495478.670
 126347594.10645  24043145.044    98452656.34647  24043144.020
 110992220.95449  21121104.485    86487483.60149  21121104.583
 112291361.90049  21368322.781    87499817.99149  21368323.073
 115968093.50547  22067989.653    90364768.50348  22067989.641
 04 12 11  0 45  0.0000000  0  9G 2G 4G 5G 6G10G13G17G24G30
 106836714.00849  20330331.824    83249424.55249  20330329.310
 118528494.40647  22555202.200    92359913.24748  22555201.875
 116684120.94948  22204243.724    90922694.43049  22204243.606
 127427258.26245  24248599.384    99293952.64646  24248599.619
 107653343.88849  20485739.725    83885738.55749  20485739.471
 126379435.26345  24049204.191    98477467.68446  24049203.156
 110963664.30249  21115670.329    86465231.67349  21115670.419
 112335923.96049  21376802.653    87534541.68249  21376802.945
 115971807.23947  22068696.353    90367662.31048  22068696.354
 04 12 11  0 45 30.0000000  0  9G 2G 4G 5G 6G10G13G17G24G30
 106852653.47149  20333364.991    83261844.92349  20333362.484
 118601532.53047  22569100.905    92416826.05348  22569100.609
 116741323.58548  22215129.048    90967267.88749  22215128.930
 127329439.99045  24229985.144    99217730.67546  24229985.366
 107602697.53649  20476102.045    83846273.87649  20476101.778
 126411836.64245  24055369.956    98502715.51547  24055368.950
 110935308.37649  21110274.376    86443136.14849  21110274.467
 112380639.35549  21385311.710    87569384.85149  21385311.995
 115976114.99147  22069516.068    90371019.01648  22069516.080
 04 12 11  0 46  0.0000000  0  9G 2G 4G 5G 6G10G13G17G24G30
 106869036.27549  20336482.529    83274610.75249  20336480.022
 118674807.13547  22583044.610    92473923.14148  22583044.324
 116799115.75448  22226126.550    91012300.73649  22226126.427
 127231820.07445  24211408.692    99141663.18646  24211408.962
 107552740.26749  20466595.481    83807346.15049  20466595.214
 126444952.24646  24061671.640    98528519.91747  24061670.625
 110907307.59249  21104945.992    86421317.38249  21104946.070
 112425661.93549  21393879.234    87604467.37749  21393879.499
 115981170.72447  22070478.148    90374958.53948  22070478.175
 04 12 11  0 46 30.0000000  0  9G 2G 4G 5G 6G10G13G17G24G30
 106885554.33549  20339625.811    83287481.97749  20339623.292
 118748010.17047  22596974.703    92530964.44948  22596974.440
 116857187.51548  22237177.268    91057551.43649  22237177.148
 127134092.57545  24192811.719    99065511.97347  24192811.974
 107503165.45249  20457161.701    83768716.43549  20457161.428
 126478473.52246  24068050.539    98554640.39547  24068049.536
 110879354.26049  21099626.661    86399535.55049  21099626.747
 112470683.57349  21402446.561    87639549.17449  21402446.840
 115986666.23747  22071523.915    90379240.75248  22071523.943
 04 12 11  0 47  0.0000000  0  9G 2G 4G 5G 6G10G13G17G24G30
 106902053.29849  20342765.459    83300338.32149  20342762.934
 118820986.92747  22610861.724    92587829.45848  22610861.464
 116915382.42948  22248251.410    91102898.09749  22248251.319
 127036105.15844  24174165.369    98989158.12446  24174165.592
 107453819.77349  20447771.525    83730265.26649  20447771.252
 126512245.47246  24074477.145    98580956.21447  24074476.143
 110851294.33749  21094287.030    86377670.68949  21094287.110
 112515549.83349  21410984.320    87674509.89749  21410984.605
 115992446.85548  22072623.936    90383745.12748  22072623.942
 04 12 11  0 47 30.0000000  0  9G 2G 4G 5G 6G10G13G17G24G30
 106919148.70349  20346018.607    83313659.42149  20346016.076
 118894353.09547  22624822.853    92644997.88348  22624822.607
 116974313.74848  22259465.679    91148818.58449  22259465.610
 126938475.45245  24155587.024    98913083.04946  24155587.243
 107405320.32849  20438542.393    83692473.49949  20438542.109
 126546883.19346  24081068.478    98607946.66247  24081067.471
 110823743.67549  21089044.313    86356202.63949  21089044.393
 112560876.22149  21419609.651    87709829.16349  21419609.923
 115999127.88748  22073895.288    90388951.13648  22073895.280
 04 12 11  0 48  0.0000000  0  9G 2G 4G 5G 6G10G13G17G24G30
 106936532.51249  20349326.635    83327205.25349  20349324.106
 118967800.31347  22638799.388    92702229.50048  22638799.115
 117033671.37448  22270761.083    91195071.25149  22270761.014
 126840897.83745  24137018.574    98837048.57446  24137018.757
 107357360.36549  20429415.898    83655102.11949  20429415.614
 126582077.90946  24087765.810    98635371.11346  24087764.840
 110796394.75649  21083839.999    86334891.78549  21083840.080
 112606354.41549  21428263.864    87745266.71749  21428264.128
 116006401.05147  22075279.349    90394618.51448  22075279.350
 04 12 11  0 48 30.0000000  0  9G 2G 4G 5G 6G10G13G17G24G30
 106954204.56649  20352689.510    83340975.69649  20352686.981
 119041328.45547  22652791.328    92759524.15348  22652791.054
 117093453.13047  22282137.191    91241654.41849  22282137.122
 126743374.27846  24118460.416    98761056.24147  24118460.584
 107309940.79949  20420392.237    83618151.83149  20420391.945
 126617829.25545  24094569.053    98663229.32146  24094568.091
 110769247.72749  21078674.085    86313738.26949  21078674.160
 112651984.22549  21436946.916    87780822.42349  21436947.179
 116014266.00947  22076775.995    90400747.06248  22076775.988
 04 12 11  0 49  0.0000000  0  9G 2G 4G 5G 6G10G13G17G24G30
 106972318.79549  20356136.533    83355090.68749  20356134.006
 119115091.47947  22666827.941    92817001.85648  22666827.620
 117153811.00648  22293622.931    91288686.50249  22293622.868
 126646061.05245  24099942.325    98685227.78547  24099942.470
 107263217.03249  20411500.976    83581743.72749  20411500.684
 126654290.62845  24101507.404    98691640.77946  24101506.459
 110742456.88249  21073575.944    86292862.29549  21073576.019
 112697919.59349  21445688.132    87816616.21749  21445688.389
 116022876.38247  22078414.500    90407456.44048  22078414.479
 04 12 11  0 49 30.0000000  0  9G 2G 4G 5G 6G10G13G17G24G30
 106990413.53849  20359579.848    83369190.48949  20359577.329
 119188627.36047  22680821.384    92874302.51148  22680821.033
 117214280.87148  22305129.981    91335805.85349  22305129.932
 126548498.28445  24081376.742    98609204.87847  24081376.907
 107216728.31949  20402654.456    83545518.77349  20402654.157
 126690999.72445  24108492.877    98720245.29246  24108491.951
 110715560.78449  21068457.781    86271904.30849  21068457.849
 112743698.56549  21454399.586    87852288.14849  21454399.824
 116031769.87147  22080106.887    90414386.43248  22080106.824
 04 12 11  0 50  0.0000000  0  9G 2G 4G 5G 6G10G13G17G24G30
 107008796.70749  20363078.043    83383515.04949  20363075.518
 119262243.88447  22694830.113    92931666.09448  22694829.683
 117275168.56248  22316716.530    91383250.79148  22316716.494
 126450996.65445  24062822.745    98533229.63747  24062822.932
 107170783.76849  20393911.481    83509717.84949  20393911.183
 126728263.50145  24115583.866    98749282.09346  24115582.920
 110688867.69949  21063378.268    86251104.49049  21063378.344
 112789628.88349  21463139.835    87888078.01849  21463140.053
 116041254.24147  22081911.714    90421776.83748  22081911.651
 04 12 11  0 50 30.0000000  0  9G 2G 4G 5G 6G10G13G17G24G30
 107027622.30449  20366660.429    83398184.35449  20366657.904
 119336095.18047  22708883.565    92989212.53548  22708883.120
 117336625.99448  22328411.508    91431139.67449  22328411.479
 126353711.94045  24044310.032    98457423.39746  24044310.228
 107125538.59249  20385301.592    83474461.88749  20385301.294
 126766235.57245  24122809.753    98778870.64446  24122808.830
 110662532.05749  21058366.756    86230583.21349  21058366.831
 112835864.55249  21471938.196    87924105.81349  21471938.401
 116051483.18547  22083858.218    90429747.44848  22083858.141
 04 12 11  0 51  0.0000000  0  9G 2G 4G 5G 6G10G13G17G24G30
 107046890.51649  20370327.048    83413198.54749  20370324.524
 119410180.95147  22722981.630    93046941.69948  22722981.179
 117398650.98848  22340214.490    91479470.81648  22340214.475
 126256646.38946  24025839.077    98381787.89447  24025839.235
 107080993.84649  20376824.997    83439751.71149  20376824.692
 126804915.27145  24130170.136    98809010.80346  24130169.182
 110636554.18449  21053423.337    86210340.70949  21053423.412
 112882405.31549  21480794.609    87960371.35549  21480794.801
 116062456.02847  22085946.292    90438297.71048  22085946.217
 04 12 11  0 51 30.0000000  0  9G 2G 4G 5G 6G10G13G17G24G30
 107065984.81249  20373960.571    83428077.21849  20373958.055
 119483884.99147  22737007.043    93104373.42048  22737006.569
 117460625.10848  22352007.802    91527762.30649  22352007.781
 126159185.88546  24007292.990    98305844.63647  24007293.100
 107036534.46549  20368364.652    83405108.05749  20368364.335
 126843685.61145  24137547.964    98839221.33146  24137547.016
 110610318.37749  21048430.823    86189897.23249  21048430.891
 112928635.08549  21489591.854    87996394.54649  21489592.048
 116073556.12847  22088058.565    90446947.15148  22088058.484
 04 12 11  0 52  0.0000000  0  9G 2G 4G 5G 6G10G13G17G24G30
 107085675.07249  20377707.497    83443420.29149  20377704.975
 119557976.90547  22751106.271    93162107.37548  22751105.813
 117523315.89248  22363937.480    91576612.24549  22363937.466
 126062102.67445  23988818.627    98230195.45847  23988818.715
 106992931.32049  20360067.244    83371131.59249  20360066.920
 126883315.84144  24145089.251    98870102.14046  24145088.317
 110584594.44149  21043535.715    86169852.62049  21043535.784
 112975323.28249  21498476.311    88032774.96149  21498476.517
 116085552.79847  22090341.467    90456295.19848  22090341.387
 04 12 11  0 52 30.0000000  0  9G 2G 4G 5G 6G10G13G17G24G30
 107105653.41549  20381509.255    83458987.82349  20381506.733
 119632148.89447  22765220.720    93219903.74148  22765220.230
 117586413.35348  22375944.557    91625779.06249  22375944.550
 125965091.07946  23970357.935    98154602.00547  23970358.067
 106949877.50349  20351874.363    83337583.18449  20351874.033
 126923497.17045  24152735.497    98901412.24546  24152734.603
 110559075.13849  21038679.547    86149967.45349  21038679.616
 113022161.93949  21507389.411    88069272.61249  21507389.623
 116098137.68947  22092736.286    90466101.61448  22092736.230
 04 12 11  0 53  0.0000000  0  9G 2G 4G 5G 6G10G13G17G24G30
 107125765.54849  20385336.461    83474659.63349  20385333.933
 119706246.36946  22779321.000    93277642.01748  22779320.545
 117649760.79648  22387999.193    91675140.68548  22387999.185
 125867998.85945  23951881.846    98078945.78247  23951882.045
 106907219.87949  20343756.887    83304343.48949  20343756.552
 126964074.64944  24160457.159    98933030.96846  24160456.317
 110533606.32249  21033833.004    86130121.60949  21033833.081
 113068996.52948  21516301.719    88105767.11749  21516301.924
 116111155.87447  22095213.565    90476245.65548  22095213.523
 04 12 11  0 53 30.0000000  0  9G 2G 4G 5G 6G10G13G17G24G30
 107146319.25549  20389247.702    83490675.51349  20389245.160
 119780576.96447  22793465.648    93335561.95748  22793465.178
 117713663.57548  22400159.505    91724935.03148  22400159.504
 125771136.02945  23933449.451    98003468.23947  23933449.704
 106865267.29549  20335773.558    83271653.19149  20335773.217
 127005355.23145  24168312.527    98965197.72746  24168311.685
 110508496.25149  21029054.699    86110555.34949  21029054.762
 113116135.18248  21525271.906    88142498.52349  21525272.131
 116124914.44147  22097831.739    90486966.60348  22097831.719
 04 12 11  0 54  0.0000000  0  9G 2G 4G 5G 6G10G13G17G24G30
 107167006.27149  20393184.316    83506795.26649  20393181.768
 119854832.62147  22807596.030    93393423.51648  22807595.577
 117777811.40547  22412366.443    91774920.32848  22412366.462
 125674196.84546  23915002.531    97927931.21947  23915002.784
 106823712.40449  20327865.901    83239272.78949  20327865.562
 127047029.94645  24176242.967    98997671.49946  24176242.157
 110483436.91149  21024286.065    86091028.58149  21024286.149
 113163269.45248  21534241.248    88179226.53849  21534241.472
 116139104.66348  22100532.048    90498023.92248  22100532.014
 04 12 11  0 54 30.0000000  0  9G 2G 4G 5G 6G10G13G17G24G30
 107188134.73449  20397204.917    83523259.01049  20397202.360
 119929321.42747  22821770.778    93451466.73348  22821770.339
 117842510.24048  22424678.252    91825334.97748  22424678.280
 125577491.65446  23896600.157    97852576.54647  23896600.396
 106782864.45149  20320092.770    83207443.25549  20320092.426
 127089405.99446  24184306.855    99030691.84346  24184306.009
 110458737.16249  21019585.859    86071782.02849  21019585.944
 113210707.40948  21543268.391    88216191.18449  21543268.616
 116154034.19647  22103373.062    90509657.29748  22103373.018
 04 12 11  0 55  0.0000000  0  9G 2G 4G 5G 6G10G13G17G24G30
 107209550.82049  20401280.268    83539946.86549  20401277.704
 120003889.31247  22835960.587    93509571.56648  22835960.148
 117907603.65348  22437065.134    91876057.10048  22437065.163
 125480868.51945  23878213.386    97777285.78647  23878213.608
 106742570.25949  20312425.034    83176045.19949  20312424.685
 127132328.25845  24192474.726    99064137.73546  24192473.876
 110434243.14749  21014924.785    86052695.79649  21014924.884
 113258294.86548  21552324.000    88253272.30949  21552324.206
 116169548.36547  22106325.286    90521746.28048  22106325.248
 04 12 11  0 55 30.0000000  0  9G 2G 4G 5G 6G10G13G17G24G30
 107230946.71549  20405351.760    83556619.00649  20405349.188
 120078228.36647  22850106.839    93567498.10648  22850106.408
 117972781.77947  22449468.131    91926845.22648  22449468.188
 125384022.17346  23859784.109    97701821.13047  23859784.345
 106702522.81849  20304804.260    83144839.40549  20304803.912
 127175488.73445  24200687.844    99097769.35846  24200686.947
 110409647.44849  21010244.373    86033530.31849  21010244.478
 113305723.83848  21561349.428    88290229.95849  21561349.634
 116185338.65647  22109330.091    90534050.38748  22109330.068
 04 12 11  0 56  0.0000000  0  9G 2G 4G 5G 6G10G13G17G24G30
 107252938.44549  20409536.647    83573755.41949  20409534.068
 120152954.98647  22864326.836    93625726.63948  22864326.395
 118038658.57848  22462004.087    91978177.76948  22462004.143
 125287571.07746  23841430.028    97626664.48247  23841430.278
 106663339.33749  20297347.885    83114306.82649  20297347.544
 127219502.15646  24209063.314    99132065.55246  24209062.390
 110385566.82449  21005661.971    86014766.20549  21005662.083
 113353610.59249  21570461.968    88327544.32749  21570462.168
 116202020.67147  22112504.584    90547049.35248  22112504.570
 04 12 11  0 56 30.0000000  0  9G 2G 4G 5G 6G10G13G17G24G30
 107275218.89049  20413776.469    83591116.81149  20413773.889
 120227761.47347  22878562.043    93684017.40848  22878561.612
 118104924.14448  22474614.023    92029813.23448  22474614.089
 125191209.90046  23823093.100    97551577.86547  23823093.360
 106624713.35749  20289997.594    83084208.68349  20289997.247
 127264060.43946  24217542.533    99166786.26446  24217541.565
 110361694.08249  21001119.121    85996164.07949  21001119.246
 113401647.78948  21579603.143    88364975.90649  21579603.350
 116219286.04047  22115790.087    90560502.88148  22115790.052
 04 12 11  0 57  0.0000000  0  9G 2G 4G 5G 6G10G13G17G24G30
 107297480.32349  20418012.678    83608463.38449  20418010.092
 120302340.29847  22892753.933    93742130.74948  22892753.529
 118171268.61047  22487238.967    92081510.19548  22487239.045
 125094633.66346  23804715.265    97476323.65747  23804715.506
 106586338.15849  20282695.024    83054305.94849  20282694.671
 127308855.42045  24226066.692    99201691.49946  24226065.726
 110337722.07949  20996557.395    85977484.60949  20996557.513
 113449527.76549  21588714.399    88402284.98349  21588714.600
 116236826.73148  22119127.975    90574170.93748  22119127.938
 04 12 11  0 57 30.0000000  0  9G 2G 4G 5G 6G10G13G17G24G30
 107320185.37649  20422333.300    83626155.64149  20422330.722
 120377154.02747  22906990.500    93800427.16848  22906990.110
 118238152.15447  22499966.482    92133627.22248  22499966.571
 124998306.94546  23786384.912    97401263.87947  23786385.096
 106548677.00549  20275528.327    83024959.60749  20275527.979
 127354348.11545  24234723.653    99237140.36946  24234722.695
 110314113.74549  20992064.872    85959088.51049  20992064.990
 113497713.00348  21597883.739    88439831.92149  21597883.946
 116255104.48748  22122606.128    90588413.33448  22122606.093
 04 12 11  0 58  0.0000000  0  9G 2G 4G 5G 6G10G13G17G24G30
 107343180.61849  20426709.149    83644074.01449  20426706.572
 120452049.34047  22921242.605    93858787.14148  22921242.227
 118305419.23047  22512766.987    92186043.09548  22512767.093
 124902078.91246  23768073.297    97326281.02647  23768073.456
 106511577.73749  20268468.566    82996051.09349  20268468.217
 127400384.66745  24243484.123    99273012.98746  24243483.193
 110290716.25449  20987612.460    85940856.71749  20987612.577
 113546050.40348  21607082.041    88477497.43249  21607082.248
 116273965.13747  22126195.203    90603109.93348  22126195.175
 04 12 11  0 58 30.0000000  0  9G 2G 4G 5G 6G10G13G17G24G30
 107366466.93249  20431140.382    83662219.20349  20431137.805
 120527026.87446  22935510.355    93917211.18748  22935509.991
 118373067.93747  22525640.126    92238756.33448  22525640.250
 124805952.71946  23749781.078    97251377.51847  23749781.224
 106475041.72749  20261515.988    82967581.48649  20261515.641
 127446964.29345  24252347.931    99309308.80246  24252346.994
 110267530.67449  20983200.367    85922790.04849  20983200.482
 113594540.27748  21616309.351    88515281.76149  21616309.552
 116293408.67948  22129895.192    90618260.73948  22129895.164
 04 12 11  0 59  0.0000000  0  9G 2G 4G 5G 6G10G13G17G24G30
 107390045.16749  20435627.171    83680591.86149  20435624.595
 120602087.46147  22949793.904    93975699.94548  22949793.565
 118441097.00647  22538585.633    92291765.97548  22538585.776
 124709931.45846  23731508.810    97176555.78647  23731508.978
 106439070.63349  20254670.911    82939552.07549  20254670.550
 127494087.28145  24261315.078    99346028.03746  24261314.168
 110244558.22649  20978828.856    85904889.43749  20978828.962
 113643183.54248  21625565.863    88553185.59449  21625566.078
 116313434.96247  22133706.067    90633865.62748  22133706.030
 04 12 11  0 59 30.0000000  0  9G 2G 4G 5G 6G10G13G17G24G30
 107413916.08549  20440169.655    83699192.57449  20440167.087
 120677231.72447  22964093.382    94034253.91948  22964093.052
 118509504.92047  22551603.214    92345070.83548  22551603.375
 124614018.16946  23713257.100    97101818.17847  23713257.275
 106403666.07649  20247933.630    82911964.12649  20247933.268
 127541753.49245  24270385.645    99383170.54646  24270384.725
 110221800.16149  20974498.128    85887155.89449  20974498.219
 113691981.08648  21634851.714    88591209.66749  21634851.937
 116334043.94047  22137627.843    90649924.55048  22137627.798
                            4  1
RINEX FILE SPLICE; other post-header comments skipped       COMMENT
 04 12 11  1  0  0.0000000  0  9G 2G 4G 5G 6G10G13G17G24G30
 107437926.59349  20444738.697    83717902.06749  20444736.136
 120752306.81347  22978379.702    94092753.98848  22978379.366
 118578135.79847  22564663.260    92398549.39548  22564663.454
 124518062.21445  23694997.307    97027047.31747  23694997.444
 106368675.42449  20241275.118    82884698.70449  20241274.751
 127589807.82744  24279530.045    99420615.53245  24279529.097
 110199103.38649  20970179.081    85869470.10049  20970179.152
 113740779.35948  21644137.717    88629234.29449  21644137.947
 116355081.46248  22141631.150    90666317.42748  22141631.106
 04 12 11  1  0 30.0000000  0  9G 2G 4G 5G 6G10G13G17G24G30
 107462539.19949  20449422.314    83737080.72649  20449419.761
 120827774.98347  22992740.835    94151560.35148  22992740.503
 118647450.02447  22577853.313    92452560.46348  22577853.532
 124422528.19745  23676817.735    96952605.26947  23676817.867
 106334561.85649  20234783.510    82858116.72349  20234783.136
 127638712.55945  24288836.324    99458723.07246  24288835.408
 110176931.21349  20965959.857    85852193.08349  20965959.928
 113790041.28648  21653511.968    88667620.19949  21653512.200
 116377009.25247  22145803.875    90683404.00848  22145803.846
 04 12 11  1  1  0.0000000  0  9G 2G 4G 5G 6G10G13G17G24G30
 107486985.12349  20454074.219    83756129.50149  20454071.658
 120902867.48447  23007030.463    94210073.98548  23007030.130
 118716676.27947  22591026.655    92506502.96748  22591026.872
 124326649.82046  23658572.668    96877894.86147  23658572.777
 106300557.36449  20228312.670    82831619.72349  20228312.291
 127687697.68145  24298157.770    99496893.46345  24298156.802
 110154515.19449  20961694.237    85834726.05549  20961694.302
 113838997.94248  21662828.104    88705768.24749  21662828.335
 116399057.55647  22149999.528    90700584.50048  22149999.505
 04 12 11  1  1 30.0000000  0  9G 2G 4G 5G 6G10G13G17G24G30
 107511882.07849  20458811.952    83775529.72849  20458809.384
 120978202.24947  23021366.222    94268776.37748  23021365.885
 118786429.91247  22604300.347    92560856.41448  22604300.570
 124231047.07346  23640380.047    96803399.23847  23640380.147
 106267280.23149  20221980.225    82805689.51649  20221979.823
 127737379.32845  24307611.914    99535606.38146  24307610.930
 110132473.39349  20957499.809    85817550.63949  20957499.875
 113888267.12248  21672203.723    88744159.81049  21672203.947
 116421843.28248  22154335.514    90718339.61248  22154335.485
 04 12 11  1  2  0.0000000  0  9G 2G 4G 5G 6G10G13G17G24G30
 107537077.76049  20463606.531    83795162.73149  20463603.949
 121053626.80247  23035719.043    94327548.76148  23035718.709
 118856556.19948  22617644.960    92615500.24148  22617645.181
 124135570.11846  23622211.362    96729001.63647  23622211.485
 106234578.64149  20215757.301    82780207.78449  20215756.886
 127787604.62445  24317169.488    99574742.99346  24317168.414
 110110653.90449  20953347.693    85800548.44549  20953347.765
 113937696.38948  21681609.800    88782676.13049  21681610.003
 116445212.86347  22158782.615    90736549.65648  22158782.587
 04 12 11  1  2 30.0000000  0  9G 2G 4G 5G 6G10G13G17G24G30
 107562574.03549  20468458.317    83815029.95749  20468455.721
 121129143.13147  23050089.311    94386392.64848  23050089.002
 118927054.74547  22631060.393    92670434.15948  22631060.590
 124040223.12245  23604067.450    96654705.27147  23604067.569
 106202455.34249  20209644.434    82755176.65349  20209644.005
 127838373.44245  24326830.467    99614303.15946  24326829.311
 110089059.12949  20949238.338    85783721.35949  20949238.404
 113987287.59449  21691046.698    88821318.62549  21691046.887
 116469167.26347  22163340.986    90755215.42448  22163340.958
 04 12 11  1  3  0.0000000  0  9G 2G 4G 5G 6G10G13G17G24G30
 107588372.37549  20473367.578    83835132.57149  20473364.962
 121204752.67147  23064477.340    94445309.14948  23064477.044
 118997924.44847  22644546.473    92725657.28348  22644546.663
 123945010.14046  23585948.969    96580513.39747  23585949.094
 106170912.49749  20203642.019    82730597.83549  20203641.576
 127889686.99745  24336595.142    99654287.73846  24336593.977
 110067690.79049  20945172.072    85767070.71449  20945172.138
 114037042.36149  21700514.728    88860088.56949  21700514.904
 116493707.07547  22168010.768    90774337.34448  22168010.749
 04 12 11  1  3 30.0000000  0  9G 2G 4G 5G 6G10G13G17G24G30
 107614627.94549  20478363.846    83855591.45849  20478361.223
 121280610.29546  23078912.565    94504418.96248  23078912.302
 119069317.71447  22658132.184    92781288.37748  22658132.352
 123850088.26946  23567885.919    96506548.31047  23567886.049
 106140105.26449  20197779.597    82706592.21249  20197779.143
 127941699.72245  24346492.822    99694817.16646  24346491.631
 110046704.19549  20941178.456    85750717.52849  20941178.523
 114087115.43948  21710043.323    88899106.55449  21710043.494
 116518985.81148  22172821.152    90794035.06148  22172821.133
 04 12 11  1  4  0.0000000  0  9G 2G 4G 5G 6G10G13G17G24G30
 107640724.20849  20483329.800    83875926.21149  20483327.170
 121356099.66146  23093277.702    94563241.84148  23093277.442
 119140615.78147  22671699.778    92836845.28448  22671699.970
 123754843.54046  23549761.456    96432331.62747  23549761.578
 106109418.14749  20191940.021    82682680.19149  20191939.560
 127993791.02445  24356405.491    99735407.76546  24356404.339
 110025483.57949  20937140.313    85734181.98249  20937140.374
 114136890.42049  21719515.193    88937892.25949  21719515.367
 116544386.18547  22177654.694    90813827.55248  22177654.646
 04 12 11  1  4 30.0000000  0  9G 2G 4G 5G 6G10G13G17G24G30
 107667275.98249  20488382.435    83896615.90949  20488379.806
 121431835.61346  23107689.792    94622256.83747  23107689.545
 119212430.80447  22685365.735    92892805.02948  22685365.957
 123659893.28346  23531693.041    96358344.41447  23531693.121
 106079466.08049  20186240.320    82659340.94349  20186239.847
 128046577.89845  24366450.464    99776540.43346  24366449.310
 110004644.03049  20933174.667    85717943.38049  20933174.726
 114186982.44848  21729047.395    88976925.00549  21729047.570
 116570521.90347  22182628.162    90834193.03148  22182628.112
 04 12 11  1  5  0.0000000  0  9G 2G 4G 5G 6G10G13G17G24G30
 107694126.23849  20493491.875    83917538.18249  20493489.246
 121507661.20646  23122118.929    94681341.70148  23122118.657
 119284603.48347  22699099.763    92949043.44848  22699100.014
 123565082.68946  23513651.167    96284466.06247  23513651.228
 106050092.44149  20180650.691    82636452.41349  20180650.204
 128099899.22145  24376597.174    99818089.49546  24376596.031
 109984028.91349  20929251.740    85701879.65649  20929251.793
 114237234.10148  21738609.979    89016082.13649  21738610.149
 116597234.51948  22187711.398    90855008.05848  22187711.354
 04 12 11  1  5 30.0000000  0  9G 2G 4G 5G 6G10G13G17G24G30
 107721271.03249  20498657.351    83938689.97949  20498654.723
 121583572.13147  23136564.316    94740493.06248  23136564.016
 119357127.07047  22712900.566    93005555.29948  22712900.831
 123470409.99846  23495635.529    96210695.16047  23495635.605
 106021293.93149  20175170.505    82614012.03049  20175170.018
 128153752.01045  24386845.001    99860052.70146  24386843.867
 109963634.49049  20925370.805    85685987.90849  20925370.843
 114287641.68648  21748202.235    89055360.77049  21748202.408
 116624518.97448  22192903.481    90876268.65548  22192903.432
 04 12 11  1  6  0.0000000  0  9G 2G 4G 5G 6G10G13G17G24G30
 107748705.12049  20503877.885    83960067.18849  20503875.271
 121659563.51046  23151025.024    94799707.09648  23151024.726
 119429993.89947  22726766.687    93062334.62848  22726766.923
 123375872.78446  23477645.677    96137029.81247  23477645.767
 105993066.04649  20169798.905    82592016.29149  20169798.418
 128208127.63245  24397192.261    99902423.39146  24397191.138
 109943456.39649  20921531.035    85670264.72649  20921531.074
 114338200.06248  21757823.180    89094756.90349  21757823.353
 116652368.91148  22198203.148    90897969.90148  22198203.105
 04 12 11  1  6 30.0000000  0  9G 2G 4G 5G 6G10G13G17G24G30
 107776422.86149  20509152.395    83981665.43149  20509149.783
 121735629.69847  23165499.956    94858979.45948  23165499.612
 119503195.93447  22740696.583    93119375.15748  22740696.811
 123281467.91746  23459681.005    96063467.61548  23459681.104
 105965403.18649  20164534.838    82570460.81849  20164534.352
 128263020.93344  24407638.085    99945197.38745  24407637.000
 109923489.09349  20917731.378    85654705.79549  20917731.417
 114388903.34648  21767471.694    89134265.95049  21767471.866
 116680777.50447  22203609.141    90920106.45448  22203609.093
 04 12 11  1  7  0.0000000  0  9G 2G 4G 5G 6G10G13G17G24G30
 107804264.74149  20514450.523    84003360.40949  20514447.910
 121811611.06047  23179958.770    94918185.69848  23179958.426
 119576570.92847  22754659.409    93176550.45048  22754659.632
 123187037.76446  23441711.514    95989885.71247  23441711.621
 105938146.01249  20159347.964    82549221.46149  20159347.484
 128318268.81945  24418151.378    99988247.68646  24418150.300
 109903573.45449  20913941.564    85639187.11049  20913941.603
 114439592.01748  21777117.428    89173763.60749  21777117.605
 116709583.84648  22209090.823    90942552.94848  22209090.763
 04 12 11  1  7 30.0000000  0  9G 2G 4G 5G 6G10G13G17G24G30
 107832533.67049  20519829.927    84025388.14649  20519827.309
 121887810.75446  23194459.102    94977562.06248  23194458.779
 119650419.33347  22768712.317    93234094.63148  22768712.539
 123092887.72246  23423795.381    95916522.01047  23423795.471
 105911598.22449  20154296.076    82528534.88549  20154295.595
 128374175.38444  24428790.020   100031811.25945  24428788.947
 109884012.87549  20910219.315    85623945.10149  20910219.348
 114490569.09948  21786818.038    89213486.01949  21786818.208
 116739089.55748  22214705.580    90965544.40648  22214705.528
 04 12 11  1  8  0.0000000  0  9G 2G 4G 5G 6G10G13G17G24G30
 107861225.21949  20525289.747    84047745.20349  20525287.123
 121964224.22646  23209000.102    95037105.03148  23208999.788
 119724734.26547  22782853.985    93292002.35848  22782854.190
 122999016.01146  23405932.153    95843375.26047  23405932.242
 105885755.51549  20149378.360    82508397.72249  20149377.879
 128430732.50644  24439552.500   100075881.71245  24439551.440
 109864803.44349  20906563.876    85608976.71749  20906563.909
 114541830.20748  21796572.702    89253429.73649  21796572.880
 116769288.99248  22220452.359    90989076.41748  22220452.323
 04 12 11  1  8 30.0000000  0  9G 2G 4G 5G 6G10G13G17G24G30
 107889720.11849  20530712.146    84069949.01849  20530709.529
 122040232.16446  23223463.926    95096331.97847  23223463.651
 119798893.75547  22796966.090    93349788.95548  22796966.290
 122904805.66846  23388004.502    95769964.61048  23388004.611
 105859999.01249  20144477.043    82488327.73649  20144476.568
 128487321.83044  24450321.138   100119977.23546  24450320.101
 109845326.19449  20902857.479    85593799.63849  20902857.511
 114592756.05348  21806263.557    89293112.21749  21806263.747
 116799561.52848  22226213.043    91012665.38948  22226213.029
 04 12 11  1  9  0.0000000  0  9G 2G 4G 5G 6G10G13G17G24G30
 107918786.19949  20536243.232    84092597.92349  20536240.607
 122116602.34046  23237996.663    95155841.21047  23237996.429
 119873663.13647  22811194.278    93408050.76848  22811194.466
 122811026.79046  23370158.981    95696890.15348  23370159.113
 105835096.87449  20139738.318    82468923.48549  20139737.837
 128544706.29345  24461240.991   100164692.51146  24461239.890
 109826349.26649  20899246.289    85579012.43049  20899246.308
 114644114.42548  21816036.730    89333131.72449  21816036.927
 116830673.43547  22232133.454    91036908.41948  22232133.448
 04 12 11  1  9 30.0000000  0  9G 2G 4G 5G 6G10G13G17G24G30
 107948268.14249  20541853.459    84115570.86549  20541850.834
 122193179.64646  23252568.840    95215511.79747  23252568.664
 119948884.44447  22825508.423    93466664.77948  22825508.590
 122717526.73047  23352366.500    95624032.99348  23352366.635
 105810894.04149  20135132.666    82450064.14449  20135132.178
 128602732.70644  24472283.038   100209907.93446  24472281.920
 109807717.88049  20895700.848    85564494.47649  20895700.868
 114695750.09048  21825862.659    89373367.30749  21825862.852
 116862468.21548  22238183.817    91061683.56548  22238183.784
 04 12 11  1 10  0.0000000  0  9G 2G 4G 5G 6G10G13G17G24G30
 107977703.86249  20547454.884    84138507.79549  20547452.259
 122269502.13546  23267092.527    95274983.84647  23267092.384
 120024093.10147  22839820.184    93525268.90848  22839820.310
 122623845.70746  23334539.605    95551034.79448  23334539.729
 105786928.61649  20130572.179    82431389.80649  20130571.691
 128660935.55345  24483358.660   100255260.84346  24483357.503
 109788970.56349  20892133.347    85549886.18749  20892133.367
 114747201.17448  21835653.468    89413459.07249  21835653.640
 116894482.55347  22244275.943    91086629.80248  22244275.902
 04 12 11  1 10 30.0000000  0  9G 2G 4G 5G 6G10G13G17G24G30
 108007556.35849  20553135.625    84161769.47649  20553133.015
 122346032.68546  23281655.848    95334617.99947  23281655.722
 120099749.57447  22854217.150    93584221.98748  22854217.276
 122530449.21546  23316766.862    95478258.28747  23316766.963
 105763663.75649  20126145.029    82413261.34449  20126144.528
 128719776.03245  24494555.678   100301110.53646  24494554.519
 109770570.48949  20888631.929    85535548.46149  20888631.956
 114798930.51448  21845497.240    89453767.65349  21845497.399
 116927177.78347  22250497.638    91112106.59348  22250497.617
 04 12 11  1 11  0.0000000  0  9G 2G 4G 5G 6G10G13G17G24G30
 108037518.35649  20558837.204    84185116.48449  20558834.600
 122422464.04046  23296200.275    95394174.88047  23296200.136
 120175543.89147  22868640.365    93643282.46848  22868640.480
 122437032.52146  23298990.226    95405466.07848  23298990.324
 105740792.45749  20121792.754    82395439.56649  20121792.252
 128778947.08345  24505815.549   100347217.89446  24505814.323
 109752210.83449  20885138.203    85521242.24849  20885138.225
 114850630.96448  21855335.509    89494053.70849  21855335.673
 116960245.16447  22256790.170    91137873.36448  22256790.149
 04 12 11  1 11 30.0000000  0  9G 2G 4G 5G 6G10G13G17G24G30
 108067899.06849  20564618.455    84208789.76949  20564615.858
 122499105.38147  23310784.637    95453895.44047  23310784.430
 120251782.75047  22883148.143    93702689.36648  22883148.236
 122343907.27446  23281269.075    95332900.96948  23281269.160
 105718623.93049  20117574.218    82378165.40449  20117573.702
 128838754.97945  24517196.661   100393821.40146  24517195.429
 109734201.31449  20881711.111    85507208.85449  20881711.127
 114902611.62648  21865227.094    89534558.12349  21865227.273
 116993992.34548  22263212.057    91164169.85648  22263212.021
 04 12 11  1 12  0.0000000  0  9G 2G 4G 5G 6G10G13G17G24G30
 108098545.57749  20570450.292    84232670.16849  20570447.695
 122575803.94346  23325379.912    95513660.52847  23325379.675
 120328310.46847  22897710.907    93762321.32448  22897710.999
 122250922.64646  23263574.683    95260445.43048  23263574.778
 105697005.61349  20113460.383    82361319.97649  20113459.862
 128899044.82345  24528669.425   100440800.54746  24528668.125
 109716389.35549  20878321.596    85493329.41749  20878321.603
 114954719.72748  21875142.936    89575161.83349  21875143.129
 117028264.98748  22269733.929    91190875.80548  22269733.886
 04 12 11  1 12 30.0000000  0  9G 2G 4G 5G 6G10G13G17G24G30
 108129458.87049  20576332.890    84256758.45749  20576330.286
 122652560.90646  23339986.306    95573471.12548  23339986.064
 120405125.69347  22912328.365    93822177.34048  22912328.465
 122158082.71246  23245907.807    95188102.65848  23245907.911
 105675938.70849  20109451.472    82344904.22649  20109450.945
 128959817.38745  24540234.000   100488155.88546  24540232.622
 109698776.59149  20874969.998    85479605.18149  20874970.012
 115006956.70648  21885083.303    89615865.97649  21885083.496
 117063062.79748  22276355.756    91217990.94848  22276355.727
 04 12 11  1 13  0.0000000  0  9G 2G 4G 5G 6G10G13G17G24G30
 108160640.41949  20582266.548    84281055.76349  20582263.944
 122729377.69847  23354604.068    95633328.36647  23354603.822
 120482227.19647  22927000.329    93882256.39548  22927000.445
 122065390.90646  23228269.101    95115875.31648  23228269.211
 105655424.58749  20105547.765    82328919.20649  20105547.225
 129021071.70145  24551890.320   100535886.49246  24551888.954
 109681364.81749  20871656.642    85466037.57449  20871656.656
 115059323.83048  21895048.441    89656671.51349  21895048.648
 117098385.61247  22283077.470    91245515.21348  22283077.457
 04 12 11  1 13 30.0000000  0  9G 2G 4G 5G 6G10G13G17G24G30
 108192091.28149  20588251.454    84305562.92949  20588248.837
 122806255.36146  23369233.406    95693233.02647  23369233.174
 120559613.30447  22941726.427    93942557.24248  22941726.551
 121972850.94546  23210659.326    95043766.27748  23210659.409
 105635464.15449  20101749.415    82313365.63749  20101748.869
 129082807.38345  24563638.235   100583992.19746  24563636.904
 109664155.47749  20868381.802    85452627.70449  20868381.829
 115111821.91448  21905038.476    89697579.11849  21905038.703
 117134232.78947  22289898.961    91273448.07648  22289898.977
 04 12 11  1 14  0.0000000  0  9G 2G 4G 5G 6G10G13G17G24G30
 108223812.34749  20594287.772    84330280.64349  20594285.155
 122883194.83446  23383874.531    95753185.82047  23383874.343
 120637282.13347  22956506.350    94003078.37748  22956506.483
 121880465.98646  23193079.059    94971778.00748  23193079.123
 105616058.70749  20098056.681    82298244.52149  20098056.130
 129145022.93745  24575477.426   100632471.89146  24575476.087
 109647149.77949  20865145.725    85439376.51849  20865145.754
 115164451.92848  21915053.629    89738589.52349  21915053.855
 117170603.55147  22296820.117    91301788.89848  22296820.141
 04 12 11  1 14 30.0000000  0  9G 2G 4G 5G 6G10G13G17G24G30
 108255804.06049  20600375.592    84355209.25949  20600372.962
 122960196.60045  23398527.486    95813187.15747  23398527.336
 120715231.61547  22971339.667    94063818.21148  22971339.809
 121788239.02746  23175528.864    94899912.84948  23175528.894
 105597208.59849  20094469.612    82283556.13949  20094469.054
 129207718.19345  24587407.907   100681325.37946  24587406.532
 109630348.79949  20861948.605    85426284.85049  20861948.628
 115217214.64248  21925094.051    89779703.31649  21925094.278
 117207496.79147  22303840.691    91330536.85948  22303840.695
 04 12 11  1 15  0.0000000  0  9G 2G 4G 5G 6G10G13G17G24G30
 108288221.04349  20606544.345    84380469.24449  20606541.716
 123037415.44746  23413221.738    95873357.64747  23413221.622
 120793613.76847  22986255.324    94124895.18548  22986255.476
 121696327.26046  23158038.607    94828293.32648  23158038.629
 105579068.55249  20091017.688    82269421.03549  20091017.125
 129271046.42644  24599458.899   100730672.02046  24599457.546
 109613907.57249  20858819.937    85413473.51249  20858819.953
 115270264.69348  21935189.140    89821041.02149  21935189.353
 117245065.54147  22310989.804    91359811.17148  22310989.811
 04 12 11  1 15 30.0000000  0  9G 2G 4G 5G 6G10G13G17G24G30
 108320602.02649  20612706.247    84405701.17949  20612703.613
 123114389.93246  23427869.525    95933337.73047  23427869.401
 120871964.59047  23001165.008    94185947.76448  23001165.147
 121604272.04446  23140521.076    94756561.99348  23140521.105
 105561177.15649  20087613.063    82255479.69949  20087612.501
 129334543.01744  24611541.803   100780149.97446  24611540.461
 109597365.31549  20855672.045    85400583.44549  20855672.059
 115323140.85448  21945251.145    89862243.22749  21945251.337
 117282846.82348  22318179.349    91389251.12548  22318179.364
 04 12 11  1 16  0.0000000  0  9G 2G 4G 5G 6G10G13G17G24G30
 108353255.30849  20618919.954    84431145.29549  20618917.326
 123191428.43446  23442529.500    95993367.69847  23442529.340
 120950589.82847  23016126.911    94247214.16548  23016127.074
 121512383.83646  23123035.307    94684960.80848  23123035.357
 105543842.77449  20084314.434    82241972.40249  20084313.858
 129398515.80144  24623715.449   100829998.85045  24623714.127
 109581030.62549  20852563.656    85387855.12149  20852563.657
 115376151.52348  21955338.752    89903550.23949  21955338.908
 117321147.38948  22325467.710    91419095.71648  22325467.741
 04 12 11  1 16 30.0000000  0  9G 2G 4G 5G 6G10G13G17G24G30
 108386334.90449  20625214.798    84456921.59849  20625212.162
 123268685.24747  23457231.007    96053567.80147  23457230.790
 121029640.56347  23031169.765    94308812.13548  23031169.950
 121420819.49047  23105611.162    94613611.99148  23105611.232
 105527219.35048  20081151.101    82229019.09649  20081150.506
 129463116.81744  24636008.601   100880337.29646  24636007.312
 109565058.22848  20849524.204    85375409.10449  20849524.205
 115429450.94848  21965481.295    89945082.26349  21965481.422
 117360119.55047  22332883.878    91449463.62448  22332883.909
 04 12 11  1 17  0.0000000  0  9G 2G 4G 5G 6G10G13G17G24G30
 108419686.46449  20631561.389    84482909.82949  20631558.746
 123346006.11646  23471944.703    96113817.81047  23471944.473
 121108959.93747  23046263.752    94370619.41748  23046263.958
 121329427.09647  23088219.761    94542397.15848  23088219.812
 105511152.39249  20078093.661    82216499.39449  20078093.059
 129528189.46045  24648391.472   100931043.30346  24648390.199
 109549294.11249  20846524.387    85363125.38249  20846524.387
 115482884.73448  21975649.407    89986718.98549  21975649.512
 117399607.33147  22340398.165    91480233.30848  22340398.181
 04 12 11  1 17 30.0000000  0  9G 2G 4G 5G 6G10G13G17G24G30
 108453463.47549  20637988.940    84509229.57849  20637986.297
 123423544.68746  23486699.808    96174237.45847  23486699.568
 121188698.80947  23061437.567    94432753.58948  23061437.780
 121238362.24546  23070890.708    94471437.53148  23070890.738
 105495795.39149  20075171.321    82204532.90749  20075170.706
 129593886.85445  24660893.294   100982236.06246  24660892.024
 109533892.33549  20843593.520    85351124.00049  20843593.520
 115536606.42148  21985872.322    90028580.03149  21985872.415
 117439762.34948  22348039.428    91511522.91848  22348039.438
 04 12 11  1 18  0.0000000  0  9G 2G 4G 5G 6G10G13G17G24G30
 108487049.48849  20644380.158    84535400.49549  20644377.510
 123500684.13946  23501378.946    96234346.14247  23501378.684
 121268238.05747  23076573.412    94494732.18948  23076573.633
 121147011.55746  23053507.256    94400255.17748  23053507.258
 105480531.59048  20072266.704    82192639.05549  20072266.082
 129659589.59745  24673396.116   101033433.01346  24673394.843
 109518236.69848  20840614.346    85338924.81449  20840614.338
 115589999.64848  21996032.721    90070185.15149  21996032.802
 117479966.28148  22355690.006    91542850.64348  22355690.004
 04 12 11  1 18 30.0000000  0  9G 2G 4G 5G 6G10G13G17G24G30
 108521213.73049  20650881.391    84562021.98749  20650878.743
 123578193.99246  23516128.598    96294743.37847  23516128.375
 121348344.12847  23091817.103    94557152.49348  23091817.324
 121056146.34847  23036216.164    94329451.14548  23036216.159
 105466130.09949  20069526.191    82181417.11849  20069525.571
 129726064.45345  24686045.914   101085231.55446  24686044.652
 109503096.95249  20837733.342    85327127.61349  20837733.334
 115643833.60648  22006276.994    90112133.68349  22006277.070
 117520986.55948  22363495.929    91574814.48748  22363495.916
 04 12 11  1 19  0.0000000  0  8G 2G 4G 5G 6G10G17G24G30
 108555493.60449  20657404.640    84588733.57949  20657401.987
 123655611.67046  23530860.681    96355068.82947  23530860.474
 121428551.60147  23107080.089    94619651.81148  23107080.311
 120965306.55046  23018929.914    94258666.91548  23018929.889
 105452128.27949  20066861.728    82170506.61649  20066861.107
 109488010.89549  20834862.561    85315372.24849  20834862.554
 115697645.90148  22016517.140    90154065.34249  22016517.194
 117562358.79747  22371368.810    91607052.58648  22371368.820
 04 12 11  1 19 30.0000000  0  8G 2G 4G 5G 6G10G17G24G30
 108590351.24649  20664037.829    84615895.37549  20664035.182
 123733399.46946  23545663.219    96415682.66447  23545662.983
 121509320.15047  23122449.845    94682588.32148  23122450.072
 120874956.93547  23001736.971    94188264.59848  23001736.948
 105438988.10649  20064361.230    82160267.52649  20064360.617
 109473441.18449  20832090.031    85304019.23049  20832090.031
 115751898.82148  22026841.127    90196340.35349  22026841.161
 117604543.34347  22379396.304    91639923.63548  22379396.312
 04 12 11  1 20  0.0000000  0  8G 2G 4G 5G 6G10G17G24G30
 108625017.03649  20670634.509    84642907.67649  20670631.862
 123810787.84346  23560389.748    96475985.27447  23560389.527
 121589877.57647  23137779.437    94745360.30548  23137779.685
 120784330.62547  22984491.328    94117646.72448  22984491.319
 105425939.93049  20061878.233    82150100.13149  20061877.612
 109458618.86949  20829269.432    85292469.37749  20829269.431
 115805823.04448  22037102.566    90238359.22249  22037102.598
 117646769.06647  22387431.616    91672826.77148  22387431.609
 04 12 11  1 20 30.0000000  0  8G 2G 4G 5G 6G10G17G24G30
 108660263.08949  20677341.616    84670372.13649  20677338.956
 123888549.22546  23575187.265    96536578.54047  23575187.067
 121670993.25346  23153215.249    94808567.30048  23153215.502
 120694202.07646  22967340.465    94047416.65848  22967340.442
 105413755.34049  20059559.588    82140605.64449  20059558.969
 109444316.52449  20826547.792    85281324.69749  20826547.779
 115860190.54948  22047448.352    90280723.50849  22047448.397
 117689805.95147  22395621.281    91706361.99048  22395621.259
 04 12 11  1 21  0.0000000  0  8G 2G 4G 5G 6G10G17G24G30
 108695631.02549  20684071.911    84697931.56649  20684069.250
 123966224.81346  23589968.468    96597104.94347  23589968.287
 121752205.83547  23168669.490    94871849.82048  23168669.747
 120604115.08647  22950197.451    93977219.02048  22950197.431
 105401975.61949  20057317.964    82131426.66149  20057317.337
 109430075.91149  20823837.888    85270228.11749  20823837.873
 115914542.99948  22057791.285    90323076.05349  22057791.351
 117733193.62447  22403877.698    91740170.55748  22403877.657
 04 12 11  1 21 30.0000000  0  8G 2G 4G 5G 6G10G17G24G30
 108731278.37849  20690855.376    84725708.72449  20690852.723
 124043972.38946  23604763.387    96657687.44147  23604763.213
 121833670.24047  23184171.663    94935328.55948  23184171.934
 120514230.26846  22933092.945    93907178.89148  22933092.901
 105390758.09749  20055183.341    82122685.73449  20055182.714
 109416055.23349  20821169.842    85259302.91349  20821169.826
 115969038.10548  22068161.359    90365539.77649  22068161.426
 117777087.78447  22412230.479    91774373.78848  22412230.473
 04 12 11  1 22  0.0000000  0  8G 2G 4G 5G 6G10G17G24G30
 108767208.55549  20697692.668    84753706.26549  20697690.009
 124121795.58346  23619572.702    96718328.86647  23619572.537
 121915387.01447  23199721.871    94999003.92948  23199722.156
 120424553.26247  22916027.966    93837300.72148  22916027.908
 105380106.11249  20053156.329    82114385.49849  20053155.688
 109402258.34349  20818544.375    85248552.09749  20818544.352
 116023679.21448  22078559.222    90408117.26049  22078559.275
 117821489.98647  22420679.955    91808972.87748  22420679.977
 04 12 11  1 22 30.0000000  0  8G 2G 4G 5G 6G10G17G24G30
 108803424.69549  20704584.370    84781926.63549  20704581.704
 124199697.45746  23634396.966    96779031.59547  23634396.801
 121997356.77047  23215320.203    95062876.45748  23215320.510
 120335089.87147  22899003.643    93767588.99748  22899003.577
 105370022.23449  20051237.425    82106527.93749  20051236.776
 109388689.04549  20815962.223    85237978.62249  20815962.194
 116078469.90148  22088985.531    90450811.30349  22088985.581
 117866401.45147  22429226.322    91843968.81448  22429226.343
 04 12 11  1 23  0.0000000  0  8G 2G 4G 5G 6G10G17G24G30
 108840083.63249  20711560.340    84810492.04049  20711557.660
 124277834.98546  23649266.078    96839917.93947  23649265.914
 122079733.52046  23230995.995    95127066.09548  23230996.336
 120245999.44147  22882050.304    93698167.87348  22882050.245
 105360663.02649  20049456.415    82099235.06149  20049455.766
 109375504.48049  20813453.272    85227704.93949  20813453.248
 116133566.97448  22099470.162    90493744.08049  22099470.211
 117911976.99047  22437899.083    91879482.19548  22437899.096
 04 12 11  1 23 30.0000000  0  8G 2G 4G 5G 6G10G17G24G30
 108876571.24149  20718503.707    84838923.93749  20718501.027
 124355594.31246  23664063.216    96900509.58147  23664063.050
 122161900.55547  23246631.874    95191092.33448  23246632.251
 120156670.46047  22865051.570    93628560.86948  22865051.519
 105351413.99849  20047696.384    82092028.03149  20047695.728
 109362091.03549  20810900.784    85217252.90049  20810900.753
 116188356.38048  22109896.221    90536437.13849  22109896.261
 117957600.43847  22446580.948    91915032.90648  22446580.973
 04 12 11  1 24  0.0000000  0  8G 2G 4G 5G 6G10G17G24G30
 108913505.32549  20725532.029    84867703.75149  20725529.344
 124433593.29246  23678905.934    96961288.00847  23678905.732
 122244472.80547  23262344.863    95255434.32448  23262345.283
 120067723.17347  22848125.458    93559251.30048  22848125.399
 105342892.58249  20046074.800    82085387.98049  20046074.137
 109349067.09749  20808422.405    85207104.38249  20808422.374
 116243456.17048  22120381.374    90579372.03649  22120381.410
 118003887.71446  22455389.118    91951100.91048  22455389.156
 04 12 11  1 24 30.0000000  0  8G 2G 4G 5G 6G10G17G24G30
 108950887.30849  20732645.590    84896832.56549  20732642.921
 124511833.11946  23693794.508    97022254.06847  23693794.290
 122327448.76847  23278134.664    95320090.91148  23278135.120
 119979161.30647  22831272.689    93490242.05648  22831272.622
 105335099.75349  20044591.863    82079315.65349  20044591.205
 109336434.45649  20806018.482    85197260.77349  20806018.456
 116298867.56648  22130925.813    90622549.73849  22130925.846
 118050838.07847  22464323.493    91987685.57948  22464323.567
 04 12 11  1 25  0.0000000  0  8G 2G 4G 5G 6G10G17G24G30
 108988102.31249  20739727.370    84925831.26849  20739724.716
 124589699.28645  23708611.947    97082928.96747  23708611.758
 122410211.20347  23293883.837    95384581.09548  23293884.328
 119890373.08347  22814376.846    93421056.44348  22814376.758
 105327420.42449  20043130.529    82073331.76649  20043129.871
 109323578.85949  20803572.137    85187243.42449  20803572.117
 116353976.12148  22141412.622    90665491.46949  22141412.647
 118097834.82047  22473266.688    92024306.39548  22473266.774
 04 12 11  1 25 30.0000000  0  8G 2G 4G 5G 6G10G17G24G30
 109025921.68049  20746924.168    84955300.90149  20746921.516
 124667963.26045  23723505.098    97143913.85647  23723504.921
 122493528.76346  23309738.660    95449503.83348  23309739.177
 119802132.16547  22797585.164    93352297.28148  22797585.084
 105320625.35449  20041837.458    82068036.91349  20041836.806
 109311272.20649  20801230.253    85177653.83249  20801230.226
 116409553.54748  22151988.654    90708798.54249  22151988.692
 118145647.29747  22482365.117    92061562.84248  22482365.210
 04 12 11  1 26  0.0000000  0  8G 2G 4G 5G 6G10G17G24G30
 109063884.53549  20754148.265    84984882.34849  20754145.615
 124746163.97446  23738386.211    97204849.44547  23738386.014
 122576937.55547  23325610.855    95514497.66048  23325611.402
 119713980.31447  22780810.418    93283607.53548  22780810.331
 105314253.05949  20040624.839    82063071.49849  20040624.194
 109299053.85449  20798905.166    85168133.03949  20798905.151
 116465138.59148  22162566.143    90752111.56149  22162566.189
 118193811.99947  22491530.591    92099093.72748  22491530.704
 04 12 11  1 26 30.0000000  0  8G 2G 4G 5G 6G10G17G24G30
 109102299.61549  20761458.418    85014816.18149  20761455.763
 124824610.47846  23753314.120    97265976.56147  23753313.941
 122660743.65747  23341558.643    95579801.07948  23341559.225
 119626228.61747  22764111.814    93215229.60748  22764111.712
 105308611.74649  20039551.333    82058675.67149  20039550.696
 109287233.17849  20796655.766    85158922.12649  20796655.752
 116521040.29148  22173203.870    90795671.33349  22173203.938
 118242636.13847  22500821.534    92137138.48348  22500821.660
 04 12 11  1 27  0.0000000  0  8G 2G 4G 5G 6G10G17G24G30
 109140859.40849  20768796.102    85044862.77249  20768793.447
 124902995.27546  23768230.287    97327055.62247  23768230.102
 122744637.07746  23357523.066    95645172.52448  23357523.660
 119538572.13847  22747431.346    93146925.86148  22747431.224
 105303393.61549  20038558.349    82054609.59949  20038557.727
 109275503.25249  20794423.635    85149781.91849  20794423.627
 116576951.50948  22183843.421    90839238.50049  22183843.523
 118291809.89447  22510179.006    92175455.66248  22510179.160
 04 12 11  1 27 30.0000000  0  8G 2G 4G 5G 6G10G17G24G30
 109179564.71449  20776161.477    85075022.75049  20776158.822
 124981319.27246  23783134.883    97388087.27147  23783134.731
 122828615.37546  23373503.635    95710610.13748  23373504.209
 119451014.33047  22730769.638    93078699.01348  22730769.516
 105298598.83949  20037645.928    82050873.41949  20037645.298
 109263865.37749  20792209.015    85140713.45149  20792209.008
 116632872.85447  22194484.911    90882813.56149  22194485.021
 118341331.93247  22519602.755    92214044.23048  22519602.951
 04 12 11  1 28  0.0000000  0  8G 2G 4G 5G 6G10G17G24G30
 109218723.90749  20783613.218    85105536.41049  20783610.554
 125059891.04846  23798086.613    97449312.02347  23798086.471
 122912984.52246  23389558.579    95776352.29548  23389559.138
 119363866.19147  22714185.886    93010791.38248  22714185.756
 105294535.40349  20036872.676    82047707.11449  20036872.039
 109252628.33949  20790070.678    85131957.32349  20790070.672
 116689113.11548  22205187.077    90926637.14149  22205187.209
 118391508.70447  22529151.112    92253142.96948  22529151.331
 04 12 11  1 28 30.0000000  0  8G 2G 4G 5G 6G10G17G24G30
 109258029.65049  20791092.846    85136164.26249  20791090.188
 125138403.30746  23813027.029    97510490.36047  23813026.953
 122997434.26346  23405628.831    95842157.28847  23405629.374
 119276823.09047  22697622.105    92942965.62948  22697621.984
 105290895.29349  20036179.986    82044870.66249  20036179.356
 109241485.50049  20787950.266    85123274.58949  20787950.259
 116745365.04848  22215891.464    90970469.81849  22215891.620
 118442030.51447  22538765.123    92292510.58048  22538765.334
 04 12 11  1 29  0.0000000  0  8G 2G 4G 5G 6G10G17G24G30
 109297636.71949  20798629.821    85167026.90749  20798627.162
 125217011.00945  23827985.583    97571743.07247  23827985.582
 123082116.56747  23421743.379    95908143.42248  23421743.931
 119190042.11747  22681108.223    92875344.10148  22681108.116
 105287832.70849  20035597.183    82042484.24249  20035596.560
 109230592.09849  20785877.321    85114786.22449  20785877.314
 116801783.42348  22226627.542    91014432.17049  22226627.736
 118493049.98147  22548473.811    92332265.99748  22548474.036
 04 12 11  1 29 30.0000000  0  8G 2G 4G 5G 6G10G17G24G30
 109337546.27349  20806224.351    85198125.26549  20806221.691
 125295715.26945  23842962.482    97633071.04846  23842962.523
 123167030.01646  23437901.871    95974309.74648  23437902.416
 119103526.88247  22664644.910    92807929.63648  22664644.815
 105285347.90649  20035124.335    82040548.04149  20035123.713
 109219949.58849  20783852.107    85106493.37449  20783852.092
 116858369.40948  22237395.503    91058525.14649  22237395.707
 118544565.99147  22558277.011    92372408.30148  22558277.288
 04 12 11  1 30  0.0000000  0  8G 2G 4G 5G 6G10G17G24G30
 109377451.76449  20813818.113    85229220.44849  20813815.452
 125374209.66744  23857899.469    97694235.44046  23857899.546
 123251865.42546  23454045.554    96040415.21547  23454046.100
 119016973.72147  22648174.397    92740485.60648  22648174.310
 105283134.03949  20034703.045    82038822.95849  20034702.422
 109209252.16949  20781816.455    85098157.72549  20781816.442
 116914817.03648  22248137.141    91102510.30749  22248137.363
 118596269.83747  22568115.979    92412696.95448  22568116.288
 04 12 11  1 30 30.0000000  0  8G 2G 4G 5G 6G10G17G24G30
 109417970.49949  20821528.566    85260793.49249  20821525.904
 125453111.47845  23872914.003    97755717.32047  23872914.110
 123337237.07347  23470291.245    96106938.57048  23470291.798
 118931002.24747  22631814.569    92673494.85348  22631814.476
 105281807.48449  20034450.604    82037789.27849  20034449.987
 109199117.64149  20779887.931    85090260.68549  20779887.904
 116971743.53148  22258969.887    91146868.62049  22258970.116
 118648776.67347  22578107.710    92453611.35148  22578108.040
 04 12 11  1 31  0.0000000  0  8G 2G 4G 5G 6G10G17G24G30
 109458487.57149  20829238.708    85292365.22949  20829236.052
 125531806.09845  23887889.121    97817037.77046  23887889.190
 123422527.29846  23486521.482    96173398.44948  23486522.032
 118845000.55347  22615449.015    92606480.53048  22615448.924
 105280753.06249  20034249.948    82036967.65649  20034249.323
 109188931.54049  20777949.574    85082323.46649  20777949.554
 117028534.03648  22269776.779    91191120.94549  22269777.001
 118701469.22747  22588134.793    92494670.45348  22588135.115
 04 12 11  1 31 30.0000000  0  8G 2G 4G 5G 6G10G17G24G30
 109499157.38449  20836977.922    85324055.99149  20836975.268
 125610448.13546  23902854.226    97878317.27447  23902854.232
 123507888.04746  23502765.116    96239913.27447  23502765.701
 118759125.32148  22599107.495    92539564.77448  22599107.406
 105280124.23349  20034130.280    82036477.66749  20034129.655
 109178848.97249  20776030.925    85074466.92349  20776030.898
 117085343.20748  22280587.198    91235387.83048  22280587.426
 118754499.81547  22598226.197    92535992.95548  22598226.530
 04 12 11  1 32  0.0000000  0  8G 2G 4G 5G 6G10G17G24G30
 109540287.31249  20844804.687    85356105.28549  20844802.033
 125689344.75546  23917867.802    97939795.14047  23917867.770
 123593623.69346  23519080.079    96306720.25347  23519080.663
 118673686.52147  22582849.014    92472989.10948  22582848.925
 105280227.80649  20034149.989    82036558.37649  20034149.358
 109169177.77649  20774190.558    85066930.93249  20774190.525
 117142478.42748  22291459.675    91279908.77249  22291459.903
 118808173.38247  22608439.955    92577816.47548  22608440.314
 04 12 11  1 32 30.0000000  0  8G 2G 4G 5G 6G10G17G24G30
 109581875.26748  20852718.612    85388511.48049  20852715.964
 125768494.30446  23932929.478    98001470.12147  23932929.400
 123679729.74647  23535465.546    96373815.84648  23535466.137
 118588685.10147  22566673.782    92406754.23848  22566673.686
 105281060.87049  20034308.516    82037207.52449  20034307.871
 109159916.61949  20772428.219    85059714.45049  20772428.186
 117199938.27848  22302393.933    91324682.67448  22302394.154
 118862485.89747  22618775.318    92620137.88448  22618775.680
 04 12 11  1 33  0.0000000  0  8G 2G 4G 5G 6G10G17G24G30
 109623456.05349  20860631.179    85420912.08649  20860628.538
 125847431.68446  23947950.750    98062979.79447  23947950.591
 123765737.75446  23551832.350    96440835.04247  23551832.948
 118503657.92748  22550493.649    92340499.29648  22550493.545
 105282157.41349  20034517.175    82038061.98449  20034516.523
 109150600.46349  20770655.407    85052455.11449  20770655.374
 117257257.12748  22313301.348    91369346.72249  22313301.548
 118916969.46247  22629143.226    92662592.57048  22629143.594
 04 12 11  1 33 30.0000000  0  9G 2G 4G 5G 6G10G17G24G26G30
 109665332.95849  20868600.095    85453543.43849  20868597.455
 125926460.02746  23962989.361    98124560.27947  23962989.243
 123851948.31346  23568237.703    96508012.07147  23568238.295
 118418911.01447  22534366.853    92274462.73948  22534366.751
 105283820.00949  20034833.562    82039357.51549  20034832.913
 109141533.20849  20768929.972    85045389.71749  20768929.932
 117314738.78048  22324239.742    91414137.61649  22324239.934
 128093897.47745  24375458.428
 118971925.19847  22639600.996    92705415.15848  22639601.384
 04 12 11  1 34  0.0000000  0  9G 2G 4G 5G 6G10G17G24G26G30
 109707346.44749  20876595.002    85486281.22249  20876592.357
 126005420.10345  23978014.994    98186087.57147  23978014.921
 123938199.08846  23584650.692    96575220.44647  23584651.282
 118334287.52647  22518263.539    92208522.37348  22518263.417
 105285888.30949  20035227.141    82040969.18649  20035226.492
 109132556.11849  20767221.694    85038394.57749  20767221.655
 117372224.03548  22335178.840    91458931.30349  22335179.025
 127973778.50445  24352600.339    99719849.69047  24352604.310
 119027191.21647  22650117.788    92748479.56148  22650118.158
 04 12 11  1 34 30.0000000  0  9G 2G 4G 5G 6G10G17G24G26G30
 109749797.84849  20884673.241    85519360.23749  20884670.590
 126084613.46945  23993084.979    98247796.65146  23993084.977
 124024788.94046  23601128.223    96642693.02347  23601128.820
 118250091.46948  22502241.550    92142915.07948  22502241.415
 105288663.09649  20035755.159    82043131.36649  20035754.511
 109123971.16449  20765588.026    85031705.00749  20765587.994
 117430014.50248  22346176.007    91503962.83949  22346176.194
 127853807.06744  24329770.641    99626365.53246  24329774.173
 119083066.65947  22660750.584    92792018.79648  22660750.953
 04 12 11  1 35  0.0000000  0  9G 2G 4G 5G 6G10G17G24G26G30
 109792372.65649  20892774.963    85552535.41049  20892772.306
 126163725.77945  24008139.545    98309442.56246  24008139.599
 124111400.30246  23617609.841    96710182.36447  23617610.452
 118166010.87647  22486241.563    92077397.72948  22486241.401
 105291828.74749  20036357.569    82045598.10149  20036356.920
 109115464.31449  20763969.226    85025076.29249  20763969.202
 117487795.48448  22357171.374    91548986.97349  22357171.555
 127733671.70244  24306909.284    99532753.64846  24306912.622
 119139234.38247  22671438.970    92835785.81748  22671439.337
 04 12 11  1 35 30.0000000  0  9G 2G 4G 5G 6G10G17G24G26G30
 109835218.04649  20900928.176    85585921.42749  20900925.505
 126242904.01345  24023206.668    98371139.83646  24023206.803
 124198177.70246  23634123.072    96777801.06847  23634123.691
 118082195.45247  22470292.030    92012087.01148  22470291.857
 105295531.82249  20037062.229    82048483.63049  20037061.580
 109107183.02549  20762393.343    85018623.34349  20762393.326
 117545714.33548  22368192.971    91594118.53848  22368193.175
 127613523.08045  24284045.744    99439131.42247  24284049.065
 119195839.48947  22682210.600    92879893.65948  22682210.968
 04 12 11  1 36  0.0000000  0  9G 2G 4G 5G 6G10G17G24G26G30
 109878482.41649  20909161.106    85619633.92549  20909158.433
 126322296.72646  24038314.634    98433004.22147  24038314.801
 124285266.73846  23650695.565    96845662.66247  23650696.163
 117998796.27747  22454421.701    91947100.64048  22454421.514
 105299919.50849  20037897.177    82051902.60949  20037896.530
 109099276.24649  20760888.733    85012462.21449  20760888.723
 117603919.49848  22379269.057    91639473.20448  22379269.240
 127493512.63145  24261208.550    99345616.82246  24261211.677
 119253027.58547  22693093.180    92924455.75448  22693093.594
 04 12 11  1 36 30.0000000  0  9G 2G 4G 5G 6G10G17G24G26G30
 109922006.32749  20917443.436    85653548.65649  20917440.772
 126401744.60146  24053433.110    98494911.62147  24053433.251
 124372505.35346  23667296.563    96913640.75447  23667297.153
 117915656.50047  22438600.727    91882316.39648  22438600.532
 105304831.78449  20038831.947    82055730.35849  20038831.305
 109091585.37349  20759425.209    85006469.32749  20759425.191
 117662252.08148  22390369.390    91684927.15448  22390369.559
 127373484.48445  24238367.740    99252088.55647  24238370.875
 119310637.15447  22704055.952    92969346.28748  22704056.389
 04 12 11  1 37  0.0000000  0  9G 2G 4G 5G 6G10G17G24G26G30
 109965477.71249  20925715.766    85687422.46849  20925713.111
 126480935.77446  24068502.671    98556619.06047  24068502.769
 124459578.47346  23683866.051    96981489.91147  23683866.618
 117832466.47547  22422770.186    91817493.01348  22422769.985
 105309955.91349  20039807.030    82059723.19349  20039806.389
 109083798.83049  20757943.479    85000401.89749  20757943.455
 117720400.19148  22401434.596    91730237.38648  22401434.742
 127253130.04745  24215465.099    99158305.94647  24215468.112
 119368353.65247  22715039.078    93014320.12948  22715039.522
 04 12 11  1 37 30.0000000  0  9G 2G 4G 5G 6G10G17G24G26G30
 110009509.86348  20934094.812    85721733.22749  20934092.171
 126560483.61946  24083640.170    98618604.33247  24083640.282
 124547096.79846  23700520.228    97049686.01647  23700520.788
 117749842.36947  22407047.365    91753110.56648  22407047.172
 105315903.88049  20040938.885    82064357.97749  20040938.243
 109076530.40249  20756560.337    84994738.18949  20756560.312
 117778977.13647  22412581.430    91775881.73848  22412581.589
 127133065.61345  24192617.555    99064749.36447  24192620.487
 119426787.94747  22726158.761    93059853.34448  22726159.168
 04 12 11  1 38  0.0000000  0  9G 2G 4G 5G 6G10G17G24G26G30
 110053484.88549  20942462.974    85755999.47549  20942460.355
 126639770.22146  24098727.903    98680386.10747  24098728.007
 124634439.65546  23717141.063    97117745.33447  23717141.629
 117667168.63147  22391315.094    91688689.45648  22391314.894
 105322056.80649  20042109.747    82069152.46949  20042109.099
 109069162.71249  20755158.312    84988997.13249  20755158.287
 117837365.04348  22423692.279    91821378.81048  22423692.424
 127012676.70846  24169708.291    98970939.87146  24169711.082
 119485319.47447  22737296.982    93105462.28148  22737297.389
 04 12 11  1 38 30.0000000  0  9G 2G 4G 5G 6G10G17G24G26G30
 110098017.69948  20950937.281    85790700.36749  20950934.667
 126719410.88145  24113883.017    98742443.73246  24113883.121
 124722219.29846  23733845.027    97186144.98947  23733845.608
 117585062.92147  22375690.903    91624710.97448  22375690.703
 105329028.88949  20043436.485    82074585.26649  20043435.836
 109062311.69749  20753854.608    84983658.67549  20753854.589
 117896179.57948  22434884.337    91867208.28048  22434884.510
 126892582.13046  24146854.999    98877359.83047  24146857.674
 119544560.98147  22748570.290    93151624.45648  22748570.732
 04 12 11  1 39  0.0000000  0  9G 2G 4G 5G 6G10G17G24G26G30
 110142800.60449  20959459.185    85825596.13249  20959456.577
 126799098.10245  24129046.961    98804537.65346  24129047.068
 124810125.16046  23750572.980    97254643.04247  23750573.539
 117503220.49347  22360116.812    91560937.63848  22360116.626
 105336511.61749  20044860.395    82080415.97049  20044859.746
 109055669.82649  20752590.696    84978483.19849  20752590.677
 117955112.72348  22446098.929    91913130.22248  22446099.086
 126772477.17846  24123999.769    98783771.68247  24124002.348
 119604202.34647  22759919.717    93198098.19048  22759920.177
 04 12 11  1 39 30.0000000  0  9G 2G 4G 5G 6G10G17G24G26G30
 110187680.39848  20967999.531    85860567.39649  20967996.916
 126878678.49045  24144190.617    98866548.29546  24144190.791
 124898001.43446  23767295.327    97323118.01647  23767295.865
 117421490.08347  22344564.038    91497251.59348  22344563.858
 105344350.68049  20046352.119    82086524.32949  20046351.470
 109049084.78649  20751337.604    84973351.99949  20751337.586
 118014011.51248  22457307.008    91959025.37348  22457307.151
 126652211.87546  24101114.090    98690058.46447  24101116.509
 119664087.63647  22771315.527    93244762.01548  22771315.998
 04 12 11  1 40  0.0000000  0  9G 2G 4G 5G 6G10G17G24G26G30
 110232657.91549  20976558.480    85895614.79949  20976555.858
 126958153.17245  24159314.182    98928476.52246  24159314.465
 124985845.91846  23784011.612    97391568.23247  23784012.161
 117339875.60547  22329033.332    91433655.88548  22329033.160
 105352545.86949  20047911.611    82092910.19149  20047910.962
 109042557.63949  20750095.523    84968265.91449  20750095.512
 118072877.23048  22468508.794    92004894.75448  22468508.922
 126531790.79146  24078198.720    98596223.94547  24078200.947
 119724215.33847  22782757.496    93291614.71348  22782757.974
 04 12 11  1 40 30.0000000  0  9G 2G 4G 5G 6G10G17G24G26G30
 110278195.63349  20985224.032    85931098.72549  20985221.410
 127037984.93645  24174505.673    98990683.05146  24174505.965
 125074118.60646  23800809.387    97460352.09247  23800809.951
 117258842.19447  22313613.174    91370512.97748  22313613.001
 105361558.66649  20049626.684    82099933.16149  20049626.020
 109036551.80949  20748952.652    84963586.04249  20748952.647
 118132172.41348  22479792.298    92051098.78448  22479792.426
 126411679.65246  24055342.324    98502630.93247  24055344.425
 119785045.41647  22794333.134    93339014.72548  22794333.602
 04 12 11  1 41  0.0000000  0  9G 2G 4G 5G 6G10G17G24G26G30
 110323985.93149  20993937.641    85966779.48549  20993935.001
 127117865.82445  24189706.543    99052927.85247  24189706.819
 125162509.14446  23817629.589    97529227.80047  23817630.163
 117178084.71247  22298245.530    91307585.06848  22298245.356
 105371080.51149  20051438.624    82107352.78949  20051437.954
 109030760.09649  20747850.526    84959073.02449  20747850.522
 118191589.68748  22491099.041    92097397.95448  22491099.164
 126291574.16146  24032486.991    98409042.29547  24032488.948
 119846267.78947  22805983.400    93386720.43948  22805983.870
 04 12 11  1 41 30.0000000  0  9G 2G 4G 5G 6G10G17G24G26G30
 110369875.79149  21002670.191    86002537.82049  21002667.544
 127197643.22446  24204887.736    99115092.02347  24204887.991
 125250861.45546  23834442.493    97598073.74147  23834443.053
 117097452.48848  22282901.705    91244754.77348  22282901.548
 105380957.05749  20053318.069    82115048.80249  20053317.399
 109025029.94349  20746760.114    84954607.97149  20746760.103
 118250975.89848  22502399.879    92143672.90248  22502400.001
 126171324.85246  24009604.338    98315341.57647  24009606.085
 119907726.76347  22817678.678    93434610.50748  22817679.190
 04 12 11  1 42  0.0000000  0  9G 2G 4G 5G 6G10G17G24G26G30
 110416020.08549  21011451.165    86038494.41149  21011448.518
 127277472.04846  24220078.692    99177296.30147  24220078.926
 125339327.68246  23851277.080    97667008.42047  23851277.651
 117017103.39847  22267611.787    91182145.08848  22267611.608
 105391342.38249  20055294.336    82123141.25949  20055293.660
 109019516.98249  20745711.032    84950312.16249  20745711.022
 118310486.50748  22513724.365    92190044.80448  22513724.494
 126051089.83746  23986724.340    98221652.05646  23986725.971
 119969574.66247  22829447.977    93482803.63548  22829448.505
 04 12 11  1 42 30.0000000  0  9G 2G 4G 5G 6G10G17G24G26G30
 110462419.54749  21020280.695    86074649.83349  21020278.042
 127357353.24845  24235279.674    99239541.29747  24235279.889
 125427906.10346  23868133.005    97736030.54447  23868133.566
 116937040.45847  22252376.304    91119758.39848  22252376.119
 105402236.15749  20057367.347    82131629.92649  20057366.664
 109014222.45649  20744703.517    84946186.55849  20744703.508
 118370122.29448  22525072.684    92236514.23548  22525072.818
 125930873.41746  23963847.856    98127977.01647  23963849.417
 120031809.72546  22841290.946    93531298.45248  22841291.488
 04 12 11  1 43  0.0000000  0  9G 2G 4G 5G 6G10G17G24G26G30
 110509075.41748  21029159.029    86111005.03949  21029156.377
 127437287.94546  24250490.735    99301828.09047  24250490.945
 125516595.03946  23885009.978    97805138.76847  23885010.546
 116857267.72848  22237196.053    91057597.82948  22237195.881
 105413638.41349  20059537.124    82140514.80949  20059536.428
 109009148.28249  20743737.934    84942232.65649  20743737.924
 118429884.83147  22536445.111    92283082.44748  22536445.228
 125810680.31446  23940975.875    98034320.08547  23940977.316
 120094430.51647  22853207.322    93580093.82148  22853207.869
 04 12 11  1 43 30.0000000  0  9G 2G 4G 5G 6G10G17G24G26G30
 110556142.80249  21038115.643    86147680.94049  21038112.992
 127517431.81045  24265741.659    99364277.79946  24265741.885
 125605546.92346  23901936.983    97874451.88947  23901937.541
 116777942.96247  22222101.028    90995786.33548  22222100.867
 105425702.97649  20061832.934    82149915.77049  20061832.238
 109004450.24949  20742843.934    84938571.85349  20742843.919
 118489929.12848  22547871.173    92329870.18848  22547871.326
 125690668.95045  23918138.496    97940804.73747  23918139.860
 120157589.69247  22865226.143    93629308.72548  22865226.667
 04 12 11  1 44  0.0000000  0  9G 2G 4G 5G 6G10G17G24G26G30
 110603314.96548  21047092.213    86184438.46349  21047089.562
 127597477.70045  24280973.910    99426651.18946  24280974.150
 125694452.16346  23918855.087    97943728.70047  23918855.615
 116698761.88447  22207033.370    90934086.78548  22207033.222
 105438122.14649  20064196.217    82159593.04849  20064195.528
 108999822.11349  20741963.229    84934965.51749  20741963.200
 118549948.82047  22559292.534    92376638.77548  22559292.693
 125570536.12045  23895277.913    97847194.82547  23895279.241
 120220977.85947  22877288.552    93678702.05148  22877289.052
 04 12 11  1 44 30.0000000  0  9G 2G 4G 5G 6G10G17G24G26G30
 110650747.13649  21056118.261    86221398.59349  21056115.603
 127677581.45645  24296217.147    99489069.64646  24296217.420
 125783463.35646  23935793.396    98013088.03247  23935793.957
 116619882.60448  22192023.142    90872622.41748  22192023.003
 105451050.24449  20066656.347    82169666.89949  20066655.651
 108995419.84849  20741125.512    84931535.17649  20741125.483
 118610099.81547  22570738.900    92423509.66048  22570739.095
 125450440.61346  23872424.438    97753613.98846  23872425.707
 120284747.72147  22889423.595    93728392.81248  22889424.066
 04 12 11  1 45  0.0000000  0  9G 2G 4G 5G 6G10G17G24G26G30
 110698286.65548  21065164.737    86258442.36549  21065162.078
 127757590.28245  24311442.291    99551414.21846  24311442.571
 125872425.24746  23952722.304    98082408.93547  23952722.913
 116541154.87448  22177041.753    90811276.12449  22177041.620
 105464333.25949  20069184.015    82180017.30649  20069183.318
 108991091.41949  20740301.833    84928162.38049  20740301.804
 118670229.71947  22582181.240    92470364.12148  22582181.448
 125330233.08445  23849549.694    97659945.80446  23849550.904
 120348744.09247  22901601.753    93778260.06948  22901602.221
 04 12 11  1 45 30.0000000  0  9G 2G 4G 5G 6G10G17G24G26G30
 110746088.89849  21074261.195    86295690.87949  21074258.538
 127837659.89045  24326679.090    99613806.02646  24326679.410
 125961490.21146  23969670.815    98151810.18147  23969671.475
 116462736.83048  22162119.307    90750171.14349  22162119.167
 105478125.51349  20071808.593    82190764.51749  20071807.889
 108986992.72649  20739521.872    84924968.59749  20739521.834
 118730493.66047  22593649.099    92517323.02548  22593649.323
 125210072.53145  23826683.764    97566314.33846  23826684.976
 120413119.70747  22913852.079    93828422.83348  22913852.556
 04 12 11  1 46  0.0000000  0  9G 2G 4G 5G 6G10G17G24G26G30
 110794309.36349  21083437.262    86333265.24449  21083434.620
 127917945.67345  24341956.949    99676366.38346  24341957.273
 126050811.08646  23986668.007    98221410.87747  23986668.699
 116384786.40448  22147285.840    90689430.54649  22147285.708
 105492581.28749  20074559.430    82202028.76749  20074558.719
 108983280.02249  20738815.368    84922075.58049  20738815.338
 118791047.52547  22605172.134    92564507.83948  22605172.351
 125090117.86545  23803857.085    97472843.21747  23803858.312
 120478027.25547  22926203.610    93879000.10648  22926204.119
 04 12 11  1 46 30.0000000  0  9G 2G 4G 5G 6G10G17G24G26G30
 110842795.45249  21092663.852    86371046.61849  21092661.217
 127998295.42745  24357247.058    99738976.48147  24357247.443
 126140232.82145  24003684.433    98291090.12047  24003685.150
 116307153.63448  22132512.815    90628937.48848  22132512.678
 105507546.78849  20077407.264    82213690.19549  20077406.566
 108979801.35349  20738153.399    84919364.93049  20738153.369
 118851738.98348  22616721.340    92611799.87548  22616721.573
 124970219.85645  23781041.140    97379416.27046  23781042.383
 120543311.75347  22938626.902    93929871.07848  22938627.445
 04 12 11  1 47  0.0000000  0  9G 2G 4G 5G 6G10G17G24G26G30
 110891548.52748  21101941.272    86409036.00349  21101938.644
 128078710.46545  24372549.579    99801637.54947  24372549.931
 126229754.02246  24020719.793    98360846.85847  24020720.527
 116229842.72548  22117801.027    90568695.23749  22117800.889
 105523022.38449  20080352.166    82225749.10649  20080351.468
 108976558.65949  20737536.335    84916838.15549  20737536.297
 118912569.67947  22628297.043    92659200.41448  22628297.291
 124850383.70845  23758237.014    97286037.48947  23758238.278
 120608971.87047  22951121.637    93981034.78448  22951122.182
 04 12 11  1 47 30.0000000  0  9G 2G 4G 5G 6G10G17G24G26G30
 110940262.25748  21111211.186    86446994.74949  21111208.565
 128158884.57345  24387806.234    99864110.85746  24387806.604
 126319065.21545  24037715.165    98430439.97747  24037715.923
 116152549.51948  22103092.624    90508466.77149  22103092.483
 105538699.95549  20083335.508    82237965.39849  20083334.803
 108973246.07749  20736905.966    84914256.92449  20736905.927
 118973233.13447  22639840.921    92706470.63648  22639841.178
 124730306.06846  23735386.891    97192470.59347  23735388.171
 120674698.37347  22963629.040    94032250.16148  22963629.562
 04 12 11  1 48  0.0000000  0  9G 2G 4G 5G 6G10G17G24G26G30
 110989554.24948  21120591.135    86485404.11149  21120588.500
 128239435.59044  24403134.631    99926877.84546  24403135.005
 126408781.50246  24054787.625    98500348.73447  24054788.432
 116075894.61148  22088505.675    90448735.68249  22088505.526
 105555196.27949  20086474.649    82250819.68049  20086473.943
 108970482.11449  20736380.001    84912103.19049  20736379.955
 119034347.26347  22651470.565    92754092.03548  22651470.802
 124610608.54845  23712609.127    97099199.86847  23712610.447
 120741106.47646  22976266.117    94083996.69248  22976266.593
 04 12 11  1 48 30.0000000  0  9G 2G 4G 5G 6G10G17G24G26G30
 111038963.81148  21129993.480    86523905.06549  21129990.834
 128319902.69144  24418447.058    99989579.40346  24418447.458
 126498439.45046  24071848.995    98570212.03247  24071849.816
 115999419.91948  22073953.025    90389145.01149  22073952.883
 105572049.23849  20089681.660    82263951.85249  20089680.961
 108967806.51849  20735870.864    84910018.30449  20735870.813
 119095451.50647  22663098.315    92801705.72448  22663098.543
 124490833.82746  23689816.678    97005868.98647  23689818.016
 120807732.71047  22988944.692    94135913.21948  22988945.116
 04 12 11  1 49  0.0000000  0  9G 2G 4G 5G 6G10G17G24G26G30
 111088491.14648  21139418.230    86562497.78449  21139415.586
 128400286.72145  24433743.666   100052216.26846  24433744.043
 126588036.66745  24088898.802    98640028.01847  24088899.639
 115923128.14448  22059435.171    90329696.89149  22059435.022
 105589257.90849  20092956.355    82277361.20649  20092955.654
 108965220.29849  20735378.711    84908003.07549  20735378.650
 119156546.69347  22674724.349    92849312.34548  22674724.582
 124370985.52446  23667010.245    96912480.78747  23667011.565
 120874574.67347  23001664.342    94187997.80748  23001664.766
 04 12 11  1 49 30.0000000  0  9G 2G 4G 5G 6G10G17G24G26G30
 111138443.54948  21148923.856    86601421.73949  21148921.205
 128480894.63845  24449082.855   100115027.61046  24449083.237
 126677877.73246  24105995.012    98710034.00547  24105995.877
 115847328.99148  22045011.065    90270632.61049  22045010.929
 105607128.21249  20096356.961    82291286.12249  20096356.253
 108963031.42249  20734962.187    84906297.45649  20734962.120
 119217940.19347  22686407.143    92897151.42548  22686407.358
 124251374.63646  23644248.985    96819277.58047  23644250.313
 120941936.90546  23014483.002    94240487.78948  23014483.455
 04 12 11  1 50  0.0000000  0  9G 2G 4G 5G 6G10G17G24G26G30
 111188818.39149  21158509.882    86640674.85449  21158507.232
 128561724.36745  24464464.288   100178011.74946  24464464.698
 126767957.18646  24123136.556    98780225.78447  24123137.426
 115772022.90548  22030680.788    90211952.55349  22030680.637
 105625656.34249  20099882.747    82305723.62649  20099882.039
 108961237.93149  20734620.897    84904899.94049  20734620.810
 119279629.55547  22698146.257    92945221.02348  22698146.483
 124132001.79746  23621533.095    96726259.80347  23621534.415
 121009814.07747  23027399.616    94293379.06448  23027400.120
 04 12 11  1 50 30.0000000  0  9G 2G 4G 5G 6G10G17G24G26G30
 111238995.40548  21168058.256    86679773.82349  21168055.607
 128642155.50045  24479769.889   100240685.28646  24479770.300
 126857652.10446  24140204.973    98850117.86947  24140205.886
 115696591.87248  22016326.739    90153175.12949  22016326.589
 105644220.64449  20103415.410    82320189.31649  20103414.709
 108959220.06249  20734236.916    84903327.57349  20734236.814
 119340995.04847  22709823.733    92993038.26048  22709823.987
 124012250.38146  23598745.122    96632947.04547  23598746.455
 121077583.20247  23040295.706    94346186.12448  23040296.251
 04 12 11  1 51  0.0000000  0  9G 2G 4G 5G 6G10G17G24G26G30
 111289739.59048  21177714.565    86719314.72949  21177711.931
 128722953.04745  24495145.205   100303644.38346  24495145.577
 126947724.83945  24157345.269    98920304.39747  24157346.168
 115621803.55348  22002095.007    90094898.52349  22002094.839
 105663584.80449  20107100.275    82335278.28349  20107099.573
 108957743.62549  20733955.965    84902177.10049  20733955.864
 119402801.49847  22721585.110    93041199.12548  22721585.354
 123892888.94746  23576031.373    96539938.18847  23576032.689
 121146006.53047  23053316.262    94399502.96748  23053316.829
 04 12 11  1 51 30.0000000  0  9G 2G 4G 5G 6G10G17G24G26G30
 111340582.93348  21187389.738    86758932.91749  21187387.097
 128803649.07545  24510501.172   100366524.36046  24510501.510
 127037704.65445  24174467.840    98990418.48747  24174468.807
 115547192.48248  21987896.993    90036760.02549  21987896.824
 105683279.47749  20110848.053    82350624.77749  20110847.344
 108956341.11249  20733689.076    84901084.23949  20733688.969
 119464581.00147  22733341.376    93089338.97048  22733341.634
 123773452.85546  23553303.440    96446871.11547  23553304.759
 121214613.25247  23066371.728    94452962.70348  23066372.304
 04 12 11  1 52  0.0000000  0  9G 2G 4G 5G 6G10G17G24G26G30
 111391672.41749  21197111.719    86798742.93249  21197109.063
 128884390.96145  24525865.884   100429440.07646  24525866.155
 127127735.92446  24191600.204    99060572.74747  24191601.148
 115472908.31348  21973761.168    89978876.27248  21973761.005
 105703450.40549  20114686.453    82366342.38749  20114685.737
 108955160.31049  20733464.376    84900164.13349  20733464.270
 119526481.19947  22745120.610    93137572.88848  22745120.857
 123654093.10346  23530590.005    96353863.56147  23530591.304
 121283547.83847  23079489.586    94506677.92548  23079490.125
 04 12 11  1 52 30.0000000  0  9G 2G 4G 5G 6G10G17G24G26G30
 111443155.26048  21206908.591    86838859.41549  21206905.934
 128965326.06645  24541267.334   100492506.36346  24541267.617
 127217963.21945  24208769.911    99130879.71847  24208770.866
 115399101.04048  21959716.099    89921364.12549  21959715.937
 105724243.36749  20118643.222    82382544.69449  20118642.506
 108954349.13849  20733310.022    84899532.05249  20733309.909
 119588649.62647  22756950.904    93186015.78448  22756951.176
 123534960.33147  23507919.744    96261032.90647  23507921.018
 121352954.80947  23092697.329    94560761.23748  23092697.830
 04 12 11  1 53  0.0000000  0  9G 2G 4G 5G 6G10G17G24G26G30
 111494870.68248  21216749.708    86879157.14649  21216747.043
 129046293.82045  24556675.075   100555598.01946  24556675.389
 127308223.22645  24225945.825    99201212.14946  24225946.825
 115325612.38948  21945731.673    89864100.25149  21945731.506
 105745496.32549  20122687.519    82399105.44849  20122686.796
 108953747.61349  20733195.555    84899063.33649  20733195.436
 119650925.73047  22768801.659    93234542.62148  22768801.933
 123415897.43647  23485262.817    96168256.67447  23485264.069
 121422670.68947  23105963.837    94615085.26747  23105964.305
 04 12 11  1 53 30.0000000  0  9G 2G 4G 5G 6G10G17G24G26G30
 111546659.39048  21226604.772    86919511.97549  21226602.112
 129127134.83345  24572058.638   100618591.01246  24572058.914
 127398353.80046  24243097.109    99271443.76047  24243098.102
 115252285.47048  21931778.024    89806962.39449  21931777.865
 105767048.44749  20126788.746    82415899.31549  20126788.022
 108953196.88149  20733090.754    84898634.19549  20733090.628
 119713150.02648  22780642.584    93283029.06748  22780642.864
 123296748.30447  23462589.461    96075413.24748  23462590.679
 121492533.10547  23119258.243    94669523.47547  23119258.679
 04 12 11  1 54  0.0000000  0  9G 2G 4G 5G 6G10G17G24G26G30
 111598670.80248  21236502.220    86960040.34749  21236499.563
 129207998.92245  24587446.633   100681601.90346  24587446.916
 127488501.49246  24260251.644    99341688.74547  24260252.599
 115179272.55948  21917884.135    89750069.22249  21917883.979
 105789047.87249  20130975.103    82433041.72149  20130974.380
 108952847.05449  20733024.179    84898361.60749  20733024.052
 119775472.33347  22792502.143    93331591.89148  22792502.432
 123177666.04547  23439928.873    95982621.88648  23439930.051
 121562688.91246  23132608.479    94724190.29848  23132608.876
 04 12 11  1 54 30.0000000  0  9G 2G 4G 5G 6G10G17G24G26G30
 111651209.25349  21246499.955    87000979.39449  21246497.304
 129289190.21945  24602896.836   100744867.82246  24602897.122
 127578968.23645  24277466.899    99412182.26146  24277467.912
 115106880.27348  21904108.324    89693659.66749  21904108.167
 105811797.55149  20135304.223    82450768.75149  20135303.495
 108953003.09549  20733053.872    84898483.19549  20733053.752
 119838197.57647  22804438.401    93380468.67748  22804438.696
 123058958.84347  23417339.631    95890122.81048  23417340.771
 121633439.56447  23146071.916    94779320.61048  23146072.337
 04 12 11  1 55  0.0000000  0  9G 2G 4G 5G 6G10G17G24G26G30
 111703810.32748  21256509.612    87041967.23749  21256506.961
 129370244.62144  24618321.059   100808026.99746  24618321.368
 127669286.93246  24294654.011    99482560.39947  24294655.048
 115034646.96348  21890362.770    89637373.97649  21890362.626
 105834831.69349  20139687.481    82468717.42849  20139686.760
 108953201.63949  20733091.654    84898637.90349  20733091.534
 119900861.60347  22816362.963    93429297.79248  22816363.265
 122940165.47946  23394733.994    95797556.58947  23394735.085
 121704317.98046  23159559.636    94834550.53347  23159560.056
 04 12 11  1 55 30.0000000  0  9G 2G 4G 5G 6G10G17G24G26G30
 111756472.16448  21266530.821    87083002.43449  21266528.183
 129451160.74245  24633718.944   100871078.44746  24633719.267
 127759452.99146  24311812.048    99552819.72147  24311812.985
 114962573.42848  21876647.632    89581212.77749  21876647.495
 105858146.98449  20144124.227    82486885.19449  20144123.506
 108953441.28449  20733137.257    84898824.64249  20733137.137
 119963462.73147  22828275.585    93478077.86448  22828275.879
 122821287.95246  23372112.335    95704924.77947  23372113.390
 121775319.56446  23173070.830    94889876.39847  23173071.243
 04 12 11  1 56  0.0000000  0  9G 2G 4G 5G 6G10G17G24G26G30
 111809656.21248  21276651.415    87124444.54349  21276648.762
 129532399.60744  24649178.210   100934381.41946  24649178.576
 127849925.00745  24329028.282    99623317.38946  24329029.205
 114891123.61448  21863051.185    89525537.59949  21863051.041
 105882203.15249  20148701.964    82505630.26449  20148701.244
 108954184.05549  20733278.607    84899403.42149  20733278.489
 120026462.38847  22840264.027    93527168.49248  22840264.335
 122702791.33247  23349563.154    95612589.79247  23349564.144
 121846902.91946  23186692.725    94945655.57647  23186693.165
 04 12 11  1 56 30.0000000  0  9G 2G 4G 5G 6G10G17G24G26G30
 111862900.66448  21286783.503    87165933.72449  21286780.843
 129613499.65944  24664611.090   100997576.14246  24664611.518
 127940238.72145  24346214.500    99693691.59947  24346215.413
 114819838.05848  21849485.976    89469990.43249  21849485.825
 105906536.88949  20153332.514    82524591.62749  20153331.795
 108954969.02049  20733427.981    84900015.08449  20733427.855
 120089399.07647  22852240.493    93576210.04848  22852240.784
 122584217.27246  23326999.231    95520194.46547  23327000.163
 121918603.35247  23200336.893    95001525.99847  23200337.361
 04 12 11  1 57  0.0000000  0  9G 2G 4G 5G 6G10G17G24G26G30
 111916668.74348  21297015.228    87207830.92349  21297012.560
 129694924.58344  24680105.726   101061024.14746  24680106.146
 128030854.79746  24363458.172    99764301.57047  24363459.028
 114749182.90948  21836040.761    89414934.47349  21836040.597
 105931610.63449  20158103.889    82544129.61249  20158103.170
 108956260.02049  20733673.656    84901021.05549  20733673.531
 120152736.50347  22864293.222    93625563.85448  22864293.525
 122466032.90547  23304509.482    95428102.76747  23304510.368
 121990881.43847  23214090.992    95057846.55247  23214091.477
 04 12 11  1 57 30.0000000  0  9G 2G 4G 5G 6G10G17G24G26G30
 111970500.21648  21307259.017    87249777.51249  21307256.345
 129776213.96344  24695574.646   101124366.44446  24695575.066
 128121310.45145  24380671.292    99834786.52246  24380672.074
 114678700.56548  21822628.417    89360013.17549  21822628.233
 105956962.48949  20162928.187    82563884.30349  20162927.475
 108957597.80549  20733928.228    84902063.48849  20733928.097
 120216014.58347  22876334.670    93674871.43648  22876334.933
 122347781.55246  23282006.980    95335958.88947  23282007.831
 122063274.22346  23227866.916    95114256.46348  23227867.429
 04 12 11  1 58  0.0000000  0  9G 2G 4G 5G 6G10G17G24G26G30
 112024397.40548  21317515.317    87291775.32049  21317512.639
 129857370.35345  24711018.259   101187605.13146  24711018.668
 128211605.47045  24397853.863    99905146.23246  24397854.634
 114608395.58048  21809249.817    89305230.07849  21809249.618
 105982592.84449  20167805.481    82583856.01049  20167804.770
 108958985.09249  20734192.220    84903144.48749  20734192.087
 120279235.79947  22888365.291    93724134.69148  22888365.584
 122229468.92846  23259492.806    95243767.29547  23259493.626
 122135781.25947  23241664.588    95170755.40947  23241665.133
 04 12 11  1 58 30.0000000  0  9G 2G 4G 5G 6G10G17G24G26G30
 112078670.75448  21327843.192    87334066.23949  21327840.513
 129938704.51044  24726495.694   101250982.31846  24726496.131
 128302047.27346  24415064.461    99975620.28347  24415065.216
 114538581.15948  21795964.568    89250829.23349  21795964.368
 106008810.86749  20172794.593    82604285.65249  20172793.874
 108960733.15449  20734524.859    84904506.61849  20734524.726
 120342710.91648  22900444.228    93773595.80848  22900444.501
 122111409.29046  23237026.792    95151772.79447  23237027.591
 122208709.93947  23255542.484    95227582.93647  23255543.003
 04 12 11  1 59  0.0000000  0  8G 2G 5G 6G10G17G24G26G30
 112133322.73948  21338243.131    87376652.18849  21338240.467
 128392635.83146  24432302.920   100046208.75846  24432303.665
 114469262.37248  21782773.636    89196814.60749  21782773.430
 106035617.57949  20177895.746    82625173.99349  20177895.036
 108962845.18749  20734926.760    84906152.36149  20734926.626
 120406442.71048  22912572.009    93823256.92348  22912572.276
 121993608.85647  23214610.073    95059980.31147  23214610.845
 122282059.91546  23269500.556    95284738.73647  23269501.025
 04 12 11  1 59 30.0000000  0  8G 2G 5G 6G10G17G24G26G30
 112188201.77448  21348686.270    87419415.06549  21348683.614
 128483217.19045  24449539.992   100116791.63346  24449540.717
 114400290.08448  21769648.646    89143069.96749  21769648.440
 106062859.98249  20183079.803    82646401.83949  20183079.100
 108965170.23649  20735369.202    84907964.08849  20735369.060
 120470279.88047  22924719.855    93873000.14248  22924720.124
 121875919.29146  23192214.446    94968274.21247  23192215.218
 122355676.93546  23283509.397    95342102.64047  23283509.854
                            4  1
RINEX FILE SPLICE; other post-header comments skipped       COMMENT
 04 12 11  2  0  0.0000000  0  8G 2G 5G 6G10G17G24G26G30
 112243310.33248  21359173.080    87462356.79949  21359170.439
 128573791.08245  24466775.654   100187368.66146  24466776.340
 114331669.42648  21756590.575    89089599.32449  21756590.347
 106090539.09049  20188346.963    82667969.97249  20188346.266
 108967711.69349  20735852.831    84909944.44349  20735852.683
 120534225.13248  22936888.237    93922827.61648  22936888.494
 121758347.02147  23169841.122    94876659.53247  23169841.871
 122429560.71046  23297569.030    95399674.37047  23297569.496
 04 12 11  2  0 30.0000000  0  8G 2G 5G 6G10G17G24G26G30
 112298344.14748  21369645.678    87505240.28349  21369643.047
 128664050.73546  24483951.495   100257700.86946  24483952.161
 114263098.61548  21743541.977    89036167.53249  21743541.750
 106118348.89149  20193638.998    82689639.94349  20193638.310
 108970165.89549  20736319.850    84911856.80649  20736319.702
 120597974.46947  22949019.333    93972502.39948  22949019.629
 121640591.50346  23147432.974    94784902.00447  23147433.699
 122503404.02146  23311620.957    95457214.59047  23311621.406
 04 12 11  2  1  0.0000000  0  8G 2G 5G 6G10G17G24G26G30
 112353923.57548  21380222.098    87548548.91649  21380219.480
 128754613.62145  24501185.110   100328269.30347  24501185.747
 114195200.60348  21730621.427    88983259.98549  21730621.187
 106146908.54149  20199073.706    82711894.22449  20199073.017
 108973154.04249  20736888.476    84914185.23649  20736888.321
 120662148.82347  22961231.300    94022508.37148  22961231.629
 121523276.51546  23125108.632    94693487.77347  23125109.334
 122577824.57346  23325782.729    95515204.60747  23325783.168
 04 12 11  2  1 30.0000000  0  8G 2G 5G 6G10G17G24G26G30
 112409899.16848  21390873.899    87592166.26249  21390871.282
 128845328.07744  24518447.533   100398955.80646  24518448.242
 114127828.54548  21717800.957    88930762.27149  21717800.717
 106176066.79549  20204622.332    82734614.94849  20204621.635
 108976527.29549  20737530.379    84916813.74849  20737530.230
 120726598.61447  22973495.694    94072728.95748  22973496.055
 121406256.47946  23102840.418    94602303.37147  23102841.096
 122652669.91646  23340025.336    95573525.63147  23340025.796
 04 12 11  2  2  0.0000000  0  8G 2G 5G 6G10G17G24G26G30
 112465659.71748  21401484.785    87635616.02349  21401482.165
 128935580.10345  24535621.905   100469282.07546  24535622.613
 114060373.71948  21704964.730    88878200.06549  21704964.489
 106205210.84449  20210168.260    82757324.59449  20210167.562
 108979675.18749  20738129.402    84919266.64749  20738129.253
 120790713.08746  22985696.248    94122688.27748  22985696.654
 121288923.76346  23080512.733    94510875.28147  23080513.399
 122727326.11346  23354231.962    95631699.26047  23354232.436
 04 12 11  2  2 30.0000000  0  8G 2G 5G 6G10G17G24G26G30
 112522134.48548  21412231.570    87679622.34249  21412228.942
 129026295.96545  24552884.547   100539969.81946  24552885.152
 113993767.85348  21692290.067    88826299.38249  21692289.820
 106235268.47349  20215888.030    82780746.12849  20215887.325
 108983527.71349  20738862.514    84922268.61849  20738862.357
 120855421.73146  22998009.912    94173110.55048  22998010.349
 121172211.26246  23058303.023    94419930.52048  23058303.699
 122802719.39747  23368578.868    95690447.24147  23368579.369
 04 12 11  2  3  0.0000000  0  8G 2G 5G 6G10G17G24G26G30
 112578558.13048  21422968.644    87723588.79649  21422966.014
 129116708.38845  24570089.495   100610420.99146  24570090.139
 113927248.28848  21679631.821    88774465.94749  21679631.581
 106265472.94249  20221635.750    82804282.07849  20221635.037
 108987320.55249  20739584.267    84925224.07249  20739584.117
 120919959.52247  23010291.063    94223399.71748  23010291.508
 121055357.52646  23036066.467    94328875.69247  23036067.142
 122878081.89446  23382919.881    95749171.25747  23382920.427
 04 12 11  2  3 30.0000000  0  8G 2G 5G 6G10G17G24G26G30
 112635089.63648  21433726.232    87767639.31349  21433723.601
 129206973.67245  24587266.485   100680757.45747  24587267.213
 113860976.35048  21667020.708    88722825.46049  21667020.462
 106295981.50049  20227441.329    82828054.98649  20227440.616
 108991213.12949  20740325.000    84928257.24849  20740324.850
 120984485.64746  23022569.970    94273679.80448  23022570.403
 120938524.84646  23013833.911    94237837.25448  23013834.610
 122953569.49046  23397284.782    95807992.65947  23397285.367
 04 12 11  2  4  0.0000000  0  8G 2G 5G 6G10G17G24G26G30
 112692195.32948  21444593.090    87812137.24049  21444590.464
 129297555.48946  24604503.667   100751340.68747  24604504.390
 113795420.98748  21654545.943    88671743.35049  21654545.704
 106327258.79149  20233393.200    82852426.89849  20233392.493
 108995672.54749  20741173.599    84931732.12449  20741173.442
 121049466.73747  23034935.496    94324314.38548  23034935.931
 120822183.65346  22991694.847    94147181.85548  22991695.552
 123029645.68046  23411761.629    95867272.79847  23411762.190
 04 12 11  2  4 30.0000000  0  8G 2G 5G 6G10G17G24G26G30
 112749263.16849  21455452.739    87856605.67749  21455450.126
 129387839.56745  24621684.138   100821691.93946  24621684.800
 113729972.65148  21642091.545    88620744.63949  21642091.298
 106358691.15049  20239374.579    82876919.64949  20239373.866
 109000087.63049  20742013.767    84935172.44549  20742013.604
 121114291.02347  23047271.148    94374826.81948  23047271.545
 120705725.25046  22969533.508    94056435.07748  22969534.239
 123105695.58846  23426233.463    95926532.45647  23426234.026
 04 12 11  2  5  0.0000000  0  8G 2G 5G 6G10G17G24G26G30
 112806912.09148  21466422.970    87901526.91749  21466420.351
 129478441.95245  24638925.217   100892291.17646  24638925.878
 113665252.64548  21629775.755    88570313.44849  21629775.509
 106390896.07549  20245502.973    82902014.39749  20245502.259
 109005078.15549  20742963.432    84939061.16449  20742963.276
 121179577.84947  23059694.847    94425699.63048  23059695.243
 120589772.42246  22947468.389    93966082.24148  22947469.138
 123182335.44846  23440817.597    95986251.75647  23440818.181
 04 12 11  2  5 30.0000000  0  8G 2G 5G 6G10G17G24G26G30
 112864528.32648  21477386.975    87946422.67949  21477384.363
 129568746.28545  24656109.637   100962658.12847  24656110.328
 113600649.74148  21617482.231    88519973.52949  21617481.987
 106423258.15349  20251661.271    82927231.60449  20251660.559
 109010030.88449  20743905.905    84942920.43049  20743905.756
 121244713.66146  23072089.786    94476454.79548  23072090.173
 120473715.33646  22925383.430    93875648.17948  22925384.171
 123258948.50346  23455396.613    96045950.19647  23455397.196
 04 12 11  2  6  0.0000000  0  8G 2G 5G 6G10G17G24G26G30
 112922575.64448  21488433.024    87991654.34249  21488430.412
 129659214.09845  24673325.084   101033152.49846  24673325.857
 113536630.65648  21605299.798    88470088.52549  21605299.567
 106456239.52849  20257937.412    82952931.37949  20257936.699
 109015410.48549  20744929.604    84947112.33349  20744929.454
 121310162.60947  23084544.319    94527453.94948  23084544.702
 120358021.08546  22903367.493    93785496.86048  22903368.237
 123335995.60247  23470058.224    96105986.87147  23470058.795
 04 12 11  2  6 30.0000000  0  8G 2G 5G 6G10G17G24G26G30
 112980747.03448  21499502.678    88036982.69049  21499500.065
 129749535.90245  24690512.751   101103533.14146  24690513.514
 113472890.61548  21593170.472    88420420.95549  21593170.254
 106489531.87249  20264272.747    82978873.45649  20264272.034
 109020910.98649  20745976.314    84951398.43349  20745976.171
 121375617.78347  23097000.042    94578457.95048  23097000.469
 120242386.52046  22881362.937    93695392.02248  22881363.685
 123413167.31246  23484743.530    96166120.64047  23484744.114
 04 12 11  2  7  0.0000000  0  9G 2G 5G 6G10G17G24G26G29G30
 113038889.38348  21510566.805    88082288.41149  21510564.200
 129839555.79845  24707643.027   101173678.45646  24707643.770
 113409278.87448  21581065.560    88370853.36349  21581065.350
 106522980.30149  20270637.771    83004937.16749  20270637.067
 109026379.67249  20747016.976    84955659.74049  20747016.841
 121440926.31646  23109427.843    94629347.69648  23109428.280
 120126662.22946  22859341.300    93605217.29248  22859342.049
 116789146.91548  22224235.846    91004534.29248  22224236.536
 123490307.15946  23499422.778    96226229.57947  23499423.377
 04 12 11  2  7 30.0000000  0  9G 2G 5G 6G10G17G24G26G29G30
 113097617.50048  21521742.400    88128050.55949  21521739.815
 129929886.03645  24724832.330   101244065.60346  24724833.121
 113346412.53448  21569102.487    88321866.61149  21569102.284
 106557197.81249  20277149.147    83031600.16649  20277148.435
 109032432.22549  20748168.733    84960376.01449  20748168.603
 121506703.38546  23121944.809    94680602.51648  23121945.307
 120011466.86247  22837420.327    93515454.69048  22837421.082
 116699992.48948  22207270.210    90935063.33248  22207270.896
 123568027.20047  23514212.458    96286790.59447  23514213.071
 04 12 11  2  8  0.0000000  0  9G 2G 5G 6G10G17G24G26G29G30
 113156466.59948  21532941.011    88173906.98449  21532938.445
 130020059.79446  24741991.838   101314330.84146  24741992.656
 113283829.87448  21557193.397    88273100.90249  21557193.208
 106591718.02749  20283718.125    83058499.03949  20283717.407
 109038604.71949  20749343.320    84965185.75249  20749343.191
 121572484.61246  23134462.548    94731860.61147  23134463.080
 119896339.29547  22815512.274    93425744.89848  22815513.050
 116611038.58448  22190342.904    90865748.61148  22190343.426
 123645859.97746  23529023.549    96347439.51247  23529024.187
 04 12 11  2  8 30.0000000  0  9G 2G 5G 6G10G17G24G26G29G30
 113215740.05348  21544220.374    88220094.08849  21544217.792
 130110377.60545  24759178.763   101384708.31446  24759179.622
 113221836.41748  21545396.429    88224794.30949  21545396.252
 106626842.66449  20290402.128    83085868.88649  20290401.404
 109045200.99549  20750598.549    84970325.70549  20750598.427
 121638573.55547  23147038.880    94783358.45448  23147039.410
 119781586.61447  22793675.559    93336327.26048  22793676.334
 116522591.48248  22173511.998    90796828.82048  22173512.418
 123724105.85346  23543913.291    96408410.27147  23543913.930
 04 12 11  2  9  0.0000000  0  9G 2G 5G 6G10G17G24G26G29G30
 113274969.71848  21555491.405    88266247.05949  21555488.834
 130200368.94445  24776303.558   101454831.38846  24776304.462
 113159966.23648  21533622.913    88176583.79149  21533622.736
 106662102.05649  20297111.773    83113343.74149  20297111.036
 109051754.08549  20751845.561    84975432.00649  20751845.445
 121704502.18847  23159584.711    94834731.37848  23159585.256
 119666744.21747  22771821.759    93246839.70748  22771822.536
 116434186.39848  22156689.106    90727941.76248  22156689.449
 123802293.83846  23558792.018    96469335.89747  23558792.659
 04 12 11  2  9 30.0000000  0 10G 2G 5G 6G10G17G21G24G26G29G30
 113334609.99148  21566840.571    88312719.99149  21566837.991
 130290485.90445  24793452.233   101525052.42146  24793453.087
 113098676.76048  21521959.907    88128825.75949  21521959.744
 106697948.99549  20303933.224    83141276.42349  20303932.490
 109058719.12749  20753170.952    84980859.31849  20753170.843
 130561213.35755  24844974.813
 121770725.62547  23172186.618    94886334.04348  23172187.169
 119552270.62147  22750038.134    93157639.53048  22750038.927
 116346281.01448  22139961.267    90659444.07848  22139961.623
 123880875.58446  23573745.657    96530568.40747  23573746.286
 04 12 11  2 10  0.0000000  0 10G 2G 5G 6G10G17G21G24G26G29G30
 113394498.55248  21578236.997    88359386.39049  21578234.425
 130380563.70245  24810593.504   101595242.88846  24810594.354
 113037807.73148  21510376.922    88081395.33549  21510376.766
 106734219.41449  20310835.261    83169539.08349  20310834.528
 109065934.67649  20754544.026    84986481.81949  20754543.923
 130475549.48544  24828672.378   101669253.40646  24828671.584
 121837081.64247  23184813.802    94938039.96248  23184814.382
 119438007.00647  22728294.444    93068602.99748  22728295.251
 116258716.14147  22123298.220    90591211.74748  22123298.598
 123959685.81846  23588742.775    96591978.95047  23588743.437
 04 12 11  2 10 30.0000000  0 10G 2G 5G 6G10G17G21G24G26G29G30
 113454471.54048  21589649.483    88406118.58049  21589646.888
 130470435.70345  24827695.642   101665272.95846  24827696.473
 112977197.53248  21498843.185    88034166.60549  21498843.027
 106770747.48849  20317786.329    83198002.51949  20317785.597
 109073237.42549  20755933.687    84992172.28149  20755933.576
 130389709.74245  24812337.832   101602365.26546  24812336.573
 121903406.53247  23197435.021    94989721.69048  23197435.572
 119323792.98347  22706560.214    92979605.07748  22706561.019
 116171330.65448  22106669.255    90523119.25048  22106669.638
 124038557.69146  23603751.618    96653437.50047  23603752.304
 04 12 11  2 11  0.0000000  0  9G 2G 6G10G17G21G24G26G29G30
 113514671.54048  21601105.175    88453027.65549  21601102.586
 112916991.69248  21487386.394    87987252.97549  21487386.224
 106807674.45449  20324813.297    83226776.78449  20324812.559
 109080770.74049  20757367.229    84998042.39449  20757367.126
 130303837.78144  24795997.132   101535452.10246  24795995.634
 121969843.55946  23210077.543    95041490.80248  23210078.088
 119209775.27047  22684863.341    92890760.12548  22684864.144
 116084270.60548  22090102.237    90455280.31348  22090102.624
 124117630.91846  23618798.800    96715052.99547  23618799.421
 04 12 11  2 11 30.0000000  0  9G 2G 6G10G17G21G24G26G29G30
 113575395.93348  21612660.648    88500345.35849  21612658.030
 112857489.92848  21476063.585    87940887.95949  21476063.429
 106845296.17649  20331972.478    83256092.41249  20331971.727
 109088833.01749  20758901.423    85004324.68849  20758901.334
 130218231.24145  24779706.749   101468745.74446  24779705.710
 122036690.05046  23222798.043    95093578.92048  23222798.614
 119096254.95147  22663261.113    92802302.77648  22663261.895
 115997836.58548  22073654.337    90387929.18248  22073654.698
 124197200.16646  23633940.378    96777054.98247  23633940.963
 04 12 11  2 12  0.0000000  0  9G 2G 6G10G17G21G24G26G29G30
 113636173.50348  21624226.241    88547704.49749  21624223.631
 112798223.17248  21464785.497    87894706.07549  21464785.342
 106883139.75349  20339173.866    83285580.92149  20339173.107
 109096953.77449  20760446.752    85010652.55649  20760446.656
 130132419.81044  24763377.436   101401879.72946  24763376.384
 122103475.05946  23235506.813    95145619.14747  23235507.392
 118982764.46847  22641664.592    92713868.64448  22641665.361
 115911560.40148  22057236.501    90320701.03849  22057236.807
 124276791.45046  23649086.143    96839074.08147  23649086.798
 04 12 11  2 12 30.0000000  0  9G 2G 6G10G17G21G24G26G29G30
 113696997.35848  21635800.636    88595099.70249  21635798.031
 112739187.15248  21453551.310    87848703.98849  21453551.170
 106921196.21949  20346415.770    83315235.31249  20346415.012
 109105126.74849  20762002.023    85017021.09849  20762001.942
 130046396.82844  24747007.753   101334848.86546  24747006.664
 122170191.79246  23248202.591    95197606.18948  23248203.167
 118869300.70447  22620073.156    92625455.34948  22620073.901
 115825438.05048  22040847.945    90253592.74049  22040848.214
 124356394.83846  23664234.170    96901102.64847  23664234.899
 04 12 11  2 13  0.0000000  0  9G 2G 6G10G17G21G24G26G29G30
 113758170.99748  21647441.598    88642767.46249  21647439.008
 112680687.92348  21442419.282    87803120.17849  21442419.138
 106959767.50149  20353755.635    83345290.85649  20353754.883
 109113656.60449  20763625.189    85023667.74549  20763625.121
 129960466.57345  24730655.615   101267890.34446  24730654.717
 122237144.67946  23260943.308    95249777.24447  23260943.902
 118756171.01947  22598545.293    92537302.36548  22598546.034
 115739776.44148  22024547.077    90186843.47749  22024547.294
 124436311.08147  23679441.779    96963375.01147  23679442.507
 04 12 11  2 13 30.0000000  0  9G 2G 6G10G17G21G24G26G29G30
 113819845.80348  21659177.936    88690825.74149  21659175.338
 112622879.22748  21431418.647    87758074.44749  21431418.510
 106999003.54149  20361221.994    83375864.40049  20361221.247
 109122695.40949  20765345.222    85030710.96649  20765345.155
 129874781.15645  24714350.204   101201122.53246  24714349.396
 122304485.18746  23273757.775    95302250.36647  23273758.351
 118643530.55447  22577110.495    92449530.62648  22577111.233
 115654730.00448  22008363.266    90120573.56249  22008363.466
 124516688.69646  23694737.119    97026006.95747  23694737.807
 04 12 11  2 14  0.0000000  0  9G 2G 6G10G17G21G24G26G29G30
 113881558.80248  21670921.547    88738913.77149  21670918.964
 112565300.35148  21420461.757    87713207.78849  21420461.622
 107038439.74949  20368726.454    83406593.91149  20368725.715
 109131781.06449  20767074.165    85037790.69549  20767074.105
 129788878.05945  24698003.501   101134185.00046  24698002.613
 122371750.56747  23286557.993    95354664.89847  23286558.584
 118530920.02647  22555681.412    92361782.18048  22555682.159
 115569839.02848  21992209.003    90054424.80249  21992209.225
 124597061.98945  23710031.666    97088635.42747  23710032.418
 04 12 11  2 14 30.0000000  0  9G 2G 6G10G17G21G24G26G29G30
 113943464.26948  21682701.771    88787151.78549  21682699.196
 112508108.03748  21409578.422    87668642.35849  21409578.273
 107078228.42849  20376297.988    83437598.07749  20376297.242
 109141068.35949  20768841.484    85045027.54449  20768841.425
 129702911.85844  24681644.588   101067198.44346  24681643.773
 122439095.45847  23299373.347    95407141.42148  23299373.902
 118418497.35347  22534288.065    92274180.12548  22534288.820
 115485260.55448  21976114.207    89988519.53548  21976114.470
 124677581.93746  23725354.144    97151378.14947  23725354.976
 04 12 11  2 15  0.0000000  0  9G 2G 6G10G17G21G24G26G29G30
 114005562.83648  21694518.748    88835540.26749  21694516.195
 112451305.29448  21398769.231    87624380.46849  21398769.083
 107118368.57249  20383936.398    83468876.11749  20383935.658
 109150559.16349  20770647.518    85052422.98049  20770647.466
 129616883.92545  24665274.029   101000163.70546  24665273.145
 122506520.86146  23312203.986    95459680.67047  23312204.553
 118306267.05747  22512931.320    92186727.98448  22512932.075
 115400998.46048  21960079.622    89922860.79149  21960079.911
 124758246.60847  23740704.132    97214233.74747  23740704.978
 04 12 11  2 15 30.0000000  0  9G 2G 6G10G17G21G24G26G29G30
 114068010.36548  21706402.117    88884200.66449  21706399.592
 112395050.04948  21388064.214    87580545.21849  21388064.052
 107159014.22849  20391671.009    83500548.05349  20391670.276
 109160409.66449  20772522.018    85060098.68649  20772521.967
 129530950.83145  24648921.475   100933202.89046  24648920.553
 122574182.32347  23325079.576    95512403.85548  23325080.140
 118194388.60448  22491641.535    92099550.01848  22491642.265
 115317211.56048  21944135.505    89857572.30749  21944135.789
 124839208.70646  23756110.731    97277321.07947  23756111.587
 04 12 11  2 16  0.0000000  0  9G 2G 6G10G17G21G24G26G29G30
 114130654.23848  21718322.856    88933014.06849  21718320.324
 112339192.73748  21377434.921    87537020.04449  21377434.752
 107200011.33949  20399472.494    83532493.85849  20399471.760
 109170468.59849  20774436.175    85067936.81849  20774436.119
 129444961.13444  24632558.102   100866198.02946  24632557.229
 122641928.34946  23337971.228    95565192.96047  23337971.771
 118082713.47847  22470390.470    92012530.44948  22470391.182
 115233750.45748  21928253.391    89792537.69649  21928253.650
 124920313.25045  23771544.377    97340519.43747  23771545.211
 04 12 11  2 16 30.0000000  0  9G 2G 6G10G17G21G24G26G29G30
 114193496.54348  21730281.355    88981982.08649  21730278.852
 112283737.58048  21366882.173    87493808.22649  21366881.992
 107241360.31749  20407340.943    83564713.84149  20407340.209
 109180738.79149  20776390.534    85075939.55949  20776390.485
 129358917.23745  24616184.451   100799150.85146  24616183.546
 122709761.29047  23350879.425    95618049.77048  23350879.989
 117971247.45348  22449179.185    91925673.83348  22449179.886
 115150620.38948  21912434.253    89727761.04549  21912434.477
 125001559.39246  23787005.057    97403828.07047  23787005.894
 04 12 11  2 17  0.0000000  0  9G 2G 6G10G17G21G24G26G29G30
 114256693.76248  21742307.404    89031226.66149  21742304.880
 112228843.18448  21356436.123    87451033.37749  21356435.937
 107283215.70049  20415305.757    83597328.42249  20415305.023
 109191377.36749  20778414.982    85084229.36849  20778414.926
 129272976.07245  24599830.481   100732183.67046  24599829.469
 122777837.43746  23363833.909    95671096.07747  23363834.508
 117860150.56247  22428038.138    91839104.84848  22428038.833
 115067980.61448  21896708.426    89663366.43849  21896708.610
 125083100.45646  23802521.847    97467366.52947  23802522.719
 04 12 11  2 17 30.0000000  0  9G 2G 6G10G17G21G24G26G29G30
 114319940.06348  21754342.775    89080509.49649  21754340.259
 112174206.05648  21346039.035    87408458.99149  21346038.837
 107325269.84749  20423308.401    83630097.88549  20423307.661
 109202079.36349  20780451.510    85092568.57949  20780451.447
 129186832.25645  24583437.756   100665058.70146  24583436.775
 122845851.19846  23376776.492    95724093.79347  23376777.107
 117749120.75147  22406909.844    91752588.15148  22406910.549
 114985528.44748  21881018.283    89599118.01549  21881018.451
 125164627.72245  23818035.994    97530894.21647  23818036.920
 04 12 11  2 18  0.0000000  0  9G 2G 6G10G17G21G24G26G29G30
 114383699.53648  21766475.823    89130192.17049  21766473.314
 112120292.92448  21335779.713    87366448.76449  21335779.511
 107367985.45249  20431436.905    83663382.77249  20431436.170
 109213310.00949  20782588.631    85101319.73449  20782588.560
 129100951.26545  24567095.082   100598138.50746  24567094.096
 122914267.21946  23389795.633    95777404.96147  23389796.261
 117638626.12248  22385883.385    91666488.47948  22385884.099
 114903731.24948  21865452.770    89535379.97149  21865452.924
 125246603.03446  23833635.330    97594771.07846  23833636.287
 04 12 11  2 18 30.0000000  0  9G 2G 6G10G17G21G24G26G29G30
 114447513.34348  21778619.198    89179917.20049  21778616.682
 112066646.94748  21325571.229    87324646.70649  21325571.021
 107410901.78549  20439603.611    83696824.07749  20439602.871
 109224610.83449  20784739.112    85110125.56849  20784739.027
 129014874.55445  24550715.252   100531065.74246  24550714.211
 122982626.88346  23402804.069    95830672.18347  23402804.714
 117528211.58847  22364872.174    91580451.21648  22364872.890
 114822132.82648  21849925.059    89471796.83148  21849925.218
 125328564.08247  23849231.993    97658636.85947  23849232.856
 04 12 11  2 19  0.0000000  0  9G 2G 6G10G17G21G24G26G29G30
 114511384.03348  21790773.392    89229686.56449  21790770.869
 112013273.14448  21315414.544    87283056.72049  21315414.330
 107454019.57849  20447808.649    83730422.35549  20447807.913
 109235985.69849  20786903.683    85118989.09449  20786903.591
 128928605.54244  24534298.811   100463843.16846  24534297.688
 123050933.45346  23415802.425    95883898.03547  23415803.057
 117417883.39048  22343877.392    91494481.22848  22343878.096
 114740739.14548  21834436.333    89408373.19549  21834436.526
 125410510.71347  23864825.954    97722491.37147  23864826.758
 04 12 11  2 19 30.0000000  0  9G 2G 6G10G17G21G24G26G29G30
 114575776.44948  21803026.862    89279862.47549  21803024.300
 111960638.62748  21305398.523    87242042.81849  21305398.308
 107497802.04949  20456140.182    83764538.56549  20456139.433
 109247900.06849  20789170.912    85128273.02249  20789170.813
 128842609.20645  24517934.217   100396833.04246  24517933.146
 123119651.86846  23428879.116    95937444.85648  23428879.715
 117308110.16247  22322988.230    91408943.67548  22322988.921
 114660017.59748  21819075.515    89345473.31049  21819075.717
 125492905.01545  23880505.098    97786694.65147  23880505.953
 04 12 11  2 20  0.0000000  0  9G 2G 6G10G17G21G24G26G29G30
 114640385.45448  21815321.564    89330207.12949  21815319.025
 111908440.57848  21295465.576    87201369.01149  21295465.357
 107541942.41549  20464539.808    83798933.66249  20464539.051
 109260049.67349  20791482.911    85137740.24149  20791482.812
 128756581.50445  24501563.636   100329798.53747  24501562.551
 123188477.27846  23441976.215    95991075.00247  23441976.805
 117198590.47647  22302147.297    91323603.70248  22302147.959
 114579666.45148  21803785.176    89282862.05449  21803785.401
 125575439.04345  23896210.807    97851006.81447  23896211.755
 04 12 11  2 20 30.0000000  0  9G 2G 6G10G17G21G24G26G29G30
 114704905.96048  21827599.432    89380482.83149  21827596.865
 111856376.13748  21285558.048    87160799.31849  21285557.823
 107586133.80349  20472949.150    83833368.51149  20472948.378
 109272130.46549  20793781.809    85147153.85149  20793781.697
 128670218.18344  24485129.284   100262502.45146  24485128.129
 123257105.00347  23455035.655    96044551.14847  23455036.218
 117089023.17848  22281297.321    91238226.60848  22281297.947
 114499383.45848  21788507.825    89220303.89249  21788508.059
 125657804.88846  23911884.512    97915187.99547  23911885.478
 04 12 11  2 21  0.0000000  0  9G 2G 6G10G17G21G24G26G29G30
 114769957.07848  21839978.272    89431171.99949  21839975.715
 111805066.96748  21275794.232    87120818.14949  21275794.006
 107630993.56549  20481485.673    83868324.17049  20481484.899
 109284762.15449  20796185.546    85156996.72549  20796185.427
 128584138.62145  24468748.846   100195427.46946  24468747.665
 123326154.20946  23468175.300    96098355.69747  23468175.854
 116980030.91147  22260556.765    91153297.58748  22260557.375
 114419790.54748  21773361.792    89158283.45749  21773362.020
 125740618.62646  23927643.437    97979718.22047  23927644.311
 04 12 11  2 21 30.0000000  0  9G 2G 6G10G17G21G24G26G29G30
 114835079.28748  21852370.640    89481916.55649  21852368.085
 111754055.80548  21266087.131    87081069.19249  21266086.905
 107676060.56249  20490061.643    83903441.31249  20490060.856
 109297486.34049  20798606.884    85166911.67149  20798606.758
 128497884.63145  24452335.198   100128216.64747  24452334.020
 123395166.01246  23481307.827    96152131.10447  23481308.403
 116871158.27847  22239838.962    91068461.80548  22239839.565
 114340431.64248  21758260.294    89096445.37149  21758260.497
 125823418.27245  23943399.691    98044237.41347  23943400.564
 04 12 11  2 22  0.0000000  0  9G 2G 6G10G17G21G24G26G29G30
 114900583.09248  21864835.624    89532958.46949  21864833.080
 111703655.12748  21256496.189    87041795.93949  21256495.975
 107721643.40649  20498735.770    83938960.41149  20498734.975
 109310614.29949  20801105.057    85177141.24949  20801104.926
 128411766.92945  24435947.550   100061111.94946  24435946.413
 123464451.03246  23494492.322    96206119.40147  23494492.950
 116762719.38247  22219203.696    90983963.99648  22219204.291
 114261619.87748  21743262.890    89035033.63549  21743263.086
 125906511.45746  23959211.858    98108985.23747  23959212.812
 04 12 11  2 22 30.0000000  0  9G 2G 6G10G17G21G24G26G29G30
 114966162.59748  21877315.018    89584059.36149  21877312.478
 111653561.26048  21246963.648    87002761.74349  21246963.441
 107767434.38149  20507449.503    83974641.69149  20507448.708
 109323840.92849  20803622.001    85187447.71849  20803621.863
 128325480.55944  24419527.747    99993875.85646  24419526.626
 123533703.44245  23507670.606    96260082.29247  23507671.278
 116654412.05948  22198593.462    90899568.72048  22198594.072
 114183052.07748  21728311.899    88973811.99549  21728312.105
 125989588.95146  23975021.003    98173720.92647  23975022.013
 04 12 11  2 23  0.0000000  0  9G 2G 6G10G17G21G24G26G29G30
 115032281.33348  21889897.025    89635580.43649  21889894.488
 111604240.31048  21237578.166    86964329.85249  21237577.958
 107813895.52149  20516290.770    84010845.17249  20516289.976
 109337630.57949  20806246.090    85198192.89449  20806245.945
 128239489.91846  24403164.260    99926870.17446  24403163.078
 123603387.23946  23520931.027    96314381.29447  23520931.778
 116546703.63348  22178097.200    90815640.10948  22178097.818
 114105195.08048  21713496.164    88913144.23549  21713496.381
 126073111.79246  23990914.901    98238803.65146  23990915.909
 04 12 11  2 23 30.0000000  0  9G 2G 6G10G17G21G24G26G29G30
 115098170.17248  21902435.284    89686922.36649  21902432.743
 111554925.11048  21228193.784    86925902.42849  21228193.573
 107860255.98549  20525112.878    84046970.20749  20525112.093
 109351215.05749  20808831.137    85208778.19749  20808830.984
 128153026.27245  24386710.775    99859495.95047  24386709.551
 123672733.78845  23534127.261    96368417.52047  23534128.038
 116438828.73348  22157569.254    90731581.78548  22157569.870
 114027282.49448  21698669.862    88852433.14949  21698670.075
 126156308.06745  24006746.537    98303632.00846  24006747.488
 04 12 11  2 24  0.0000000  0  9G 2G 6G10G17G21G24G26G29G30
 115164753.85548  21915105.744    89738805.75449  21915103.188
 111506542.86048  21218986.942    86888201.98349  21218986.724
 107907438.82049  20534091.467    84083736.05349  20534090.696
 109365520.27749  20811553.329    85219925.12449  20811553.162
 128067015.51945  24370343.372    99792474.68946  24370342.168
 123742668.06546  23547435.341    96422911.72748  23547436.125
 116331716.09747  22137186.367    90648117.42848  22137186.969
 113950242.17148  21684009.546    88792401.75249  21684009.764
 126240099.91144  24022691.648    98368924.25346  24022692.621
 04 12 11  2 24 30.0000000  0  9G 2G 6G10G17G21G24G26G29G30
 115231109.51348  21927732.829    89790511.42949  21927730.280
 111458172.93648  21209782.463    86850511.11949  21209782.238
 107954519.41049  20543050.606    84120422.22849  20543049.835
 109379624.04449  20814237.193    85230915.06949  20814237.019
 127980535.18945  24353886.730    99725087.39746  24353885.518
 123812267.76046  23560679.793    96477145.17547  23560680.602
 116224446.57647  22116773.644    90564530.81548  22116774.211
 113873154.12048  21669340.166    88732333.16249  21669340.378
 126323561.40945  24038573.855    98433959.15947  24038574.855
 04 12 11  2 25  0.0000000  0  9G 2G 6G10G17G21G24G26G29G30
 115298007.76548  21940463.155    89842639.92949  21940460.585
 111410588.07048  21200727.352    86813432.00749  21200727.125
 108002266.73549  20552136.614    84157627.93749  20552135.849
 109394297.82849  20817029.521    85242349.18249  20817029.346
 127894357.03045  24337487.625    99657935.54346  24337486.350
 123882303.87346  23574007.246    96531718.77147  23574008.001
 116117794.63247  22096478.418    90481425.44448  22096478.962
 113796791.79248  21654808.898    88672830.04749  21654809.110
 126407460.35946  24054539.306    98499334.97447  24054540.327
 04 12 11  2 25 30.0000000  0  9G 2G 6G10G17G21G24G26G29G30
 115365140.79748  21953238.170    89894951.35449  21953235.607
 111363482.57548  21191763.469    86776726.42149  21191763.238
 108050371.08549  20561290.573    84195111.83649  20561289.815
 109409234.65449  20819871.899    85253988.26849  20819871.722
 127808173.95645  24321087.448    99590780.00147  24321086.181
 123952468.56947  23587359.204    96586392.49847  23587359.944
 116011456.00948  22076242.822    90398564.21948  22076243.343
 113720850.20148  21640357.706    88613654.79749  21640357.894
 126491486.15045  24070528.853    98564809.64146  24070529.902
 04 12 11  2 26  0.0000000  0  9G 2G 6G10G17G21G24G26G29G30
 115432353.37548  21966028.316    89947324.77449  21966025.731
 111316703.59148  21182861.718    86740275.26849  21182861.494
 108098675.62249  20570482.621    84232751.73249  20570481.870
 109424280.31249  20822734.998    85265712.15649  20822734.800
 127721831.24945  24304656.983    99523499.96747  24304655.763
 124022606.97646  23600706.087    96641045.84047  23600706.788
 115905279.45947  22056038.078    90315829.26748  22056038.585
 113645177.15848  21625957.610    88554688.79549  21625957.794
 126575480.99045  24086512.575    98630260.09446  24086513.609
 04 12 11  2 26 30.0000000  0  9G 2G 6G10G17G21G24G26G29G30
 115499951.42148  21978891.809    89999998.55849  21978889.238
 111270558.94548  21174080.678    86704318.40549  21174080.454
 108147484.29649  20579770.597    84270784.46949  20579769.853
 109439741.56549  20825677.183    85277759.88849  20825676.972
 127635635.75046  24288254.513    99456334.68046  24288253.283
 124093025.29846  23614106.284    96695917.19947  23614106.987
 115799574.50047  22035923.058    90233461.79948  22035923.569
 113570081.42248  21611667.349    88496172.65749  21611667.533
 126659747.75046  24102548.006    98695922.51347  24102548.989
 04 12 11  2 27  0.0000000  0  9G 2G 6G10G17G21G24G26G29G30
 115567623.31848  21991769.348    90052729.89049  21991766.760
 111224739.43948  21165361.516    86668614.88949  21165361.298
 108196484.01949  20589094.934    84308966.07049  20589094.190
 109455307.81849  20828639.342    85289889.43149  20828639.122
 127549276.96745  24271820.948    99389042.17646  24271819.675
 124163412.45346  23627500.508    96750764.33947  23627501.181
 115694033.56847  22015839.250    90151222.15548  22015839.755
 113495254.31548  21597428.194    88437865.84149  21597428.390
 126743972.23346  24118575.440    98761551.95747  24118576.400
 04 12 11  2 27 30.0000000  0  9G 2G 6G10G17G21G24G26G29G30
 115635518.55748  22004689.401    90105635.25049  22004686.828
 111179396.70548  21156733.080    86633282.88849  21156732.870
 108245822.39549  20598483.715    84347411.55749  20598482.963
 109471129.29849  20831650.076    85302217.85949  20831649.835
 127462904.95046  24255384.929    99321739.25047  24255383.705
 124233918.17646  23640917.313    96805703.83747  23640917.998
 115588809.80948  21995815.781    90069229.66248  21995816.305
 113420847.98448  21583269.093    88379886.91749  21583269.299
 126828301.05445  24134622.764    98827262.64546  24134623.728
 04 12 11  2 28  0.0000000  0  9G 2G 6G10G17G21G24G26G29G30
 115703785.58548  22017680.190    90158830.32949  22017677.609
 111134681.12448  21148223.982    86598439.58149  21148223.779
 108295646.27049  20607964.889    84386235.35349  20607964.130
 109487355.32349  20834737.792    85314861.51149  20834737.552
 127376668.79946  24238974.705    99254542.30247  24238973.501
 124304691.09846  23654384.934    96860851.56147  23654385.643
 115484055.24148  21975881.614    89987602.75748  21975882.151
 113347013.77948  21569218.887    88322353.79049  21569219.091
 126912879.90244  24150717.596    98893168.21746  24150718.580
 04 12 11  2 28 30.0000000  0  9G 2G 6G10G17G21G24G26G29G30
 115772110.32748  22030681.974    90212070.37049  22030679.401
 111090280.78749  21139774.879    86563841.91549  21139774.683
 108345639.85949  20617478.358    84425191.39449  20617477.593
 109503672.84049  20837842.918    85327576.45849  20837842.672
 127290255.38145  24222530.797    99187207.19146  24222529.579
 124375417.37545  23667843.691    96915962.94147  23667844.428
 115379459.73348  21955977.715    89906099.79548  21955978.264
 113273440.32048  21555218.287    88265023.85749  21555218.490
 126997391.81845  24166799.691    98959021.65646  24166800.647
 04 12 11  2 29  0.0000000  0  9G 2G 6G10G17G21G24G26G29G30
 115840640.08948  22043722.760    90265470.17049  22043720.193
 111046345.28548  21131414.237    86529606.45449  21131414.049
 108395948.58249  20627051.790    84464393.00349  20627051.019
 109520230.17849  20840993.680    85340478.27249  20840993.442
 127203813.10545  24206081.379    99119849.58046  24206080.132
 124446245.17345  23681321.827    96971153.34147  23681322.655
 115275174.53748  21936132.878    89824838.63748  21936133.406
 113200277.96548  21541295.954    88208014.23349  21541296.150
 127081981.47246  24182896.549    99024935.69946  24182897.476
 04 12 11  2 29 30.0000000  0  9G 2G 6G10G17G21G24G26G29G30
 115909522.94148  22056830.743    90319145.09649  22056828.196
 111003024.85449  21123170.621    86495850.28049  21123170.446
 108446718.84449  20636713.050    84503954.25049  20636712.264
 109537176.02549  20844218.374    85353682.82749  20844218.136
 127117490.79946  24189654.760    99052585.49947  24189653.450
 124517322.57246  23694847.406    97026538.33447  23694848.198
 115171351.43248  21916375.957    89743937.55748  21916376.475
 113127677.50248  21527480.557    88151442.44949  21527480.727
 127166794.24245  24199035.870    99091023.58146  24199036.797
 04 12 11  2 30  0.0000000  0  9G 2G 6G10G17G21G24G26G29G30
 115978599.48648  22069975.572    90372970.95249  22069973.051
 110960161.79448  21115014.052    86462450.49549  21115013.878
 108497789.69549  20646431.510    84543749.71949  20646430.724
 109554352.18549  20847486.894    85367066.84549  20847486.658
 127031129.79045  24173220.753    98985291.30646  24173219.429
 124588490.45346  23708390.251    97081993.76748  23708391.065
 115067834.58648  21896677.332    89663275.10949  21896677.836
 113055482.29448  21513742.266    88095186.46449  21513742.411
 127251667.77545  24215186.796    99157158.72746  24215187.766
 04 12 11  2 30 30.0000000  0  9G 2G 6G10G17G21G24G26G29G30
 116047865.30848  22083156.414    90426944.31149  22083153.912
 110917754.14448  21106944.150    86429405.55749  21106943.982
 108549154.94449  20656205.992    84583774.58849  20656205.214
 109571754.97049  20850798.540    85380627.45449  20850798.305
 126944726.86445  24156778.805    98917964.37346  24156777.481
 124659744.69147  23721949.553    97137516.50047  23721950.375
 114964623.62647  21877036.928    89582851.00248  21877037.417
 112983690.74448  21500080.776    88039245.02649  21500080.902
 127336595.18046  24231347.950    99223335.90546  24231348.932
 04 12 11  2 31  0.0000000  0  9G 2G 6G10G17G21G24G26G29G30
 116117471.82948  22096402.101    90481183.14049  22096399.626
 110875955.24348  21098990.090    86396834.98649  21098989.923
 108600964.14049  20666064.954    84624145.38949  20666064.183
 109589536.81449  20854182.324    85394483.43249  20854182.084
 126858433.97746  24140357.809    98850723.17247  24140356.524
 124731236.84746  23735554.064    97193224.68547  23735554.852
 114861873.40148  21857484.204    89502785.90248  21857484.679
 112912456.93248  21486525.415    87983738.17949  21486525.540
 127421724.78645  24247547.617    99289670.64246  24247548.613
 04 12 11  2 31 30.0000000  0  9G 2G 6G10G17G21G24G26G29G30
 116187262.91948  22109682.909    90535565.78749  22109680.454
 110834611.26348  21091122.598    86364618.89849  21091122.426
 108653059.78949  20675978.426    84664739.40349  20675977.641
 109607542.64049  20857608.719    85408513.94749  20857608.479
 126772096.36345  24123928.271    98783447.14647  24123926.978
 124802811.86546  23749174.337    97248997.40647  23749175.143
 114759431.99848  21837990.217    89422961.45748  21837990.696
 112841627.74848  21473047.045    87928546.62749  21473047.184
 127506898.13345  24263755.578    99356039.48346  24263756.547
 04 12 11  2 32  0.0000000  0  9G 2G 6G10G17G21G24G26G29G30
 116257237.83948  22122998.718    90590091.68049  22122996.265
 110793723.36048  21083341.901    86332758.18949  21083341.723
 108705439.34849  20685945.919    84705554.65149  20685945.134
 109625772.53249  20861077.758    85422719.05549  20861077.519
 126685713.56245  24107490.129    98716135.92047  24107488.866
 124874468.88046  23762810.202    97304834.02147  23762811.030
 114657302.22148  21818555.519    89343379.85349  21818556.017
 112771205.18248  21459646.047    87873671.92749  21459646.191
 127592111.62045  24279971.166    99422439.61446  24279972.061
 04 12 11  2 32 30.0000000  0  9G 2G 6G10G17G21G24G26G29G30
 116327396.76048  22136349.534    90644760.96349  22136347.069
 110753293.57849  21075648.375    86301254.45649  21075648.197
 108758100.87449  20695967.068    84746589.60849  20695966.281
 109644227.30749  20864589.585    85437099.39649  20864589.345
 126599287.02946  24091043.689    98648790.60447  24091042.414
 124946208.16445  23776461.751    97360734.71147  23776462.588
 114555487.94448  21799180.865    89264044.08749  21799181.375
 112701191.75648  21446322.917    87819116.01849  21446323.066
 127677362.44445  24296193.906    99488868.75846  24296194.782
 04 12 11  2 33  0.0000000  0  9G 2G 6G10G17G21G24G26G29G30
 116397740.11348  22149735.453    90699573.94249  22149733.005
 110713324.55148  21068042.528    86270109.75749  21068042.351
 108811043.55249  20706041.725    84787843.63649  20706040.952
 109662908.64649  20868144.526    85451656.28449  20868144.286
 126512817.72946  24074589.152    98581411.90047  24074587.846
 125018030.79645  23790129.126    97416700.40146  23790129.927
 114453993.36048  21779867.076    89184957.39849  21779867.597
 112631590.94848  21433078.306    87764881.63549  21433078.453
 127762648.67045  24312423.388    99555325.47046  24312424.289
 04 12 11  2 33 30.0000000  0  9G 2G 6G10G17G21G24G26G29G30
 116468423.39748  22163186.035    90754651.82749  22163183.594
 110673973.69049  21060554.308    86239446.75049  21060554.131
 108864420.89949  20716199.090    84829436.37849  20716198.317
 109681972.94549  20871772.341    85466511.58449  20871772.094
 126426462.12745  24058156.180    98514121.88146  24058154.821
 125090092.31245  23803841.959    97472852.22547  23803842.761
 114352977.80848  21760644.426    89106244.01849  21760644.940
 112562560.85948  21419942.311    87711091.96749  21419942.451
 127848122.88545  24328688.561    99621928.78146  24328689.467
 04 12 11  2 34  0.0000000  0  9G 2G 6G10G17G21G24G26G29G30
 116539448.57548  22176701.701    90809996.10149  22176699.277
 110635244.92149  21053184.474    86209268.48249  21053184.290
 108918233.53349  20726439.288    84871368.30249  20726438.513
 109701423.02449  20875473.574    85481667.48649  20875473.328
 126340223.64046  24041745.524    98446923.08847  24041744.129
 125162395.41346  23817600.823    97529192.24247  23817601.645
 114252447.01648  21741514.052    89027908.34949  21741514.547
 112494106.06848  21406915.791    87657750.58349  21406915.933
 127933784.36945  24344989.417    99688677.96846  24344990.339
 04 12 11  2 34 30.0000000  0  9G 2G 6G10G17G21G24G26G29G30
 116610510.10048  22190224.265    90865368.71649  22190221.835
 110596834.74749  21045875.261    86179338.47349  21045875.084
 108972173.99449  20736703.816    84913399.83749  20736703.020
 109720954.12549  20879190.213    85496886.53049  20879189.966
 126253797.33646  24025299.157    98379577.93647  24025297.755
 125234634.52446  23831347.463    97585482.48847  23831348.222
 114152098.91748  21722418.432    88949715.04249  21722418.912
 112425923.78748  21393941.123    87604621.56149  21393941.253
 128019324.87145  24361267.287    99755332.82646  24361268.220
 04 12 11  2 35  0.0000000  0  9G 2G 6G10G17G21G24G26G29G30
 116681609.90848  22203754.109    90920771.14449  22203751.712
 110558747.22949  21038627.448    86149659.89249  21038627.271
 109026242.63949  20746992.743    84955531.24849  20746991.933
 109740569.36049  20882922.862    85512171.12949  20882922.621
 126167186.16645  24008817.569    98312088.75747  24008816.147
 125306812.04546  23845082.460    97641724.64647  23845083.238
 114051939.56048  21703358.728    88871668.80949  21703359.210
 112358018.75448  21381019.213    87551708.56349  21381019.350
 128104743.96145  24377522.017    99821893.13646  24377522.920
 04 12 11  2 35 30.0000000  0  9G 2G 6G10G17G21G24G26G29G30
 116753212.96248  22217379.723    90976565.70649  22217377.352
 110521449.14148  21031529.857    86120596.44749  21031529.689
 109080902.46249  20757394.168    84998123.32449  20757393.338
 109760734.60849  20886760.181    85527884.31149  20886759.933
 126080855.97546  23992389.456    98244818.49647  23992388.062
 125379393.38146  23858894.241    97698281.53347  23858895.045
 113952437.48848  21684424.090    88794134.74349  21684424.576
 112290858.50948  21368239.025    87499375.93649  21368239.158
 128190503.53645  24393841.504    99888718.78046  24393842.440
 04 12 11  2 36  0.0000000  0  9G 2G 6G10G17G21G24G26G29G30
 116825167.91947  22231072.302    91032634.47149  22231069.963
 110484791.10749  21024554.084    86092031.72849  21024553.908
 109136000.82149  20767879.049    85041057.10749  20767878.206
 109781299.45649  20890673.542    85543908.86249  20890673.300
 125994656.85046  23975986.279    98177650.37847  23975984.922
 125452227.33146  23872754.104    97755035.22947  23872754.893
 113853445.16248  21665586.459    88716997.88249  21665586.952
 112224294.23748  21355572.247    87447507.68949  21355572.379
 128276449.82045  24410196.580    99955689.84946  24410197.535
 04 12 11  2 36 30.0000000  0  9G 2G 6G10G17G21G24G26G29G30
 116897169.27647  22244773.693    91088739.41449  22244771.363
 110448469.58949  21017642.334    86063729.24249  21017642.160
 109191230.29549  20778388.868    85084093.06449  20778388.027
 109801959.26649  20894604.973    85560007.40849  20894604.745
 125908283.96545  23959550.035    98110346.86046  23959548.685
 125525008.84546  23886603.984    97811748.09347  23886604.754
 113754660.71048  21646788.396    88640022.99449  21646788.898
 112158023.17248  21342961.259    87395867.92449  21342961.391
 128362274.46145  24426528.460   100022566.16646  24426529.468
 04 12 11  2 37  0.0000000  0  9G 2G 6G10G17G21G24G26G29G30
 116969373.25347  22258513.659    91145002.22149  22258511.353
 110412642.55049  21010824.669    86035812.07849  21010824.480
 109246745.38049  20788953.044    85127351.57349  20788952.204
 109822871.21049  20898584.378    85576302.43549  20898584.149
 125821894.32746  23943110.604    98043030.28747  23943109.206
 125597894.55445  23900473.709    97868542.06947  23900474.529
 113656244.13048  21628060.332    88563334.77149  21628060.828
 112092203.94848  21330436.248    87344580.24149  21330436.384
 128448131.11145  24442866.461   100089467.41246  24442867.497
 04 12 11  2 37 30.0000000  0  9G 2G 6G10G17G21G24G26G29G30
 117041782.12047  22272292.625    91201424.67548  22272290.339
 110377314.33548  21004101.946    86008283.58649  21004101.764
 109302546.90649  20799571.715    85170833.28149  20799570.889
 109844038.46549  20902612.372    85592796.40049  20902612.144
 125735491.24846  23926668.645    97975703.22847  23926667.213
 125670886.89845  23914363.690    97925419.21447  23914364.494
 113558201.57348  21609403.448    88486937.99849  21609403.917
 112026841.70948  21317998.209    87293648.63849  21317998.351
 128534019.47544  24459210.485   100156393.38546  24459211.533
 04 12 11  2 38  0.0000000  0  9G 2G 6G10G17G21G24G26G29G30
 117114244.48748  22286081.773    91257888.82348  22286079.506
 110342335.49249  20997445.699    85981027.34249  20997445.518
 109358481.75149  20810215.756    85214418.87449  20810214.944
 109865310.88349  20906660.385    85609372.30049  20906660.163
 125648924.52045  23910195.496    97908248.69446  23910194.050
 125743834.83745  23928245.209    97982261.75746  23928245.993
 113460385.30648  21590789.625    88410717.55649  21590790.061
 111961787.49648  21305618.774    87242957.06649  21305618.921
 128619785.52045  24475531.226   100223224.06546  24475532.283
 04 12 11  2 38 30.0000000  0  9G 2G 6G10G17G21G24G26G29G30
 117187070.91848  22299940.200    91314636.66348  22299937.954
 110308018.59848  20990915.423    85954286.89149  20990915.242
 109414858.93248  20820943.977    85258349.14049  20820943.171
 109886999.74048  20910787.649    85626272.69649  20910787.420
 125562505.48646  23893750.442    97840909.25547  23893748.995
 125817049.57346  23942177.546    98039312.12447  23942178.367
 113363109.58848  21572278.642    88334918.33349  21572279.055
 111897354.59348  21293357.589    87192749.62749  21293357.729
 128705737.20345  24491887.276   100290199.41646  24491888.302
 04 12 11  2 39  0.0000000  0  9G 2G 6G10G17G21G24G26G29G30
 117260110.09448  22313839.117    91371550.27949  22313836.879
 110274213.92648  20984482.608    85927945.59449  20984482.421
 109471525.67149  20831727.293    85302505.04849  20831726.479
 109908954.93249  20914965.583    85643380.63349  20914965.353
 125476084.07446  23877305.024    97773567.84247  23877303.595
 125890379.90845  23956131.856    98096452.62747  23956132.684
 113266226.79248  21553842.447    88259425.26049  21553842.846
 111833394.32148  21281186.336    87142910.47849  21281186.477
 128791720.49645  24508249.370   100357199.36947  24508250.383
 04 12 11  2 39 30.0000000  0  9G 2G 6G10G17G21G24G26G29G30
 117333673.30748  22327837.743    91428872.25148  22327835.497
 110241234.74049  20978206.878    85902247.52149  20978206.697
 109528791.23849  20842624.580    85347127.55949  20842623.775
 109931488.43549  20919253.572    85660939.20649  20919253.328
 125389972.84546  23860918.590    97706468.20747  23860917.141
 125964137.57846  23970167.522    98153926.05346  23970168.381
 113170051.86148  21535540.948    88184483.76749  21535541.360
 111770220.35848  21269164.725    87093684.02549  21269164.866
 128878044.12745  24524676.277   100424464.43246  24524677.328
 04 12 11  2 40  0.0000000  0  9G 2G 6G10G17G21G24G26G29G30
 117406994.21548  22341790.260    91486005.41048  22341787.998
 110208316.43649  20971942.733    85876596.88749  20971942.565
 109585887.39849  20853489.612    85391618.07749  20853488.806
 109953834.84349  20923505.958    85678351.98949  20923505.707
 125303406.20846  23844445.477    97639013.70247  23844444.039
 126037556.06546  23984138.637    98211135.26847  23984139.417
 113073822.20748  21517229.036    88109499.64649  21517229.449
 111707068.72449  21257147.368    87044474.97349  21257147.491
 128963939.01745  24541021.489   100491395.54346  24541022.566
 04 12 11  2 40 30.0000000  0  9G 2G 6G10G17G21G24G26G29G30
 117480691.92247  22355814.473    91543432.18348  22355812.203
 110176079.89149  20965808.316    85851477.50649  20965808.148
 109643432.17449  20864440.019    85436458.16049  20864439.213
 109976614.37049  20927840.776    85696102.26049  20927840.513
 125217004.52946  23828003.796    97571687.73047  23828002.326
 126111255.15046  23998163.113    98268563.13747  23998163.890
 112978160.56548  21499025.207    88034958.14249  21499025.614
 111644561.08448  21245252.560    86995767.73049  21245252.669
 129050021.73945  24557402.498   100558472.98146  24557403.577
 04 12 11  2 41  0.0000000  0  9G 2G 6G10G17G21G24G26G29G30
 117554769.67747  22369911.001    91601155.08548  22369908.725
 110144530.35748  20959804.651    85826893.43849  20959804.483
 109701427.10449  20875476.081    85481649.02449  20875475.260
 109999831.09449  20932258.783    85714193.21349  20932258.516
 125130771.99446  23811594.272    97504493.57247  23811592.781
 126185238.79845  24012241.757    98326212.68746  24012242.575
 112883074.07748  21480930.832    87960864.80349  21480931.241
 111582703.47348  21233481.436    86947567.01649  21233481.540
 129136293.02245  24573819.384   100625697.35246  24573820.455
 04 12 11  2 41 30.0000000  0  9G 2G 6G10G17G21G24G26G29G30
 117628922.20748  22384021.758    91658936.26248  22384019.478
 110113364.30848  20953873.961    85802608.20249  20953873.788
 109759564.98349  20886539.351    85526951.26949  20886538.524
 110023181.03349  20936702.135    85732387.97149  20936701.861
 125044404.24046  23795159.017    97437194.03747  23795157.524
 126259201.67846  24026316.425    98383846.09747  24026317.227
 112788260.90449  21462888.497    87886984.42649  21462888.891
 111521192.85448  21221776.337    86899636.68649  21221776.433
 129222445.08245  24590213.540   100692828.85546  24590214.607
 04 12 11  2 42  0.0000000  0  9G 2G 6G10G17G21G24G26G29G30
 117703459.97347  22398205.841    91717017.59148  22398203.586
 110082893.75548  20948075.602    85778864.91449  20948075.434
 109818154.73149  20897688.610    85572605.62449  20897687.760
 110046974.98949  20941229.986    85750928.70449  20941229.713
 124958213.02246  23778757.356    97370032.08247  23778755.843
 126333454.19245  24040446.238    98441705.16547  24040447.063
 112694035.16348  21444957.941    87813561.78749  21444958.317
 111460342.09948  21210196.799    86852220.53749  21210196.894
 129308785.44445  24606643.582   100760107.02746  24606644.662
 04 12 11  2 42 30.0000000  0  9G 2G 6G10G17G21G24G26G29G30
 117777922.33047  22412375.551    91775040.18248  22412373.318
 110052660.17448  20942322.349    85755306.27349  20942322.182
 109876734.13149  20908835.899    85618251.90949  20908835.049
 110070753.80849  20945754.945    85769457.65349  20945754.664
 124871738.79046  23762301.874    97302649.54447  23762300.346
 126407536.58445  24054543.702    98499431.63247  24054544.578
 112599940.02648  21427052.237    87740240.90049  21427052.608
 111399693.16448  21198655.667    86804961.64749  21198655.768
 129394851.19945  24623021.399   100827171.17646  24623022.512
 04 12 11  2 43  0.0000000  0  9G 2G 6G10G17G21G24G26G29G30
 117852618.14947  22426589.711    91833244.67548  22426587.526
 110022973.87349  20936673.233    85732174.08749  20936673.073
 109935610.44649  20920039.689    85664129.55349  20920038.846
 110094827.13449  20950335.958    85788216.08249  20950335.672
 124785291.62746  23745851.508    97235288.13947  23745849.965
 126481758.15645  24068667.615    98557266.56647  24068668.574
 112506288.11348  21409230.865    87667265.39449  21409231.229
 111339557.42648  21187212.192    86758102.65149  21187212.292
 129480948.55145  24639405.192   100894260.01346  24639406.283
 04 12 11  2 43 30.0000000  0  9G 2G 6G10G17G21G24G26G29G30
 117927701.46947  22440877.609    91891751.12148  22440875.443
 109993990.61748  20931157.903    85709589.72849  20931157.742
 109994936.23249  20931329.017    85710357.43449  20931328.167
 110119349.91749  20955002.495    85807324.74049  20955002.209
 124699026.72545  23729435.837    97168068.76247  23729434.299
 126556273.10145  24082847.368    98615330.11547  24082848.347
 112413236.79748  21391523.765    87594757.89449  21391524.126
 111280091.15848  21175896.114    86711765.31449  21175896.226
 129567228.96245  24655823.808   100961491.49446  24655824.905
 04 12 11  2 44  0.0000000  0  8G 2G 6G10G17G21G24G26G29
 118003170.74748  22455238.965    91950558.32148  22455236.816
 109965710.78949  20925776.437    85687553.48849  20925776.282
 110054708.41249  20942703.291    85756933.16549  20942702.421
 110144321.64449  20959754.457    85826783.22949  20959754.178
 124612943.59646  23713054.781    97100990.98547  23713053.267
 126631080.27845  24097082.748    98673621.34947  24097083.791
 112320788.69648  21373931.422    87522720.46749  21373931.774
 111221295.32849  21164707.634    86665950.39849  21164707.740
 04 12 11  2 44 30.0000000  0  8G 2G 6G10G17G21G24G26G29
 118078407.57048  22469556.086    92009184.39849  22469553.933
 109937517.61649  20920411.460    85665584.78349  20920411.308
 110114307.07249  20954044.544    85803373.67349  20954043.675
 110169125.20748  20964474.423    85846110.67149  20964474.145
 124526424.96546  23696590.827    97033573.90147  23696589.341
 126705561.56445  24111256.101    98731658.66247  24111257.142
 112228328.81249  21356336.874    87450673.82549  21356337.226
 111162554.08749  21153529.553    86620178.01249  21153529.648
 04 12 11  2 45  0.0000000  0  8G 2G 6G10G17G21G24G26G29
 118154332.57648  22484004.152    92068346.74148  22484001.974
 109910333.45348  20915238.492    85644402.31149  20915238.347
 110174651.14049  20965527.645    85850395.02049  20965526.783
 110194681.87649  20969337.696    85866024.95749  20969337.424
 124440392.63146  23680219.424    96966535.71447  23680217.985
 126780637.98846  24125542.723    98790159.72347  24125543.759
 112136781.38948  21338915.984    87379338.17649  21338916.324
 111104790.28148  21142537.460    86575167.27749  21142537.544
 04 12 11  2 45 30.0000000  0  8G 2G 6G10G17G21G24G26G29
 118230018.56748  22498406.747    92127322.81948  22498404.565
 109883232.81748  20910081.418    85623284.92849  20910081.259
 110234811.79049  20976975.842    85897273.45249  20976974.975
 110220065.54749  20974168.048    85885804.43849  20974167.768
 124353920.77446  23663764.370    96899155.05447  23663762.955
 126855382.60945  24139766.187    98848402.27247  24139767.192
 112045222.97548  21321493.015    87307993.95249  21321493.343
 111047079.17248  21131555.413    86530197.59649  21131555.489
 04 12 11  2 46  0.0000000  0  8G 2G 6G10G17G21G24G26G29
 118306078.26847  22512880.457    92186590.08148  22512878.281
 109856830.06149  20905057.141    85602711.35249  20905056.974
 110295400.17749  20988505.428    85944485.18449  20988504.555
 110245889.83949  20979082.247    85905927.25749  20979081.981
 124267623.05546  23647342.437    96831910.08747  23647341.062
 126930408.37045  24154043.156    98906863.83146  24154044.201
 111954269.75349  21304185.186    87237121.33949  21304185.504
 110990035.69148  21120700.388    86485748.16049  21120700.452
 04 12 11  2 46 30.0000000  0  9G 2G 6G10G17G18G21G24G26G29
 118382661.87047  22527453.837    92246265.59848  22527451.675
 109831276.72049  20900194.508    85582799.65249  20900194.333
 110356564.77749  21000144.659    85992145.91849  21000143.785
 110272305.84048  20984109.051    85926511.14549  20984108.784
 130420077.49745  24818117.611
 124181650.84746  23630982.458    96764918.75947  23630981.103
 127005865.71446  24168402.247    98965661.73047  24168403.302
 111864075.64748  21287021.819    87166840.23149  21287022.132
 110933812.29848  21110001.426    86441937.74249  21110001.485
 04 12 11  2 47  0.0000000  0  9G 2G 6G10G17G18G21G24G26G29
 118458993.80747  22541979.346    92305744.99248  22541977.211
 109805799.24849  20895346.300    85562947.08049  20895346.117
 110417528.74449  21011745.710    86039650.30549  21011744.842
 110298539.26949  20989101.113    85946952.76949  20989100.853
 130329322.93244  24800847.282
 124095229.92546  23614537.109    96697577.75647  23614535.766
 127080979.76545  24182695.999    99024192.12247  24182697.060
 111773868.59948  21269855.970    87096549.04749  21269856.284
 110877636.14748  21099311.442    86398164.14749  21099311.488
 04 12 11  2 47 30.0000000  0  9G 2G 6G10G17G18G21G24G26G29
 118535838.27947  22556602.381    92365623.76548  22556600.258
 109781163.39349  20890658.259    85543750.30949  20890658.062
 110479054.81249  21023453.743    86087592.69149  21023452.862
 110325355.19649  20994204.002    85967848.30049  20994203.747
 130238997.14844  24783658.524   101484931.01645  24783657.662
 124009125.78945  23598152.043    96630483.61747  23598150.715
 127156514.94345  24197069.913    99083050.63846  24197071.010
 111684416.61748  21252833.801    87026846.23349  21252834.115
 110822273.35448  21088776.241    86355024.31949  21088776.286
 04 12 11  2 48  0.0000000  0  8G 2G 6G10G17G21G24G26G29
 118612881.00848  22571263.154    92425657.02348  22571261.023
 109757056.19849  20886070.818    85524965.47349  20886070.613
 110540826.97049  21035208.594    86135726.84749  21035207.699
 110352440.05548  20999358.079    85988953.37849  20999357.830
 123923025.03546  23581767.590    96563392.16347  23581766.258
 127232157.23245  24211464.234    99141992.56746  24211465.414
 111595408.83148  21235896.146    86957489.55249  21235896.467
 110767411.85748  21078336.427    86312275.12049  21078336.457
 04 12 11  2 48 30.0000000  0  8G 2G 6G10G17G21G24G26G29
 118690116.19147  22585960.557    92485840.24548  22585958.426
 109733473.48849  20881583.183    85506589.33349  20881582.972
 110602837.54949  21047008.821    86184046.78049  21047007.913
 110379789.06948  21004562.441    86010264.27349  21004562.199
 123836923.39246  23565383.016    96496299.94147  23565381.698
 127307901.13145  24225877.860    99201013.72946  24225879.038
 111506842.77148  21219042.550    86888477.07349  21219042.869
 110713048.11548  21067991.334    86269913.77949  21067991.362
 04 12 11  2 49  0.0000000  0  9G 2G 6G10G17G18G21G24G26G29
 118767230.84048  22600635.028    92545929.54948  22600632.886
 109710104.02148  20877136.128    85488379.36349  20877135.919
 110664772.39448  21058794.636    86232307.70449  21058793.716
 110407090.51048  21009757.733    86031538.12349  21009757.491
 129968410.29544  24732163.657   101274078.77446  24732163.438
 123750509.03846  23548938.935    96428964.06147  23548937.619
 127383434.24445  24240251.357    99259870.67946  24240252.545
 111418409.50748  21202214.247    86819568.04849  21202214.558
 110658871.70948  21057681.888    86227698.41249  21057681.923
 04 12 11  2 49 30.0000000  0  9G 2G 6G10G17G18G21G24G26G29
 118844991.42648  22615432.423    92606522.17548  22615430.262
 109687715.73349  20872875.778    85470933.93749  20872875.583
 110727396.59849  21070711.620    86281105.78549  21070710.721
 110435111.69749  21015089.993    86053372.80849  21015089.744
 129878678.11545  24715088.179   101204157.68246  24715088.123
 123664549.92046  23532581.465    96361982.94047  23532580.145
 127459523.21845  24254730.685    99319160.69046  24254731.901
 111330878.93848  21185557.728    86751362.43049  21185558.019
 110605651.22448  21047554.349    86186227.92649  21047554.384
 04 12 11  2 50  0.0000000  0  9G 2G 6G10G17G18G21G24G26G29
 118922625.54447  22630205.716    92667016.28648  22630203.550
 109665537.93249  20868655.489    85453652.53449  20868655.288
 110789936.20249  21082612.511    86329837.95149  21082611.613
 110463081.43548  21020412.458    86075167.41049  21020412.201
 129788741.78345  24697973.936   101134077.32446  24697973.883
 123578274.72746  23516163.889    96294755.47047  23516162.564
 127535396.10646  24269168.845    99378282.41347  24269170.006
 111243482.31949  21168926.710    86683261.17549  21168926.982
 110552616.57348  21037462.184    86144902.24249  21037462.215
 04 12 11  2 50 30.0000000  0  9G 2G 6G10G17G18G21G24G26G29
 119000902.04348  22645101.269    92728010.93848  22645099.090
 109644340.61248  20864621.773    85437135.13349  20864621.585
 110853158.56648  21094643.333    86379102.12549  21094642.428
 110491769.16548  21025871.551    86097521.48549  21025871.287
 129699371.07244  24680967.035   101064437.92745  24680966.849
 123492453.62546  23499832.694    96227881.87447  23499831.364
 127611821.95845  24283712.249    99437834.96946  24283713.433
 111156991.79948  21152468.094    86615866.00949  21152468.333
 110500538.54148  21027552.064    86104321.96749  21027552.089
 04 12 11  2 51  0.0000000  0  9G 2G 6G10G17G18G21G24G26G29
 119079050.32047  22659972.415    92788905.68148  22659970.223
 109623354.82249  20860628.316    85420782.56949  20860628.122
 110916291.56449  21106657.143    86428296.66649  21106656.252
 110520405.65749  21031320.900    86119835.62249  21031320.649
 129609796.91144  24663921.549   100994639.84346  24663921.482
 123406317.25546  23483441.500    96160762.62247  23483440.164
 127688030.46045  24298214.298    99497218.14347  24298215.525
 111070640.20248  21136035.919    86548579.07649  21136036.146
 110448648.83048  21017677.775    86063888.44649  21017677.788
 04 12 11  2 51 30.0000000  0  9G 2G 6G10G17G18G21G24G26G29
 119157532.20147  22674907.032    92850060.38348  22674904.834
 109603043.73449  20856763.250    85404955.74149  20856763.057
 110979795.25849  21118741.494    86477780.07149  21118740.598
 110549453.11848  21036848.466    86142469.99149  21036848.216
 129520482.05845  24646925.563   100925043.93646  24646925.520
 123320328.44046  23467078.396    96093758.33047  23467077.078
 127764483.69945  24312762.907    99556792.04647  24312764.149
 110984893.01048  21119718.747    86481763.10449  21119718.980
 110397411.26149  21007927.590    86023963.08049  21007927.590
 04 12 11  2 52  0.0000000  0  9G 2G 6G10G17G18G21G24G26G29
 119236193.57147  22689875.811    92911354.91648  22689873.653
 109583254.90549  20852997.567    85389535.87149  20852997.367
 111043514.14249  21130866.800    86527431.14149  21130865.911
 110578759.11048  21042425.199    86165305.84249  21042424.949
 129431273.48345  24629949.760   100855530.78946  24629949.737
 123234335.01046  23450714.367    96026750.47647  23450713.060
 127841028.12846  24327328.852    99616437.03447  24327330.102
 110899599.78648  21103487.933    86415300.91049  21103488.173
 110346674.26049  20998272.654    85984427.78049  20998272.651
 04 12 11  2 52 30.0000000  0  9G 2G 6G10G17G18G21G24G26G29
 119315034.66947  22704878.773    92972789.52748  22704876.613
 109563990.05549  20849331.600    85374524.29149  20849331.401
 111107447.30549  21143032.877    86577249.19049  21143031.995
 110608324.63049  21048051.342    86188343.90049  21048051.086
 129342172.58846  24612994.578   100786101.47146  24612994.480
 123148338.40546  23434349.751    95959740.13847  23434348.459
 127917664.69844  24341912.312    99676153.79546  24341913.561
 110814764.39348  21087344.265    86349195.43149  21087344.509
 110296440.01349  20988713.394    85945284.21649  20988713.393
 04 12 11  2 53  0.0000000  0  9G 2G 6G10G17G18G21G24G26G29
 119394056.32147  22719916.111    93034364.80548  22719913.978
 109545251.21049  20845765.728    85359922.58449  20845765.530
 111171593.92749  21155239.573    86627233.57049  21155238.699
 110638151.40648  21053727.201    86211585.54049  21053726.932
 129253181.43045  24596060.112   100716757.68346  24596060.057
 123062340.65146  23417984.905    95892728.92947  23417983.614
 127994394.19645  24356513.504    99735942.91346  24356514.788
 110730390.75048  21071288.465    86283449.76449  21071288.723
 110246711.37048  20979250.336    85906534.64749  20979250.329
 04 12 11  2 53 30.0000000  0  9G 2G 6G10G17G18G21G24G26G29
 119473413.65347  22735017.327    93096201.67448  22735015.196
 109527195.01549  20842329.755    85345852.82049  20842329.550
 111236107.90949  21167516.170    86677504.20849  21167515.302
 110668395.58448  21059482.483    86235152.42749  21059482.214
 129164456.28845  24579176.183   100647621.25646  24579176.190
 122976498.12246  23401649.620    95825838.63947  23401648.315
 128071371.76545  24371161.896    99795925.36847  24371163.223
 110646637.88048  21055350.806    86218187.81249  21055351.049
 110197645.50949  20969913.407    85868301.52249  20969913.395
 04 12 11  2 54  0.0000000  0  9G 2G 6G10G17G18G21G24G26G29
 119552799.82047  22750124.001    93158061.03748  22750121.838
 109509516.06049  20838965.567    85332077.00249  20838965.362
 111300680.68449  21179803.966    86727820.64349  21179803.097
 110698751.28349  21065258.980    86258806.22049  21065258.712
 129075691.43744  24562284.800   100578453.84646  24562284.855
 122890505.35446  23385285.717    95758831.30847  23385284.402
 128148291.15145  24385799.204    99855862.50546  24385800.576
 110563201.97249  21039473.468    86153172.84849  21039473.693
 110148937.74849  20960644.605    85830347.44449  20960644.591
 04 12 11  2 54 30.0000000  0  9G 2G 6G10G17G18G21G24G26G29
 119632524.26047  22765295.099    93220183.93648  22765292.961
 109492525.11149  20835732.303    85318837.30049  20835732.092
 111365620.28949  21192161.562    86778422.94149  21192160.665
 110729529.10548  21071115.811    86282788.93549  21071115.536
 128987197.51044  24545444.942   100509497.60146  24545444.960
 122804673.33546  23368952.421    95691949.20947  23368951.103
 128225462.34744  24400484.394    99915995.83746  24400485.841
 110480396.28949  21023716.065    86088648.96149  21023716.270
 110100899.67449  20951503.245    85792915.19849  20951503.231
 04 12 11  2 55  0.0000000  0  9G 2G 6G10G17G18G21G24G26G29
 119712435.17047  22780501.645    93282452.18448  22780499.457
 109476071.68449  20832601.332    85306016.43749  20832601.122
 111430773.43849  21204559.806    86829191.62649  21204558.889
 110760578.10848  21077024.246    86306982.95349  21077023.970
 128898823.98244  24528628.072   100440635.08546  24528628.076
 122718851.42946  23352621.067    95625074.97647  23352619.740
 128302733.65245  24415188.676    99976207.16946  24415190.140
 110398072.40448  21008050.344    86024500.50749  21008050.532
 110053381.39449  20942460.805    85755887.98649  20942460.785
 04 12 11  2 55 30.0000000  0  9G 2G 6G10G17G18G21G24G26G29
 119792688.81347  22795773.418    93344987.47148  22795771.243
 109460313.39149  20829602.640    85293737.24249  20829602.424
 111496295.00148  21217028.151    86880247.39449  21217027.221
 110792055.38848  21083014.185    86331510.69449  21083013.910
 128810728.10445  24511864.031   100371988.91646  24511864.026
 122633197.63546  23336321.686    95558331.77047  23336320.344
 128380261.53746  24429941.796   100036618.48347  24429943.253
 110316389.66248  20992506.612    85960851.65149  20992506.793
 110006541.07249  20933547.371    85719389.05649  20933547.350
 04 12 11  2 56  0.0000000  0  9G 2G 6G10G17G18G21G24G26G29
 119872826.15647  22811023.059    93407432.13048  22811020.905
 109444792.38249  20826649.103    85281642.94549  20826648.889
 111561724.78449  21229479.042    86931231.63549  21229478.093
 110823503.23248  21088998.523    86356015.48849  21088998.254
 128722451.81745  24495065.636   100303202.19446  24495065.637
 122547254.08046  23319967.177    95491362.76348  23319965.836
 128457587.50945  24444656.474   100096872.45846  24444657.989
 110234892.92049  20976998.262    85897347.73249  20976998.450
 109959921.92049  20924676.029    85683062.45849  20924676.009
 04 12 11  2 56 30.0000000  0  9G 2G 6G10G17G18G21G24G26G29
 119953311.94047  22826339.000    93470148.31448  22826336.838
 109429974.88949  20823829.439    85270096.83749  20823829.227
 111627525.98949  21242000.601    86982505.29649  21241999.653
 110855387.19448  21095065.839    86380860.12449  21095065.583
 128634461.46045  24478321.592   100234638.35846  24478321.586
 122461487.16946  23303646.295    95424531.39347  23303644.926
 128535177.01444  24459421.326   100157331.68146  24459422.931
 110154050.33349  20961614.405    85834353.52949  20961614.606
 109913990.74649  20915935.600    85647271.95349  20915935.571
 04 12 11  2 57  0.0000000  0  9G 2G 6G10G17G18G21G24G26G29
 120033995.46047  22841692.588    93533018.54648  22841690.475
 109415711.75949  20821115.262    85258982.71149  20821115.036
 111693546.88349  21254563.972    87033950.14349  21254563.025
 110887557.97149  21101187.722    86405928.26849  21101187.480
 128546607.54445  24461603.578   100166180.74746  24461603.577
 122375747.67146  23287330.646    95357721.35548  23287329.278
 128612879.36145  24474207.644   100217878.95546  24474209.171
 110073714.54449  20946326.989    85771754.23849  20946327.190
 109868598.76449  20907297.775    85611901.59349  20907297.745
 04 12 11  2 57 30.0000000  0  9G 2G 6G10G17G18G21G24G26G29
 120114880.41247  22857084.488    93596045.76848  22857082.389
 109402007.39549  20818507.408    85248303.98649  20818507.175
 111759789.01348  21267169.424    87085567.38849  21267168.491
 110920019.60649  21107364.978    86431223.03549  21107364.751
 128458894.24445  24444912.250   100097832.80346  24444912.166
 122290040.14746  23271021.059    95290936.26048  23271019.698
 128690698.45446  24489016.143   100278517.23747  24489017.583
 109993892.37049  20931137.328    85709555.15649  20931137.523
 109823751.28349  20898763.565    85576955.52349  20898763.528
 04 12 11  2 58  0.0000000  0  9G 2G 6G10G17G18G21G24G26G29
 120195970.39647  22872515.399    93659232.74048  22872513.354
 109388866.82349  20816006.846    85238064.58149  20816006.607
 111826254.83848  21279817.444    87137358.93549  21279816.531
 110952776.87449  21113598.490    86456748.16049  21113598.277
 128371326.29845  24428248.636   100029598.05946  24428248.544
 122204370.00446  23254718.590    95224180.28148  23254717.229
 128768638.35345  24503847.619   100339249.63246  24503849.069
 109914590.89649  20916046.748    85647761.82549  20916046.930
 109779453.99349  20890334.059    85542438.16249  20890334.028
 04 12 11  2 58 30.0000000  0  9G 2G 6G10G17G18G21G24G26G29
 120277268.23347  22887985.881    93722581.68548  22887983.844
 109376294.25449  20813614.372    85228267.77349  20813614.127
 111892946.19748  21292508.393    87189326.21349  21292507.502
 110985833.78548  21119889.017    86482506.78749  21119888.805
 128283908.06745  24411613.500    99961479.97246  24411613.397
 122118741.78047  23238424.087    95157456.99848  23238422.722
 128846702.18044  24518702.766   100400078.41146  24518704.315
 109835816.61649  20901056.500    85586379.28549  20901056.672
 109735711.89848  20882010.191    85508353.43749  20882010.159
 04 12 11  2 59  0.0000000  0  9G 2G 6G10G17G18G21G24G26G29
 120358931.05247  22903525.793    93786215.04948  22903523.784
 109364447.79449  20811360.072    85219036.75949  20811359.834
 111960018.78349  21305271.876    87241590.56549  21305270.998
 111019348.37948  21126266.651    86508622.03949  21126266.439
 128196797.64544  24395036.914    99893601.73846  24395036.823
 122033313.94846  23222167.693    95090889.86848  23222166.357
 128925047.33445  24533611.371   100461126.56546  24533612.943
 109757729.69749  20886197.042    85525532.35949  20886197.201
 109692683.58949  20873822.164    85474824.89749  20873822.132
 04 12 11  2 59 30.0000000  0  9G 2G 6G10G17G18G21G24G26G29
 120440652.60347  22919076.899    93849894.16148  22919074.912
 109353022.73049  20809185.966    85210134.10549  20809185.715
 112027165.29749  21318049.439    87293912.51349  21318048.567
 111053015.51648  21132673.282    86534856.18449  21132673.070
 128109690.02045  24378460.777    99825725.77646  24378460.713
 121947781.53646  23205891.405    95024241.23248  23205890.094
 129003368.18645  24548515.352   100522155.76246  24548516.927
 109680027.47349  20871410.795    85464985.18449  20871410.932
 109650065.04449  20865712.107    85441615.66349  20865712.075
                            4  1
RINEX FILE SPLICE; other post-header comments skipped       COMMENT
 04 12 11  3  0  0.0000000  0  9G 2G 6G10G17G18G21G24G26G29
 120522434.99147  22934639.593    93913620.66248  22934637.643
 109342022.10449  20807092.617    85201562.18649  20807092.365
 112094386.06049  21330841.125    87346292.33049  21330840.261
 111086838.29948  21139109.561    86561211.57949  21139109.342
 128022588.48744  24361885.912    99757854.45446  24361885.843
 121862148.65946  23189596.004    94957514.30147  23189594.719
 129081667.16545  24563415.087   100583168.04745  24563416.605
 109602715.27749  20856698.761    85404741.93249  20856698.884
 109607860.18549  20857680.778    85408728.77449  20857680.738
 04 12 11  3  0 30.0000000  0  8G 2G 6G10G17G18G21G26G29
 120604587.89447  22950272.789    93977635.88648  22950270.830
 109331756.78648  20805139.197    85193563.23749  20805138.932
 112161989.40548  21343705.613    87398970.26949  21343704.744
 111121127.34148  21145634.543    86587930.31449  21145634.337
 127935803.93745  24345371.385    99690230.13746  24345371.272
 121776726.41746  23173340.680    94890951.52848  23173339.403
 109526106.01049  20842120.490    85345046.42349  20842120.600
 109566380.47149  20849787.439    85376406.92749  20849787.398
 04 12 11  3  1  0.0000000  0  9G 2G 6G10G17G18G21G24G26G29
 120686958.41547  22965947.402    94041820.65448  22965945.489
 109322074.78449  20803296.774    85186018.81249  20803296.506
 112229821.05848  21356613.548    87451826.10649  21356612.672
 111155730.46448  21152219.322    86614893.76249  21152219.117
 127849184.15245  24328888.141    99622734.26946  24328888.015
 121691362.95247  23157096.559    94824434.52848  23157095.295
 129238927.93845  24593350.456
 109450049.94549  20827647.478    85285781.98449  20827647.573
 109525474.59148  20842003.303    85344532.23049  20842003.248
 04 12 11  3  1 30.0000000  0  9G 2G 6G10G17G18G21G24G26G29
 120769392.12147  22981634.044    94106054.66048  22981632.135
 109312823.12349  20801536.253    85178809.71649  20801535.994
 112297725.52849  21369535.351    87504738.67449  21369534.469
 111190494.49748  21158834.698    86641982.62149  21158834.493
 127762576.15545  24312407.163    99555247.55246  24312407.085
 121605905.68047  23140834.598    94757844.42748  23140833.350
 129317631.14445  24608327.416
 109374396.17049  20813251.008    85226831.02249  20813251.108
 109484990.19349  20834299.366    85312985.96249  20834299.312
 04 12 11  3  2  0.0000000  0  9G 2G 6G10G17G18G21G24G26G29
 120852195.56646  22997391.022    94170576.81448  22997389.097
 109304309.31349  20799916.129    85172175.57449  20799915.877
 112366007.88849  21382529.046    87557945.72549  21382528.144
 111225726.94548  21165539.198    86669436.47949  21165539.006
 127676287.51645  24295986.945    99488009.71746  24295986.873
 121520662.77147  23124613.418    94691421.37848  23124612.171
 129396622.72645  24623358.842
 109299454.48349  20798990.044    85168434.93049  20798990.155
 109445235.46548  20826734.275    85282008.27149  20826734.228
 04 12 11  3  2 30.0000000  0  9G 2G 6G10G17G18G21G24G26G29
 120935058.30046  23013159.305    94235145.12148  23013157.428
 109296224.09349  20798377.574    85165875.39149  20798377.323
 112434356.67749  21395535.406    87611204.50749  21395534.497
 111261118.45748  21172273.984    86697014.26449  21172273.805
 127590008.96244  24279568.599    99420779.76146  24279568.555
 121435325.63347  23108374.295    94624924.91148  23108373.031
 129475592.76244  24638385.936
 109224917.68349  20784806.138    85110354.32849  20784806.249
 109405901.96948  20819249.336    85251358.81549  20819249.295
 04 12 11  3  3  0.0000000  0  9G 2G 6G10G17G18G21G24G26G29
 121018284.48446  23028996.739    94299996.68548  23028994.827
 109288872.33049  20796978.592    85160146.73249  20796978.341
 112503074.30049  21408611.929    87664750.70849  21408611.027
 111296973.95148  21179097.064    86724953.59249  21179096.897
 127504045.67745  24263210.294    99353795.40746  24263210.299
 121350199.33747  23092175.299    94558592.72248  23092174.049
 129554845.22344  24653466.815
 109151093.13649  20770757.776    85052828.72749  20770757.894
 109367295.16649  20811902.681    85221275.61549  20811902.640
 04 12 11  3  3 30.0000000  0  9G 2G 6G10G17G18G21G24G26G29
 121101560.72847  23044843.723    94364887.21948  23044841.812
 109281941.94549  20795659.790    85154746.42049  20795659.545
 112571846.52248  21421698.848    87718339.44949  21421697.952
 111332981.21548  21185949.013    86753011.19549  21185948.851
 127418085.37046  24246852.550    99286813.41346  24246852.551
 121264972.46347  23075957.146    94492182.18648  23075955.902
 129634067.12745  24668542.325
 109077670.72549  20756785.950    84995616.47049  20756786.069
 109329103.78049  20804635.084    85191516.10949  20804635.042
 04 12 11  3  4  0.0000000  0  9G 2G 6G10G17G18G21G24G26G29
 121185034.53147  23060728.302    94429931.70948  23060726.387
 109275581.68449  20794449.490    85149790.35249  20794449.246
 112640819.72648  21434824.024    87772084.79349  21434823.137
 111369288.82748  21192858.127    86781302.82849  21192857.964
 127332276.83545  24230523.693    99219949.68746  24230523.708
 121179794.23847  23059748.287    94425809.54548  23059747.018
 129713406.65344  24683640.408
 109004801.22049  20742919.327    84938835.06549  20742919.439
 109291476.89649  20797474.921    85162196.47449  20797474.872
 04 12 11  3  4 30.0000000  0  8G 2G 6G10G17G18G21G24G29
 121268699.18347  23076649.197    94495124.90148  23076647.299
 109269785.55249  20793346.535    85145273.87149  20793346.298
 112709985.79948  21447985.872    87825980.44449  21447984.998
 111405891.04448  21199823.298    86809824.02749  21199823.132
 127246614.33445  24214222.661    99153199.67446  24214222.688
 121094659.33547  23043547.648    94359470.67548  23043546.373
 129792857.22645  24698759.445
 109254409.50649  20790421.225    85133312.80549  20790421.170
 04 12 11  3  5  0.0000000  0  9G 2G 6G10G17G18G21G24G26G29
 121352855.71246  23092663.676    94560701.39248  23092661.793
 109264855.68049  20792408.424    85141432.39649  20792408.186
 112779644.58448  21461241.498    87880260.00149  21461240.643
 111443089.64248  21206901.967    86838809.93149  21206901.817
 127161400.11946  24198006.876    99086799.04546  24198006.885
 121009870.66647  23027412.900    94293401.58048  23027411.625
 129872720.05345  24713957.008
 108860978.29649  20715557.614    84826745.35349  20715557.472
 109218204.21349  20783531.587    85105100.89949  20783531.519
 04 12 11  3  5 30.0000000  0  9G 2G 6G10G17G18G21G24G26G29
 121436727.46846  23108623.958    94626055.99748  23108622.086
 109260016.26849  20791487.508    85137661.42849  20791487.277
 112849018.37148  21474442.891    87934317.49449  21474442.050
 111480109.43048  21213946.611    86867656.49949  21213946.474
 127075858.72145  24181728.865    99020143.45846  24181728.849
 120924653.15147  23011196.546    94226998.30448  23011195.305
 129952218.92245  24729085.592   101261480.74446  24729086.466
 108789591.60249  20701973.107    84771119.37749  20701973.018
 109182086.04649  20776658.522    85076956.88649  20776658.441
 04 12 11  3  6  0.0000000  0  9G 2G 6G10G17G18G21G24G26G29
 121521233.02246  23124704.848    94691904.41848  23124703.019
 109256186.78149  20790758.793    85134677.40149  20790758.570
 112919024.02849  21487764.524    87988867.35449  21487763.690
 111517869.35448  21221132.097    86897079.80249  21221131.975
 126990909.50644  24165563.513    98953949.32046  24165563.503
 120839926.60447  22995073.591    94160977.65648  22995072.350
 130032272.72545  24744318.872   101323860.38846  24744320.563
 108719206.50649  20688579.185    84716273.87349  20688579.186
 109146975.09649  20769977.119    85049597.71449  20769977.029
 04 12 11  3  6 30.0000000  0  9G 2G 6G10G17G18G21G24G26G29
 121605597.70146  23140758.943    94757643.07848  23140757.140
 109252593.65049  20790075.043    85131877.55349  20790074.826
 112988885.87948  21501058.792    88043305.16349  21501057.960
 111555596.10648  21228311.271    86926477.25849  21228311.157
 126905779.07345  24149363.653    98887613.97146  24149363.642
 120754918.53847  22978897.088    94094737.60948  22978895.854
 130112107.15545  24759510.996   101386068.98046  24759512.766
 108649051.69649  20675229.115    84661607.80749  20675229.182
 109112098.33849  20763340.286    85022421.03749  20763340.184
 04 12 11  3  7  0.0000000  0  8G 2G 6G10G17G18G21G26G29
 121690280.06946  23156873.485    94823629.29848  23156871.664
 109249696.43349  20789523.732    85129619.96849  20789523.516
 113059061.47348  21514412.782    88097987.43849  21514411.952
 111593749.25349  21235571.586    86956206.97249  21235571.480
 126820927.26145  24133216.890    98821495.66146  24133216.837
 120670089.22447  22962754.618    94028636.82248  22962753.398
 108579588.80249  20662010.718    84607480.89749  20662010.830
 109077916.03149  20756835.610    84995785.48849  20756835.488
 04 12 11  3  7 30.0000000  0  8G 2G 6G10G17G18G21G26G29
 121775277.90447  23173048.113    94889861.29548  23173046.271
 109247493.59949  20789104.553    85127903.46049  20789104.350
 113129547.32949  21527825.800    88152911.48649  21527824.951
 111632327.53248  21242912.812    86986267.93549  21242912.720
 126736352.86344  24117122.912    98755593.56746  24117122.773
 120585438.10647  22946646.022    93962674.94348  22946644.795
 108510818.70849  20648924.169    84553893.83449  20648924.306
 109044427.54649  20750462.957    84969690.58149  20750462.822
 04 12 11  3  8  0.0000000  0  8G 2G 6G10G17G18G21G26G29
 121860128.29047  23189194.634    94955978.47448  23189192.746
 109245523.20749  20788729.612    85126368.07349  20788729.416
 113199879.54848  21541209.577    88207715.81049  21541208.711
 111670869.01448  21250247.012    87016300.26449  21250246.921
 126651594.14845  24100993.734    98689547.91946  24100993.591
 120500503.80947  22930483.557    93896492.37648  22930482.313
 108442281.70149  20635881.986    84500488.38549  20635882.143
 109011171.56348  20744134.536    84943776.84649  20744134.400
 04 12 11  3  8 30.0000000  0  8G 2G 6G10G17G18G21G26G29
 121945448.34347  23205430.524    95022461.62148  23205428.586
 109244403.06249  20788516.455    85125495.22849  20788516.258
 113270673.93748  21554681.307    88262880.26349  21554680.441
 111709991.72048  21257691.827    87046785.47849  21257691.737
 126567268.85046  24084947.175    98623839.90246  24084946.946
 120415905.10147  22914384.934    93830571.32548  22914383.666
 108374597.68649  20623002.117    84447747.62049  20623002.279
 108978766.53949  20737968.059    84918526.18949  20737967.917
 04 12 11  3  9  0.0000000  0  8G 2G 6G10G17G18G21G26G29
 122030779.05647  23221668.449    95088953.04848  23221666.487
 109243675.07649  20788377.930    85124927.95749  20788377.740
 113341470.28448  21568153.392    88318046.25249  21568152.517
 111749237.76448  21265160.119    87077366.79049  21265160.036
 126482919.53144  24068896.069    98558113.15846  24068895.766
 120331184.90247  22898263.228    93764555.57848  22898261.923
 108307310.84049  20610197.838    84395316.33249  20610198.007
 108946755.00349  20731876.460    84893582.15049  20731876.312
 04 12 11  3  9 30.0000000  0  8G 2G 6G10G17G18G21G26G29
 122116432.00647  23237967.693    95155695.57648  23237965.748
 109243651.69249  20788373.486    85124909.72949  20788373.296
 113412579.33948  21581684.995    88373455.90549  21581684.105
 111788919.74048  21272711.354    87108287.80149  21272711.278
 126398858.27045  24052899.665    98492610.92846  24052899.360
 120246656.64647  22882178.048    93698689.40948  22882176.717
 108240735.81749  20597529.026    84343439.71149  20597529.199
 108915450.11049  20725919.319    84869188.74549  20725919.171
 04 12 11  3 10  0.0000000  0  8G 2G 6G10G17G18G21G26G29
 122202257.36646  23254299.728    95222572.46148  23254297.789
 109244183.77649  20788474.744    85125324.33449  20788474.554
 113483849.93248  21595247.326    88428991.43849  21595246.426
 111828888.60148  21280317.175    87139432.36549  21280317.114
 126314936.97146  24036929.967    98427217.71446  24036929.700
 120162172.17846  22866101.188    93632857.35848  22866099.858
 108174725.80449  20584967.727    84292003.34749  20584967.921
 108884703.30849  20720068.385    84845230.21549  20720068.230
 04 12 11  3 10 30.0000000  0  8G 2G 6G10G17G18G21G26G29
 122288258.99746  23270665.294    95289586.65648  23270663.447
 109245276.10349  20788682.625    85126175.48549  20788682.429
 113555284.79348  21608840.922    88484654.96449  21608840.035
 111869149.33448  21287978.544    87170804.35549  21287978.497
 126231160.62846  24020987.901    98361937.44046  24020987.644
 120077736.89747  22850033.682    93567063.63848  22850032.352
 108109287.59849  20572515.250    84241012.54149  20572515.453
 108854520.06649  20714324.694    84821710.82049  20714324.531
 04 12 11  3 11  0.0000000  0  8G 2G 6G10G17G18G21G26G29
 122374594.81946  23287094.449    95356861.30047  23287092.655
 109247087.28249  20789027.281    85127586.79149  20789027.077
 113627040.79548  21622495.641    88540568.72549  21622494.762
 111909860.81048  21295725.692    87202527.55849  21295725.674
 126147687.93945  24005103.523    98296893.85146  24005103.282
 119993510.73747  22834005.965    93501432.87448  22834004.618
 108044582.15249  20560202.201    84190592.73649  20560202.407
 108825059.71549  20708718.569    84798754.71249  20708718.400
 04 12 11  3 11 30.0000000  0  8G 2G 6G10G17G18G21G26G29
 122461114.99646  23303558.727    95424279.55548  23303556.958
 109249468.14349  20789480.344    85129442.00749  20789480.140
 113698966.70848  21636182.699    88596614.87849  21636181.851
 111950873.94948  21303530.245    87234485.83049  21303530.240
 126064370.54146  23989248.666    98231971.26747  23989248.463
 119909345.49647  22817989.841    93435849.58348  22817988.493
 107980462.28449  20548000.584    84140629.22349  20548000.784
 108796173.37149  20703221.675    84776245.88549  20703221.499
 04 12 11  3 12  0.0000000  0  8G 2G 6G10G17G18G21G26G29
 122547514.39546  23320000.015    95491603.72448  23319998.276
 109252114.53749  20789983.942    85131504.12949  20789983.739
 113770756.90048  21649843.913    88652555.29749  21649843.088
 111991885.06548  21311334.407    87266442.52849  21311334.415
 125980904.23646  23973365.526    98166932.64147  23973365.320
 119824938.14647  22801927.680    93370077.59348  22801926.332
 107916626.31049  20535852.984    84090886.92849  20535853.184
 108767557.99349  20697776.338    84753948.21049  20697776.156
 04 12 11  3 12 30.0000000  0  8G 2G 6G10G17G18G21G26G29
 122634258.84546  23336506.989    95559196.74748  23336505.267
 109255492.57449  20790626.773    85134136.36549  20790626.558
 113842875.81248  21663567.703    88708751.83649  21663566.895
 112033360.78048  21319226.967    87298761.26549  21319226.989
 125897756.09546  23957542.943    98102141.91647  23957542.740
 119740756.27447  22785908.402    93304481.33448  22785907.048
 107853542.53249  20523848.505    84041730.76649  20523848.709
 108739680.43049  20692471.414    84732225.44249  20692471.226
 04 12 11  3 13  0.0000000  0  8G 2G 6G10G17G18G21G26G29
 122721197.90246  23353050.983    95626941.44948  23353049.222
 109259452.75749  20791380.377    85137222.21249  20791380.161
 113915172.14148  21677325.249    88765086.63049  21677324.465
 112075151.55048  21327179.510    87331325.46049  21327179.551
 125814776.55647  23941752.391    98037482.60547  23941752.208
 119656651.28947  22769903.756    93238944.98148  22769902.409
 107791063.88249  20511959.189    83993046.12249  20511959.391
 108712391.68149  20687278.526    84710961.49549  20687278.346
 04 12 11  3 13 30.0000000  0  8G 2G 6G10G17G18G21G26G29
 122808335.34546  23369632.729    95694840.70148  23369630.982
 109263999.37349  20792245.581    85140765.01549  20792245.372
 113987648.44248  21691117.042    88821561.66249  21691116.275
 112117262.16048  21335192.886    87364138.91649  21335192.947
 125731970.30247  23925994.879    97972958.28747  23925994.680
 119572628.43347  22753914.708    93173472.64348  22753913.395
 107729196.69049  20500186.230    83944837.94449  20500186.424
 108685696.65249  20682198.625    84690160.19449  20682198.433
 04 12 11  3 14  0.0000000  0  8G 2G 6G10G17G18G21G26G29
 122895674.39747  23386252.798    95762897.08247  23386251.045
 109269136.47149  20793223.150    85144767.93849  20793222.942
 114060307.07948  21704943.521    88878178.77949  21704942.768
 112159696.80548  21343267.937    87397204.86749  21343267.998
 125649342.00945  23910271.190    97908572.66947  23910271.016
 119488693.25747  22737942.357    93108068.61948  22737941.065
 107667947.05549  20488530.800    83897110.97349  20488530.972
 108659600.07049  20677232.598    84669825.21249  20677232.415
 04 12 11  3 14 30.0000000  0  8G 2G 6G10G17G18G21G26G29
 122983218.06846  23402911.822    95831112.91247  23402910.040
 109274867.68049  20794313.775    85149233.80549  20794313.568
 114133150.15448  21718805.098    88934939.62349  21718804.339
 112202459.66648  21351405.463    87430526.55549  21351405.525
 125566895.86746  23894582.092    97844329.02947  23894581.987
 119404850.65748  22721987.647    93042736.72148  22721986.348
 107607321.17849  20476994.056    83849870.05849  20476994.212
 108634106.33349  20672381.289    84649959.97949  20672381.107
 04 12 11  3 15  0.0000000  0  8G 2G 6G10G17G18G21G26G29
 123071122.93946  23419639.604    95899610.14848  23419637.856
 109281350.03849  20795547.338    85154284.98049  20795547.132
 114206333.08248  21732731.352    88991965.27649  21732730.585
 112245708.03448  21359635.359    87464226.57049  21359635.421
 125484789.60146  23878957.812    97780350.11847  23878957.721
 119321258.75847  22706080.637    92977600.18448  22706079.333
 107547478.06549  20465606.278    83803239.08749  20465606.407
 108609372.95049  20667674.683    84630687.21749  20667674.509
 04 12 11  3 15 30.0000000  0  8G 2G 6G10G17G18G21G26G29
 123158775.21246  23436319.301    95967910.58748  23436317.559
 109287970.30848  20796807.145    85159443.61749  20796806.946
 114279240.94448  21746605.262    89048776.58949  21746604.481
 112288829.22048  21367841.078    87497827.46649  21367841.133
 125402410.01945  23863281.452    97716158.32147  23863281.345
 119237305.85147  22690104.930    92912182.33848  22690103.627
 107487806.74749  20454251.210    83756741.96649  20454251.320
 108584787.45449  20662996.207    84611529.70349  20662996.033
 04 12 11  3 16  0.0000000  0  8G 2G 6G10G17G18G21G26G29
 123246792.55346  23453068.468    96036495.47447  23453066.750
 109295346.81849  20798210.855    85165191.54349  20798210.649
 114352490.76848  21760544.241    89105854.37149  21760543.443
 112332441.65048  21376140.247    87531811.17449  21376140.309
 125320376.10346  23847670.839    97652235.88147  23847670.725
 119153611.89447  22674178.524    92846966.25548  22674177.208
 107428927.65749  20443046.886    83710862.17649  20443046.991
 108560968.69249  20658463.647    84592969.63449  20658463.467
 04 12 11  3 16 30.0000000  0  8G 2G 6G10G17G18G21G26G29
 123335176.43347  23469887.409    96105365.95848  23469885.733
 109303481.42549  20799758.831    85171530.18549  20799758.617
 114426082.91048  21774548.365    89163198.89249  21774547.560
 112376548.07748  21384533.439    87566179.79449  21384533.508
 125238690.18147  23832126.525    97588584.54547  23832126.373
 119070179.92347  22658301.953    92781954.33148  22658300.640
 107370845.26749  20431994.174    83665603.17649  20431994.274
 108537919.41049  20654077.491    84575009.17749  20654077.302
 04 12 11  3 17  0.0000000  0  8G 2G 6G10G17G18G21G26G29
 123423465.74146  23486688.353    96174162.76948  23486686.701
 109311913.88249  20801363.480    85178100.92949  20801363.253
 114499555.42448  21788529.708    89220450.20549  21788528.893
 112420688.24248  21392933.039    87600574.69949  21392933.141
 125156892.77545  23816560.949    97524846.39347  23816560.736
 118986550.75147  22642387.863    92716788.72748  22642386.565
 107313101.14249  20421005.821    83620607.78049  20421005.908
 108515179.86549  20649750.293    84557290.06249  20649750.105
 04 12 11  3 17 30.0000000  0  8G 2G 6G10G17G18G21G26G29
 123512123.39146  23503559.385    96243246.61348  23503557.719
 109321107.35749  20803112.946    85185264.66749  20803112.726
 114573370.10648  21802576.175    89277968.13449  21802575.351
 112465326.11048  21401427.349    87635357.42949  21401427.469
 125075447.57646  23801062.395    97461382.66347  23801062.123
 118903189.17747  22626524.683    92651831.65848  22626523.393
 107256160.85149  20410170.438    83576238.73749  20410170.519
 108493213.94649  20645570.312    84540173.76549  20645570.123
 04 12 11  3 18  0.0000000  0  8G 2G 6G10G17G18G21G26G29
 123600842.00546  23520442.035    96312377.94448  23520440.388
 109330754.81749  20804948.797    85192782.17549  20804948.570
 114647218.53248  21816629.069    89335512.35349  21816628.252
 112510155.12648  21409958.033    87670289.10549  21409958.172
 124994048.31146  23785572.582    97397954.77447  23785572.216
 118819790.29847  22610654.398    92586845.52748  22610653.116
 107199719.66249  20399430.025    83532258.60849  20399430.107
 108471715.36849  20641479.263    84523421.63949  20641479.060
 04 12 11  3 18 30.0000000  0  8G 2G 6G10G17G18G21G26G29
 123689929.38346  23537394.817    96381796.65647  23537393.161
 109341164.71648  20806929.741    85200893.77849  20806929.514
 114721407.55948  21830746.778    89393321.97549  21830745.968
 112555483.99948  21418583.843    87705610.28049  21418583.979
 124913003.46146  23770150.219    97334803.03447  23770149.764
 118736663.35047  22594835.890    92522071.25348  22594834.614
 107144088.11649  20388843.682    83488909.36849  20388843.772
 108450992.96049  20637535.914    84507274.31749  20637535.704
 04 12 11  3 19  0.0000000  0  8G 2G 6G10G17G18G21G26G29
 123779076.36546  23554358.960    96451261.78048  23554357.330
 109352028.35049  20808997.027    85209358.94649  20808996.802
 114795627.46948  21844870.363    89451155.65849  21844869.574
 112601004.78448  21427246.160    87741081.01449  21427246.294
 124832005.45846  23754736.758    97271687.79747  23754736.249
 118653501.33748  22579010.685    92457269.68848  22579009.411
 107088959.74549  20378353.078    83445952.21949  20378353.190
 108430738.87649  20633681.672    84491491.93349  20633681.447
 04 12 11  3 19 30.0000000  0  8G 2G 6G10G17G18G21G26G29
 123868280.28546  23571333.913    96520771.31347  23571332.268
 109363343.47749  20811150.236    85218175.91049  20811150.026
 114869874.77148  21858999.172    89509010.68349  21858998.385
 112646715.63848  21435944.658    87776699.83649  21435944.797
 124751053.03146  23739331.958    97208608.08247  23739331.416
 118570303.78647  22563178.705    92392440.44648  22563177.425
 107034334.58249  20367958.243    83403387.17149  20367958.379
 108410951.56649  20629916.272    84476073.25249  20629916.039
 04 12 11  3 20  0.0000000  0  8G 2G 6G10G17G18G21G26G29
 123957845.49046  23588377.629    96590562.32147  23588375.976
 109375414.76049  20813447.331    85227582.09449  20813447.135
 114944452.73648  21873190.893    89567123.38849  21873190.101
 112692921.71748  21444737.389    87812704.55449  21444737.540
 124670451.28646  23723993.884    97145801.62747  23723993.339
 118487377.01147  22547398.271    92327822.16848  22547396.981
 106980519.57949  20357717.564    83361453.42649  20357717.714
 108391936.20549  20626297.769    84461256.09649  20626297.523
 04 12 11  3 20 30.0000000  0  8G 2G 6G10G17G18G21G26G29
 124047304.71046  23605401.164    96660270.76147  23605399.527
 109387775.19749  20815799.450    85237213.59349  20815799.260
 115018893.21848  21887356.458    89625128.95849  21887355.662
 112739156.64248  21453535.632    87848731.74049  21453535.777
 124589733.86245  23708633.786    97082905.03547  23708633.250
 118404255.58748  22531580.796    92263052.23648  22531579.487
 106927049.81149  20347542.600    83319788.68549  20347542.751
 108373226.50049  20622737.425    84446677.11849  20622737.165
 04 12 11  3 21  0.0000000  0  8G 2G 6G10G17G18G21G26G29
 124137421.34646  23622549.796    96730491.46947  23622548.187
 109401188.81249  20818351.982    85247665.74949  20818351.799
 115093958.80148  21901640.963    89683621.62649  21901640.168
 112786185.20848  21462484.888    87885377.34949  21462485.040
 124509665.43446  23693397.241    97020514.10347  23693396.724
 118321705.17947  22515871.999    92198727.23548  22515870.680
 106874691.56149  20337579.156    83278990.05449  20337579.309
 108355587.05649  20619380.738    84432932.11049  20619380.471
 04 12 11  3 21 30.0000000  0  8G 2G 6G10G17G18G21G26G29
 124227417.83146  23639675.599    96800618.54247  23639674.018
 109414878.23949  20820956.993    85258332.83149  20820956.817
 115168871.16848  21915896.319    89741994.90049  21915895.526
 112833230.53048  21471437.310    87922036.04649  21471437.453
 124429469.41346  23678136.398    96958023.78147  23678135.896
 118238950.37447  22500124.295    92134242.97048  22500122.964
 106822669.71049  20327679.721    83238453.56849  20327679.855
 108338241.16849  20616079.931    84419415.83249  20616079.650
 04 12 11  3 22  0.0000000  0  8G 2G 6G10G17G18G21G26G29
 124317440.24646  23656806.307    96870765.85347  23656804.731
 109428989.95049  20823642.368    85269328.97049  20823642.179
 115243775.34348  21930150.109    89800361.78849  21930149.324
 112880439.55148  21480420.923    87958822.25849  21480421.060
 124349293.03045  23662879.274    96895548.76347  23662878.812
 118156139.02847  22484365.790    92069714.66948  22484364.479
 106771132.85549  20317872.578    83198295.00249  20317872.700
 108321335.79649  20612862.940    84406242.82549  20612862.644
 04 12 11  3 22 30.0000000  0  8G 2G 6G10G17G18G21G26G29
 124407943.29446  23674028.512    96941287.66048  23674026.960
 109443978.76449  20826494.639    85281008.57349  20826494.449
 115319125.33648  21944488.742    89859076.05449  21944487.962
 112928268.02248  21489522.373    87996091.19249  21489522.537
 124269591.84645  23647712.590    96833443.99747  23647712.186
 118073727.94047  22468683.476    92005498.23848  22468682.178
 106720537.97649  20308244.686    83158870.44049  20308244.796
 108305326.74749  20609816.513    84393768.24649  20609816.217
 04 12 11  3 23  0.0000000  0  8G 2G 6G10G17G18G21G26G29
 124498304.23946  23691223.646    97011698.74447  23691222.135
 109459222.31449  20829395.402    85292886.65249  20829395.221
 115394297.78648  21958793.584    89917651.99549  21958792.798
 112976094.04748  21498623.381    88033358.19649  21498623.558
 124189744.45445  23632518.088    96771225.30447  23632517.693
 117991096.63747  22452959.256    91941110.21448  22452957.957
 106670265.16549  20298678.083    83119696.84249  20298678.173
 108289592.11949  20606822.307    84381507.50549  20606821.996
 04 12 11  3 23 30.0000000  0  8G 2G 6G10G17G18G21G26G29
 124588979.77146  23708478.655    97082354.95447  23708477.164
 109475177.71549  20832431.632    85305319.41149  20832431.450
 115469748.52447  21973151.376    89976444.77249  21973150.594
 113024375.56248  21507811.059    88070980.13549  21507811.250
 124110208.84446  23617382.953    96709249.54747  23617382.511
 117908704.14547  22437280.474    91876908.28348  22437279.182
 106620773.57849  20289260.147    83081131.98249  20289260.225
 108274589.83949  20603967.468    84369817.41849  20603967.142
 04 12 11  3 24  0.0000000  0  8G 2G 6G10G17G18G21G26G29
 124679966.18846  23725792.836    97153253.41147  23725791.383
 109491841.46049  20835602.655    85318304.13249  20835602.467
 115545473.06348  21987561.271    90035450.90349  21987560.494
 113073109.64948  21517084.860    88108954.71649  21517085.077
 124030981.72746  23602306.498    96647514.17447  23602306.011
 117826548.51247  22421646.777    91812890.90048  22421645.491
 106572061.77149  20279990.592    83043174.75449  20279990.644
 108260316.64349  20601251.375    84358695.45049  20601251.029
 04 12 11  3 24 30.0000000  0  8G 2G 6G10G17G18G21G26G29
 124770952.66546  23743106.993    97224151.93047  23743105.579
 109508902.79749  20838849.331    85331598.66749  20838849.136
 115621159.76748  22001963.977    90094427.55049  22001963.209
 113121986.37448  21526385.791    88147040.46049  21526386.027
 123951753.97447  23587229.881    96585778.35247  23587229.325
 117744321.31547  22405999.449    91748817.76348  22405998.169
 106523821.54949  20270810.771    83005584.99249  20270810.802
 108246462.94849  20598615.099    84347900.36849  20598614.737
 04 12 11  3 25  0.0000000  0  8G 2G 6G10G17G18G21G26G29
 124862245.34046  23760479.477    97295288.97047  23760478.116
 109526668.35549  20842230.016    85345441.94349  20842229.828
 115697113.85348  22016417.559    90153612.54349  22016416.819
 113171312.89948  21535772.311    88185476.71649  21535772.538
 123872832.78546  23572211.636    96524281.36747  23572211.003
 117662330.83548  22390397.180    91684929.08048  22390395.908
 106476361.15849  20261779.353    82968602.88349  20261779.370
 108233335.44149  20596117.017    84337671.14649  20596116.641
 04 12 11  3 25 30.0000000  0  8G 2G 6G10G17G18G21G26G29
 124953688.95945  23777880.619    97366543.73247  23777879.241
 109544982.87649  20845715.166    85359712.98149  20845714.984
 115773179.39348  22030892.344    90212884.40349  22030891.605
 113220934.82648  21545215.073    88224143.12149  21545215.315
 123794063.68246  23557222.268    96462902.93347  23557221.603
 117580423.92647  22374810.807    91621105.52548  22374809.536
 106429527.89049  20252867.279    82932109.44249  20252867.269
 108220779.91949  20593727.769    84327887.63349  20593727.384
 04 12 11  3 26  0.0000000  0  8G 2G 6G10G17G18G21G26G29
 125045129.56946  23795281.236    97437796.09247  23795279.818
 109563692.43949  20849275.501    85374291.83649  20849275.320
 115849201.52248  22045358.875    90272122.41449  22045358.171
 113270698.97048  21554684.899    88262920.35449  21554685.142
 123715293.75346  23542232.783    96401523.80647  23542232.147
 117498448.67247  22359211.429    91557228.71248  22359210.158
 106383169.81549  20244045.618    82895986.28349  20244045.602
 108208642.83149  20591418.140    84318430.17849  20591417.747
 04 12 11  3 26 30.0000000  0  8G 2G 6G10G17G18G21G26G29
 125136874.99546  23812739.876    97509285.97147  23812738.438
 109583105.21748  20852969.642    85389418.66249  20852969.468
 115925488.19748  22059875.758    90331566.55849  22059875.076
 113320914.26648  21564240.570    88302049.14749  21564240.808
 123636832.36845  23527301.995    96340385.12547  23527301.411
 117416715.52147  22343658.110    91493540.56048  22343656.853
 106337597.69349  20235373.532    82860475.54549  20235373.502
 108197233.29549  20589246.972    84309539.63449  20589246.577
 04 12 11  3 27  0.0000000  0  8G 2G 6G10G17G18G21G26G29
 125228772.22946  23830227.362    97580894.17447  23830225.915
 109603068.41749  20856768.524    85404974.39749  20856768.345
 116001885.29348  22074413.648    90391096.77849  22074412.956
 113371428.60748  21573853.153    88341410.95649  21573853.379
 123558527.75346  23512401.062    96279368.60047  23512400.499
 117335073.17848  22328122.083    91429923.15548  22328120.818
 106292660.59149  20226822.280    82825459.63849  20226822.236
 108186398.89749  20587185.243    84301097.25649  20587184.855
 04 12 11  3 27 30.0000000  0  8G 2G 6G10G17G18G21G26G29
 125320822.29946  23847744.009    97652621.39947  23847742.581
 109623583.08849  20860672.354    85420959.83449  20860672.175
 116078393.15648  22088972.616    90450713.30148  22088971.905
 113422244.01748  21583523.028    88381007.36749  21583523.242
 123480381.71946  23497530.325    96218475.64147  23497529.794
 117253525.17448  22312604.007    91366379.26748  22312602.736
 106248361.57849  20218392.446    82790940.94049  20218392.395
 108176141.31049  20585233.277    84293104.33949  20585232.895
 04 12 11  3 28  0.0000000  0  8G 2G 6G10G17G18G21G26G29
 125413334.49346  23865348.518    97724708.81247  23865347.071
 109644958.60049  20864739.985    85437616.07549  20864739.799
 116155320.29348  22103611.364    90510656.52849  22103610.630
 113473670.82948  21593309.243    88421080.19549  21593309.436
 123402704.43646  23482748.776    96157947.95647  23482748.261
 117172383.29048  22297163.214    91303151.82048  22297161.956
 106205012.48149  20210143.375    82757162.43449  20210143.324
 108166770.68749  20583450.100    84285802.56549  20583449.712
 04 12 11  3 28 30.0000000  0  8G 2G 6G10G17G18G21G26G29
 125505694.68346  23882924.095    97796677.76847  23882922.618
 109666580.68049  20868854.548    85454464.43049  20868854.363
 116232051.78448  22118212.893    90570447.28349  22118212.166
 113525095.30448  21603095.013    88461151.20149  21603095.200
 123324882.81846  23467939.761    96097307.80647  23467939.241
 117091035.19248  22281683.156    91239763.72548  22281681.897
 106162001.00949  20201958.546    82723647.02449  20201958.495
 108157673.38449  20581718.935    84278713.76249  20581718.554
 04 12 11  3 29  0.0000000  0  8G 2G 6G10G17G18G21G26G29
 125598212.81146  23900529.799    97868769.70147  23900528.341
 109688759.49449  20873075.054    85471746.60949  20873074.862
 116308897.01848  22132836.060    90630326.67749  22132835.333
 113576828.69248  21612939.561    88501462.91349  21612939.755
 123247227.86146  23453162.466    96036797.49747  23453161.937
 117009793.26948  22266223.338    91176458.31748  22266222.093
 106119639.53749  20193897.409    82690638.10049  20193897.364
 108149160.07349  20580098.906    84272080.01849  20580098.526
 04 12 11  3 29 30.0000000  0  8G 2G 6G10G17G18G21G26G29
 125690891.33446  23918165.959    97940986.66647  23918164.553
 109711497.54149  20877401.966    85489464.56649  20877401.776
 116385857.72447  22147481.184    90690296.05348  22147480.475
 113628874.15648  21622843.489    88542017.79649  21622843.725
 123169743.15746  23438417.570    95976419.83947  23438417.012
 116928662.17248  22250784.604    91113239.28948  22250783.353
 106077932.68649  20185960.847    82658139.27649  20185960.804
 108141233.76249  20578590.573    84265903.67449  20578590.207
 04 12 11  3 30  0.0000000  0  8G 2G 6G10G17G18G21G26G29
 125783886.82246  23935862.436    98013450.62647  23935861.038
 109734951.40349  20881865.093    85507740.28949  20881864.902
 116463090.10548  22162178.012    90750477.13849  22162177.303
 113681389.36548  21632836.831    88582938.69749  21632837.088
 123092586.41946  23423735.066    95916297.75847  23423734.479
 116847800.89348  22235397.214    91050230.51149  22235395.974
 106037039.15649  20178179.061    82626274.20049  20178179.011
 108134051.95849  20577223.909    84260307.47149  20577223.550
 04 12 11  3 30 30.0000000  0  8G 2G 6G10G17G18G21G26G29
 125876894.42846  23953561.231    98085924.03447  23953559.861
 109758815.97949  20886406.389    85526336.04449  20886406.206
 116540288.51748  22176868.387    90810631.73449  22176867.693
 113734070.19748  21642861.678    88623988.66649  21642861.963
 123015453.81546  23409057.171    95856194.46547  23409056.550
 116766906.55748  22220003.522    90987195.97949  22220002.282
 105996656.04049  20170494.409    82594806.84949  20170494.347
 108127310.10949  20575940.972    84255054.09149  20575940.605
 04 12 11  3 31  0.0000000  0  8G 2G 6G10G17G18G21G26G29
 125970070.93945  23971292.167    98158529.02047  23971290.847
 109783248.54249  20891055.757    85545374.39149  20891055.580
 116617609.47448  22191582.076    90870881.81948  22191581.394
 113787074.66747  21652948.105    88665290.83449  21652948.390
 122938503.57246  23394413.985    95796233.30247  23394413.314
 116686138.83348  22204633.935    90924260.09348  22204632.696
 105956942.73649  20162937.207    82563861.43249  20162937.138
 108121165.87949  20574771.758    84250266.38549  20574771.391
 04 12 11  3 31 30.0000000  0  8G 2G 6G10G17G18G21G26G29
 126063419.64846  23989055.841    98231268.26347  23989054.505
 109808252.25249  20895813.805    85564857.80349  20895813.636
 116695055.51848  22206319.568    90931229.38548  22206318.901
 113840406.82348  21663096.895    88706848.33949  21663097.188
 122861739.93046  23379806.326    95736417.52747  23379805.615
 116605503.18448  22189289.475    90861427.13548  22189288.215
 105917904.59849  20155508.490    82533442.11849  20155508.408
 108115623.31949  20573717.038    84245947.51049  20573716.670
 04 12 11  3 32  0.0000000  0  8G 2G 6G10G17G18G21G26G29
 126157252.14346  24006911.607    98304384.45047  24006910.294
 109834138.39349  20900739.786    85585028.80649  20900739.624
 116772937.47648  22221140.024    90991916.62548  22221139.352
 113894378.87348  21673367.464    88748904.44849  21673367.757
 122785475.44547  23365293.642    95676990.70247  23365292.924
 116525313.39248  22174029.853    90798941.59848  22174028.578
 105879854.73549  20148267.836    82503792.88149  20148267.754
 108110994.06149  20572836.120    84242340.30149  20572835.745
 04 12 11  3 32 30.0000000  0  8G 2G 6G10G17G18G21G26G29
 126250647.57046  24024684.208    98377160.05447  24024682.916
 109859985.82448  20905658.412    85605169.63649  20905658.251
 116850333.99948  22235868.116    91052225.59848  22235867.443
 113948071.05348  21683584.776    88790742.48249  21683585.070
 122708790.54347  23350700.954    95617236.27648  23350700.244
 116444650.87248  22158680.298    90736087.69148  22158678.989
 105841874.43149  20141040.413    82474197.85549  20141040.323
 108106357.95549  20571953.892    84238727.75649  20571953.525
 04 12 11  3 33  0.0000000  0  8G 2G 6G10G17G18G21G26G29
 126344532.53446  24042549.976    98450317.11047  24042548.677
 109886721.59249  20910746.071    85626002.67649  20910745.930
 116928171.42948  22250680.104    91112878.12948  22250679.425
 114002410.99048  21693925.352    88833085.27349  21693925.643
 122632613.11147  23336204.847    95557877.27948  23336204.148
 116364444.87848  22143417.611    90673589.51248  22143416.288
 105804892.63549  20134002.999    82445380.88449  20134002.902
 108102642.38549  20571246.849    84235832.50849  20571246.483
 04 12 11  3 33 30.0000000  0  8G 2G 6G10G17G18G21G26G29
 126438601.38646  24060450.689    98523617.50647  24060449.382
 109914039.61248  20915944.524    85647289.43949  20915944.382
 117006143.23048  22265517.668    91173635.35548  22265517.006
 114057093.68648  21704331.153    88875695.13649  21704331.452
 122556637.94747  23321747.230    95498675.89848  23321746.521
 116284391.92048  22128184.022    90611210.59448  22128182.696
 105768605.37549  20127097.745    82417105.11649  20127097.647
 108099541.96649  20570656.853    84233416.60349  20570656.494
 04 12 11  3 34  0.0000000  0  8G 2G 6G10G17G18G21G26G29
 126532547.95045  24078328.150    98596822.57647  24078326.839
 109941633.68749  20921195.519    85668791.29649  20921195.378
 117083943.11748  22280322.507    91234258.63248  22280321.853
 114111813.97948  21714744.096    88918334.31449  21714744.390
 122480560.37247  23307270.125    95439394.72348  23307269.376
 116204188.21048  22112921.763    90548714.19849  22112920.430
 105732708.47449  20120266.792    82389133.51049  20120266.680
 108096750.98249  20570125.740    84231241.81649  20570125.389
 04 12 11  3 34 30.0000000  0  8G 2G 6G10G17G18G21G26G29
 126626989.59745  24096299.815    98670413.42647  24096298.529
 109970120.92049  20926616.454    85690989.13349  20926616.324
 117162187.67748  22295211.945    91295228.43048  22295211.277
 114167190.15848  21725281.850    88961484.56149  21725282.144
 122404998.83547  23292891.219    95380515.65048  23292890.436
 116124453.70748  22097748.780    90486583.43349  22097747.440
 105697821.32449  20113627.976    82361948.73049  20113627.856
 108094887.33949  20569771.089    84229789.63549  20569770.752
 04 12 11  3 35  0.0000000  0  8G 2G 6G10G17G18G21G26G29
 126721464.89845  24114277.939    98744030.43647  24114276.693
 109999039.69949  20932119.532    85713523.21249  20932119.430
 117240415.03848  22310098.123    91356184.81248  22310097.433
 114222761.41547  21735856.715    89004786.81648  21735857.028
 122329492.62547  23278522.871    95321679.66547  23278522.026
 116044729.09448  22082577.696    90424460.35548  22082576.342
 105663484.27349  20107093.847    82335192.60149  20107093.706
 108093489.97449  20569505.179    84228700.78249  20569504.850
 04 12 11  3 35 30.0000000  0  8G 2G 6G10G17G18G21G26G29
 126815973.51046  24132262.347    98817673.48047  24132261.084
 110028389.69149  20937704.656    85736393.32949  20937704.554
 117318624.40247  22324980.870    91417127.16948  22324980.187
 114278528.61347  21746468.884    89048241.72848  21746469.222
 122254042.97147  23264165.285    95262887.75448  23264164.388
 115965016.97348  22067408.978    90362347.02048  22067407.609
 105629698.88849  20100664.702    82308866.33449  20100664.540
 108092559.03549  20569328.021    84227975.37649  20569327.707
 04 12 11  3 36  0.0000000  0  8G 2G 6G10G17G18G21G26G29
 126910975.85645  24150340.746    98891701.21847  24150339.505
 110058630.81249  20943459.350    85759957.82549  20943459.268
 117397275.72548  22339947.719    91478413.90648  22339947.049
 114334952.84847  21757206.088    89092208.62548  21757206.433
 122179110.94347  23249906.159    95204499.22148  23249905.236
 115885779.68448  22052330.617    90300603.68849  22052329.234
 105596927.52249  20094428.518    82283330.21549  20094428.336
 108092555.21749  20569327.295    84227972.40149  20569326.988
 04 12 11  3 36 30.0000000  0  8G 2G 6G10G17G18G21G26G29
 127005699.34545  24168366.092    98965511.64347  24168364.894
 110088990.45349  20949236.603    85783614.67449  20949236.534
 117475595.81647  22354851.543    91539442.53548  22354850.879
 114391262.28347  21767921.435    89136086.08348  21767921.787
 122103925.21747  23235598.791    95145912.95348  23235597.848
 115806247.29648  22037196.113    90238630.39649  22037194.730
 105564399.39149  20088238.615    82257983.63149  20088238.418
 108092706.38749  20569356.061    84228090.20449  20569355.749
 04 12 11  3 37  0.0000000  0  8G 2G 6G10G17G18G21G26G29
 127100909.78246  24186484.119    99039701.48947  24186482.934
 110120234.25749  20955182.090    85807960.50049  20955182.026
 117554350.35048  22369838.033    91600809.69248  22369837.373
 114448223.90748  21778760.908    89180471.72548  21778761.260
 122029252.68246  23221389.080    95087726.57447  23221388.101
 115727188.32648  22022151.685    90177026.00849  22022150.294
 105532881.87849  20082241.026    82233424.53949  20082240.822
 108093778.63549  20569560.103    84228925.72049  20569559.798
 04 12 11  3 37 30.0000000  0  8G 2G 6G10G17G18G21G26G29
 127196139.97246  24204605.899    99113906.76747  24204604.728
 110151894.59249  20961206.857    85832630.88049  20961206.800
 117633071.59047  22384818.204    91662150.90848  22384817.540
 114505371.21448  21789635.697    89225002.08148  21789636.043
 121954627.56846  23207188.387    95029577.16247  23207187.360
 115648138.01448  22007108.911    90115428.36449  22007107.520
 105501910.12449  20076347.291    82209290.71649  20076347.073
 108095305.44049  20569850.651    84230115.44349  20569850.333
 04 12 11  3 38  0.0000000  0  8G 2G 6G10G17G18G21G26G29
 127291537.30245  24222759.473    99188242.26047  24222758.291
 110184118.51849  20967338.872    85857740.41849  20967338.821
 117711906.43148  22399819.976    91723580.65348  22399819.311
 114562852.41648  21800574.035    89269792.59449  21800574.382
 121880198.02146  23193024.885    94971580.14947  23193023.836
 115569245.97348  21992096.243    90053954.05149  21992094.850
 105471632.67849  20070585.667    82185697.92249  20070585.433
 108097434.17849  20570255.748    84231774.19549  20570255.432
 04 12 11  3 38 30.0000000  0  8G 2G 6G10G17G18G21G26G29
 127387094.38745  24240943.411    99262702.26546  24240942.200
 110216898.57949  20973576.716    85883283.31249  20973576.672
 117790847.10548  22414841.887    91785092.86948  22414841.245
 114620660.83248  21811574.629    89314838.10248  21811574.978
 121805957.86046  23178897.429    94913730.69947  23178896.356
 115490507.35348  21977112.764    89992599.28749  21977111.390
 105442043.87149  20064955.092    82162641.71949  20064954.858
 108100157.71349  20570774.014    84233896.44149  20570773.699
 04 12 11  3 39  0.0000000  0  8G 2G 6G10G17G18G21G26G29
 127482649.00545  24259126.934    99337160.32747  24259125.726
 110250072.21548  20979889.455    85909132.88849  20979889.418
 117869731.55648  22429853.110    91846561.25948  22429852.492
 114678635.47648  21822606.878    89360013.12049  21822607.209
 121731746.51646  23164775.438    94855903.74147  23164774.338
 115411762.88448  21962128.190    89931239.95749  21962126.823
 105412983.69549  20059425.106    82139997.44449  20059424.864
 108103314.44649  20571374.726    84236356.23249  20571374.405
 04 12 11  3 39 30.0000000  0  8G 2G 6G10G17G18G21G26G29
 127578656.07346  24277396.549    99411970.97147  24277395.318
 110284093.80549  20986363.555    85935643.20349  20986363.530
 117949013.64648  22444939.978    91908339.52148  22444939.367
 114737231.65848  21833757.379    89405672.47049  21833757.719
 121658019.28046  23150745.599    94798453.96147  23150744.500
 115333469.55648  21947229.465    89870232.17249  21947228.106
 105384908.19849  20054082.511    82118120.43849  20054082.276
 108107359.18749  20572144.414    84239507.98649  20572144.095
 04 12 11  3 40  0.0000000  0  8G 2G 6G10G17G18G21G26G29
 127674646.79644  24295662.946    99486768.94746  24295661.687
 110318494.26849  20992909.769    85962448.73749  20992909.738
 118028224.44847  22460013.299    91970062.21348  22460012.702
 114795981.59447  21844937.138    89451451.62048  21844937.494
 121584308.33246  23136718.813    94741016.91647  23136717.703
 115255161.27048  21932327.893    89809212.72649  21932326.542
 105357350.37549  20048838.426    82096646.81949  20048838.199
 108111823.59249  20572993.956    84242986.75449  20572993.638
 04 12 11  3 40 30.0000000  0  8G 2G 6G10G17G18G21G26G29
 127770770.21545  24313954.684    99561670.22047  24313953.427
 110353421.99049  20999556.299    85989665.13149  20999556.275
 118107512.45248  22475101.293    92031845.07348  22475100.699
 114855035.05847  21856174.650    89497467.27648  21856175.040
 121510763.80446  23122723.725    94683709.52447  23122722.615
 115176989.56848  21917452.319    89748299.71349  21917450.962
 105330460.54949  20043721.450    82075693.71949  20043721.230
 108116856.63249  20573951.712    84246908.60849  20573951.395
 04 12 11  3 41  0.0000000  0  8G 2G 6G10G17G18G21G26G29
 127867022.05346  24332270.859    99636671.60447  24332269.592
 110388872.73648  21006302.358    86017289.08449  21006302.334
 118186873.24748  22490203.156    92093684.65548  22490202.557
 114914388.78547  21867469.289    89543716.91548  21867469.690
 121437382.82946  23108759.736    94626529.61347  23108758.605
 115098952.82648  21902602.421    89687491.86449  21902601.064
 105304236.67449  20038731.213    82055259.53249  20038731.000
 108122454.51949  20575016.955    84251270.60149  20575016.631
 04 12 11  3 41 30.0000000  0  8G 2G 6G10G17G18G21G26G29
 127963398.96645  24350610.776    99711770.48646  24350609.506
 110424842.81949  21013147.237    86045317.72049  21013147.213
 118266303.26547  22505318.185    92155578.17248  22505317.571
 114974040.34447  21878820.615    89590198.62248  21878821.035
 121364163.20947  23094826.494    94569475.38447  23094825.356
 115021050.43848  21887778.089    89626788.70349  21887776.740
 105278676.58049  20033867.271    82035342.59749  20033867.066
 108128614.20049  20576189.103    84256070.35849  20576188.773
 04 12 11  3 42  0.0000000  0  8G 2G 6G10G17G18G21G26G29
 128059898.83945  24368974.127    99786965.14747  24368972.894
 110461329.28948  21020090.388    86073748.72949  21020090.364
 118345799.94047  22520445.894    92217523.62748  22520445.283
 115033988.18247  21890228.322    89636911.20248  21890228.740
 121291103.65346  23080923.711    94512545.87247  23080922.558
 114943282.47648  21872979.326    89566190.30449  21872977.977
 105253779.67449  20029129.541    82015942.41749  20029129.337
 108135333.37949  20577467.720    84261306.08749  20577467.391
 04 12 11  3 42 30.0000000  0  8G 2G 6G10G17G18G21G26G29
 128156674.50845  24387390.008    99862374.65647  24387388.849
 110498484.90749  21027160.890    86102701.13049  21027160.866
 118425515.97247  22535615.356    92279639.99948  22535614.751
 115094386.25147  21901721.716    89683974.59548  21901722.139
 121218358.32546  23067080.705    94455861.23747  23067079.537
 114865804.78148  21858235.817    89505818.07449  21858234.469
 105229700.58949  20024547.426    81997179.51249  20024547.228
 108142765.28349  20578881.970    84267097.18349  20578881.636
 04 12 11  3 43  0.0000000  0  8G 2G 6G10G17G18G21G26G29
 128253264.23746  24405770.452    99937639.33246  24405769.320
 110535847.19649  21034270.727    86131814.56249  21034270.717
 118504988.92347  22550738.556    92341566.97948  22550737.906
 115154773.22047  21913212.986    89731029.35848  21913213.401
 121145466.20446  23053209.760    94399062.23147  23053208.564
 114788158.08648  21843460.131    89445314.15849  21843458.795
 105205978.58949  20020033.273    81978694.84649  20020033.069
 108150448.20549  20580343.982    84273083.87649  20580343.648
 04 12 11  3 43 30.0000000  0  8G 2G 6G10G17G18G21G26G29
 128350438.75945  24424262.172   100013359.72847  24424260.961
 110574186.58448  21041566.488    86161689.38749  21041566.485
 118584989.70347  22565962.198    92403905.23548  22565961.553
 115215920.71947  21924848.992    89778676.74248  21924849.394
 121073199.53147  23039457.875    94342750.54147  23039456.674
 114711115.84648  21828799.468    89385281.25149  21828798.138
 105183386.08449  20015734.057    81961090.30749  20015733.853
 108159152.97949  20582000.439    84279866.82549  20582000.113
 04 12 11  3 44  0.0000000  0  8G 2G 6G10G17G18G21G26G29
 128447429.01945  24442718.847   100088936.51047  24442717.621
 110612733.58748  21048901.763    86191725.98549  21048901.767
 118664748.94747  22581139.884    92466055.29948  22581139.218
 115277060.85947  21936483.591    89826318.39048  21936483.978
 121000790.27047  23025678.827    94286327.78048  23025677.621
 114633911.64048  21814108.008    89325122.11349  21814106.677
 105161155.64149  20011503.744    81943767.88149  20011503.555
 108168110.65749  20583705.029    84286846.83749  20583704.711
 04 12 11  3 44 30.0000000  0  8G 2G 6G10G17G18G21G26G29
 128544544.61945  24461199.414   100164610.89047  24461198.215
 110651797.11548  21056335.335    86222165.06949  21056335.340
 118744575.86847  22596330.442    92528258.07548  22596329.809
 115338503.70847  21948175.789    89874195.91748  21948176.167
 120928548.94447  23011931.713    94230035.88348  23011930.504
 114556857.60848  21799445.101    89265080.03049  21799443.757
 105139597.90649  20007401.437    81926969.65949  20007401.250
 108177630.90749  20585516.666    84294265.21949  20585516.356
 04 12 11  3 45  0.0000000  0  8G 2G 6G10G17G18G21G26G29
 128642095.01346  24479762.667   100240624.15347  24479761.499
 110691686.30448  21063926.019    86253247.52949  21063926.033
 118824779.68447  22611592.732    92590754.55148  22611592.102
 115400559.56647  21959984.644    89922551.10548  21959985.028
 120856786.64247  22998275.783    94174117.23948  22998274.569
 114480265.94648  21784870.193    89205398.21649  21784868.849
 105119024.11249  20003486.369    81910938.14049  20003486.189
 108188023.40449  20587494.287    84302363.27249  20587493.983
 04 12 11  3 45 30.0000000  0  8G 2G 6G10G17G18G21G26G29
 128739466.25645  24498291.834   100316497.81646  24498290.600
 110731786.76148  21071556.894    86284494.63749  21071556.896
 118904746.56847  22626809.948    92653066.37848  22626809.333
 115462615.50747  21971793.496    89970906.37348  21971793.886
 120784890.24847  22984594.324    94118094.11148  22984593.119
 114403525.55248  21770266.981    89145600.51349  21770265.631
 105098821.33849  19999641.903    81895195.72649  19999641.738
 108198674.39349  20589521.096    84310662.75449  20589520.786
 04 12 11  3 46  0.0000000  0  8G 2G 6G10G17G18G21G26G29
 128837122.72344  24516875.218   100392593.75846  24516873.991
 110772561.78249  21079316.134    86316267.36649  21079316.136
 118984940.13847  22642070.283    92715554.87448  22642069.669
 115525136.12247  21983690.780    90019623.69848  21983691.216
 120713325.10746  22970975.877    94062329.12648  22970974.679
 114327103.17748  21755724.287    89086050.61449  21755722.938
 105079454.89149  19995956.602    81880104.98249  19995956.440
 108210047.43049  20591685.313    84319524.86049  20591685.010
 04 12 11  3 46 30.0000000  0  8G 2G 6G10G17G18G21G26G29
 128935066.27246  24535513.339   100468913.28147  24535512.181
 110814013.02448  21087204.073    86348566.99549  21087204.089
 119065362.44147  22657374.150    92778221.60548  22657373.533
 115588124.61947  21995677.098    90068705.61048  21995677.566
 120642094.14847  22957421.047    94006824.51348  22957419.848
 114251003.60548  21741243.020    89026752.25349  21741241.657
 105060928.52849  19992431.147    81865668.86049  19992430.984
 108222145.01149  20593987.395    84328951.55349  20593987.090
 04 12 11  3 47  0.0000000  0  8G 2G 6G10G17G18G21G26G29
 129032837.47046  24554118.651   100545098.55947  24554117.511
 110855680.30148  21095133.110    86381034.97449  21095133.131
 119145553.81347  22672634.073    92840708.36848  22672633.476
 115651122.14647  22007665.123    90117794.58348  22007665.625
 120570739.10247  22943842.567    93951223.24448  22943841.381
 114174769.90348  21726736.216    88967349.38049  21726734.861
 105042783.61349  19988978.290    81851529.96849  19988978.122
 108234507.59549  20596339.910    84338584.74649  20596339.599
 04 12 11  3 47 30.0000000  0  8G 2G 6G10G17G18G21G26G29
 129131054.34645  24572808.748   100621631.10846  24572807.640
 110898181.33048  21103220.811    86414152.63549  21103220.825
 119226132.50047  22687967.699    92903496.93948  22687967.110
 115714747.50047  22019772.649    90167372.75048  22019773.158
 120499879.22446  22930358.351    93896007.78548  22930357.171
 114099023.05048  21712322.064    88908325.86449  21712320.723
 105025640.11449  19985715.979    81838171.41249  19985715.811
 108247753.26949  20598860.478    84348906.04549  20598860.165
 04 12 11  3 48  0.0000000  0  8G 2G 6G10G17G18G21G26G29
 129229103.05145  24591466.725   100698032.71746  24591465.617
 110940901.48049  21111350.215    86447441.02249  21111350.228
 119306483.91447  22703258.065    92966108.43148  22703257.475
 115778387.76947  22031883.008    90216962.55348  22031883.517
 120428901.67647  22916851.714    93840700.66048  22916850.561
 114023152.06248  21697884.289    88849205.62049  21697882.948
 105008884.65749  19982527.521    81825115.21749  19982527.355
 108261268.18349  20601432.269    84359437.15749  20601431.955
 04 12 11  3 48 30.0000000  0  8G 2G 6G10G17G18G21G26G29
 129327602.17446  24610210.520   100774785.24747  24610209.399
 110984458.57148  21119638.859    86481381.60349  21119638.864
 119387226.74847  22718622.939    93029024.90648  22718622.344
 115842661.89447  22044113.973    90267046.28448  22044114.460
 120358426.04647  22903440.623    93785784.61148  22903439.486
 113947778.12248  21683541.099    88790472.68749  21683539.751
 104993137.32149  19979530.909    81812844.56949  19979530.745
 108275670.60049  20604172.952    84370659.82249  20604172.637
 04 12 11  3 49  0.0000000  0  8G 2G 6G10G17G18G21G26G29
 129425938.16745  24628923.291   100851410.64546  24628922.196
 111028238.65648  21127969.951    86515495.92849  21127969.954
 119467747.50747  22733945.566    93091768.32348  22733944.973
 115906957.54448  22056349.064    90317146.75948  22056349.539
 120287840.20146  22890008.530    93730782.69948  22890007.411
 113872290.70548  21669176.315    88731651.33549  21669174.961
 104977785.78149  19976609.608    81800882.33949  19976609.446
 108290347.10949  20606965.799    84382096.06249  20606965.484
 04 12 11  3 49 30.0000000  0  8G 2G 6G10G17G18G21G26G29
 129524729.72944  24647722.778   100928390.94146  24647721.768
 111072859.61549  21136461.049    86550265.48649  21136461.058
 119548664.55747  22749343.580    93154820.57348  22749342.969
 115971893.79147  22068706.033    90367746.42648  22068706.486
 120217763.47747  22876673.349    93676177.47848  22876672.251
 113797310.78348  21654908.105    88673225.43149  21654906.735
 104963449.43949  19973881.487    81789711.17749  19973881.327
 108305916.01449  20609928.457    84394227.68249  20609928.141
 04 12 11  3 50  0.0000000  0  8G 2G 6G10G17G18G21G26G29
 129623209.14145  24666462.787   101005128.15246  24666461.779
 111117553.03849  21144965.936    86585091.51449  21144965.945
 119629209.89947  22764670.861    93217583.15748  22764670.248
 116036703.74347  22081038.963    90418247.68348  22081039.402
 120147429.54147  22863289.187    93621371.87748  22863288.102
 113722073.69948  21640590.969    88614599.13449  21640589.587
 104949362.10849  19971200.763    81778734.04449  19971200.599
 108321609.73149  20612914.872    84406456.55649  20612914.550
 04 12 11  3 50 30.0000000  0  8G 2G 6G10G17G18G21G26G29
 129722148.18045  24685290.254   101082223.52646  24685289.203
 111163090.06048  21153631.355    86620574.89049  21153631.363
 119710155.60847  22780074.323    93280657.71948  22780073.716
 116102160.08547  22093494.884    90469252.62548  22093495.322
 120077611.26847  22850003.157    93566968.08348  22850002.079
 113647354.25248  21626372.337    88556376.19249  21626370.935
 104936296.33749  19968714.429    81768552.93349  19968714.260
 108338199.79449  20616071.850    84419383.88549  20616071.528
 04 12 11  3 51  0.0000000  0  7G 6G10G17G18G21G26G29
 111209009.32148  21162369.524    86656356.09649  21162369.545
 119791041.04547  22795466.304    93343685.33248  22795465.703
 116167803.10947  22105986.342    90520403.00348  22105986.797
 120007849.40347  22836727.874    93512608.23448  22836726.803
 113572694.56548  21612165.065    88498199.82149  21612163.663
 104923792.98849  19966335.133    81758810.06949  19966334.945
 108355225.74349  20619311.780    84432650.86649  20619311.445
 04 12 11  3 51 30.0000000  0  7G 6G10G17G18G21G26G29
 111255619.55448  21171239.168    86692675.74449  21171239.189
 119872175.29447  22810905.627    93406906.82248  22810905.036
 116233942.63047  22118572.281    90571940.26048  22118572.798
 119938454.36947  22823522.397    93458534.22348  22823521.347
 113498406.59048  21598028.534    88440313.08849  21598027.116
 104912162.13049  19964121.860    81749747.06249  19964121.666
 108372996.65749  20622693.467    84446498.33749  20622693.116
 04 12 11  3 52  0.0000000  0  7G 6G10G17G18G21G26G29
 111302304.78949  21180123.085    86729053.83349  21180123.105
 119952943.33147  22826275.291    93469842.91448  22826274.749
 116299964.45447  22131135.798    90623385.83348  22131136.332
 119868812.06547  22810269.895    93404267.50748  22810268.868
 113423878.20548  21583846.242    88382239.03149  21583844.831
 104900789.55149  19961957.730    81740885.31949  19961957.531
 108390896.86749  20626099.758    84460446.55849  20626099.399
 04 12 11  3 52 30.0000000  0  7G 6G10G17G18G21G26G29
 111349834.49949  21189167.706    86766089.94449  21189167.740
 120034115.21647  22841721.787    93533093.74748  22841721.226
 116366639.31647  22143823.638    90675340.22548  22143824.209
 119799693.75647  22797117.065    93350409.14448  22797116.052
 113349882.56048  21569765.315    88324580.09849  21569763.908
 104890446.36849  19959989.488    81732825.70249  19959989.282
 108409696.84049  20629677.273    84475095.89249  20629676.900
 04 12 11  3 53  0.0000000  0  7G 6G10G17G18G21G26G29
 111397745.02949  21198284.800    86803422.80049  21198284.835
 120115228.23747  22857157.117    93596298.66248  22857156.588
 116433505.17447  22156547.812    90727443.46748  22156548.376
 119730637.63847  22783976.093    93296599.22148  22783975.089
 113275959.41548  21555698.208    88266977.64649  21555696.801
 104880670.85249  19958129.275    81725208.42149  19958129.057
 108428933.22549  20633337.836    84490085.29049  20633337.449
 04 12 11  3 53 30.0000000  0  7G 6G10G17G18G21G26G29
 111446341.21748  21207532.365    86841289.93649  21207532.399
 120196587.79647  22872639.303    93659695.73048  22872638.776
 116500868.25247  22169366.591    90779934.17048  22169367.157
 119661950.72847  22770905.367    93243076.99148  22770904.376
 113202417.41948  21541703.638    88209672.19249  21541702.223
 104871769.44549  19956435.394    81718272.26249  19956435.176
 108448911.26949  20637139.531    84505652.60149  20637139.130
 04 12 11  3 54  0.0000000  0  7G 6G10G17G18G21G26G29
 111495156.12849  21216821.552    86879327.50949  21216821.578
 120277728.06347  22888079.824    93722921.87948  22888079.309
 116568263.31347  22182191.451    90832449.80848  22182191.997
 119593167.98747  22757816.411    93189480.09548  22757815.405
 113128793.48348  21527693.480    88152302.88649  21527692.061
 104863276.87849  19954819.312    81711654.69049  19954819.074
 108469164.86849  20640993.657    84521434.64049  20640993.242
 04 12 11  3 54 30.0000000  0  7G 6G10G17G18G21G26G29
 111544799.42348  21226268.374    86918010.57249  21226268.400
 120359259.05546  22903594.620    93786452.55548  22903594.087
 116636301.39447  22195138.691    90885466.47348  22195139.246
 119524900.71247  22744825.538    93136284.85748  22744824.539
 113055700.69148  21513784.384    88095347.46049  21513782.964
 104855804.46849  19953397.360    81705832.03949  19953397.108
 108490304.08949  20645016.323    84537906.76349  20645015.895
 04 12 11  3 55  0.0000000  0  7G 6G10G17G18G21G26G29
 111594647.41048  21235754.143    86956853.14349  21235754.168
 120440558.03947  22919065.338    93849802.36348  22919064.819
 116704360.06047  22208089.830    90938499.17548  22208090.427
 119456527.23347  22731814.468    93083006.84948  22731813.467
 112982518.99048  21499858.358    88038322.76249  21499856.950
 104848729.78449  19952051.086    81700319.30449  19952050.827
 108511705.84049  20649088.941    84554583.46649  20649088.494
 04 12 11  3 55 30.0000000  0  7G 6G10G17G18G21G26G29
 111645306.55748  21245394.270    86996327.77949  21245394.308
 120522232.73947  22934607.499    93913445.01948  22934606.921
 116773047.73347  22221160.648    90992022.02848  22221161.239
 119388656.17747  22718899.006    93030120.34848  22718897.990
 112909859.05148  21486031.619    87981704.63749  21486030.226
 104842661.40349  19950896.312    81695590.70349  19950896.039
 108533977.13749  20653327.028    84571937.73149  20653326.560
 04 12 11  3 56  0.0000000  0  7G 6G10G17G18G21G26G29
 111696151.64649  21255069.775    87035947.32549  21255069.805
 120603658.78847  22950102.414    93976893.84648  22950101.826
 116841740.69646  22234232.514    91045548.96448  22234233.155
 119320664.22847  22705960.544    92977139.63148  22705959.542
 112837099.35048  21472185.903    87925008.76349  21472184.530
 104836975.68149  19949814.355    81691160.27049  19949814.074
 108556493.30149  20657611.711    84589482.79349  20657611.235
 04 12 11  3 56 30.0000000  0  7G 6G10G17G18G21G26G29
 111747635.49349  21264866.837    87076064.59449  21264866.868
 120685289.85447  22965636.290    94040502.45848  22965635.691
 116910893.13647  22247391.798    91099433.98448  22247392.389
 119253005.99547  22693085.569    92924418.97748  22693084.582
 112764696.09548  21458408.021    87868590.64449  21458406.649
 104832126.90749  19948891.652    81687382.01649  19948891.363
 108579707.71449  20662029.261    84607571.95049  20662028.769
 04 12 11  3 57  0.0000000  0  7G 6G10G17G18G21G26G29
 111799596.01049  21274754.600    87116553.29649  21274754.638
 120766964.72647  22981178.537    94104145.18648  22981177.926
 116980344.62047  22260607.999    91153551.99748  22260608.614
 119185521.58547  22680243.707    92871833.73748  22680242.737
 112692491.39748  21444667.918    87812327.23949  21444666.550
 104827954.71349  19948097.704    81684130.95949  19948097.414
 108603458.72749  20666548.923    84626079.24249  20666548.408
 04 12 11  3 57 30.0000000  0  7G 6G10G17G18G21G26G29
 111851718.29148  21284673.170    87157168.02949  21284673.208
 120848369.90447  22996669.427    94167577.79248  22996668.839
 117049782.01247  22273821.490    91207659.05648  22273822.080
 119117898.78947  22667375.487    92819140.68748  22667374.510
 112620174.11348  21430906.391    87755976.11149  21430905.030
 104824145.62249  19947372.852    81681162.84449  19947372.547
 108627432.16549  20671110.922    84644759.84649  20671110.388
 04 12 11  3 58  0.0000000  0  7G 6G10G17G18G21G26G29
 111904613.30049  21294738.768    87198384.90049  21294738.812
 120930116.89646  23012225.356    94231276.73748  23012224.788
 117119817.71647  22287148.871    91262232.29148  22287149.505
 119050750.05347  22654597.508    92766816.99948  22654596.531
 112548358.97548  21417240.407    87700016.27249  21417239.058
 104821312.15249  19946833.654    81678954.94949  19946833.349
 108652239.41749  20675831.579    84664090.18249  20675831.030
 04 12 11  3 58 30.0000000  0  7G 6G10G17G18G21G26G29
 111957969.46548  21304892.138    87239961.09549  21304892.189
 121011895.31547  23027787.302    94295000.15148  23027786.749
 117190141.65947  22300531.072    91317030.17748  22300531.701
 118983765.76647  22641850.780    92714621.50348  22641849.782
 112476738.60748  21403611.510    87644208.19349  21403610.155
 104819144.42749  19946421.144    81677265.82049  19946420.831
 108677569.20649  20680651.690    84683827.67749  20680651.128
 04 12 11  3 59  0.0000000  0  7G 6G10G17G18G21G26G29
 112012092.47748  21315191.447    87282134.81749  21315191.512
 121094012.07946  23043413.638    94358987.20548  23043413.095
 117261061.23747  22314026.649    91372292.15448  22314027.294
 118917253.83348  22629193.968    92662794.03548  22629192.962
 112405622.63748  21390078.584    87588793.14949  21390077.243
 104817949.68549  19946193.786    81676334.85049  19946193.479
 108703728.26049  20685629.598    84704211.35349  20685629.030
 04 12 11  3 59 30.0000000  0  7G 6G10G17G18G21G26G29
 112066364.96948  21325519.170    87324425.05349  21325519.234
 121175850.69746  23058986.997    94422757.57848  23058986.433
 117331960.57347  22327518.380    91427538.34848  22327519.070
 118850598.77148  22616509.914    92610855.05648  22616508.872
 112334397.49549  21376524.879    87533293.04849  21376523.551
 104817111.96749  19946034.362    81675682.09249  19946034.046
 108730099.53249  20690647.873    84724760.40849  20690647.304
                            4  1
RINEX FILE SPLICE; other post-header comments skipped       COMMENT
 04 12 11  4  0  0.0000000  0  7G 6G10G17G18G21G26G29
 112121248.70248  21335963.227    87367191.55849  21335963.305
 121257874.19847  23074595.586    94486671.94948  23074595.044
 117403303.19447  22341094.393    91483130.03248  22341095.066
 118784264.63947  22603886.966    92559166.11248  22603885.904
 112263528.74049  21363039.009    87478070.64049  21363037.683
 104817094.57549  19946031.040    81675668.54249  19946030.729
 108757145.24049  20695794.506    84745834.98649  20695793.931
 04 12 11  4  0 30.0000000  0  7G 6G10G17G18G21G26G29
 112176436.07748  21346465.053    87410194.68849  21346465.131
 121339776.17347  23090181.002    94550491.68548  23090180.414
 117474783.02146  22354696.564    91538828.55848  22354697.291
 118717946.09948  22591266.937    92507489.36648  22591265.869
 112192713.32649  21349563.290    87422889.80349  21349561.959
 104817591.38349  19946125.574    81676055.67049  19946125.262
 108784558.37549  20701011.052    84767195.87749  20701010.463
 04 12 11  4  1  0.0000000  0  7G 6G10G17G18G21G26G29
 112232236.48349  21357083.535    87453675.50249  21357083.621
 121421866.89647  23105802.383    94614458.44248  23105801.818
 117546711.13547  22368384.053    91594876.40448  22368384.755
 118651954.45648  22578709.145    92456067.32348  22578708.073
 112122264.04049  21336157.242    87367994.25149  21336155.912
 104818913.45649  19946377.156    81677085.85849  19946376.837
 108812648.84849  20706356.491    84789084.55949  20706355.895
 04 12 11  4  1 30.0000000  0  7G 6G10G17G18G21G26G29
 112288189.05148  21367730.991    87497274.86849  21367731.085
 121503687.15246  23121372.242    94678214.50648  23121371.655
 117618628.36547  22382069.465    91650915.77848  22382070.181
 118585830.77448  22566126.203    92404542.42048  22566125.127
 112051724.32249  21322733.980    87313028.24149  21322732.651
 104820601.14849  19946698.301    81678400.95349  19946697.981
 108840956.22249  20711743.205    84811142.25649  20711742.610
 04 12 11  4  2  0.0000000  0  7G 6G10G17G18G21G26G29
 112345065.05748  21378554.170    87541593.79549  21378554.273
 121586008.96747  23137037.592    94742361.33848  23137037.020
 117691307.55847  22395899.873    91707548.89948  22395900.598
 118520349.02947  22553665.447    92353517.68348  22553664.365
 111981869.46449  21309441.055    87258595.88349  21309439.713
 104823427.10449  19947236.075    81680602.98949  19947235.741
 108870252.44449  20717318.091    84833970.48349  20717317.496
 04 12 11  4  2 30.0000000  0  7G 6G10G17G18G21G26G29
 112402249.18048  21389435.983    87586152.80549  21389436.107
 121668218.70547  23152681.597    94806420.86148  23152681.009
 117764135.13647  22409758.542    91764297.60448  22409759.273
 118454895.71348  22541210.078    92302515.12748  22541208.982
 111912088.45848  21296162.171    87204221.07149  21296160.836
 104826777.92649  19947873.709    81683214.02449  19947873.375
 108899922.80649  20722964.179    84857090.24949  20722963.580
 04 12 11  4  3  0.0000000  0  7G 6G10G17G18G21G26G29
 112459742.27748  21400376.585    87630952.57849  21400376.723
 121750318.44847  23168304.665    94870394.67848  23168304.069
 117837113.38546  22423645.853    91821163.77048  22423646.571
 118389474.01847  22528760.737    92251537.20348  22528759.614
 111842386.18849  21282898.270    87149907.62249  21282896.922
 104830655.55749  19948611.598    81686235.55849  19948611.249
 108929968.49849  20728681.690    84880502.47749  20728681.085
 04 12 11  4  3 30.0000000  0  7G 6G10G17G18G21G26G29
 112518007.26648  21411464.068    87676353.84149  21411464.205
 121832772.32347  23183995.110    94934644.46248  23183994.499
 117910707.15847  22437650.288    91878509.55248  22437650.982
 118324549.31247  22516405.970    92200946.53848  22516404.819
 111773229.74749  21269738.237    87096019.48449  21269736.881
 104835524.37549  19949538.109    81690029.44349  19949537.754
 108960853.08349  20734558.831    84904568.39049  20734558.226
 04 12 11  4  4  0.0000000  0  7G 6G10G17G18G21G26G29
 112576583.23448  21422610.722    87721997.42549  21422610.865
 121915120.83046  23199665.533    94998812.09648  23199664.945
 117984457.03846  22451684.459    91935976.93548  22451685.195
 118259662.97747  22504058.494    92150385.79448  22504057.315
 111704162.31449  21256595.159    87042200.69149  21256593.782
 104840924.91449  19950565.803    81694237.65749  19950565.436
 108992116.29249  20740508.022    84928929.33949  20740507.404
 04 12 11  4  4 30.0000000  0  7G 6G10G17G18G21G26G29
 112635316.99048  21433787.407    87767763.95149  21433787.564
 121997211.97947  23215286.995    95062779.19448  23215286.417
 118058211.84747  22465719.515    91993448.22448  22465720.202
 118194663.86648  22491689.556    92099737.17148  22491688.351
 111635035.05949  21243440.680    86988335.30349  21243439.296
 104846705.32149  19951665.784    81698741.87149  19951665.411
 109023605.34449  20746500.189    84953466.26749  20746499.580
 04 12 11  4  5  0.0000000  0  7G 6G10G17G18G21G26G29
 112694979.61848  21445140.846    87814254.28549  21445141.017
 122079818.39547  23231006.485    95127147.82948  23231005.887
 118132743.99646  22479902.553    92051525.14648  22479903.309
 118130325.49647  22479446.372    92049603.39548  22479445.148
 111566622.85048  21230422.269    86935027.09549  21230420.880
 104853638.09149  19952985.046    81704144.02949  19952984.665
 109056091.92049  20752682.185    84978780.48449  20752681.578
 04 12 11  4  5 30.0000000  0  7G 6G10G17G18G21G26G29
 112754648.52248  21456495.479    87860749.50849  21456495.663
 122162018.52247  23246648.661    95191199.86548  23246648.079
 118207132.33847  22494058.184    92109490.07948  22494058.946
 118065727.01848  22467153.678    91999266.94648  22467152.435
 111498007.10649  21217365.115    86881560.30049  21217363.727
 104860801.67849  19954348.226    81709726.05649  19954347.838
 109088653.46749  20758878.436    85004153.12549  20758877.836
 04 12 11  4  6  0.0000000  0  7G 6G10G17G18G21G26G29
 112815094.03848  21467997.884    87907849.89949  21467998.067
 122244584.68446  23262360.462    95255537.14948  23262359.870
 118282149.42146  22508333.520    92167944.86348  22508334.293
 118001641.63248  22454958.623    91949330.30848  22454957.352
 111429963.34449  21204416.818    86828539.18749  21204415.430
 104868968.21749  19955902.266    81716089.59749  19955901.872
 109122061.59649  20765235.785    85030185.44149  20765235.193
 04 12 11  4  6 30.0000000  0  7G 6G10G17G18G21G26G29
 112876008.94248  21479589.611    87955316.04849  21479589.801
 122327210.61446  23278083.659    95319920.96948  23278083.102
 118357489.45647  22522670.281    92226651.35248  22522671.101
 117937764.15447  22442803.125    91899555.67648  22442801.833
 111362187.88849  21191519.572    86775727.14649  21191518.182
 104877831.52249  19957588.903    81722996.06849  19957588.503
 109156009.08549  20771695.778    85056638.03249  20771695.194
 04 12 11  4  7  0.0000000  0  7G 6G10G17G18G21G26G29
 112937085.58448  21491212.103    88002908.23849  21491212.292
 122409589.86546  23293759.904    95384112.60547  23293759.340
 118432846.50547  22537010.257    92285371.11948  22537011.045
 117873788.68048  22430628.985    91849704.67348  22430627.647
 111294377.29649  21178615.651    86722887.72849  21178614.242
 104887085.18849  19959349.817    81730206.71749  19959349.417
 109190188.77249  20778199.944    85083271.56349  20778199.367
 04 12 11  4  7 30.0000000  0  7G 6G10G17G18G21G26G29
 112998785.41848  21502953.173    88050986.04749  21502953.354
 122492186.18046  23309477.466    95448473.34848  23309476.929
 118508683.73247  22551441.637    92344465.03748  22551442.429
 117810179.66448  22418524.574    91800139.23448  22418523.208
 111226998.05749  21165793.796    86670384.43349  21165792.386
 104897192.20149  19961273.118    81738082.31649  19961272.711
 109225063.00449  20784836.284    85110446.29249  20784835.721
 04 12 11  4  8  0.0000000  0  7G 6G10G17G18G21G26G29
 113061108.00248  21514812.779    88099549.09049  21514812.952
 122575000.29346  23325236.485    95513003.78347  23325235.989
 118585002.72347  22565964.688    92403934.36648  22565965.439
 117746939.17248  22406490.302    91750860.93648  22406488.921
 111160053.47349  21153054.666    86618219.82749  21153053.233
 104908153.45649  19963358.987    81746623.54749  19963358.574
 109260631.76249  20791604.793    85138162.20849  20791604.238
