     2.10           OBSERVATION DATA    G (GPS)             RINEX VERSION / TYPE
teqc  2002Mar14                         20041211 00:34:54UTCPGM / RUN BY / DATE
GALB                                                        MARKER NAME
                                                            MARKER NUMBER
                    MSD                                     OBSERVER / AGENCY
80108               LEICA RS500         4.10                REC # / TYPE / VERS
2084                LEIAT303                                ANT # / TYPE
   475546.0224 -4925640.5090  4010733.3612                  APPROX POSITION XYZ
        0.0000        0.0000        0.0000                  ANTENNA: DELTA H/E/N
     1     1                                                WAVELENGTH FACT L1/2
     4    L1    C1    L2    P2                              # / TYPES OF OBSERV
    30.0000                                                 INTERVAL
    13                                                      LEAP SECONDS
Forced Modulo Decimation to 30 seconds                      COMMENT
  2004    12    10     0     0    0.0000000     GPS         TIME OF FIRST OBS
HP-UX 10.20|PA-RISC|cc A.10.32.03|=+|=|                     COMMENT
teqc  2002Mar14                         20041211 00:22:57UTCCOMMENT
     2              Observation Data                        COMMENT
CS 4.3              Leica Inc.          Thu 09 Dec 2004     COMMENT
BIT 2 OF LLI FLAGS DATA COLLECTED UNDER A/S CONDITION       COMMENT
SNR is mapped to RINEX snr flag value [2-9]                 COMMENT
L1&L2:  < 25dBHz -> 1; 25-27dBHz -> 2; 28-31dBHz -> 3       COMMENT
       32-35dBHz -> 4; 36-38dBHz -> 5; 39-41dBHz -> 6       COMMENT
       42-44dBHz -> 7; 45-48dBHz -> 8; 49-55dBHz -> 9       COMMENT
                                                            END OF HEADER
 04 12 10  0  0  0.0000000  0  9G 2G 4G 5G 7G10G13G17G24G30
 106748726.44149  20313602.993    83180818.79049  20313600.793
 111884755.69348  21290942.757    87182956.58749  21290942.564
 113521380.46448  21602393.662    88458211.98949  21602393.456
 121989495.22646  23213820.312    95056785.84147  23213821.328
 115020594.36548  21887685.028    89626451.04449  21887685.519
 125953127.92845  23968084.028    98145299.95047  23968083.304
 114738311.81748  21833964.526    89406513.12849  21833965.016
 108728182.94449  20690265.508    84723312.76649  20690266.011
 118447717.64247  22539846.134    92296926.37348  22539846.212
 04 12 10  0  0 30.0000000  0  9G 2G 4G 5G 7G10G13G17G24G30
 106734190.23549  20310836.839    83169491.88149  20310834.639
 111946103.77549  21302616.909    87230760.29549  21302616.695
 113526653.32148  21603397.054    88462320.70749  21603396.855
 122070639.55145  23229261.552    95120015.19447  23229262.544
 114924874.80848  21869470.154    89551864.43549  21869470.639
 125930435.18145  23963765.700    98127617.30646  23963765.022
 114689682.09148  21824710.585    89368619.85549  21824711.077
 108753110.46849  20695009.052    84742736.81249  20695009.562
 118394912.92746  22529797.695    92255779.88248  22529797.773
 04 12 10  0  1  0.0000000  0  9G 2G 4G 5G 7G10G13G17G24G30
 106720148.51549  20308164.771    83158550.29649  20308162.569
 112007783.11149  21314354.091    87278822.12849  21314353.847
 113532676.61548  21604543.254    88467014.17649  21604543.056
 122152182.14246  23244778.639    95183554.81547  23244779.683
 114829677.18248  21851354.613    89477684.51049  21851355.090
 125908427.42045  23959577.685    98110468.46946  23959577.040
 114641429.55648  21815528.421    89331020.49849  21815528.915
 108778439.14549  20699828.933    84762473.45449  20699829.428
 118342801.17247  22519881.140    92215173.32748  22519881.237
 04 12 10  0  1 30.0000000  0  9G 2G 4G 5G 7G10G13G17G24G30
 106706139.73549  20305498.983    83147634.36849  20305496.773
 112069330.77349  21326066.209    87326781.36049  21326065.951
 113538988.40348  21605744.354    88471932.44249  21605744.146
 122233661.00146  23260283.598    95247044.77147  23260284.678
 114734542.69648  21833251.092    89403553.78349  21833251.571
 125886644.80345  23955432.525    98093495.03847  23955431.939
 114593092.53748  21806330.186    89293355.30749  21806330.682
 108803706.70849  20704637.179    84782162.47149  20704637.680
 118290922.71247  22510008.974    92174748.59048  22510009.073
 04 12 10  0  2  0.0000000  0  9G 2G 4G 5G 7G10G13G17G24G30
 106692625.43149  20302927.296    83137103.74249  20302925.086
 112131208.07248  21337841.062    87374997.43349  21337840.801
 113546050.35448  21607088.204    88477435.25649  21607087.997
 122315537.46446  23275864.164    95310844.61547  23275865.221
 114639935.77248  21815247.963    89329834.14049  21815248.451
 125865551.24845  23951418.496    98077058.54846  23951417.935
 114545133.24148  21797203.818    89255984.45649  21797204.316
 108829374.25049  20709521.550    84802163.15549  20709522.051
 118239741.38647  22500269.468    92134867.06248  22500269.566
 04 12 10  0  2 30.0000000  0  9G 2G 4G 5G 7G10G13G17G24G30
 106679605.64249  20300449.713    83126958.45449  20300447.496
 112193413.95848  21349678.443    87423469.55949  21349678.174
 113553862.33348  21608574.780    88483522.50949  21608574.567
 122397811.00746  23291520.353    95374953.81248  23291521.464
 114545859.03648  21797345.720    89256527.64649  21797346.210
 125845148.52044  23947535.920    98061160.34946  23947535.417
 114497551.57148  21788149.309    89218907.85949  21788149.794
 108855441.11749  20714481.904    84822475.00249  20714482.411
 118189259.16247  22490662.996    92095530.28148  22490663.107
 04 12 10  0  3  0.0000000  0  9G 2G 4G 5G 7G10G13G17G24G30
 106666772.21549  20298007.581    83116958.39849  20298005.357
 112255639.07748  21361519.483    87471956.67249  21361519.207
 113562115.82848  21610145.380    88489953.79149  21610145.167
 122480173.05846  23307193.312    95439132.05447  23307194.408
 114452006.98548  21779486.257    89183396.20449  21779486.750
 125825129.94444  23943726.458    98045561.49746  23943726.003
 114450039.66948  21779108.083    89181885.62249  21779108.563
 108881598.17549  20719459.426    84842857.12749  20719459.935
 118139169.92147  22481131.336    92056499.70848  22481131.450
 04 12 10  0  3 30.0000000  0  9G 2G 4G 5G 7G10G13G17G24G30
 106654125.12149  20295600.913    83107103.52649  20295598.681
 112317883.12448  21373364.137    87520458.51549  21373363.868
 113570810.93348  21611800.004    88496729.18649  21611799.795
 122562623.44547  23322883.164    95503379.04548  23322884.286
 114358383.01548  21761670.178    89110442.50549  21761670.674
 125805497.64944  23939990.527    98030263.61246  23939990.118
 114402598.06148  21770080.221    89144918.16649  21770080.695
 108907844.76849  20724453.987    84863309.02649  20724454.482
 118089476.01247  22471674.864    92017777.21848  22471674.977
 04 12 10  0  4  0.0000000  0  9G 2G 4G 5G 7G10G13G17G24G30
 106641972.88649  20293288.413    83097634.26149  20293286.183
 112380453.44648  21385270.874    87569214.60849  21385270.619
 113580255.78948  21613597.312    88504088.80249  21613597.104
 122645470.13746  23338648.324    95567934.93247  23338649.447
 114265297.96948  21743956.653    89037908.74049  21743957.157
 125786561.87645  23936387.110    98015508.50246  23936386.732
 114355535.18748  21761124.424    89108245.83349  21761124.898
 108934488.52049  20729524.124    84884070.39649  20729524.605
 118040487.58347  22462352.664    91979604.43348  22462352.785
 04 12 10  0  4 30.0000000  0  9G 2G 4G 5G 7G10G13G17G24G30
 106630007.72649  20291011.519    83088310.75949  20291009.280
 112443041.94948  21397181.070    87617984.87049  21397180.838
 113590142.70548  21615478.729    88511792.89149  21615478.521
 122728405.18746  23354430.357    95632559.62147  23354431.494
 114172447.39248  21726287.734    88965557.68349  21726288.244
 125768017.31345  23932858.125    98001058.25346  23932857.772
 114308544.00748  21752182.282    89071629.34949  21752182.771
 108961221.41549  20734611.225    84904901.22949  20734611.692
 117991899.39347  22453106.633    91941743.52148  22453106.741
 04 12 10  0  5  0.0000000  0  9G 2G 4G 5G 7G10G13G17G24G30
 106618538.21749  20288828.944    83079373.48949  20288826.692
 112505956.27148  21409153.273    87667009.01349  21409153.042
 113600779.95148  21617502.924    88520081.65449  21617502.714
 122811736.63945  23370287.841    95697493.14847  23370289.032
 114080142.37348  21708722.649    88893631.72049  21708723.166
 125750174.07246  23929462.687    97987154.42846  23929462.324
 114261932.92948  21743312.483    89035309.04049  21743312.981
 108988351.47049  20739773.903    84926041.53549  20739774.363
 117944021.63747  22443995.781    91904436.19348  22443995.895
 04 12 10  0  5 30.0000000  0  9G 2G 4G 5G 7G10G13G17G24G30
 106607102.55249  20286652.803    83070462.59249  20286650.553
 112568733.89248  21421099.445    87715926.65349  21421099.214
 113611705.25748  21619581.952    88528594.87049  21619581.736
 122895002.23946  23386132.752    95762375.45147  23386133.922
 113987923.78648  21691174.006    88821773.11649  21691174.523
 125732571.97345  23926113.131    97973438.50546  23926112.763
 114215240.61348  21734427.207    88998925.45249  21734427.691
 109015416.22949  20744924.143    84947130.97049  20744924.603
 117896394.65747  22434932.657    91867324.28148  22434932.764
 04 12 10  0  6  0.0000000  0  9G 2G 4G 5G 7G10G13G17G24G30
 106596316.97649  20284600.365    83062058.26349  20284598.115
 112631990.10648  21433136.714    87765217.20049  21433136.476
 113623534.54148  21621832.990    88537812.48849  21621832.772
 122978817.91746  23402082.392    95827686.29647  23402083.605
 113896410.39048  21673759.556    88750464.01449  21673760.074
 125715828.93045  23922927.024    97960391.99546  23922926.641
 114169083.52748  21725643.776    88962958.92749  21725644.253
 109043030.95549  20750179.057    84968648.93749  20750179.510
 117849636.66547  22426034.894    91830889.48948  22426035.008
 04 12 10  0  6 30.0000000  0  9G 2G 4G 5G 7G10G13G17G24G30
 106585719.59349  20282583.750    83053800.56649  20282581.493
 112695262.42449  21445177.030    87814520.31949  21445176.786
 113635806.18148  21624168.212    88547374.79949  21624167.994
 123062721.25846  23418048.697    95893065.50547  23418049.913
 113805143.27548  21656391.989    88679346.80249  21656392.501
 125699484.74846  23919816.836    97947656.26246  23919816.430
 114122999.99448  21716874.359    88927049.69749  21716874.837
 109070733.21849  20755450.622    84990235.12349  20755451.070
 117803287.63547  22417214.961    91794773.38348  22417215.056
 04 12 10  0  7  0.0000000  0  9G 2G 4G 5G 7G10G13G17G24G30
 106575464.51249  20280632.273    83045809.59649  20280630.009
 112758704.21248  21457249.607    87863955.47449  21457249.364
 113648673.74348  21626616.827    88557401.46949  21626616.617
 123146865.89446  23434060.930    95958632.74147  23434062.117
 113714279.31148  21639101.116    88608543.75249  21639101.628
 125683695.50745  23916812.219    97935353.01246  23916811.759
 114077144.65448  21708148.361    88891318.29249  21708148.824
 109098676.57649  20760768.067    85012009.18049  20760768.502
 117757503.78247  22408502.584    91759097.66648  22408502.658
 04 12 10  0  7 30.0000000  0  9G 2G 4G 5G 7G10G13G17G24G30
 106565551.82949  20278745.946    83038085.43549  20278743.675
 112822314.78748  21469354.297    87913522.15449  21469354.061
 113662136.83848  21629178.763    88567892.19149  21629178.558
 123231251.75046  23450119.061    96024387.92447  23450120.273
 113623821.38048  21621887.509    88538057.09549  21621888.021
 125668463.05946  23913913.575    97923483.59846  23913913.066
 114031517.61748  21699465.800    88855764.79149  21699466.243
 109126860.65049  20766131.312    85033970.80849  20766131.740
 117712287.03547  22399898.117    91723863.83948  22399898.213
 04 12 10  0  8  0.0000000  0  9G 2G 4G 5G 7G10G13G17G24G30
 106555981.89149  20276924.847    83030628.34949  20276922.555
 112886093.87748  21481491.048    87963220.16049  21481490.799
 113676195.54948  21631854.047    88578847.03049  21631853.842
 123315878.64146  23466223.058    96090330.92147  23466224.265
 113533772.49848  21604751.740    88467889.17749  21604752.252
 125653789.52046  23911121.323    97912049.63346  23911120.790
 113986119.68948  21690826.856    88820389.79649  21690827.277
 109155284.91949  20771540.264    85056119.60049  20771540.702
 117667639.78247  22391402.015    91689073.78148  22391402.126
 04 12 10  0  8 30.0000000  0  9G 2G 4G 5G 7G10G13G17G24G30
 106546755.60249  20275169.137    83023439.03949  20275166.845
 112950041.64148  21493659.903    88013049.57949  21493659.659
 113690850.17048  21634642.729    88590266.21549  21634642.523
 123400746.79545  23482372.937    96156461.92647  23482374.154
 113444136.33248  21587694.509    88398042.85549  21587695.022
 125639677.12846  23908435.812    97901053.00146  23908435.216
 113940951.87748  21682231.683    88785194.12249  21682232.104
 109183949.86149  20776995.015    85078455.92849  20776995.453
 117623564.62747  22383014.774    91654729.51748  22383014.906
 04 12 10  0  9  0.0000000  0  9G 2G 4G 5G 7G10G13G17G24G30
 106537719.97249  20273449.702    83016398.30049  20273447.409
 113014004.53348  21505831.637    88062890.79449  21505831.378
 113705947.72748  21637515.692    88602030.54649  21637515.501
 123485703.26146  23498539.621    96222661.75147  23498540.828
 113354762.80148  21570687.268    88328401.18149  21570687.768
 125625974.73746  23905828.369    97890375.80547  23905827.721
 113895861.67648  21673651.280    88750058.93449  21673651.694
 109212701.86649  20782466.334    85100860.10149  20782466.774
 117579910.61047  22374707.661    91620713.43048  22374707.807
 04 12 10  0  9 30.0000000  0  9G 2G 4G 5G 7G10G13G17G24G30
 106529184.75149  20271825.497    83009747.49049  20271823.198
 113078291.36148  21518065.013    88112984.42749  21518064.755
 113721797.23248  21640531.753    88614380.80549  21640531.568
 123571057.15745  23514781.957    96289171.24346  23514783.178
 113265964.22148  21553789.431    88259207.51849  21553789.922
 125612993.97946  23903358.231    97880260.92046  23903357.540
 113851158.73648  21665144.587    88715225.48149  21665145.009
 109241849.91749  20788013.024    85123572.86949  20788013.471
 117536989.32347  22366540.024    91587268.26048  22366540.185
 04 12 10  0 10  0.0000000  0  9G 2G 4G 5G 7G10G13G17G24G30
 106520689.82549  20270208.949    83003128.08949  20270206.642
 113142441.42348  21530272.358    88162971.49849  21530272.093
 113737937.82348  21643603.211    88626957.87949  21643603.025
 123656347.68546  23531012.211    96355631.39647  23531013.388
 113177283.01248  21536913.916    88190105.33649  21536914.388
 125600275.62546  23900938.015    97870350.50647  23900937.308
 113806383.53048  21656624.131    88680335.73549  21656624.546
 109270933.29149  20793547.406    85146235.24149  20793547.854
 117494342.24047  22358424.524    91554036.80148  22358424.685
 04 12 10  0 10 30.0000000  0  9G 2G 4G 5G 7G10G13G17G24G30
 106512698.64849  20268688.272    82996901.20949  20268685.959
 113206917.58348  21542541.764    88213212.66049  21542541.513
 113754832.93848  21646818.239    88640122.90449  21646818.044
 123742038.13445  23547318.603    96422403.12747  23547319.788
 113089185.48448  21520149.484    88121457.94949  21520149.949
 125588285.23245  23898656.307    97861007.37846  23898655.574
 113761999.74248  21648178.165    88645750.97749  21648178.572
 109300415.28149  20799157.636    85169208.23049  20799158.077
 117452435.03147  22350449.865    91521381.82448  22350450.014
 04 12 10  0 11  0.0000000  0  9G 2G 4G 5G 7G10G13G17G24G30
 106505058.31749  20267234.354    82990947.71149  20267232.046
 113271566.39448  21554844.035    88263588.34549  21554843.800
 113772329.02148  21650147.650    88653756.19849  21650147.456
 123827974.99246  23563671.867    96489366.89247  23563673.039
 113001521.35048  21503467.530    88053148.26649  21503467.981
 125576871.71545  23896484.393    97852113.73646  23896483.656
 113717854.76348  21639777.631    88611352.32349  21639778.031
 109330142.33949  20804814.507    85192372.17449  20804814.941
 117411116.40647  22342587.175    91489185.52848  22342587.312
 04 12 10  0 11 30.0000000  0  9G 2G 4G 5G 7G10G13G17G24G30
 106497923.26149  20265876.586    82985387.93849  20265874.270
 113336541.40848  21567208.375    88314218.22349  21567208.141
 113790580.18948  21653620.744    88667977.87049  21653620.557
 123914312.29145  23580101.332    96556642.66147  23580102.499
 112914447.94648  21486897.983    87985298.89649  21486898.418
 125566190.61046  23894451.810    97843790.83546  23894451.043
 113674103.29148  21631451.991    88577260.28149  21631452.391
 109360268.13449  20810547.249    85215846.82849  20810547.676
 117370542.56847  22334866.242    91457569.55048  22334866.367
 04 12 10  0 12  0.0000000  0  9G 2G 4G 5G 7G10G13G17G24G30
 106490830.86349  20264526.942    82979861.39849  20264524.625
 113401379.37348  21579546.630    88364741.31949  21579546.382
 113809123.08348  21657149.345    88682426.87749  21657149.152
 124000586.83746  23596518.886    96623869.53147  23596520.079
 112827504.97648  21470353.244    87917551.18249  21470353.658
 125555780.79746  23892470.907    97835679.29546  23892470.129
 113630282.83448  21623113.217    88543114.49049  21623113.610
 109390329.58849  20816267.748    85239271.34449  20816268.167
 117330252.66247  22327199.340    91426174.81248  22327199.436
 04 12 10  0 12 30.0000000  0  9G 2G 4G 5G 7G10G13G17G24G30
 106483933.35249  20263214.383    82974486.71949  20263212.074
 113466231.97548  21591887.664    88415275.81749  21591887.407
 113828109.34348  21660762.316    88697221.36249  21660762.116
 124086950.30545  23612953.313    96691165.72447  23612954.512
 112740847.45648  21453862.836    87850025.88649  21453863.230
 125545796.07745  23890570.878    97827899.01346  23890570.075
 113586546.02548  21614790.355    88509033.88549  21614790.740
 109420477.96549  20822004.799    85262763.58949  20822005.198
 117290400.56547  22319615.738    91395121.24648  22319615.808
 04 12 10  0 13  0.0000000  0  9G 2G 4G 5G 7G10G13G17G24G30
 106477843.26649  20262055.472    82969741.20149  20262053.162
 113531711.04548  21604347.911    88466298.47849  21604347.647
 113848150.97048  21664576.123    88712838.19449  21664575.929
 124174014.86346  23629521.148    96759008.22947  23629522.360
 112655090.54348  21437543.791    87783202.38349  21437544.164
 125536850.34346  23888868.537    97820928.34746  23888867.683
 113543505.67048  21606600.042    88475495.95049  21606600.426
 109451325.78549  20827874.938    85286800.85749  20827875.337
 117251600.66647  22312232.368    91364887.56548  22312232.441
 04 12 10  0 13 30.0000000  0  9G 2G 4G 5G 7G10G13G17G24G30
 106471786.49949  20260902.902    82965021.65349  20260900.585
 113597042.12848  21616780.014    88517205.81149  21616779.737
 113868473.46948  21668443.372    88728673.90549  21668443.171
 124261006.19446  23646075.078    96826793.63847  23646076.303
 112569463.03948  21421249.383    87716479.69649  21421249.749
 125528171.18846  23887216.973    97814165.33247  23887216.108
 113500388.19748  21598395.042    88441897.94849  21598395.412
 109482098.49149  20833730.789    85310779.59849  20833731.175
 117213080.49747  22304902.224    91334871.86448  22304902.286
 04 12 10  0 14  0.0000000  0  9G 2G 4G 5G 7G10G13G17G24G30
 106465912.37549  20259785.081    82960444.42349  20259782.756
 113662373.84848  21629212.221    88568113.64649  21629211.958
 113889225.71048  21672392.398    88744844.47449  21672392.197
 124348072.92746  23662643.362    96894637.83047  23662644.608
 112484116.67448  21405008.468    87649976.08749  21405008.835
 125519909.61346  23885644.836    97807727.76147  23885643.972
 113457343.07748  21590203.804    88408356.32149  21590204.174
 109512944.50149  20839600.590    85334815.45849  20839600.962
 117174991.26747  22297654.090    91305191.94448  22297654.161
 04 12 10  0 14 30.0000000  0  9G 2G 4G 5G 7G10G13G17G24G30
 106460370.07049  20258730.410    82956125.74949  20258728.076
 113727854.70748  21641672.808    88619137.69849  21641672.538
 113910555.86748  21676451.398    88761465.37049  21676451.197
 124435363.60045  23679254.272    96962656.43846  23679255.600
 112399202.86648  21388849.872    87583809.53249  21388850.233
 125512215.51246  23884180.697    97801732.39947  23884179.813
 113414519.61648  21582054.759    88374987.41449  21582055.108
 109544012.57849  20845512.642    85359024.35949  20845513.000
 117137483.39747  22290516.556    91275965.06648  22290516.629
 04 12 10  0 15  0.0000000  0  9G 2G 4G 5G 7G10G13G17G24G30
 106455462.76749  20257796.575    82952301.88449  20257794.234
 113793787.03548  21654219.313    88670513.54449  21654219.021
 113932766.27948  21680677.911    88778772.17149  21680677.718
 124523180.82846  23695965.323    97031085.46647  23695966.576
 112315027.60048  21372831.804    87518218.46949  21372832.157
 125505393.98245  23882882.615    97796416.93347  23882881.722
 113372221.32548  21574005.638    88342027.73149  21574005.986
 109575605.26449  20851524.531    85383642.03749  20851524.896
 117100861.93147  22283547.717    91247428.87648  22283547.792
 04 12 10  0 15 30.0000000  0  9G 2G 4G 5G 7G10G13G17G24G30
 106450570.23149  20256865.551    82948489.51549  20256863.207
 113859550.21348  21666733.636    88721757.57549  21666733.337
 113955236.24248  21684953.809    88796281.21749  21684953.636
 124610903.87645  23712658.524    97099441.00646  23712659.788
 112230973.34348  21356836.775    87452721.68749  21356837.121
 125498825.72746  23881632.735    97791298.79046  23881631.873
 113329828.07748  21565938.453    88308994.05149  21565938.801
 109607101.71349  20857518.100    85408184.73049  20857518.465
 117064508.16747  22276629.838    91219101.26548  22276629.900
 04 12 10  0 16  0.0000000  0  9G 2G 4G 5G 7G10G13G17G24G30
 106446304.61749  20256053.825    82945165.66949  20256051.474
 113925755.93048  21679332.171    88773346.45149  21679331.852
 113978576.93748  21689395.407    88814468.75949  21689395.242
 124699144.20146  23729450.111    97168199.71047  23729451.320
 112147654.52448  21340981.689    87387797.98749  21340982.014
 125493124.18246  23880547.773    97786856.05246  23880546.895
 113287952.42748  21557969.764    88276363.68749  21557970.125
 109639113.59149  20863609.752    85433129.05749  20863610.124
 117029035.70647  22269879.641    91191460.40648  22269879.689
 04 12 10  0 16 30.0000000  0  9G 2G 4G 5G 7G10G13G17G24G30
 106442047.06149  20255243.639    82941848.09549  20255241.281
 113991784.63148  21691897.015    88824797.39149  21691896.682
 114002168.88348  21693884.811    88832852.08249  21693884.653
 124787282.82745  23746222.417    97236879.07247  23746223.667
 112064454.92148  21325149.290    87322967.17049  21325149.605
 125487672.19546  23879510.283    97782607.77547  23879509.408
 113245975.94148  21549981.874    88243654.76949  21549982.228
 109671021.77649  20869681.671    85457992.58049  20869682.050
 116993827.52147  22263179.758    91164025.44548  22263179.799
 04 12 10  0 17  0.0000000  0  9G 2G 4G 5G 7G10G13G17G24G30
 106438258.10049  20254522.612    82938895.66949  20254520.246
 114058096.28448  21704515.703    88876468.81549  21704515.348
 114026472.10648  21698509.561    88851789.65249  21698509.416
 124875779.56946  23763062.769    97305837.58547  23763064.009
 111981837.87448  21309427.764    87258590.27549  21309428.072
 125482931.39346  23878608.126    97778913.63646  23878607.299
 113204359.48348  21542062.508    88211226.38449  21542062.862
 109703286.35449  20875821.410    85483133.81549  20875821.789
 116959345.52447  22256618.028    91137156.38248  22256618.084
 04 12 10  0 17 30.0000000  0  9G 2G 4G 5G 7G10G13G17G24G30
 106434783.87949  20253861.484    82936188.49049  20253859.110
 114124536.19948  21717158.804    88928240.18049  21717158.429
 114051331.65948  21703240.188    88871160.71249  21703240.042
 124964479.76645  23779941.885    97374954.56947  23779943.129
 111899651.57648  21293788.202    87194549.03749  21293788.494
 125478748.87246  23877812.195    97775654.56446  23877811.355
 113162949.04348  21534182.357    88178958.51949  21534182.705
 109735752.32049  20881999.472    85508431.97549  20881999.858
 116925437.25247  22250165.475    91110734.37448  22250165.545
 04 12 10  0 18  0.0000000  0  9G 2G 4G 5G 7G10G13G17G24G30
 106431471.05949  20253231.069    82933607.08249  20253228.688
 114190950.91148  21729797.110    88979991.89449  21729796.741
 114076593.63148  21708047.394    88890845.34749  21708047.246
 125053229.86545  23796830.521    97444110.41947  23796831.839
 111817745.67849  21278202.010    87130726.29249  21278202.289
 125474973.10246  23877093.690    97772712.40046  23877092.871
 113121592.00848  21526312.357    88146732.28349  21526312.698
 109768266.40849  20888186.704    85533767.62349  20888187.098
 116891951.23847  22243793.298    91084641.37348  22243793.383
 04 12 10  0 18 30.0000000  0  9G 2G 4G 5G 7G10G13G17G24G30
 106428628.73049  20252690.192    82931392.27849  20252687.811
 114257649.24348  21742489.380    89031964.62049  21742489.012
 114102566.34648  21712989.843    88911083.81449  21712989.694
 125142338.50745  23813787.350    97513545.70047  23813788.689
 111736431.77148  21262728.459    87067364.84749  21262728.716
 125471914.26046  23876511.582    97770328.92946  23876510.758
 113080597.73948  21518511.389    88114788.71549  21518511.729
 109801137.25049  20894441.811    85559381.26849  20894442.204
 116859197.91647  22237560.536    91059119.32948  22237560.601
 04 12 10  0 19  0.0000000  0  9G 2G 4G 5G 7G10G13G17G24G30
 106426104.38649  20252209.813    82929425.26749  20252207.439
 114324477.72048  21755206.405    89084038.77049  21755206.044
 114129096.04848  21718038.277    88931756.30149  21718038.127
 125231652.50145  23830783.250    97583140.99247  23830784.562
 111655559.67648  21247338.999    87004347.65849  21247339.245
 125469420.73846  23876037.586
 113039813.89748  21510750.470    88083009.10949  21510750.810
 109834211.71549  20900735.666    85585153.57449  20900736.072
 116827026.31347  22231438.496    91034050.54148  22231438.547
 04 12 10  0 19 30.0000000  0  9G 2G 4G 5G 7G10G13G17G24G30
 106423744.66249  20251760.767    82927586.53449  20251758.386
 114391282.58548  21767918.942    89136094.50349  21767918.593
 114156028.73948  21723163.398    88952742.80249  21723163.252
 125321017.84045  23847788.973    97652776.24047  23847790.308
 111574978.62649  21232004.923    86941557.25049  21232005.163
 125467340.50446  23875641.963    97766770.92346  23875640.284
 112999087.61948  21503000.512    88051274.36349  21503000.846
 109867336.24549  20907039.049    85610964.90449  20907039.447
 116795284.32647  22225398.208    91009316.52948  22225398.256
 04 12 10  0 20  0.0000000  0  9G 2G 4G 5G 7G10G13G17G24G30
 106422011.89349  20251431.026    82926236.33449  20251428.646
 114458525.53748  21780714.850    89188491.61349  21780714.502
 114183825.69148  21728452.982    88974402.75649  21728452.842
 125410896.16546  23864892.286    97722811.23347  23864893.683
 111495153.34049  21216814.658    86879355.75249  21216814.899
 125466136.86946  23875412.484    97765833.08546  23875410.903
 112958881.03248  21495349.429    88019944.58249  21495349.763
 109900972.47649  20913439.811    85637174.95549  20913440.201
 116764435.79047  22219527.921    90985278.73548  22219527.958
 04 12 10  0 20 30.0000000  0  9G 2G 4G 5G 7G10G13G17G24G30
 106420289.93149  20251103.335    82924894.56449  20251100.942
 114525590.01348  21793476.802    89240749.63849  21793476.461
 114211870.05448  21733789.647    88996255.49149  21733789.533
 125500670.92646  23881975.855    97792765.61847  23881977.228
 111415470.08348  21201651.403    86817264.94249  21201651.643
 125465195.03246  23875233.288    97765099.17546  23875231.606
 112918578.78248  21487680.154    87988540.24249  21487680.494
 109934503.85449  20919820.608    85663303.31149  20919820.990
 116733865.86747  22213710.658    90961458.01748  22213710.703
 04 12 10  0 21  0.0000000  0  9G 2G 4G 5G 7G10G13G17G24G30
 106419040.71849  20250865.618    82923921.15349  20250863.225
 114592937.45048  21806292.593    89293228.15849  21806292.274
 114240622.64348  21739261.082    89018660.09249  21739260.989
 125590803.34545  23899127.514    97862998.59647  23899128.938
 111336393.10248  21186603.530    86755646.53949  21186603.777
 125464977.72446  23875191.924    97764929.89947  23875190.031
 112878642.86748  21480080.590    87957421.36649  21480080.924
 109968391.52249  20926269.211    85689709.29149  20926269.592
 116704037.92547  22208034.578    90938215.47148  22208034.621
 04 12 10  0 21 30.0000000  0  9G 2G 4G 5G 7G10G13G17G24G30
 106418109.85149  20250688.468    82923195.81249  20250686.081
 114660412.95648  21819132.749    89345806.46949  21819132.450
 114269928.20248  21744837.733    89041495.58949  21744837.666
 125681138.30245  23916317.696    97933389.50447  23916319.048
 111257770.57748  21171642.131    86694382.25949  21171642.383
 125465331.78746  23875259.348    97765205.72047  23875257.473
 112838918.98648  21472521.369    87926467.71549  21472521.704
 110002481.02449  20932756.216    85716272.54249  20932756.594
 116674798.88247  22202470.567    90915431.80948  22202470.603
 04 12 10  0 22  0.0000000  0  9G 2G 4G 5G 7G10G13G17G24G30
 106417343.07849  20250542.550    82922598.33349  20250540.163
 114727861.89348  21831967.854    89398364.09049  21831967.551
 114299631.68848  21750490.131    89064641.13449  21750490.090
 125771521.30945  23933517.064    98003817.75947  23933518.446
 111179450.61148  21156738.331    86633353.72549  21156738.577
 125466104.08346  23875406.293    97765807.55547  23875404.447
 112799253.53048  21464973.277    87895559.57049  21464973.619
 110036617.76649  20939252.222    85742872.59749  20939252.607
 116645995.85947  22196989.528    90892987.90648  22196989.565
 04 12 10  0 22 30.0000000  0  9G 2G 4G 5G 7G10G13G17G24G30
 106416894.82349  20250457.250    82922249.04149  20250454.862
 114795437.86448  21844827.134    89451020.69149  21844826.830
 114329886.19948  21756247.367    89088216.07049  21756247.345
 125862105.86945  23950754.798    98074403.04147  23950756.230
 111101590.04649  21141921.923    86572683.20249  21141922.154
 125467449.79946  23875662.326    97766856.20646  23875660.462
 112759801.15748  21457465.717    87864817.49749  21457466.045
 110070955.38349  20945786.441    85769629.19149  20945786.825
 116617784.40447  22191621.043    90871004.97348  22191621.100
 04 12 10  0 23  0.0000000  0  9G 2G 4G 5G 7G10G13G17G24G30
 106416919.36449  20250461.920    82922268.16149  20250459.540
 114863295.23048  21857739.962    89503896.56049  21857739.657
 114360844.99647  21762138.630    89112339.80349  21762138.615
 125953045.82745  23968060.091    98145265.32646  23968061.509
 111024345.64249  21127222.795    86512492.77749  21127223.007
 125469524.54546  23876057.161    97768472.89147  23876055.327
 112720716.31348  21450028.112    87834361.77749  21450028.447
 110105647.81649  20952388.191    85796662.26149  20952388.569
 116590320.18347  22186394.781    90849604.26448  22186394.844
 04 12 10  0 23 30.0000000  0  9G 2G 4G 5G 7G10G13G17G24G30
 106417109.25549  20250498.043    82922416.13649  20250495.677
 114931126.02948  21870647.734    89556751.72349  21870647.428
 114392199.93748  21768105.271    89136772.20849  21768105.281
 126044033.03246  23985374.422    98216164.43147  23985375.825
 110947412.17349  21112582.807    86452544.67749  21112582.993
 125472021.83645  23876532.344    97770418.87546  23876530.525
 112681692.06348  21442602.033    87803953.28549  21442602.367
 110140387.26849  20958998.889    85823731.96349  20958999.267
 116563297.13447  22181252.454    90828547.34948  22181252.507
 04 12 10  0 24  0.0000000  0  9G 2G 4G 5G 7G10G13G17G24G30
 106417773.43949  20250624.422    82922933.69449  20250622.054
 114999238.42048  21883609.079    89609826.32449  21883608.773
 114424258.87548  21774205.884    89161753.19249  21774205.892
 126135375.80944  24002756.422    98287340.55046  24002757.882
 110871100.72849  21098061.228    86393081.21549  21098061.393
 125475251.11446  23877146.826    97772935.19847  23877145.029
 112643037.48748  21435246.287    87773832.86049  21435246.621
 110175482.10949  20965677.222    85851078.59449  20965677.594
 116537025.29147  22176253.077    90808075.78748  22176253.128
 04 12 10  0 24 30.0000000  0  9G 2G 4G 5G 7G10G13G17G24G30
 106418758.76049  20250811.928    82923701.47249  20250809.561
 115067478.74548  21896594.793    89663000.59449  21896594.488
 114456867.03848  21780411.023    89187162.12749  21780411.037
 126226920.12246  24020176.785    98358673.70347  24020178.296
 110795260.29648  21083629.268    86333984.78549  21083629.426
 125479060.11146  23877871.606    97775903.26247  23877869.861
 112604599.53248  21427931.782    87743881.21749  21427932.109
 110210778.78549  20972393.944    85878582.51149  20972394.308
 116511352.45147  22171367.698    90788070.98548  22171367.743
 04 12 10  0 25  0.0000000  0  9G 2G 4G 5G 7G10G13G17G24G30
 106419911.33549  20251031.250    82924599.58949  20251028.883
 115135693.00048  21909575.540    89716154.55549  21909575.251
 114489869.83848  21786691.241    89212878.59349  21786691.260
 126318511.81345  24037606.128    98430043.83546  24037607.650
 110719739.87748  21069258.186    86275137.73549  21069258.337
 125483296.63746  23878677.755    97779204.48646  23878676.038
 112566224.94248  21420629.322    87713978.96249  21420629.642
 110246122.92549  20979119.710    85906123.40249  20979120.060
 116486126.28347  22166567.329    90768414.22548  22166567.369
 04 12 10  0 25 30.0000000  0  9G 2G 4G 5G 7G10G13G17G24G30
 106421385.60849  20251311.794    82925748.37349  20251309.428
 115204034.93148  21922580.571    89769408.01049  21922580.288
 114523420.25448  21793075.685    89239021.75749  21793075.703
 126410304.34345  24055073.671    98501570.47847  24055075.171
 110644695.91648  21054977.759    86216661.95949  21054977.917
 125488115.10845  23879594.697    97782959.13346  23879592.977
 112528068.02548  21413368.297    87684246.31049  21413368.610
 110281668.77849  20985883.849    85933821.48249  20985884.206
 116461502.10647  22161881.493    90749226.57048  22161881.540
 04 12 10  0 26  0.0000000  0  9G 2G 4G 5G 7G10G13G17G24G30
 106423181.78749  20251653.596    82927147.99549  20251651.230
 115272504.57348  21935609.911    89822760.97449  21935609.635
 114557517.93948  21799564.264    89265591.37349  21799564.290
 126502297.63045  24072579.442    98573253.48647  24072580.993
 110570131.14149  21040788.531    86158559.55449  21040788.709
 125493516.80746  23880622.564    97787168.26546  23880620.920
 112490129.87248  21406148.888    87654684.12349  21406149.199
 110317416.31149  20992686.390    85961676.68949  20992686.755
 116437481.56547  22157310.547    90730509.25648  22157310.581
 04 12 10  0 26 30.0000000  0  9G 2G 4G 5G 7G10G13G17G24G30
 106425300.19349  20252056.709    82928798.70749  20252054.350
 115341101.78148  21948663.519    89876213.34649  21948663.250
 114592161.53048  21806156.732    89292586.36149  21806156.765
 126594490.99746  24090123.274    98645092.44247  24090124.846
 110496048.13449  21026690.974    86100832.56949  21026691.159
 125499503.17046  23881761.702    97791832.96647  23881760.126
 112452410.85848  21398971.175    87625292.71249  21398971.470
 110353365.07949  20999527.207    85989688.72249  20999527.580
 116414065.90247  22152854.671    90712263.30548  22152854.688
 04 12 10  0 27  0.0000000  0  9G 2G 4G 5G 7G10G13G17G24G30
 106427740.97749  20252521.163    82930700.64149  20252518.784
 115409826.35448  21961741.359    89929764.96449  21961741.102
 114627350.23248  21812852.931    89320006.11749  21812852.972
 126686884.38444  24107705.187    98717087.25046  24107706.759
 110422449.25349  21012685.554    86043482.80949  21012685.746
 125506075.17945  23883012.284    97796954.03647  23883010.782
 112414911.43748  21391835.260    87596072.38949  21391835.554
 110389515.17749  21006406.354    86017857.62449  21006406.721
 116391256.40847  22148514.151    90694489.68248  22148514.180
 04 12 10  0 27 30.0000000  0  9G 2G 4G 5G 7G10G13G17G24G30
 106430504.63549  20253047.064    82932854.14349  20253044.691
 115478678.17347  21974843.430    89983415.70949  21974843.208
 114663083.22248  21819652.699    89347850.00349  21819652.726
 126779477.16345  24125325.007    98789237.46446  24125326.540
 110349337.13549  20998772.757    85986512.36649  20998772.944
 125513233.49245  23884374.424    97802531.96447  23884372.992
 112377632.38048  21384741.280    87567023.79049  21384741.574
 110425866.51649  21013323.772    86046183.35449  21013324.131
 116369054.58047  22144289.283    90677189.56448  22144289.307
 04 12 10  0 28  0.0000000  0  9G 2G 4G 5G 7G10G13G17G24G30
 106433745.41549  20253663.764    82935379.42849  20253661.399
 115547811.11948  21987998.981    90037285.54449  21987998.764
 114699513.33648  21826585.137    89376237.08249  21826585.171
 126872422.83345  24143012.039    98861662.58547  24143013.654
 110276868.24949  20984982.363    85930043.13749  20984982.543
 125521133.37245  23885877.679    97808687.75246  23885876.275
 112340728.17748  21377718.631    87538267.28849  21377718.927
 110462572.79149  21020308.744    86074785.65349  21020309.089
 116347615.59547  22140209.586    90660483.86348  22140209.596
 04 12 10  0 28 30.0000000  0  9G 2G 4G 5G 7G10G13G17G24G30
 106437001.78849  20254283.443    82937916.85349  20254281.079
 115616763.34548  22001120.165    90091014.53349  22001119.962
 114736177.87348  21833562.179    89404806.84049  21833562.205
 126965259.34045  24160678.310    98934002.62546  24160679.999
 110204583.27749  20971226.978    85873717.20849  20971227.146
 125529313.90745  23887434.395    97815062.16946  23887433.042
 112303737.42848  21370679.508    87509443.34149  21370679.810
 110499172.07549  21027273.362    86103304.57849  21027273.694
 116326478.98247  22136187.417    90644013.77948  22136187.433
 04 12 10  0 29  0.0000000  0  9G 2G 4G 5G 7G10G13G17G24G30
 106440582.08249  20254964.750    82940706.69549  20254962.387
 115685842.92448  22014265.572    90144842.77949  22014265.370
 114773383.97948  21840642.289    89433798.59449  21840642.310
 127058294.47545  24178382.189    99006497.63845  24178383.854
 110132792.72049  20957565.666    85817776.54249  20957565.826
 125538084.33346  23889103.370    97821896.24346  23889102.038
 112266969.07848  21363682.706    87480792.70349  21363683.001
 110535972.70649  21034276.295    86131980.39649  21034276.614
 116305954.06347  22132281.648    90628020.34348  22132281.673
 04 12 10  0 29 30.0000000  0  9G 2G 4G 5G 7G10G13G17G24G30
 106444641.39749  20255737.212    82943869.80549  20255734.836
 115755204.32748  22027464.608    90198890.62049  22027464.420
 114811285.37348  21847854.702    89463332.13149  21847854.717
 127151682.26646  24196153.354    99079267.31347  24196154.967
 110061653.74949  20944028.352    85762343.60149  20944028.505
 125547600.21145  23890914.128    97829311.26646  23890912.817
 112230578.32448  21356757.764    87452436.28449  21356758.058
 110573129.23349  21041346.953    86160933.53849  21041347.259
 116286196.91747  22128521.977    90612625.17748  22128522.008
 04 12 10  0 30  0.0000000  0  9G 2G 4G 5G 7G10G13G17G24G30
 106448872.85949  20256542.432    82947167.05049  20256540.049
 115824540.54448  22040658.863    90252918.83748  22040658.670
 114849573.87648  21855140.774    89493167.31149  21855140.796
 127245115.36844  24213933.124    99152072.28846  24213934.762
 109990861.95749  20930557.092    85707181.19849  20930557.237
 125557555.71345  23892808.603    97837068.77746  23892807.318
 112194258.72748  21349846.374    87424135.30749  21349846.663
 110610334.51149  21048426.876    86189924.67749  21048427.176
 116266901.57447  22124850.183    90597589.85348  22124850.221
 04 12 10  0 30 30.0000000  0  9G 2G 4G 5G 7G10G13G17G24G30
 106453432.08049  20257410.029    82950719.68549  20257407.639
 115894006.71448  22053877.836    90307048.32349  22053877.628
 114888403.69648  21862529.873    89523424.28049  21862529.895
 127338748.63145  24231750.935    99225033.25746  24231752.598
 109920574.99549  20917181.892    85652412.17249  20917182.036
 125568106.45746  23894816.336    97845290.16046  23894815.049
 112158166.32248  21342978.206    87396011.37049  21342978.488
 110647743.71949  21055545.618    86219074.70949  21055545.912
 116248224.50548  22121296.067    90583036.28648  22121296.092
 04 12 10  0 31  0.0000000  0  9G 2G 4G 5G 7G10G13G17G24G30
 106458320.40049  20258340.234    82954528.76949  20258337.856
 115963603.85848  22067121.738    90361279.85448  22067121.522
 114927775.06148  21870022.006    89554103.26449  21870022.016
 127432582.70945  24249607.056    99298150.62146  24249608.766
 109850796.41749  20903903.435    85598039.28849  20903903.576
 125579254.63346  23896937.764    97853977.04847  23896936.506
 112122302.46748  21336153.529    87368065.53549  21336153.791
 110685357.85949  21062703.345    86248384.43549  21062703.638
 116230167.92747  22117860.003    90568966.24648  22117860.006
 04 12 10  0 31 30.0000000  0  9G 2G 4G 5G 7G10G13G17G24G30
 106463539.17149  20259333.321    82958595.35549  20259330.943
 116033332.83548  22080390.733    90415614.11848  22080390.496
 114967687.69748  21877617.158    89585203.99049  21877617.154
 127526617.85245  24267501.289    99371424.82146  24267502.974
 109781529.22249  20890722.290    85544064.88849  20890722.423
 125591002.06646  23899173.214    97863130.90647  23899171.979
 112086668.71148  21329372.651    87340298.97849  21329372.907
 110723177.62249  21069900.206    86277854.38849  21069900.502
 116212733.92947  22114542.435    90555381.30448  22114542.401
 04 12 10  0 32  0.0000000  0  9G 2G 4G 5G 7G10G13G17G24G30
 106468935.19249  20260360.155    82962800.04349  20260357.770
 116103040.18448  22093655.618    90469931.52648  22093655.362
 115007987.16548  21885285.916    89616606.15749  21885285.891
 127620700.47544  24285404.581    99444735.97446  24285406.284
 109712622.28549  20877609.706    85490371.20549  20877609.839
 125603196.01946  23901493.640    97872632.69447  23901492.436
 112051112.47649  21322606.513    87312592.83749  21322606.769
 110761049.77549  21077107.043    86307365.15149  21077107.347
 116195770.15448  22111314.348    90542162.77148  22111314.300
 04 12 10  0 32 30.0000000  0  9G 2G 4G 5G 7G10G13G17G24G30
 106474817.52249  20261479.514    82967383.69849  20261477.115
 116173034.81448  22106975.153    90524472.79848  22106974.890
 115048981.08548  21893086.817    89648549.45649  21893086.779
 127715138.97046  24303375.731    99518324.27347  24303377.512
 109644387.30449  20864624.985    85437201.12949  20864625.110
 125616146.31045  23903957.975    97882723.84647  23903956.806
 112015943.11048  21315913.999    87285188.14349  21315914.255
 110799282.95549  21084382.575    86337157.24049  21084382.872
 116179586.64447  22108234.728    90529552.24048  22108234.672
 04 12 10  0 33  0.0000000  0  9G 2G 4G 5G 7G10G13G17G24G30
 106481032.96849  20262662.274    82972226.90149  20262659.875
 116243163.27748  22120320.162    90579118.33948  22120319.905
 115090514.76448  21900990.449    89680913.32449  21900990.404
 127809779.22244  24321385.089    99592070.03945  24321386.851
 109576672.68549  20851739.292    85384436.53449  20851739.404
 125629700.23546  23906537.171    97893285.38446  23906536.049
 111981007.85048  21309266.034    87257965.88249  21309266.278
 110837723.86949  21091697.644    86367111.19749  21091697.942
 116164030.96047  22105274.574    90517430.94448  22105274.498
 04 12 10  0 33 30.0000000  0  9G 2G 4G 5G 7G10G13G17G24G30
 106487427.56649  20263879.131    82977209.69349  20263876.739
 116313270.98848  22133661.233    90633747.71948  22133660.965
 115132432.90248  21908967.212    89713576.79749  21908967.165
 127904466.68545  24339403.567    99665852.38847  24339405.323
 109509326.51049  20838923.711    85331959.02949  20838923.815
 125643704.28946  23909202.036    97904197.63246  23909200.962
 111946152.80148  21302633.333    87230806.11249  21302633.569
 110876218.22349  21099022.882    86397106.79749  21099023.181
 116148949.91447  22102404.752    90505679.46748  22102404.682
 04 12 10  0 34  0.0000000  0  9G 2G 4G 5G 7G10G13G17G24G30
 106494154.61949  20265159.241    82982451.56349  20265156.842
 116383511.29548  22147027.531    90688480.42649  22147027.251
 115174887.22448  21917046.030    89746658.05649  21917045.985
 127999353.67445  24357460.020    99739790.24747  24357461.787
 109442504.37549  20826207.852    85279889.87349  20826207.942
 125658311.89645  23911981.748    97915580.19746  23911980.685
 111911531.69249  21296045.143    87203828.63949  21296045.380
 110914919.14249  21106387.416    86427263.36249  21106387.722
 116134497.56548  22099654.562    90494417.90348  22099654.493
 04 12 10  0 34 30.0000000  0  9G 2G 4G 5G 7G10G13G17G24G30
 106500904.62149  20266443.730    82987711.30049  20266441.331
 116453573.97648  22160360.028    90743074.71048  22160359.763
 115217566.59448  21925167.662    89779914.70049  21925167.605
 128094130.06344  24375495.367    99813641.93245  24375497.192
 109375898.55349  20813533.156    85227989.27249  20813533.232
 125673214.12845  23914817.554    97927192.30146  23914816.525
 111876835.24049  21289442.616    87176792.45549  21289442.867
 110953516.48749  21113732.253    86457339.21549  21113732.553
 116120364.81647  22096965.189    90483405.36548  22096965.127
 04 12 10  0 35  0.0000000  0  9G 2G 4G 5G 7G10G13G17G24G30
 106508445.39349  20267878.679    82993587.23949  20267876.272
 116524226.54948  22173804.772    90798128.66349  22173804.493
 115261237.38648  21933477.973    89813943.86549  21933477.905
 128189562.48045  24393655.517    99888004.91346  24393657.284
 109310278.64049  20801046.083    85176856.88949  20801046.159
 125689178.87946  23917855.480    97939632.42047  23917854.468
 111842831.28248  21282971.872    87150295.86949  21282972.138
 110992777.56649  21121203.382    86487932.27149  21121203.690
 116107320.03047  22094482.855    90473240.59248  22094482.801
 04 12 10  0 35 30.0000000  0  9G 2G 4G 5G 7G10G13G17G24G30
 106515849.48949  20269287.626    82999356.66449  20269285.232
 116594541.43348  22187185.273    90852919.48348  22187184.971
 115304970.62648  21941800.156    89848021.69549  21941800.097
 128284722.90144  24411764.026    99962155.78546  24411765.837
 109244719.43249  20788570.569    85125771.81049  20788570.630
 125705279.20345  23920919.228    97952178.14846  23920918.233
 111808592.94849  21276456.522    87123616.65849  21276456.787
 111031774.95549  21128624.332    86518319.85249  21128624.640
 116094436.70948  22092031.258    90463201.62848  22092031.183
 04 12 10  0 36  0.0000000  0  9G 2G 4G 5G 7G10G13G17G24G30
 106523882.67249  20270816.278    83005616.29649  20270813.891
 116665284.23147  22200647.180    90908043.74348  22200646.855
 115349530.58848  21950279.653    89882743.72549  21950279.602
 128380376.35345  24429966.243   100036690.98346  24429968.063
 109179988.70648  20776252.692    85075332.31749  20776252.737
 125722281.27645  23924154.651    97965426.49346  23924153.667
 111774886.57148  21270042.393    87097351.97149  21270042.652
 111071274.06949  21136140.752    86549098.39649  21136141.067
 116082481.24048  22089756.220    90453885.68148  22089756.118
 04 12 10  0 36 30.0000000  0  9G 2G 4G 5G 7G10G13G17G24G30
 106532078.33649  20272375.855    83012002.53649  20272373.461
 116735988.09347  22214101.695    90963137.63148  22214101.391
 115394449.12848  21958827.390    89917745.16449  21958827.349
 128476055.67044  24448173.406   100111246.31846  24448175.207
 109115621.64449  20764004.035    85025176.18049  20764004.074
 125739718.98145  23927472.888    97979014.36246  23927471.910
 111741245.87649  21263640.794    87071138.42749  21263641.059
 111110808.21849  21143663.862    86579904.21049  21143664.184
 116070987.54147  22087569.053    90444929.54648  22087568.931
 04 12 10  0 37  0.0000000  0  9G 2G 4G 5G 7G10G13G17G24G30
 106540585.32849  20273994.670    83018631.37249  20273992.275
 116806801.10748  22227576.964    91018316.60748  22227576.661
 115439873.21448  21967471.330    89953140.53049  21967471.305
 128571908.56545  24466413.611   100185936.85746  24466415.422
 109051768.81249  20751853.216    84975420.76049  20751853.254
 125757741.17945  23930902.380    97993057.64447  23930901.439
 111707819.57349  21257279.950    87045091.99049  21257280.208
 111150525.65749  21151221.833    86610852.87049  21151222.155
 116060104.93148  22085498.174    90436449.59348  22085498.025
 04 12 10  0 37 30.0000000  0 10G 2G 4G 5G 6G 7G10G13G17G24G30
 106549397.35649  20275671.537    83025497.88549  20275669.140
 116877717.26848  22241071.861    91073575.94848  22241071.587
 115485794.99848  21976209.973    89988923.71949  21976209.963
 129705386.29545  24682113.781
 128667927.90145  24484685.501   100260757.09946  24484687.336
 108988425.96349  20739799.448    84926062.72649  20739799.487
 125776341.72945  23934441.935    98007551.56546  23934441.025
 111674601.86449  21250958.830    87019208.06349  21250959.088
 111190419.89849  21158813.437    86641939.30149  21158813.756
 116049827.77047  22083542.513    90428441.41148  22083542.360
 04 12 10  0 38  0.0000000  0  9G 2G 4G 5G 6G10G13G17G24G30
 106558661.66149  20277434.475    83032716.82449  20277432.071
 116948883.32148  22254614.310    91129030.00448  22254614.034
 115532360.32148  21985071.095    90025208.34949  21985071.094
 129607168.41445  24663422.933   100992587.60445  24663422.396
 108925742.42449  20727871.156    84877218.43049  20727871.188
 125795668.07345  23938119.557    98022611.11046  23938118.658
 111641740.49049  21244705.501    86993601.82249  21244705.752
 111230637.80749  21166466.657    86673277.92049  21166466.982
 116040303.61847  22081730.127    90421019.98748  22081729.988
 04 12 10  0 38 30.0000000  0  9G 2G 4G 5G 6G10G13G17G24G30
 106568063.60849  20279223.601    83040043.02249  20279221.188
 117019984.16347  22268144.339    91184433.27648  22268144.056
 115579252.93248  21993994.486    90061748.02049  21993994.477
 129508795.20544  24644702.926   100915933.16345  24644701.873
 108863405.07948  20716008.742    84828643.90649  20716008.763
 125815405.92345  23941875.527    98037991.24946  23941874.661
 111608920.76748  21238460.127    86968027.99349  21238460.385
 111270864.58749  21174121.541    86704623.49049  21174121.860
 116031218.32847  22080001.266    90413940.53448  22080001.128
 04 12 10  0 39  0.0000000  0  9G 2G 4G 5G 6G10G13G17G24G30
 106577751.10749  20281067.070    83047591.72049  20281064.657
 117091168.03447  22281690.185    91239901.21548  22281689.893
 115626619.03148  22003007.991    90098656.64349  22003007.956
 129410416.84745  24625981.885   100839274.79146  24625981.436
 108801563.84049  20704240.739    84780455.94949  20704240.741
 125835703.44645  23945738.035    98053807.45947  23945737.187
 111576291.32449  21232250.945    86942602.46549  21232251.196
 111311248.02249  21181806.259    86736091.09649  21181806.586
 116022720.54947  22078384.192    90407318.89148  22078384.055
 04 12 10  0 39 30.0000000  0  9G 2G 4G 5G 6G10G13G17G24G30
 106587720.94049  20282964.260    83055360.42549  20282961.847
 117162431.09547  22295251.083    91295430.87748  22295250.788
 115674453.64448  22012110.645    90135930.34249  22012110.589
 129312031.96445  24607260.048   100762611.29147  24607259.694
 108740217.05249  20692566.810    84732653.28849  20692566.805
 125856557.30945  23949706.304    98070057.28646  23949705.484
 111543849.14749  21226077.398    86917322.85549  21226077.642
 111351784.19048  21189520.041    86767677.71349  21189520.376
 116014807.35047  22076878.378    90401152.74148  22076878.242
 04 12 10  0 40  0.0000000  0  9G 2G 4G 5G 6G10G13G17G24G30
 106597817.49749  20284885.565    83063227.87949  20284883.152
 117233617.49348  22308797.404    91350900.79148  22308797.108
 115722599.32548  22021272.493    90173446.42749  22021272.423
 129213486.71345  24588507.576   100685822.85447  24588507.425
 108679210.96049  20680957.719    84685116.09749  20680957.707
 125877812.17445  23953750.982    98086619.48146  23953750.195
 111511438.81048  21219909.910    86892068.05049  21219910.145
 111392317.47948  21197233.270    86799262.09949  21197233.598
 116007323.45147  22075454.257    90395321.11748  22075454.130
 04 12 10  0 40 30.0000000  0  9G 2G 4G 5G 6G10G13G17G24G30
 106608656.51249  20286948.150    83071673.87249  20286945.734
 117305342.74548  22322446.248    91406790.62248  22322445.922
 115771670.41848  22030610.429    90211683.62249  22030610.367
 129115399.28844  24569842.225   100609391.12546  24569842.146
 108619163.30149  20669531.005    84638325.73949  20669530.993
 125900084.05245  23957989.156    98103974.19746  23957988.355
 111479676.56349  21213865.755    86867318.24649  21213865.990
 111433463.62149  21205063.114    86831324.03749  21205063.436
 116000885.00147  22074229.061    90390304.14448  22074228.949
 04 12 10  0 41  0.0000000  0  9G 2G 4G 5G 6G10G13G17G24G30
 106619314.93249  20288976.367    83079979.14549  20288973.944
 117376683.61347  22336021.969    91462380.89548  22336021.672
 115820741.97448  22039948.460    90249921.17749  22039948.414
 129016848.38544  24551088.564   100532598.23145  24551088.468
 108559152.58149  20658111.321    84591564.15549  20658111.314
 125922449.26245  23962245.037    98121401.70146  23962244.215
 111447639.55249  21207769.303    86842354.36349  21207769.525
 111474299.08249  21212833.850    86863143.86149  21212834.184
 115994569.17548  22073027.205    90385382.71248  22073027.108
 04 12 10  0 41 30.0000000  0  9G 2G 4G 5G 6G10G13G17G24G30
 106630718.32349  20291146.361    83088864.91049  20291143.930
 117448565.36947  22349700.613    91518392.65448  22349700.308
 115870737.52348  22049462.326    90288878.71549  22049462.296
 128918761.42845  24532423.112   100456166.86046  24532423.032
 108500106.10349  20646875.138    84545553.92849  20646875.123
 125945833.77845  23966694.950    98139623.40246  23966694.133
 111416253.58549  21201796.728    86817897.79249  21201796.942
 111515749.02949  21220721.506    86895442.53049  21220721.842
 115989301.91047  22072024.878    90381278.35548  22072024.774
 04 12 10  0 42  0.0000000  0  9G 2G 4G 5G 6G10G13G17G24G30
 106642098.06249  20293311.847    83097732.24649  20293309.417
 117520219.03947  22363335.865    91574226.67848  22363335.578
 115920886.83548  22059005.452    90327956.07749  22059005.417
 128820371.87945  24513700.174   100379499.69946  24513700.098
 108441256.71349  20635676.454    84499697.28649  20635676.425
 125969468.98145  23971192.627    98158040.40246  23971191.783
 111384750.28449  21195801.861    86793349.76049  21195802.062
 111557044.84649  21228579.845    86927621.07949  21228580.187
 115984314.79947  22071075.868    90377392.29048  22071075.750
 04 12 10  0 42 30.0000000  0  9G 2G 4G 5G 6G10G13G17G24G30
 106653917.63249  20295561.031    83106942.30949  20295558.593
 117592108.22147  22377015.927    91630244.22048  22377015.634
 115971651.76348  22068665.721    90367513.12649  22068665.699
 128722145.41945  24495008.342   100302959.62646  24495008.269
 108383069.85249  20624603.844    84454356.90349  20624603.802
 125993818.46445  23975826.138    98177014.07746  23975825.257
 111353593.84949  21189872.983    86769072.01949  21189873.190
 111598649.82649  21236497.004    86960040.55449  21236497.347
 115980071.70147  22070268.446    90374085.96448  22070268.327
 04 12 10  0 43  0.0000000  0  9G 2G 4G 5G 6G10G13G17G24G30
 106666024.75249  20297864.933    83116376.43449  20297862.495
 117664080.34547  22390711.773    91686326.38348  22390711.501
 116022878.09148  22078413.791    90407429.72349  22078413.762
 128623931.61444  24476318.834   100226429.45246  24476318.803
 108325394.98549  20613628.664    84409415.47949  20613628.609
 126018730.21945  23980566.688    98196425.84947  23980565.802
 111322632.09049  21183981.156    86744945.97549  21183981.363
 111640411.43149  21244443.979    86992582.05949  21244444.330
 115976420.60047  22069573.652    90371240.95248  22069573.561
 04 12 10  0 43 30.0000000  0  9G 2G 4G 5G 6G10G13G17G24G30
 106678421.37849  20300223.926    83126036.15449  20300221.490
 117736136.98447  22404423.701    91742474.42348  22404423.411
 116074565.91148  22088249.674    90447705.92149  22088249.652
 128525734.56245  24457632.462   100149912.32246  24457632.523
 108268235.39049  20602751.537    84364875.56249  20602751.468
 126044205.43845  23985414.449    98216276.67746  23985413.592
 111291867.23849  21178126.787    86720973.38949  21178126.975
 111682331.14449  21252421.047    87025246.75849  21252421.398
 115973363.48147  22068991.890    90368858.78848  22068991.820
 04 12 10  0 44  0.0000000  0  9G 2G 4G 5G 6G10G13G17G24G30
 106690955.01749  20302608.993    83135802.62849  20302606.555
 117808125.60247  22418122.674    91798569.44748  22418122.388
 116126561.06448  22098144.046    90488221.60249  22098144.033
 128427403.93545  24438920.736   100073291.10446  24438920.840
 108211440.48649  20591943.796    84320619.83649  20591943.707
 126070091.54045  23990340.410    98236447.65046  23990339.588
 111261147.27649  21172280.973    86697035.75549  21172281.160
 111724256.61549  21260399.199    87057915.96349  21260399.544
 115970748.22947  22068494.218    90366820.92848  22068494.169
 04 12 10  0 44 30.0000000  0  9G 2G 4G 5G 6G10G13G17G24G30
 106703781.06149  20305049.714    83145796.95049  20305047.263
 117880201.26447  22431838.228    91854732.29048  22431837.936
 116179016.78448  22108126.061    90529096.15749  22108126.055
 128329096.92245  24420213.468    99996688.25746  24420213.604
 108155167.10349  20581235.304    84276770.48449  20581235.194
 126096544.03145  23995374.152    98257059.98146  23995373.345
 111230627.83249  21166473.322    86673254.36749  21166473.502
 111766343.00049  21268407.977    87090710.54649  21268408.316
 115968730.32747  22068110.230    90365248.52048  22068110.186
 04 12 10  0 45  0.0000000  0  9G 2G 4G 5G 6G10G13G17G24G30
 106717208.59749  20307604.889    83156259.97349  20307602.425
 117952673.06647  22445629.159    91911203.81948  22445628.868
 116232240.66948  22118254.266    90570569.27849  22118254.253
 128231124.82646  24401569.956    99920346.41646  24401570.070
 108099725.89649  20570685.157    84233569.59349  20570685.026
 126123871.81245  24000574.462    98278354.34847  24000573.670
 111200618.37149  21160762.699    86649870.38049  21160762.878
 111808898.83049  21276506.083    87123870.93349  21276506.414
 115967618.80647  22067898.697    90364382.41648  22067898.659
 04 12 10  0 45 30.0000000  0  9G 2G 4G 5G 6G10G13G17G24G30
 106730776.30149  20310186.743    83166832.20549  20310184.279
 118025079.38648  22459407.612    91967624.33748  22459407.319
 116285769.14048  22128440.425    90612279.75749  22128440.401
 128133028.49145  24382902.850    99843907.73647  24382902.926
 108044657.22149  20560205.919    84190658.97249  20560205.769
 126151613.42545  24005853.533    98299971.18546  24005852.730
 111170657.88649  21155061.397    86626524.56949  21155061.562
 111851462.92349  21284605.748    87157037.75849  21284606.091
 115966952.48347  22067771.894    90363863.19148  22067771.875
 04 12 10  0 46  0.0000000  0  9G 2G 4G 5G 6G10G13G17G24G30
 106744638.94949  20312824.705    83177634.28649  20312822.235
 118097574.88647  22473203.041    92024114.34348  22473202.733
 116339755.24248  22138713.662    90654346.82249  22138713.646
 128034964.67845  24364241.927    99767494.37146  24364242.039
 107990117.06649  20549827.261    84148160.16449  20549827.110
 126179923.59045  24011240.796    98322031.03947  24011239.979
 111140901.36349  21149398.907    86603337.68649  21149399.066
 111894189.88349  21292736.407    87190331.50549  21292736.741
 115966886.31247  22067759.308    90363811.62548  22067759.282
 04 12 10  0 46 30.0000000  0  9G 2G 4G 5G 6G10G13G17G24G30
 106758642.71049  20315489.538    83188546.30949  20315487.055
 118170005.21447  22486986.080    92080553.53748  22486985.783
 116394043.27848  22149044.350    90696649.16049  22149044.339
 127936781.41345  24345558.160    99690988.04846  24345558.299
 107935953.27249  20539520.216    84105954.62749  20539520.065
 126208647.92845  24016706.808    98344413.71946  24016705.936
 111111195.34849  21143746.028    86580190.16049  21143746.181
 111936925.67749  21300868.764    87223632.11249  21300869.090
 115967266.54047  22067831.657    90364107.89648  22067831.634
 04 12 10  0 47  0.0000000  0  9G 2G 4G 5G 6G10G13G17G24G30
 106773095.67349  20318239.846    83199808.35949  20318237.355
 118242678.78847  22500815.378    92137182.30948  22500815.077
 116448939.31848  22159490.749    90739425.26449  22159490.731
 127838789.21945  24326910.770    99614630.58346  24326910.928
 107882475.49249  20529343.732    84064283.64549  20529343.562
 126238094.67545  24022310.368    98367359.22246  24022309.455
 111081848.43549  21138161.508    86557322.42449  21138161.661
 111979978.01049  21309061.350    87257179.38449  21309061.668
 115968401.14447  22068047.565    90364991.99148  22068047.539
 04 12 10  0 47 30.0000000  0  9G 2G 4G 5G 6G10G13G17G24G30
 106787843.67649  20321046.291    83211300.31349  20321043.792
 118315441.20747  22514661.623    92193880.28048  22514661.347
 116504287.40248  22170023.174    90782553.60149  22170023.173
 127740836.01045  24308270.965    99538303.32146  24308271.130
 107829530.97449  20519268.708    84023028.19949  20519268.530
 126268109.11045  24028021.931    98390747.10346  24028021.007
 111052706.73049  21132616.026    86534614.60249  21132616.179
 112023192.62248  21317284.818    87290853.11449  21317285.122
 115970136.06447  22068377.709    90366343.86248  22068377.703
 04 12 10  0 48  0.0000000  0  9G 2G 4G 5G 6G10G13G17G24G30
 106802732.92849  20323879.628    83222902.32949  20323877.115
 118388138.33847  22528495.428    92250527.39648  22528495.143
 116559931.27848  22180611.882    90825912.43849  22180611.874
 127642769.93245  24289609.510    99461888.30246  24289609.657
 107776967.51849  20509266.203    83982069.68949  20509266.006
 126298536.91545  24033812.143    98414457.09947  24033811.230
 111023616.66649  21127080.371    86511947.02549  21127080.525
 112066415.39049  21325509.837    87324533.19649  21325510.127
 115972317.42647  22068792.808    90368043.61448  22068792.815
 04 12 10  0 48 30.0000000  0  9G 2G 4G 5G 6G10G13G17G24G30
 106818071.75749  20326798.516    83234854.65949  20326795.996
 118461078.64647  22542375.531    92307363.97748  22542375.278
 116616177.68048  22191315.240    90869740.77649  22191315.240
 127544901.57145  24270985.751    99385627.28346  24270985.876
 107725094.76949  20499395.135    83941649.37849  20499394.930
 126329686.44146  24039739.725    98438729.44146  24039738.814
 110994887.12149  21121613.308    86489560.37949  21121613.463
 112109954.47049  21333795.054    87358459.74549  21333795.336
 115975253.51847  22069351.516    90370331.47248  22069351.549
 04 12 10  0 49  0.0000000  0  9G 2G 4G 5G 6G10G13G17G24G30
 106833706.74249  20329773.755    83247037.77249  20329771.229
 118534108.16447  22556272.586    92364270.10148  22556272.320
 116672871.14448  22202103.671    90913917.47249  22202103.679
 127447079.46745  24252370.823    99309402.27846  24252370.913
 107673760.49149  20489626.541    83901648.65649  20489626.330
 126361403.52145  24045775.273    98463444.07447  24045774.357
 110966364.64849  21116185.674    86467335.07249  21116185.816
 112153656.44849  21342111.264    87392513.23949  21342111.540
 115978790.64347  22070024.615    90373087.66848  22070024.640
 04 12 10  0 49 30.0000000  0  9G 2G 4G 5G 6G10G13G17G24G30
 106849484.09749  20332776.085    83259331.82249  20332773.554
 118607073.11547  22570157.378    92421125.88548  22570157.136
 116729856.07748  22212947.567    90958321.28149  22212947.588
 127349152.13145  24233735.835    99233095.30847  24233735.918
 107622812.62149  20479931.466    83861949.03949  20479931.248
 126393534.36745  24051889.552    98488481.13046  24051888.647
 110937896.11949  21110768.287    86445151.81049  21110768.429
 112197367.49349  21350429.211    87426573.79549  21350429.475
 115982774.94347  22070782.808    90376192.30548  22070782.839
 04 12 10  0 50  0.0000000  0  9G 2G 4G 5G 6G10G13G17G24G30
 106865558.54149  20335834.950    83271857.36349  20335832.419
 118680128.07547  22584059.286    92478051.80848  22584059.066
 116787284.83448  22223875.926    91003070.92749  22223875.947
 127251276.20845  24215110.601    99156828.41347  24215110.718
 107572407.06349  20470339.595    83822671.99949  20470339.370
 126426233.58846  24058112.024    98513961.03947  24058111.131
 110909636.35249  21105390.621    86423131.23549  21105390.749
 112241241.80049  21358778.214    87460761.57049  21358778.464
 115987360.97047  22071655.512    90379765.81548  22071655.565
 04 12 10  0 50 30.0000000  0  9G 2G 4G 5G 6G10G13G17G24G30
 106882084.30549  20338979.705    83284734.57949  20338977.167
 118753427.25147  22598007.680    92535168.03248  22598007.485
 116845309.55948  22234917.694    91048284.96949  22234917.723
 127153608.23545  24196525.009    99080723.49547  24196525.158
 107522699.53249  20460880.549    83783938.88849  20460880.311
 126459654.12746  24064471.765    98540003.00047  24064470.890
 110881740.18349  21100082.162    86401393.96649  21100082.286
 112285433.93448  21367187.698    87495197.00649  21367187.934
 115992702.96247  22072672.065    90383928.39348  22072672.132
 04 12 10  0 51  0.0000000  0  9G 2G 4G 5G 6G10G13G17G24G30
 106898600.03049  20342122.543    83297603.98649  20342119.992
 118826509.04547  22611914.701    92592114.87648  22611914.501
 116903466.76248  22245984.671    91093602.23549  22245984.716
 127055689.02244  24177891.597    99004422.85146  24177891.708
 107473229.77549  20451466.749    83745391.05949  20451466.499
 126493334.38346  24070880.899    98566247.38847  24070880.022
 110853746.44449  21094755.125    86379580.66649  21094755.248
 112329482.07349  21375569.780    87529520.23049  21375570.016
 115998339.24247  22073744.613    90388320.29348  22073744.686
 04 12 10  0 51 30.0000000  0  9G 2G 4G 5G 6G10G13G17G24G30
 106915722.22649  20345380.794    83310945.95249  20345378.244
 118899989.83747  22625897.636    92649372.64148  22625897.447
 116962370.93248  22257193.792    91139501.55749  22257193.860
 126958137.03145  24159328.035    98928408.31946  24159328.152
 107424615.53949  20442215.762    83707509.85649  20442215.500
 126527890.40846  24077456.698    98593174.19247  24077455.823
 110826271.92649  21089526.898    86358171.95449  21089527.021
 112374002.32449  21384041.708    87564211.33449  21384041.938
 116004885.87547  22074990.420    90393421.54148  22074990.478
 04 12 10  0 52  0.0000000  0  9G 2G 4G 5G 6G10G13G17G24G30
 106933143.08349  20348695.867    83324520.65849  20348693.311
 118973561.82447  22639897.920    92706701.47448  22639897.711
 117021712.23948  22268486.091    91185741.50649  22268486.166
 126860647.00045  24140776.281    98852442.06446  24140776.371
 107376550.47649  20433069.266    83670056.58749  20433068.991
 126563014.49845  24084140.596    98620543.61547  24084139.738
 110799009.32549  21084338.985    86336928.38449  21084339.110
 112418686.89749  21392544.899    87599030.48949  21392545.116
 116012035.07648  22076350.868    90398992.34248  22076350.940
 04 12 10  0 52 30.0000000  0  9G 2G 4G 5G 6G10G13G17G24G30
 106950708.77549  20352038.519    83338208.20849  20352035.966
 119047071.12147  22653886.274    92763981.44648  22653886.057
 117081334.91848  22279831.939    91232200.69949  22279832.021
 126763067.10646  24122207.426    98776405.80647  24122207.510
 107328882.01049  20423998.223    83632912.37849  20423997.934
 126598552.29046  24090903.230    98648235.37946  24090902.388
 110771805.10649  21079162.195    86315730.29249  21079162.319
 112463382.07649  21401050.115    87633857.89849  21401050.340
 116019632.83947  22077796.698    90404912.65148  22077796.771
 04 12 10  0 53  0.0000000  0  9G 2G 4G 5G 6G10G13G17G24G30
 106968573.72849  20355438.100    83352128.96049  20355435.555
 119120671.99446  22667892.025    92821332.79648  22667891.774
 117141391.19048  22291260.286    91278997.77449  22291260.368
 126665553.82045  24103651.253    98700421.46147  24103651.326
 107281765.69749  20415032.257    83596198.40249  20415031.968
 126634656.52645  24097773.591    98676368.58446  24097772.766
 110744814.12949  21074025.965    86294698.38049  21074026.081
 112508242.19749  21409586.712    87668813.83649  21409586.937
 116027833.12647  22079357.172    90411302.47548  22079357.231
 04 12 10  0 53 30.0000000  0  9G 2G 4G 5G 6G10G13G17G24G30
 106986738.61449  20358894.775    83366283.40449  20358892.246
 119194364.88447  22681915.327    92878755.80648  22681915.060
 117201879.64048  22302770.873    91326131.61049  22302770.970
 126568110.30945  24085108.375    98624491.45847  24085108.467
 107235203.45749  20406171.745    83559916.15249  20406171.449
 126671327.84845  24104751.917    98704943.60946  24104751.125
 110718037.22849  21068930.478    86273833.27549  21068930.594
 112553267.79549  21418154.799    87703898.72149  21418155.017
 116036636.07847  22081032.324    90418161.90848  22081032.367
 04 12 10  0 54  0.0000000  0  9G 2G 4G 5G 6G10G13G17G24G30
 107005050.33549  20362379.368    83380552.29549  20362376.832
 119267996.70547  22695926.991    92936131.27248  22695926.651
 117262644.62048  22314334.076    91373480.92948  22314334.181
 126470585.21545  24066549.943    98548497.92247  24066550.031
 107189043.59949  20397387.811    83523947.43549  20397387.521
 126708413.47146  24111809.029    98733841.55946  24111808.230
 110691321.81249  21063846.697    86253016.07549  21063846.821
 112598305.55048  21426725.199    87738993.08049  21426725.410
 116045888.37547  22082792.972    90425371.49148  22082793.005
 04 12 10  0 54 30.0000000  0  9G 2G 4G 5G 6G10G13G17G24G30
 107023664.24049  20365921.482    83395056.63449  20365918.939
 119341722.58047  22709956.588    92993579.97448  22709956.226
 117323839.57748  22325979.101    91421165.28449  22325979.225
 126373136.42545  24048005.984    98472563.84847  24048006.101
 107143442.28849  20388710.170    83488413.94449  20388709.888
 126746067.24545  24118974.334    98763182.11146  24118973.546
 110664823.44249  21058804.231    86232367.98849  21058804.355
 112643510.38048  21435327.398    87774217.61749  21435327.609
 116055744.91248  22084668.626    90433051.89548  22084668.654
 04 12 10  0 55  0.0000000  0  9G 2G 4G 5G 6G10G13G17G24G30
 107042889.71649  20369579.963    83410037.53149  20369577.420
 119415851.96247  22724062.958    93051343.11748  22724062.575
 117385771.81448  22337764.420    91469424.15048  22337764.556
 126276075.53246  24029535.898    98396931.98347  24029536.004
 107098709.93849  20380197.887    83453557.57649  20380197.591
 126784597.27545  24126306.283    98793205.57446  24126305.499
 110638851.99449  21053862.023    86212130.50549  21053862.139
 112689191.65249  21444020.249    87809813.42549  21444020.446
 116066514.65947  22086718.047    90441443.90448  22086718.083
 04 12 10  0 55 30.0000000  0  9G 2G 4G 5G 6G10G13G17G24G30
 107061957.87949  20373208.514    83424895.83749  20373205.977
 119489615.74547  22738099.740    93108821.39948  22738099.336
 117447670.27748  22349543.329    91517656.68549  22349543.472
 126178635.92145  24010993.804    98321005.00447  24010993.853
 107054078.99949  20371704.883    83418780.25049  20371704.575
 126823234.81445  24133658.739    98823312.76946  24133657.930
 110612638.95749  21048873.842    86191704.77149  21048873.959
 112734580.69549  21452657.508    87845181.49849  21452657.706
 116077428.33247  22088794.868    90449948.05248  22088794.913
 04 12 10  0 56  0.0000000  0  9G 2G 4G 5G 6G10G13G17G24G30
 107081485.61449  20376924.518    83440112.25449  20376921.990
 119563630.69547  22752184.328    93166495.37348  22752183.940
 117510149.25948  22361432.714    91566341.57149  22361432.857
 126081436.24446  23992497.327    98245265.00947  23992497.365
 107010167.39049  20363348.776    83384563.42849  20363348.462
 126862597.08745  24141149.130    98853984.65546  24141148.325
 110586801.35549  21043957.116    86171571.57049  21043957.233
 112780294.01449  21461356.476    87880802.25949  21461356.668
 116089102.24147  22091016.357    90459044.58948  22091016.396
 04 12 10  0 56 30.0000000  0  9G 2G 4G 5G 6G10G13G17G24G30
 107101626.15649  20380757.130    83455806.19049  20380754.602
 119638050.33047  22766345.914    93224484.70048  22766345.503
 117573360.39348  22373461.423    91615596.96948  22373461.566
 125984632.50045  23974076.127    98169833.58247  23974076.171
 106967129.79049  20355158.987    83351027.64649  20355158.666
 126902833.96745  24148805.948    98885338.07646  24148805.136
 110561493.21149  21039141.142    86151850.93849  21039141.253
 112826484.98248  21470146.324    87916795.22949  21470146.503
 116101689.41247  22093411.628    90468852.76248  22093411.690
 04 12 10  0 57  0.0000000  0  9G 2G 4G 5G 6G10G13G17G24G30
 107121607.98249  20384559.557    83471376.43949  20384557.023
 119712102.85347  22780437.652    93282187.94648  22780437.278
 117636529.65948  22385482.152    91664819.74548  22385482.301
 125887455.21945  23955583.846    98094111.08747  23955583.957
 106924195.43749  20346988.845    83317572.31349  20346988.532
 126943176.04244  24156482.783    98916773.43446  24156481.994
 110535943.14049  21034279.119    86131941.80349  21034279.224
 112872382.34849  21478880.309    87952559.41749  21478880.475
 116114417.62748  22095833.744    90478770.83748  22095833.824
 04 12 10  0 57 30.0000000  0  9G 2G 4G 5G 6G10G13G17G24G30
 107142044.46449  20388448.490    83487300.97649  20388445.942
 119786401.27647  22794576.172    93340082.82648  22794575.776
 117700268.02948  22397611.179    91714485.98048  22397611.333
 125790519.92246  23937137.672    98018577.07847  23937137.826
 106881978.38949  20338955.179    83284675.95949  20338954.853
 126984234.36945  24164295.858    98948766.95746  24164295.116
 110510764.62249  21029487.789    86112322.20049  21029487.894
 112918598.72848  21487674.999    87988572.17549  21487675.174
 116127899.38147  22098399.237    90489276.09248  22098399.345
 04 12 10  0 58  0.0000000  0  9G 2G 4G 5G 6G10G13G17G24G30
 107162623.80249  20392364.602    83503336.82649  20392362.053
 119860633.90147  22808702.183    93397926.41248  22808701.809
 117764261.50748  22409788.756    91764350.99749  22409788.926
 125693517.31746  23918678.696    97942990.63647  23918678.853
 106840168.25449  20330998.951    83252096.67449  20330998.613
 127025695.47645  24172185.686    98981074.25446  24172184.980
 110485646.65249  21024708.010    86092749.74949  21024708.109
 112964822.43849  21496471.073    88024590.64849  21496471.253
 116141822.60947  22101048.745    90500125.34748  22101048.859
 04 12 10  0 58 30.0000000  0  9G 2G 4G 5G 6G10G13G17G24G30
 107183803.41049  20396394.941    83519840.42749  20396392.385
 119935258.28646  22822902.749    93456075.27048  22822902.377
 117828965.54547  22422101.549    91814769.68748  22422101.738
 125596906.89046  23900294.385    97867709.75647  23900294.546
 106799223.32949  20323207.373    83220191.55849  20323207.043
 127068017.95845  24180239.363    99014052.82846  24180238.669
 110461046.76749  21020026.796    86073581.02249  21020026.902
 113011510.83349  21505355.591    88060971.19549  21505355.777
 116156644.09247  22103869.191    90511674.52648  22103869.302
 04 12 10  0 59  0.0000000  0  9G 2G 4G 5G 6G10G13G17G24G30
 107205116.88449  20400450.755    83536448.33649  20400448.191
 120009807.64247  22837089.020    93514165.67248  22837088.646
 117893910.84448  22434460.246    91865376.38548  22434460.449
 125500224.02746  23881896.212    97792372.50147  23881896.366
 106758678.01149  20315491.838    83188597.83149  20315491.509
 127110733.78545  24188367.932    99047337.89346  24188367.214
 110436498.78749  21015355.464    86054452.73449  21015355.572
 113058197.11148  21514239.682    88097350.12849  21514239.869
 116171896.49047  22106771.638    90523559.49348  22106771.755
 04 12 10  0 59 30.0000000  0  9G 2G 4G 5G 6G10G13G17G24G30
 107226405.39549  20404501.824    83553036.78649  20404499.253
 120084123.22147  22851230.816    93572073.91148  22851230.437
 117958936.65947  22446834.271    91916045.82348  22446834.481
 125403312.71845  23863454.538    97716857.25147  23863454.709
 106718374.35449  20307822.289    83157192.40749  20307821.961
 127153682.44445  24196540.760    99080804.43046  24196540.008
 110411844.28849  21010663.863    86035241.43949  21010663.985
 113104722.68049  21523093.198    88133603.82449  21523093.384
 116187420.64947  22109725.781    90535656.23848  22109725.911
                            4  1
RINEX FILE SPLICE; other post-header comments skipped       COMMENT
 04 12 10  1  0  0.0000000  0  9G 2G 4G 5G 6G10G13G17G24G30
 107248434.23949  20408693.773    83570202.11949  20408691.195
 120158970.39647  22865473.766    93630396.37048  22865473.385
 118024805.74748  22459368.760    91967372.35848  22459368.976
 125306940.24546  23845115.430    97641761.84947  23845115.622
 106679078.79149  20300344.592    83126572.49549  20300344.258
 127197629.09445  24204903.518    99115048.60846  24204902.717
 110387849.07649  21006097.720    86016543.87049  21006097.855
 113151852.46548  21532061.698    88170328.32349  21532061.897
 116203981.01547  22112877.132    90548560.40548  22112877.271
 04 12 10  1  0 30.0000000  0  9G 2G 4G 5G 6G10G13G17G24G30
 107270429.11549  20412879.259    83587340.98649  20412876.673
 120233574.59247  22879670.484    93688529.50248  22879670.120
 118090741.84048  22471916.005    92018751.09748  22471916.227
 125210335.23746  23826732.126    97566485.21247  23826732.314
 106640018.04549  20292911.561    83096135.57049  20292911.235
 127241798.03946  24213308.672    99149465.90646  24213307.819
 110363739.43449  21001509.790    85997757.15549  21001509.932
 113198812.53049  21540997.895    88206920.58449  21540998.086
 116220802.59447  22116078.178    90561668.11548  22116078.323
 04 12 10  1  1  0.0000000  0  9G 2G 4G 5G 6G10G13G17G24G30
 107292695.54249  20417116.413    83604691.44749  20417113.833
 120308241.41547  22893879.108    93746711.42548  22893878.763
 118157047.75247  22484533.618    92070417.99848  22484533.865
 125113804.82146  23808363.017    97491266.70147  23808363.193
 106601498.05949  20285581.434    83066120.01549  20285581.107
 127286494.66746  24221814.146    99184294.50747  24221813.250
 110339820.91549  20996958.241    85979119.35449  20996958.383
 113245907.97749  21549959.861    88243618.33549  21549960.051
 116238190.08647  22119386.913    90575216.80848  22119387.037
 04 12 10  1  1 30.0000000  0  9G 2G 4G 5G 6G10G13G17G24G30
 107315539.80349  20421463.531    83622492.17649  20421460.945
 120383277.01046  22908157.901    93805180.71548  22908157.568
 118224027.72047  22497279.500    92122610.14248  22497279.766
 125017657.76445  23790066.828    97416346.94047  23790066.961
 106563825.96349  20278412.666    83036765.13949  20278412.339
 127332023.58246  24230478.046    99219771.57446  24230477.128
 110316400.28549  20992501.455    85960869.49849  20992501.597
 113293445.19749  21559005.893    88280660.32949  21559006.077
 116256449.18147  22122861.534    90589444.64048  22122861.657
 04 12 10  1  2  0.0000000  0  9G 2G 4G 5G 6G10G13G17G24G30
 107338499.47249  20425832.617    83640382.82949  20425830.033
 120458219.14547  22922418.921    93863577.16648  22922418.601
 118291216.82347  22510065.167    92174965.24748  22510065.455
 124921434.08445  23771756.047    97341367.46247  23771756.153
 106526540.41649  20271317.456    83007711.47349  20271317.129
 127377921.84845  24239212.166    99255536.48846  24239211.247
 110293015.45849  20988051.453    85942647.57449  20988051.594
 113340961.92549  21568048.038    88317686.33749  21568048.237
 116275116.53648  22126413.825    90603990.61848  22126413.956
 04 12 10  1  2 30.0000000  0  9G 2G 4G 5G 6G10G13G17G24G30
 107361728.85349  20430253.015    83658483.65149  20430250.439
 120533221.96446  22936691.465    93922020.92648  22936691.164
 118358767.04247  22522919.576    92227601.73448  22522919.884
 124825290.25245  23753460.460    97266450.21647  23753460.559
 106489796.66349  20264325.347    82979079.98849  20264325.021
 127424342.54645  24248045.713    99291708.46146  24248044.827
 110269821.25549  20983637.743    85924574.17049  20983637.877
 113388612.22848  21577115.595    88354816.44549  21577115.796
 116294345.72948  22130073.019    90618974.39948  22130073.156
 04 12 10  1  3  0.0000000  0  9G 2G 4G 5G 6G10G13G17G24G30
 107385228.89549  20434724.925    83676795.37549  20434722.349
 120608286.48547  22950975.775    93980512.74748  22950975.495
 118426676.91647  22535842.402    92280518.48548  22535842.733
 124729229.56846  23735180.690    97191597.75947  23735180.832
 106453596.18849  20257436.608    82950871.85449  20257436.268
 127471285.73645  24256978.705    99328287.52946  24256977.855
 110246818.86749  20979260.528    85906650.24349  20979260.648
 113436396.93049  21586208.715    88392051.29049  21586208.910
 116314136.78948  22133839.138    90634395.98848  22133839.273
 04 12 10  1  3 30.0000000  0  9G 2G 4G 5G 6G10G13G17G24G30
 107409000.64549  20439248.538    83695318.81349  20439245.969
 120683413.52746  22965271.981    94039053.28148  22965271.722
 118494945.03147  22548833.404    92333714.36948  22548833.772
 124633255.43846  23716917.421    97116812.71947  23716917.576
 106417940.71849  20250651.573    82923088.40349  20250651.227
 127518750.60645  24266010.934    99365273.14246  24266010.119
 110224009.73649  20974920.089    85888876.90349  20974920.201
 113484317.22649  21595327.644    88429391.77649  21595327.831
 116334489.89748  22137712.224    90650255.53848  22137712.345
 04 12 10  1  4  0.0000000  0  9G 2G 4G 5G 6G10G13G17G24G30
 107433044.73049  20443823.976    83714054.46849  20443821.407
 120758603.79247  22979580.225    94097643.09748  22979579.968
 118563569.53547  22561892.219    92387187.96748  22561892.617
 124537370.58246  23698671.157    97042097.25447  23698671.281
 106382831.58649  20243970.498    82895730.67849  20243970.146
 127566738.19444  24275142.626    99402666.07945  24275141.849
 110201394.92149  20970616.633    85871254.96849  20970616.737
 113532373.46848  21604472.443    88466838.20649  21604472.616
 116355404.61947  22141692.169    90666552.71048  22141692.289
 04 12 10  1  4 30.0000000  0  9G 2G 4G 5G 6G10G13G17G24G30
 107457361.86649  20448451.367    83733002.89049  20448448.806
 120833858.01447  22993900.633    94156282.75248  22993900.379
 118632549.11447  22575018.620    92440938.24848  22575019.038
 124441578.27346  23680442.457    96967453.92447  23680442.588
 106348270.30749  20237393.694    82868799.83349  20237393.335
 127615247.40145  24284373.604    99440465.46446  24284372.837
 110178975.53749  20966350.366    85853785.32049  20966350.463
 113580566.37148  21613643.247    88504391.11549  21613643.420
 116376881.05847  22145779.011    90683287.58248  22145779.138
 04 12 10  1  5  0.0000000  0  9G 2G 4G 5G 6G10G13G17G24G30
 107481952.59749  20453130.827    83752164.49749  20453128.266
 120909176.48646  23008233.280    94214972.44448  23008233.039
 118701881.45147  22588212.149    92494963.41148  22588212.565
 124345881.35446  23662231.945    96892884.86047  23662232.083
 106314258.04449  20230921.363    82842296.78649  20230920.998
 127664276.57945  24293703.534    99478670.04046  24293702.747
 110156752.50749  20962121.464    85836468.67249  20962121.561
 113628896.32548  21622840.144    88542050.82049  21622840.304
 116398918.41547  22149972.593    90700459.53248  22149972.727
 04 12 10  1  5 30.0000000  0  9G 2G 4G 5G 6G10G13G17G24G30
 107506817.48449  20457862.464    83771539.73049  20457859.896
 120984560.01847  23022578.307    94273712.84048  23022578.074
 118771565.17247  22601472.550    92549262.37748  22601472.958
 124250282.76446  23644040.108    96818392.49847  23644040.227
 106280796.03149  20224553.754    82816222.49949  20224553.375
 127713826.37845  24303132.565    99517280.24946  24303131.693
 110134726.87049  20957930.124    85819305.83949  20957930.222
 113677364.21848  21632063.277    88579818.00049  21632063.451
 116421516.66248  22154272.914    90718068.52948  22154273.062
 04 12 10  1  6  0.0000000  0  9G 2G 4G 5G 6G10G13G17G24G30
 107531957.10949  20462646.375    83791129.05149  20462643.800
 121060009.00947  23036935.778    94332504.26748  23036935.541
 118841598.14648  22614799.399    92603833.49948  22614799.806
 124154785.22146  23625867.524    96743978.83847  23625867.651
 106247885.40649  20218291.064    82790577.87249  20218290.665
 127763895.81045  24312660.438    99556295.44346  24312659.503
 110112899.39249  20953776.487    85802297.42149  20953776.585
 113725970.34648  21641312.716    88617692.90849  21641312.890
 116444674.92148  22158679.808    90736113.89648  22158679.955
 04 12 10  1  6 30.0000000  0  9G 2G 4G 5G 6G10G13G17G24G30
 107557371.74549  20467482.620    83810932.67149  20467480.024
 121135523.98346  23051305.806    94391347.08048  23051305.580
 118911978.29347  22628192.338    92658675.12248  22628192.736
 124059391.65646  23607714.738    96669646.18847  23607714.874
 106215527.15249  20212133.499    82765363.64949  20212133.087
 127814484.42945  24322287.138    99595715.17345  24322286.157
 110091270.91549  20949660.719    85785444.06349  20949660.823
 113774715.32648  21650588.589    88655676.00249  21650588.765
 116468393.09847  22163193.233    90754595.58748  22163193.381
 04 12 10  1  7  0.0000000  0  9G 2G 4G 5G 6G10G13G17G24G30
 107583062.13349  20472371.338    83830951.15749  20472368.742
 121211105.53946  23065688.486    94450241.79848  23065688.287
 118982703.72647  22641650.976    92713785.80548  22641651.366
 123964104.86146  23589582.234    96595396.79547  23589582.360
 106183722.27449  20206081.244    82740580.62049  20206080.818
 127865591.15645  24332012.442    99635538.59746  24332011.429
 110069842.54749  20945583.036    85768746.63949  20945583.141
 113823599.55648  21659890.955    88693767.60149  21659891.122
 116492670.26647  22167813.048    90773512.83448  22167813.196
 04 12 10  1  7 30.0000000  0  9G 2G 4G 5G 6G10G13G17G24G30
 107609028.14149  20477312.505    83851184.40749  20477309.909
 121286753.45846  23080083.812    94509188.18748  23080083.650
 119053771.94647  22655174.838    92769163.60948  22655175.214
 123868927.32046  23571470.544    96521232.47747  23571470.684
 106152471.56149  20200134.431    82716229.42049  20200133.998
 127917214.73645  24341836.107    99675764.77346  24341835.087
 110048614.42949  20941543.460    85752205.24749  20941543.572
 113872622.94748  21669219.796    88731967.64649  21669219.956
 116517505.44347  22172539.055    90792864.89448  22172539.205
 04 12 10  1  8  0.0000000  0  9G 2G 4G 5G 6G10G13G17G24G30
 107635269.73049  20482306.108    83871632.40749  20482303.504
 121362467.58946  23094491.727    94568186.21248  23094491.555
 119125180.15747  22668763.399    92824806.35048  22668763.778
 123773861.32146  23553380.063    96447155.09247  23553380.199
 106121775.17049  20194293.102    82692310.16649  20194292.657
 127969354.32445  24351757.946    99716393.01346  24351756.964
 110027587.08649  20937542.078    85735820.32249  20937542.183
 113921785.40148  21678575.106    88770276.05849  21678575.238
 116542897.37348  22177371.002    90812650.79448  22177371.131
 04 12 10  1  8 30.0000000  0  9G 2G 4G 5G 6G10G13G17G24G30
 107661786.67249  20487352.120    83892294.95549  20487349.509
 121438247.88146  23108912.248    94627235.75547  23108912.103
 119196926.01147  22682416.210    92880712.18248  22682416.614
 123678908.76746  23535311.210    96373166.07447  23535311.333
 106091633.75049  20188557.375    82668823.35949  20188556.923
 128022008.41145  24361777.692    99757422.16046  24361776.732
 110006760.47949  20933578.900    85719591.80149  20933579.005
 113971086.41448  21687956.788    88808692.42949  21687956.909
 116568844.63547  22182308.632    90832869.41148  22182308.747
 04 12 10  1  9  0.0000000  0  9G 2G 4G 5G 6G10G13G17G24G30
 107688578.37849  20492450.412    83913171.61549  20492447.795
 121514093.91346  23123345.263    94686336.54547  23123345.104
 119269006.51447  22696132.686    92936878.77848  22696133.139
 123584071.88046  23517264.333    96299267.21947  23517264.440
 106062046.95049  20182927.182    82645768.72949  20182926.717
 128075174.30545  24371894.819    99798850.11846  24371893.877
 109986134.63949  20929653.927    85703519.72949  20929654.018
 114020526.18149  21697364.875    88847216.91549  21697364.997
 116595345.84647  22187351.686    90853519.65848  22187351.809
 04 12 10  1  9 30.0000000  0  9G 2G 4G 5G 6G10G13G17G24G30
 107715644.61449  20497600.951    83934262.18449  20497598.343
 121590005.21447  23137790.709    94745488.20748  23137790.521
 119341418.60247  22709912.278    92993303.74748  22709912.731
 123489352.41746  23499239.818    96225459.84347  23499239.940
 106033014.81149  20177402.543    82623146.28849  20177402.078
 128128851.09645  24382109.167    99840676.18246  24382108.260
 109965709.56749  20925767.159    85687604.09849  20925767.243
 114070104.03948  21706799.234    88885849.01349  21706799.357
 116622399.11348  22192499.746    90874600.13848  22192499.870
 04 12 10  1 10  0.0000000  0  9G 2G 4G 5G 6G10G13G17G24G30
 107742984.85649  20502803.632    83955566.26649  20502801.025
 121665981.39447  23152248.531    94804690.39748  23152248.346
 119414159.36047  22723754.402    93049984.83848  22723754.848
 123394752.52046  23481238.039    96151745.66247  23481238.154
 106004537.62049  20171983.514    82600956.27749  20171983.043
 128183037.28945  24392420.457    99882899.16646  24392419.590
 109945485.16249  20921918.583    85671844.82549  20921918.652
 114119819.28649  21716259.743    88924588.16549  21716259.869
 116650003.24347  22197752.673    90896109.81648  22197752.791
 04 12 10  1 10 30.0000000  0  9G 2G 4G 5G 6G10G13G17G24G30
 107770598.87349  20508058.417    83977083.67449  20508055.818
 121742022.11547  23166718.629    94863942.89948  23166718.405
 119487225.86147  22737658.512    93106919.74948  22737658.950
 123300274.17146  23463259.395    96078126.18147  23463259.524
 105976615.41649  20166670.072    82579198.73749  20166669.607
 128237729.99944  24402828.080    99925516.89446  24402827.213
 109925461.72349  20918108.243    85656242.16149  20918108.307
 114169671.67848  21725746.349    88963434.17849  21725746.478
 116678156.32448  22203110.056    90918047.25148  22203110.168
 04 12 10  1 11  0.0000000  0  9G 2G 4G 5G 6G10G13G17G24G30
 107798486.27349  20513365.213    83998814.11649  20513362.614
 121818127.01647  23181200.945    94923245.39748  23181200.726
 119560615.29947  22751624.076    93164106.31148  22751624.500
 123205919.44546  23445304.269    96004603.02747  23445304.412
 105949248.13049  20161462.238    82557873.58749  20161461.787
 128292928.37244  24413331.993    99968528.56545  24413331.156
 109905639.36049  20914336.179    85640796.16149  20914336.244
 114219661.02248  21735259.011    89002386.90749  21735259.147
 116706856.83847  22208571.612    90940411.25848  22208571.725
 04 12 10  1 11 30.0000000  0  9G 2G 4G 5G 6G10G13G17G24G30
 107826646.25649  20518723.879    84020756.95449  20518721.287
 121894295.49847  23195695.338    94982597.44148  23195695.148
 119634324.19647  22765650.436    93221541.78948  22765650.861
 123111689.79446  23427372.969    95931177.31447  23427373.111
 105922435.53949  20156359.954    82536980.68249  20156359.496
 128348630.41644  24423931.668   100011932.80146  24423930.883
 109886017.44749  20910602.259    85625506.35749  20910602.325
 114269786.27548  21744797.535    89041445.54549  21744797.673
 116736102.77848  22214136.965    90963200.27348  22214137.081
 04 12 10  1 12  0.0000000  0  9G 2G 4G 5G 6G10G13G17G24G30
 107855078.18549  20524134.290    84042911.71549  20524131.691
 121970526.66546  23210201.628    95041998.35848  23210201.458
 119708349.55947  22779737.012    93279223.86748  22779737.436
 123017587.49846  23409465.874    95857850.87247  23409466.014
 105896177.16249  20151363.145    82516519.61449  20151362.686
 128404833.85244  24434626.814   100055727.68345  24434626.056
 109866595.77249  20906906.437    85610372.57749  20906906.509
 114320047.04648  21754361.848    89080609.77849  21754361.994
 116765892.29948  22219805.734    90986412.87748  22219805.858
 04 12 10  1 12 30.0000000  0  9G 2G 4G 5G 6G10G13G17G24G30
 107883781.82749  20529596.417    84065278.18249  20529593.826
 122046820.64346  23224719.890    95101448.18847  23224719.767
 119782688.74747  22793883.313    93337150.48748  22793883.716
 122923614.21746  23391583.335    95784624.94248  23391583.502
 105870473.15849  20146471.812    82496490.54649  20146471.353
 128461537.08744  24445417.099   100099911.98546  24445416.352
 109847374.75849  20903248.806    85595395.16149  20903248.871
 114370443.05448  21763951.896    89119879.38349  21763952.048
 116796223.82048  22225577.654    91010047.79948  22225577.801
 04 12 10  1 13  0.0000000  0  9G 2G 4G 5G 6G10G13G17G24G30
 107912757.27149  20535110.267    84087856.45049  20535107.669
 122123177.22446  23239250.064    95160946.79947  23239249.974
 119857338.95747  22808088.818    93395319.43748  22808089.236
 122829772.83046  23373725.889    95711501.80947  23373726.063
 105845323.83149  20141686.042    82476893.67949  20141685.590
 128518738.19145  24456302.113   100144484.29946  24456301.336
 109828354.76649  20899629.422    85580574.39449  20899629.473
 114420974.63448  21773567.724    89159254.65149  21773567.875
 116827095.87148  22231452.428    91034103.92548  22231452.576
 04 12 10  1 13 30.0000000  0  9G 2G 4G 5G 6G10G13G17G24G30
 107942004.64149  20540675.856    84110646.60049  20540673.264
 122199596.73346  23253792.183    95220494.46947  23253792.131
 119932297.86447  22822353.047    93453728.96348  22822353.455
 122736065.49746  23355893.988    95638483.10548  23355894.172
 105820729.55449  20137005.901    82457729.31949  20137005.443
 128576436.32345  24467281.720   100189443.92846  24467280.890
 109809536.15549  20896048.347    85565910.55349  20896048.406
 114471641.65848  21783209.350    89198735.43949  21783209.502
 116858506.98147  22237429.793    91058580.07948  22237429.941
 04 12 10  1 14  0.0000000  0  9G 2G 4G 5G 6G10G13G17G24G30
 107971524.31749  20546293.258    84133648.94949  20546290.673
 122276079.56146  23268346.387    95280091.44547  23268346.374
 120007563.15747  22836675.580    93512377.21848  22836675.958
 122642495.10746  23338088.147    95565571.12848  23338088.315
 105796691.07749  20132431.531    82438998.03849  20132431.072
 128634629.99345  24478355.590   100234789.70945  24478354.725
 109790919.90549  20892505.793    85551404.38249  20892505.858
 114522444.67648  21792876.842    89238322.20749  21792876.995
 116890456.64647  22243509.624    91083475.90948  22243509.749
 04 12 10  1 14 30.0000000  0  9G 2G 4G 5G 6G10G13G17G24G30
 108001162.98749  20551933.309    84156744.01849  20551930.725
 122352472.63746  23282883.524    95339618.48047  23282883.545
 120082979.09847  22851026.774    93571142.88048  22851027.125
 122548910.96646  23320279.683    95492648.42747  23320279.832
 105773055.26349  20127933.785    82420580.52949  20127933.313
 128693164.98245  24489494.487   100280401.33546  24489493.572
 109772353.37449  20888972.699    85536936.96449  20888972.759
 114573230.62248  21802541.093    89277895.66249  21802541.245
 116922790.08147  22249662.496    91108670.77248  22249662.622
 04 12 10  1 15  0.0000000  0  9G 2G 4G 5G 6G10G13G17G24G30
 108031075.55549  20557625.488    84180052.50349  20557622.918
 122428930.55346  23297433.012    95399196.04747  23297433.026
 120158697.97847  22865435.640    93630144.55548  22865436.005
 122455470.33546  23302498.481    95419837.58647  23302498.612
 105749977.20349  20123542.159    82402597.64549  20123541.679
 128752194.15945  24500727.396   100326398.08046  24500726.463
 109753991.60549  20885478.565    85522629.09849  20885478.625
 114624153.99148  21812231.482    89317576.21549  21812231.626
 116955660.52547  22255917.540    91134284.09748  22255917.681
 04 12 10  1 15 30.0000000  0 10G 2G 4G 5G 6G10G13G17G24G29G30
 108061416.24549  20563399.123    84203694.60449  20563396.560
 122505607.84746  23312024.216    95458944.61847  23312024.153
 120234871.57547  22879931.029    93689500.59248  22879931.355
 122362330.04146  23284774.490    95347260.71948  23284774.615
 105727611.45249  20119286.092    82385169.80149  20119285.599
 128811870.06045  24512083.378   100372898.77346  24512082.422
 109735989.23949  20882052.823    85508601.28749  20882052.882
 114675369.36848  21821977.438    89357484.30249  21821977.573
 128004066.80044  24358364.855    99743434.27146  24358366.470
 116989220.91047  22262303.892    91160435.02048  22262304.034
 04 12 10  1 16  0.0000000  0 10G 2G 4G 5G 6G10G13G17G24G29G30
 108092185.67149  20569254.350    84227670.78749  20569251.781
 122582504.97646  23326657.276    95518864.43547  23326657.200
 120311497.49847  22894512.475    93749209.09648  22894512.782
 122269492.97646  23267108.184    95274920.15848  23267108.319
 105705958.43849  20115165.654    82368297.33149  20115165.162
 128872192.41045  24523562.316   100419903.24046  24523561.332
 109718347.37249  20878695.693    85494854.37549  20878695.746
 114726877.39348  21831779.089    89397620.41349  21831779.221
 127898590.10345  24338292.772    99661244.69446  24338294.592
 117023470.24847  22268821.348    91187122.79548  22268821.469
 04 12 10  1 16 30.0000000  0 10G 2G 4G 5G 6G10G13G17G24G29G30
 108123075.55649  20575132.500    84251740.82549  20575129.930
 122659313.89746  23341273.558    95578715.51948  23341273.492
 120388265.16247  22909120.888    93809028.04848  22909121.173
 122176653.55846  23249441.430    95202577.77048  23249441.561
 105684710.35049  20111122.266    82351740.40549  20111121.760
 128932850.85445  24535105.174   100467169.64646  24535104.172
 109700758.34849  20875348.613    85481148.64149  20875348.666
 114778369.71448  21841577.746    89437744.30249  21841577.870
 127792948.20744  24318189.829    99578926.27546  24318191.533
 117058098.77248  22275410.949    91214106.04048  22275411.076
 04 12 10  1 17  0.0000000  0 10G 2G 4G 5G 6G10G13G17G24G29G30
 108153931.95649  20581004.283    84275784.76849  20581001.714
 122735880.40046  23355843.691    95638377.71847  23355843.633
 120465017.82447  22923726.463    93868835.27448  22923726.778
 122083659.78846  23231745.292    95130115.11148  23231745.417
 105663713.09549  20107126.621    82335378.91449  20107126.110
 128993689.47345  24546682.420   100514576.33446  24546681.400
 109683068.23449  20871982.290    85467364.13549  20871982.356
 114829692.26748  21851344.109    89477735.88749  21851344.231
 127686990.29844  24298026.501    99496361.72346  24298028.472
 117092950.90848  22282043.114    91241263.51948  22282043.255
 04 12 10  1 17 30.0000000  0 10G 2G 4G 5G 6G10G13G17G24G29G30
 108185369.61749  20586986.677    84300281.64949  20586984.095
 122812819.64546  23370484.742    95698330.36548  23370484.712
 120542367.67647  22938445.669    93929107.87048  22938445.984
 121991129.37546  23214137.334    95058013.49748  23214137.451
 105643581.84749  20103295.772    82319692.23849  20103295.255
 129055322.48745  24558410.775   100562602.07946  24558409.731
 109665892.68449  20868713.892    85453980.59149  20868713.958
 114881460.38748  21861195.249    89518074.69049  21861195.371
 127581334.39845  24277920.846    99414032.48946  24277922.908
 117128640.01748  22288834.556    91269073.18548  22288834.721
 04 12 10  1 18  0.0000000  0 10G 2G 4G 5G 6G10G13G17G24G29G30
 108217233.07949  20593050.098    84325110.31849  20593047.502
 122889976.00046  23385167.126    95758452.16747  23385167.147
 120620156.55347  22953248.417    93989722.57148  22953248.728
 121898909.02547  23196588.385    94986153.50248  23196588.468
 105624160.94749  20099600.097    82304559.07149  20099599.574
 129117592.14945  24570260.321   100611123.84146  24570259.295
 109649076.34149  20865513.836    85440876.95949  20865513.910
 114933518.29448  21871101.539    89558639.28849  21871101.683
 127475827.96445  24257843.687    99331819.72946  24257845.644
 117165008.91148  22295755.332    91297412.57648  22295755.513
 04 12 10  1 18 30.0000000  0 10G 2G 4G 5G 6G10G13G17G24G29G30
 108248903.02149  20599076.688    84349788.19549  20599074.092
 122966730.20545  23399772.966    95818260.62547  23399773.006
 120697762.67047  22968016.412    94050194.82848  22968016.732
 121806382.06647  23178981.090    94914054.58248  23178981.137
 105604831.12549  20095921.754    82289496.87849  20095921.225
 129179877.31945  24582112.742   100659657.82046  24582111.658
 109632000.43649  20862264.405    85427571.05749  20862264.472
 114985246.95548  21880945.164    89598947.33149  21880945.341
 127369855.30845  24237677.856    99249243.64447  24237679.759
 117201436.74848  22302687.331    91325797.89148  22302687.496
 04 12 10  1 19  0.0000000  0 10G 2G 4G 5G 6G10G13G17G24G29G30
 108281145.08649  20605212.149    84374911.88349  20605209.553
 123043848.08946  23414448.017    95878352.43948  23414448.094
 120775948.76047  22982894.748    94111119.03948  22982895.085
 121714316.45446  23161461.605    94842315.12847  23161461.645
 105586358.17749  20092406.469    82275102.37749  20092405.941
 129242942.59745  24594113.689   100708799.57546  24594112.622
 109615431.24749  20859111.400    85414659.99549  20859111.459
 115037411.96448  21890871.853    89639595.36849  21890872.053
 127264185.26045  24217569.568    99166903.39947  24217571.506
 117238687.60747  22309775.963    91354824.50948  22309776.108
 04 12 10  1 19 30.0000000  0 10G 2G 4G 5G 6G10G13G17G24G29G30
 108313645.83849  20611396.848    84400237.14049  20611394.247
 123121016.27846  23429132.665    95938483.46647  23429132.736
 120854398.87747  22997823.327    94172248.98248  22997823.672
 121622401.37146  23143970.716    94770693.01548  23143970.771
 105568428.42449  20088994.539    82261131.16649  20088994.005
 129306471.56344  24606202.754   100758302.78746  24606201.690
 109599055.49849  20855995.192    85401899.67849  20855995.244
 115089699.68348  21900821.869    89680339.05149  21900822.077
 127158507.42045  24197459.821    99084557.04247  24197461.791
 117276446.15747  22316961.200    91384246.72248  22316961.344
 04 12 10  1 20  0.0000000  0 10G 2G 4G 5G 6G10G13G17G24G29G30
 108346399.10149  20617629.581    84425759.17049  20617626.980
 123198228.36546  23443825.661    95998648.71147  23443825.688
 120933104.36647  23012800.496    94233577.91748  23012800.855
 121530633.11546  23126507.756    94699185.32148  23126507.823
 105551035.62849  20085684.800    82247578.34249  20085684.260
 129370456.83444  24618378.794   100808161.37145  24618377.742
 109582867.60549  20852914.733    85389285.74549  20852914.778
 115142104.22248  21910794.116    89721173.75549  21910794.336
 127052818.75745  24177348.044    99002202.22247  24177350.010
 117314704.75548  22324241.575    91414058.60548  22324241.733
 04 12 10  1 20 30.0000000  0 10G 2G 4G 5G 6G10G13G17G24G29G30
 108379398.42849  20623909.150    84451472.91549  20623906.554
 123275478.20547  23458525.870    96058843.35148  23458525.841
 121012055.85947  23027824.477    94295098.54048  23027824.865
 121439007.82847  23109072.043    94627788.98248  23109072.131
 105534173.44149  20082476.044    82234438.96349  20082475.497
 129434891.47844  24630640.317   100858370.12745  24630639.294
 109566861.53249  20849868.878    85376813.47949  20849868.923
 115194619.41648  21920787.419    89762094.68249  21920787.644
 126947116.02645  24157233.483    98919836.51046  24157235.515
 117353455.21847  22331615.561    91444253.74448  22331615.732
 04 12 10  1 21  0.0000000  0 10G 2G 4G 5G 6G10G13G17G24G29G30
 108412637.65749  20630234.359    84477373.62349  20630231.749
 123352759.78746  23473232.078    96119062.75847  23473232.043
 121091244.71747  23042893.622    94356804.12548  23042894.037
 121347521.80747  23091662.821    94556501.20548  23091662.905
 105517835.71649  20079367.049    82221708.30949  20079366.480
 129499766.27444  24642985.550   100908921.95346  24642984.536
 109551031.62849  20846856.542    85364478.49349  20846856.578
 115247239.07048  21930800.612    89803097.00049  21930800.837
 126841396.65945  24137115.834    98837457.76747  24137117.823
 117392689.83047  22339081.671    91474826.16248  22339081.829
 04 12 10  1 21 30.0000000  0 10G 2G 4G 5G 6G10G13G17G24G29G30
 108446265.21849  20636633.477    84503576.91449  20636630.860
 123430221.35146  23487972.541    96179422.39047  23487972.474
 121170816.41747  23058035.642    94418808.02348  23058036.053
 121256325.68447  23074308.787    94485439.28848  23074308.844
 105502170.61649  20076386.086    82209501.73849  20076385.511
 129565228.40044  24655442.632   100959931.34246  24655441.634
 109535526.47549  20843905.997    85352396.56549  20843906.033
 115300111.28648  21940861.866    89844296.12049  21940862.075
 126735811.94945  24117023.737    98755184.00346  24117025.692
 117432554.84848  22346667.768    91505889.77548  22346667.919
 04 12 10  1 22  0.0000000  0 10G 2G 4G 5G 6G10G13G17G24G29G30
 108479813.76349  20643017.553    84529718.63649  20643014.943
 123507395.62746  23502658.329    96239558.19247  23502658.228
 121250301.14847  23073161.102    94480744.14748  23073161.525
 121164955.15647  23056921.530    94414241.49648  23056921.555
 105486710.96949  20073444.206    82197455.26549  20073443.631
 129630808.58945  24667922.097   101011032.81946  24667921.121
 109519879.69849  20840928.526    85340204.26349  20840928.556
 115352769.38648  21950882.381    89885328.40949  21950882.564
 126629898.13845  24096868.998    98672653.84446  24096870.877
 117472581.61948  22354284.621    91537079.45648  22354284.757
 04 12 10  1 22 30.0000000  0 10G 2G 4G 5G 6G10G13G17G24G29G30
 108513895.58949  20649503.121    84556275.89249  20649500.519
 123584895.34746  23517406.024    96299947.55847  23517405.966
 121330308.61147  23088386.045    94543087.58248  23088386.482
 121074024.72647  23039618.051    94343386.60048  23039618.081
 105472068.81749  20070657.892    82186045.80549  20070657.317
 129697117.29645  24680540.260   101062701.93746  24680539.255
 109504703.80449  20838040.650    85328378.88949  20838040.679
 115405825.54748  21960978.633    89926670.88349  21960978.780
 126524270.58945  24076768.713    98590346.72047  24076770.568
 117513380.44448  22362048.403    91568870.71848  22362048.546
 04 12 10  1 23  0.0000000  0  9G 2G 4G 5G 6G10G17G24G29G30
 108548354.21949  20656060.380    84583126.78049  20656057.773
 123662563.98546  23532185.874    96360468.56347  23532185.821
 121410679.30647  23103680.092    94605714.08948  23103680.522
 120983380.47547  23022369.035    94272754.71948  23022369.054
 105458087.62249  20067997.359    82175151.37649  20067996.779
 109489842.91549  20835212.711    85316798.98149  20835212.739
 115459123.36448  21971120.870    89968201.65049  21971121.002
 126418776.03445  24056693.731    98508143.22547  24056695.581
 117554793.31548  22369929.022    91601140.46748  22369929.202
 04 12 10  1 23 30.0000000  0  9G 2G 4G 5G 6G10G17G24G29G30
 108582726.49749  20662601.207    84609910.37849  20662598.593
 123739938.46545  23546909.742    96420760.33947  23546909.689
 121490947.70347  23118954.666    94668260.87248  23118955.101
 120892561.56146  23005086.753    94201986.75348  23005086.779
 105444303.82049  20065374.388    82164410.75549  20065373.802
 109474834.24649  20832356.656    85305103.92149  20832356.678
 115512199.70248  21981220.973    90009559.82449  21981221.098
 126312954.51345  24036556.583    98425684.88646  24036558.421
 117596355.00048  22377837.971    91633526.17848  22377838.162
 04 12 10  1 24  0.0000000  0  9G 2G 4G 5G 6G10G17G24G29G30
 108617628.57849  20669242.858    84637106.79549  20669240.251
 123817634.68246  23561694.888    96481302.79447  23561694.851
 121571727.30547  23134326.537    94731205.98748  23134326.979
 120802186.85846  22987888.995    94131564.93248  22987889.028
 105431333.33649  20062906.187    82154303.89149  20062905.602
 109460294.48549  20829589.831    85293774.23649  20829589.861
 115565670.88548  21991396.207    90051225.68449  21991396.327
 126207425.46445  24016475.079    98343454.47246  24016476.860
 117638679.90447  22385892.174    91666506.58648  22385892.352
 04 12 10  1 24 30.0000000  0  9G 2G 4G 5G 6G10G17G24G29G30
 108652754.20049  20675927.048    84664477.41049  20675924.428
 123895346.71846  23576483.039    96541857.61047  23576483.009
 121652708.93947  23149736.853    94794308.51148  23149737.313
 120711952.77647  22970718.032    94061252.65148  22970718.058
 105418869.83649  20060534.450    82144592.08949  20060533.858
 109445917.73549  20826854.027    85282571.57449  20826854.049
 115619230.74548  22001588.322    90092960.64049  22001588.414
 126101885.91145  23996391.505    98261215.94946  23996393.228
 117681459.88048  22394032.957    91699841.61548  22394033.114
 04 12 10  1 25  0.0000000  0  9G 2G 4G 5G 6G10G17G24G29G30
 108688106.40449  20682654.354    84692024.58349  20682651.721
 123973077.58346  23591274.749    96602427.09547  23591274.711
 121733893.02547  23165185.677    94857568.82548  23165186.128
 120621864.47747  22953574.798    93991053.98348  22953574.804
 105406916.12149  20058259.728    82135277.51749  20058259.129
 109431707.55749  20824149.920    85271498.71349  20824149.928
 115672882.27448  22011797.880    90134767.02849  22011797.938
 125996342.13346  23976307.185    98178974.06046  23976308.865
 117724695.98548  22402260.532    91733532.06848  22402260.667
 04 12 10  1 25 30.0000000  0  9G 2G 4G 5G 6G10G17G24G29G30
 108723689.24649  20689425.550    84719751.46849  20689422.925
 124050831.39846  23606070.843    96663014.45847  23606070.810
 121815280.66947  23180673.237    94920987.76048  23180673.695
 120531928.76246  22936460.601    93920974.20848  22936460.576
 105395475.87749  20056082.710    82126363.05149  20056082.110
 109417668.36249  20821478.344    85260559.09149  20821478.346
 115726629.60448  22022025.657    90176648.06349  22022025.699
 125890801.31245  23956223.375    98096734.55146  23956224.977
 117768390.33847  22410575.321    91767579.58448  22410575.464
 04 12 10  1 26  0.0000000  0  9G 2G 4G 5G 6G10G17G24G29G30
 108759506.71949  20696241.383    84747661.19349  20696238.757
 124128612.30546  23620872.093    96723622.93147  23620872.087
 121896873.35547  23196199.814    94984566.46048  23196200.286
 120442152.35147  22919376.718    93851018.55448  22919376.684
 105384552.88849  20054004.134    82117851.63249  20054003.527
 109403804.79349  20818840.183    85249756.32049  20818840.183
 115780477.14748  22032272.492    90218607.18749  22032272.554
 125785270.88845  23936141.609    98014503.05946  23936143.108
 117812545.36147  22418977.766    91801986.06848  22418977.932
 04 12 10  1 26 30.0000000  0  9G 2G 4G 5G 6G10G17G24G29G30
 108795717.12649  20703132.000    84775877.09049  20703129.367
 124206578.99846  23635708.685    96784376.17347  23635708.694
 121978826.85947  23211795.078    95048426.28448  23211795.576
 120352695.67947  22902353.685    93781312.04648  22902353.642
 105374305.05849  20052054.031    82109866.31649  20052053.424
 109390275.56149  20816265.655    85239214.06449  20816265.649
 115834583.37548  22042568.570    90260767.87049  22042568.646
 125679912.53946  23916092.618    97932405.62746  23916094.023
 117857317.42547  22427497.618    91836873.37448  22427497.776
 04 12 10  1 27  0.0000000  0  9G 2G 4G 5G 6G10G17G24G29G30
 108832016.78549  20710039.601    84804162.53449  20710036.962
 124284427.26046  23650522.741    96845037.12947  23650522.750
 122060834.41846  23227400.603    95112328.26748  23227401.115
 120263257.82147  22885334.203    93711620.23548  22885334.168
 105364428.14249  20050174.511    82102170.02649  20050173.896
 109376777.51949  20813697.063    85228696.11249  20813697.058
 115888644.34848  22052856.038    90302893.29849  22052856.129
 125574425.52946  23896019.060    97850208.04547  23896020.404
 117902400.50547  22436076.661    91872003.01948  22436076.825
 04 12 10  1 27 30.0000000  0  9G 2G 4G 5G 6G10G17G24G29G30
 108868717.20149  20717023.458    84832760.26149  20717020.819
 124362469.06446  23665373.620    96905848.90747  23665373.623
 122143204.77647  23243075.167    95176512.94548  23243075.707
 120174153.01647  22868378.128    93642187.91848  22868378.102
 105355233.69549  20048424.848    82095005.53749  20048424.232
 109363622.61649  20811193.763    85218445.53649  20811193.755
 115942971.71048  22063194.197    90345226.29749  22063194.295
 125469124.67645  23875980.980    97768155.40746  23875982.289
 117948104.44947  22444773.844    91907616.46048  22444773.999
 04 12 10  1 28  0.0000000  0  9G 2G 4G 5G 6G10G17G24G29G30
 108905821.62849  20724084.196    84861672.79649  20724081.562
 124440707.86446  23680261.999    96966814.17347  23680261.979
 122225938.71347  23258818.918    95240980.92248  23258819.515
 120085386.74947  22851486.469    93573019.39948  22851486.435
 105346724.49249  20046805.588    82088375.00349  20046804.965
 109350814.76849  20808756.504    85208465.40249  20808756.496
 115997569.07148  22073583.723    90387769.69549  22073583.812
 125364016.80645  23855979.575    97686253.21347  23855980.837
 117994430.36347  22453589.403    91943714.53448  22453589.563
 04 12 10  1 28 30.0000000  0  9G 2G 4G 5G 6G10G17G24G29G30
 108943024.77949  20731163.720    84890662.26149  20731161.101
 124518838.05846  23695129.692    97027694.80847  23695129.651
 122308727.88247  23274573.196    95305491.92348  23274573.836
 119996656.36047  22834601.638    93503878.82648  22834601.609
 105338594.53649  20045258.503    82082039.97849  20045257.879
 109338048.96849  20806327.241    85198518.03349  20806327.232
 116052131.26348  22083966.569    90430285.69149  22083966.629
 125258799.68546  23835957.423    97604265.87147  23835958.653
 118041070.99647  22462464.861    91980057.82948  22462465.058
 04 12 10  1 29  0.0000000  0  9G 2G 4G 5G 6G10G17G24G29G30
 108980328.75549  20738262.437    84919730.29149  20738259.826
 124596862.50446  23709977.268    97088493.03547  23709977.260
 122391571.91947  23290337.899    95370045.69048  23290338.571
 119907966.98547  22817724.634    93434770.21848  22817724.581
 105330846.13749  20043784.020    82076002.27949  20043783.389
 109325328.04849  20803906.531    85188605.62849  20803906.522
 116106660.58448  22094343.160    90472776.06049  22094343.204
 125153478.95346  23815915.518    97522197.82147  23815916.713
 118088026.59047  22471400.196    92016646.60648  22471400.404
 04 12 10  1 29 30.0000000  0  9G 2G 4G 5G 6G10G17G24G29G30
 109018043.77849  20745439.379    84949118.61349  20745436.778
 124675090.75545  23724863.633    97149450.07547  23724863.638
 122474778.11246  23306171.511    95434881.67248  23306172.203
 119819630.70847  22800914.782    93365936.76848  22800914.726
 105323788.79649  20042441.053    82070503.04749  20042440.435
 109312962.48149  20801553.436    85178970.12649  20801553.426
 116161466.96548  22104772.467    90515482.33249  22104772.496
 125048367.94646  23795913.553    97440293.14247  23795914.723
 118135605.10547  22480454.116    92053720.72848  22480454.329
 04 12 10  1 30  0.0000000  0  9G 2G 4G 5G 6G10G17G24G29G30
 109056017.33349  20752665.512    84978708.39649  20752662.912
 124753370.95145  23739759.841    97210447.63747  23739759.843
 122558191.66746  23322044.612    95499879.19848  23322045.347
 119731497.95947  22784143.666    93297261.90148  22784143.623
 105317269.50649  20041200.479    82065423.07349  20041199.861
 109300800.49849  20799239.081    85169493.26849  20799239.065
 116216398.25348  22115225.538    90558285.93349  22115225.565
 124943317.38746  23775923.090    97358435.58947  23775924.250
 118183652.00847  22489597.174    92091159.83548  22489597.387
 04 12 10  1 30 30.0000000  0  9G 2G 4G 5G 6G10G17G24G29G30
 109094251.01449  20759941.140    85008500.87949  20759938.541
 124831704.50446  23754666.251    97271486.74447  23754666.269
 122641811.22246  23337956.902    95565037.25548  23337957.671
 119643572.86047  22767412.076    93228748.84248  22767412.026
 105311289.25949  20040062.458    82060763.15549  20040061.854
 109288844.03749  20796963.837    85160176.54549  20796963.834
 116271456.34348  22125702.750    90601188.33249  22125702.761
 124838332.22346  23755945.060    97276629.00247  23755946.208
 118232166.85946  22498829.254    92128963.58948  22498829.495
 04 12 10  1 31  0.0000000  0  9G 2G 4G 5G 6G10G17G24G29G30
 109132592.92249  20767237.368    85038377.69249  20767234.764
 124909939.59846  23769553.942    97332449.14647  23769553.941
 122725482.07446  23353878.930    95630235.32248  23353879.689
 119555705.85247  22750691.552    93160281.03148  22750691.495
 105305695.39249  20038997.981    82056404.29749  20038997.392
 109276941.56349  20794698.865    85150901.89949  20794698.855
 116326489.17948  22136175.139    90644071.06549  22136175.171
 124733263.78146  23735951.188    97194757.51247  23735952.331
 118280995.54047  22508121.067    92167011.87148  22508121.336
 04 12 10  1 31 30.0000000  0  9G 2G 4G 5G 6G10G17G24G29G30
 109171352.32049  20774613.042    85068579.81749  20774610.439
 124988385.60146  23784481.773    97393575.85547  23784481.792
 122809510.88846  23369869.099    95695712.30448  23369869.845
 119468208.86647  22734041.417    93092101.57048  22734041.367
 105300797.13449  20038065.867    82052587.48349  20038065.271
 109265403.00849  20792503.145    85141910.82349  20792503.143
 116381806.26148  22146701.647    90687175.26649  22146701.695
 124628424.44746  23716000.938    97113064.50347  23716002.071
 118330445.21947  22517531.029    92205544.08248  22517531.325
 04 12 10  1 32  0.0000000  0  9G 2G 4G 5G 6G10G17G24G29G30
 109210376.57349  20782039.105    85098988.33149  20782036.493
 125066890.23846  23799420.727    97454748.30347  23799420.751
 122893742.07146  23385897.790    95761346.96548  23385898.522
 119380932.22247  22717433.206    93024093.82248  22717433.142
 105296441.10349  20037236.924    82049193.19649  20037236.321
 109254076.31249  20790347.753    85133084.82849  20790347.737
 116437255.34148  22157253.256    90730382.34749  22157253.305
 124523665.13546  23696065.880    97031433.91347  23696067.002
 118380361.20047  22527029.742    92244439.62348  22527030.067
 04 12 10  1 32 30.0000000  0  9G 2G 4G 5G 6G10G17G24G29G30
 109249821.18049  20789545.164    85129724.38449  20789542.551
 125145608.72646  23814400.357    97516087.37147  23814400.432
 122978328.62646  23401994.065    95827258.58047  23401994.781
 119294033.60447  22700896.943    92956380.61048  22700896.899
 105292782.31949  20036540.681    82046342.19149  20036540.085
 109243117.59449  20788262.372    85124545.57349  20788262.356
 116492992.02948  22167859.595    90773813.52549  22167859.673
 124419144.61946  23676176.258    96949989.40547  23676177.368
 118430896.94647  22536646.410    92283818.09548  22536646.723
 04 12 10  1 33  0.0000000  0  9G 2G 4G 5G 6G10G17G24G29G30
 109289225.82549  20797043.618    85160429.29749  20797041.012
 125224081.08445  23829333.168    97577234.60347  23829333.302
 123062807.33046  23418069.839    95893086.10947  23418070.567
 119207055.40047  22684345.529    92888605.40048  22684345.501
 105289359.60849  20035889.354    82043675.14749  20035888.758
 109232066.91249  20786159.497    85115934.64949  20786159.480
 116548556.03848  22178433.080    90817110.14349  22178433.180
 124314405.94046  23656245.168    96868374.85647  23656246.246
 118481589.82147  22546292.961    92323319.01348  22546293.281
 04 12 10  1 33 30.0000000  0  9G 2G 4G 5G 6G10G17G24G29G30
 109328900.72649  20804593.501    85191344.80649  20804590.888
 125302617.64345  23844278.172    97638431.88246  23844278.325
 123147485.42446  23434183.575    95959069.00647  23434184.295
 119120310.40147  22667838.493    92821011.89248  22667838.491
 105286483.02149  20035341.940    82041433.67049  20035341.351
 109221234.86149  20784098.226    85107494.09549  20784098.203
 116604257.52648  22189032.727    90860513.89449  22189032.850
 124209762.31346  23636332.147    96786834.38647  23636333.223
 118532747.79747  22556028.024    92363182.34848  22556028.376
 04 12 10  1 34  0.0000000  0  9G 2G 4G 5G 6G10G17G24G29G30
 109369002.40449  20812224.597    85222592.86849  20812221.976
 125381374.84545  23859265.176    97699801.06946  23859265.368
 123232516.81147  23450364.521    96025327.21547  23450365.234
 119033957.40347  22651406.058    92753723.83948  22651406.061
 105284308.35949  20034928.110    82039739.13949  20034927.514
 109210778.69649  20782108.490    85099346.42849  20782108.467
 116660253.28148  22199688.371    90904146.93949  22199688.508
 124105373.76046  23616467.660    96705492.66347  23616468.728
 118584525.27847  22565880.963    92403528.42248  22565881.360
 04 12 10  1 34 30.0000000  0  9G 2G 4G 5G 6G10G17G24G29G30
 109409225.51048  20819878.799    85253935.54149  20819876.184
 125460047.57845  23874236.140    97761104.42547  23874236.373
 123317593.43746  23466554.095    96091620.64747  23466554.813
 118947693.99347  22634990.665    92686505.61048  22634990.660
 105282529.69649  20034589.636    82038353.17349  20034589.039
 109200393.58649  20780132.263    85091254.14449  20780132.234
 116716238.18048  22210341.943    90947771.53749  22210342.103
 124000938.34046  23596594.255    96624114.45247  23596595.299
 118636614.67547  22575793.264    92444117.52848  22575793.695
 04 12 10  1 35  0.0000000  0  9G 2G 4G 5G 6G10G17G24G29G30
 109449726.27248  20827585.838    85285494.57249  20827583.230
 125538792.35545  23889220.779    97822463.98546  23889220.959
 123402868.80846  23482781.500    96158068.93848  23482782.240
 118861679.16947  22618622.582    92619481.07848  22618622.593
 105281302.42349  20034356.087    82037396.86549  20034355.483
 109190236.38749  20778199.413    85083339.45149  20778199.377
 116772368.97148  22221023.295    90991509.80249  22221023.465
 123896615.60846  23576742.299    96542824.02047  23576743.353
 118689170.13147  22585794.258    92485069.80348  22585794.690
 04 12 10  1 35 30.0000000  0  9G 2G 4G 5G 6G10G17G24G29G30
 109490661.18549  20835375.493    85317391.90549  20835372.884
 125617765.48746  23904248.861    97884001.51947  23904249.000
 123488496.36346  23499075.912    96224791.67048  23499076.666
 118776071.35447  22602331.963    92552773.68648  22602331.981
 105280782.28449  20034257.102    82036991.57549  20034256.492
 109180463.73249  20776339.744    85075724.39249  20776339.702
 116828801.69548  22231762.092    91035483.35049  22231762.277
 123792565.14646  23556942.148    96461745.75947  23556943.222
 118742345.62547  22595913.236    92526505.23048  22595913.660
 04 12 10  1 36  0.0000000  0  9G 2G 4G 5G 6G10G17G24G29G30
 109531723.78349  20843189.446    85349388.73449  20843186.837
 125696660.50646  23919262.149    97945478.09747  23919262.269
 123574167.00546  23515378.499    96291547.99347  23515379.265
 118690567.16047  22586061.043    92486147.06148  22586061.064
 105280662.15349  20034234.236    82036897.97849  20034233.612
 109170769.83749  20774495.057    85068170.71349  20774495.009
 116885229.91448  22242500.030    91079453.38949  22242500.217
 123688483.70146  23537136.126    96380643.34447  23537137.214
 118795832.47847  22606091.464    92568183.26448  22606091.907
 04 12 10  1 36 30.0000000  0  9G 2G 4G 5G 6G10G17G24G29G30
 109572914.61448  20851027.800    85381485.47849  20851025.205
 125775478.38446  23934260.692    98006894.65447  23934260.781
 123659878.48347  23531688.868    96358336.13048  23531689.656
 118605169.59347  22569810.439    92419603.49848  22569810.431
 105280942.05049  20034287.505    82037116.07549  20034286.881
 109161155.90749  20772665.587    85060679.34149  20772665.539
 116941654.92248  22253237.358    91123420.91749  22253237.567
 123584375.43746  23517324.952    96299520.08047  23517326.031
 118849629.01247  22616328.604    92610102.63648  22616329.053
 04 12 10  1 37  0.0000000  0  9G 2G 4G 5G 6G10G17G24G29G30
 109614695.08749  20858978.360    85414041.68549  20858975.778
 125854680.64346  23949332.369    98068610.70546  23949332.426
 123746089.76847  23548094.360    96425513.73347  23548095.151
 118520342.92647  22553668.455    92353504.80948  22553668.433
 105282082.51949  20034504.523    82038004.76149  20034503.892
 109152084.10449  20770939.275    85053610.41349  20770939.227
 116998538.13948  22264061.875    91167745.50349  22264062.076
 123480705.05446  23497597.134    96218737.99347  23497598.213
 118904194.52547  22626712.093    92652621.18548  22626712.563
 04 12 10  1 37 30.0000000  0 10G 2G 4G 5G 6G10G17G24G26G29G30
 109656447.42149  20866923.571    85446575.96849  20866920.990
 125933649.38845  23964359.622    98130144.78347  23964359.706
 123832180.25846  23564476.848    96492597.21547  23564477.645
 118435471.32447  22537517.920    92287371.11248  22537517.894
 105283465.04549  20034767.603    82039082.06949  20034766.959
 109142937.00649  20769198.640    85046482.80449  20769198.592
 117055261.77448  22274856.042    91211945.72548  22274856.245
 128099788.11045  24376580.484    99818029.87547  24376582.425
 123376857.93246  23477835.642    96137818.20547  23477836.751
 118958908.70647  22637123.880    92695255.58648  22637124.350
 04 12 10  1 38  0.0000000  0 10G 2G 4G 5G 6G10G17G24G26G29G30
 109698476.17849  20874921.383    85479325.64549  20874918.803
 126012689.35245  23979400.427    98191734.33947  23979400.574
 123918451.51147  23580893.727    96559821.56547  23580894.518
 118350862.74147  22521417.460    92221442.34248  22521417.422
 105285393.05949  20035134.492    82040584.41749  20035133.855
 109134019.67949  20767501.723    85039534.24149  20767501.675
 117112130.91348  22285677.873    91256259.34648  22285678.076
 127979750.37345  24353737.206    99724494.13446  24353740.118
 123273141.99246  23458099.125    96057000.64047  23458100.230
 119014073.84047  22647621.479    92738241.36748  22647621.947
 04 12 10  1 38 30.0000000  0 10G 2G 4G 5G 6G10G17G24G26G29G30
 109740930.04749  20883000.086    85512406.57849  20882997.505
 126091949.74445  23994483.172    98253495.62446  23994483.371
 124005049.75046  23597372.854    96627300.67147  23597373.658
 118266668.06847  22505395.740    92155836.12048  22505395.682
 105288014.90349  20035633.412    82042627.41549  20035632.776
 109125481.49749  20765876.955    85032881.12049  20765876.915
 117169294.43947  22296555.742    91300802.33848  22296555.960
 127859847.17644  24330920.250    99631063.08746  24330922.967
 123169709.48846  23438416.557    95976403.90847  23438417.655
 119069836.50647  22658232.768    92781692.78448  22658233.211
 04 12 10  1 39  0.0000000  0 10G 2G 4G 5G 6G10G17G24G26G29G30
 109783340.53149  20891070.550    85545453.70249  20891067.958
 126170961.78245  24009518.609    98315063.45847  24009518.842
 124091503.47146  23613824.492    96694667.18147  23613825.264
 118182421.35147  22489364.129    92090189.32348  22489364.071
 105290861.22949  20036175.044    82044845.33349  20036174.414
 109116854.45149  20764235.283    85026158.74749  20764235.243
 117226283.71048  22307400.428    91345209.57648  22307400.631
 127739613.07544  24308040.199    99537374.20846  24308042.934
 123066095.08946  23418699.356    95895665.43247  23418700.479
 119125725.45647  22668868.129    92825242.55748  22668868.564
 04 12 10  1 39 30.0000000  0 10G 2G 4G 5G 6G10G17G24G26G29G30
 109826161.68249  20899219.150    85578820.83149  20899216.544
 126250179.99145  24024593.369    98376791.83547  24024593.680
 124178264.35746  23630334.563    96762273.04047  23630335.335
 118098579.46047  22473409.560    92024857.97648  22473409.482
 105294385.36949  20036845.654    82047591.43249  20036845.017
 109108593.34549  20762663.247    85019721.52549  20762663.207
 117283553.10948  22318298.444    91389835.05849  22318298.667
 127619505.71446  24285184.362    99443784.14247  24285187.276
 122962756.25046  23399034.611    95815141.68047  23399035.711
 119182192.83447  22679613.543    92869243.08748  22679613.974
 04 12 10  1 40  0.0000000  0 10G 2G 4G 5G 6G10G17G24G26G29G30
 109869232.27849  20907415.212    85612382.33549  20907412.599
 126329442.60546  24039676.579    98438554.86646  24039676.919
 124265168.04946  23646871.815    96829990.17247  23646872.581
 118014983.65647  22457501.813    91959718.39148  22457501.730
 105298425.08449  20037614.374    82050739.27749  20037613.738
 109100537.05749  20761130.180    85013443.90349  20761130.148
 117340941.37748  22329219.074    91434553.18848  22329219.284
 127499366.79245  24262322.739    99350169.43046  24262325.493
 122859534.69846  23379392.179    95734709.33847  23379393.258
 119239074.53647  22690437.807    92913566.46148  22690438.263
 04 12 10  1 40 30.0000000  0 10G 2G 4G 5G 6G10G17G24G26G29G30
 109912699.15349  20915686.689    85646252.62449  20915684.084
 126408897.16546  24054796.296    98500467.49546  24054796.600
 124352358.72746  23663463.662    96897930.95147  23663464.421
 117931783.34547  22441669.308    91894886.99148  22441669.217
 105303126.43449  20038509.011    82054402.66349  20038508.382
 109092833.34049  20759664.217    85007441.00249  20759664.186
 117398595.75248  22340190.349    91479478.66449  22340190.574
 127379346.70545  24239483.557    99256647.33347  24239486.281
 122756580.93146  23359800.687    95654485.66747  23359801.757
 119296515.28647  22701368.442    92958325.45748  22701368.928
 04 12 10  1 41  0.0000000  0 10G 2G 4G 5G 6G10G17G24G26G29G30
 109956402.64749  20924003.194    85680307.29349  20924000.590
 126488383.83946  24069922.126    98562405.15047  24069922.385
 124439673.90246  23680079.199    96965968.73947  23680079.936
 117848821.62947  22425882.219    91830241.49848  22425882.127
 105308328.71549  20039498.972    82058456.38949  20039498.350
 109085322.97149  20758235.036    85001588.76649  20758235.002
 117456356.49348  22351181.864    91524487.03548  22351182.071
 127259289.01545  24216637.302    99163095.96647  24216639.975
 122653738.35346  23340230.383    95574348.61047  23340231.454
 119354352.94947  22712374.607    93003393.73748  22712375.100
 04 12 10  1 41 30.0000000  0 10G 2G 4G 5G 6G10G17G24G26G29G30
 110000030.03048  20932305.209    85714302.65049  20932302.626
 126567589.91846  24084994.553    98624124.16647  24084994.807
 124526797.92146  23696658.378    97033857.56147  23696659.103
 117765788.04547  22410081.453    91765540.01548  22410081.356
 105313718.23749  20040524.552    82062656.03249  20040523.931
 109077693.69849  20756783.227    84995643.88349  20756783.193
 117513911.29248  22362134.202    91569334.90749  22362134.417
 127138884.40845  24193725.091    99069274.19647  24193727.748
 122550697.52346  23320622.318    95494057.10647  23320623.387
 119412272.16347  22723396.303    93048525.55548  22723396.782
 04 12 10  1 42  0.0000000  0 10G 2G 4G 5G 6G10G17G24G26G29G30
 110044348.07448  20940738.652    85748836.18549  20940736.091
 126647282.67546  24100159.604    98686222.39846  24100159.845
 124614495.05546  23713346.624    97102192.96347  23713347.344
 117683452.39447  22394413.505    91701382.36148  22394413.410
 105320061.20149  20041731.572    82067598.60749  20041730.951
 109070713.23149  20755454.895    84990204.54949  20755454.860
 117572027.31448  22373193.319    91614620.11949  22373193.521
 127018903.09846  24170893.377    98975782.30947  24170895.891
 122448229.07246  23301123.208    95414211.56947  23301124.284
 119471037.66047  22734579.047    93094316.81248  22734579.513
 04 12 10  1 42 30.0000000  0 10G 2G 4G 5G 6G10G17G24G26G29G30
 110088585.45348  20949156.739    85783306.86649  20949154.191
 126726690.51145  24115270.383    98748098.64546  24115270.610
 124701991.16046  23729996.609    97170371.70147  23729997.341
 117601045.64647  22378732.035    91637169.29948  22378731.932
 105326584.91849  20042972.988    82072682.03149  20042972.359
 109063610.32549  20754103.257    84984669.81949  20754103.222
 117629932.79748  22384212.390    91659741.26849  22384212.581
 126898577.06646  24147996.077    98882021.83747  24147998.512
 122345564.45546  23281586.739    95334213.21347  23281587.808
 119529875.38147  22745775.528    93140164.33848  22745776.015
 04 12 10  1 43  0.0000000  0 10G 2G 4G 5G 6G10G17G24G26G29G30
 110133203.85049  20957647.338    85818074.44149  20957644.795
 126806275.45245  24130414.894    98810112.83146  24130415.131
 124789745.04846  23746695.642    97238751.33947  23746696.355
 117519032.10147  22363125.376    91573262.64048  22363125.273
 105333750.28549  20044336.518    82078265.42949  20044335.882
 109056847.61449  20752816.361    84979400.17049  20752816.328
 117688089.93648  22395279.344    91705058.50949  22395279.530
 126778371.25146  24125121.730    98788354.98647  24125124.110
 122243168.86846  23262101.531    95254424.42647  23262102.571
 119589244.64147  22757073.129    93186426.09048  22757073.638
 04 12 10  1 43 30.0000000  0 10G 2G 4G 5G 6G10G17G24G26G29G30
 110178204.00649  20966210.583    85853139.49549  20966208.040
 126886038.54945  24145593.301    98872265.89546  24145593.559
 124877754.94946  23763443.399    97307330.46847  23763444.071
 117437415.65547  22347594.294    91509665.39248  22347594.183
 105341557.18749  20045822.116    82084348.74249  20045821.474
 109050426.45349  20751594.455    84974396.67049  20751594.415
 117746499.47248  22406394.315    91750572.43348  22406394.487
 126658290.08846  24102271.122    98694785.21346  24102273.317
 122141046.45346  23242668.228    95174848.56747  23242669.242
 119649143.77547  22768471.585    93233100.71148  22768472.096
 04 12 10  1 44  0.0000000  0 10G 2G 4G 5G 6G10G17G24G26G29G30
 110223125.64249  20974758.892    85888143.35849  20974756.348
 126965519.45244  24160718.049    98934198.99646  24160718.377
 124965557.76746  23780151.773    97375748.18847  23780152.446
 117355737.95047  22332051.526    91446020.44848  22332051.430
 105349544.22849  20047342.006    82090572.39949  20047341.370
 109043887.09249  20750350.056    84969301.06749  20750350.016
 117804701.65748  22417469.822    91795924.78348  22417470.002
 126537876.51546  24079357.181    98600956.51447  24079359.245
 122038740.22147  23223199.999    95095129.43447  23223200.977
 119709109.99347  22779882.813    93279827.58648  22779883.344
 04 12 10  1 44 30.0000000  0 10G 2G 4G 5G 6G10G17G24G26G29G30
 110268586.68848  20983409.847    85923567.54949  20983407.290
 127045335.96145  24175906.626    98996393.63346  24175906.988
 125053768.56446  23796937.766    97444483.84247  23796938.440
 117274619.73648  22316615.237    91382811.44348  22316615.161
 105358328.20749  20049013.541    82097417.06749  20049012.892
 109037847.80249  20749200.811    84964595.13249  20749200.779
 117863314.61847  22428623.516    91841597.19548  22428623.694
 126417751.73846  24056498.261    98507352.80647  24056500.187
 121936871.20346  23203814.970    95015750.99147  23203815.912
 119769758.46747  22791423.869    93327086.10348  22791424.395
 04 12 10  1 45  0.0000000  0 10G 2G 4G 5G 6G10G17G24G26G29G30
 110314280.97149  20992105.192    85959173.47949  20992102.629
 127125182.43046  24191100.910    99058611.64847  24191101.271
 125142078.57146  23813742.631    97513296.80647  23813743.322
 117193757.77847  22301227.730    91319802.10948  22301227.638
 105367602.28849  20050778.334    82104643.63249  20050777.686
 109032003.33549  20748088.646    84960041.00449  20748088.614
 117922032.48747  22439797.167    91887351.36848  22439797.338
 126297613.29946  24033636.724    98413738.40646  24033638.587
 121835136.79246  23184455.543    94936477.44347  23184456.464
 119830780.71947  22803036.029    93374635.90148  22803036.549
 04 12 10  1 45 30.0000000  0 10G 2G 4G 5G 6G10G17G24G26G29G30
 110360056.41848  21000815.982    85994842.65449  21000813.406
 127204906.89446  24206272.001    99120734.59547  24206272.352
 125230332.64946  23830536.853    97582066.19747  23830537.510
 117113002.24747  22285860.434    91256875.73948  22285860.360
 105377213.21049  20052607.226    82112132.66649  20052606.577
 109026202.17049  20746984.721    84955520.61749  20746984.690
 117980703.19148  22450961.836    91933068.78948  22450961.984
 126177312.36246  24010744.294    98319997.39647  24010746.052
 121733388.22846  23165093.399    94857192.88047  23165094.311
 119892022.13947  22814689.920    93422356.43248  22814690.482
 04 12 10  1 46  0.0000000  0 10G 2G 4G 5G 6G10G17G24G26G29G30
 110406068.90148  21009571.855    86030696.55249  21009569.279
 127284664.90546  24221449.517    99182883.64747  24221449.862
 125318684.09746  23847349.563    97650911.49647  23847350.189
 117032511.57847  22270543.569    91194155.73948  22270543.473
 105387315.77749  20054529.686    82120004.79749  20054529.024
 109020600.53849  20745918.760    84951155.71749  20745918.729
 118039482.68347  22462147.226    91978870.98048  22462147.347
 126057008.23246  23987851.191    98226253.96947  23987852.851
 121631784.64546  23145758.833    94778021.30047  23145759.734
 119953636.07847  22826414.668    93470367.28848  22826415.254
 04 12 10  1 46 30.0000000  0 10G 2G 4G 5G 6G10G17G24G26G29G30
 110452473.81648  21018402.428    86066856.21849  21018399.846
 127364612.55546  24236663.067    99245180.52246  24236663.395
 125407285.58146  23864209.900    97719951.57647  23864210.535
 116952444.22447  22255307.252    91131765.59648  22255307.155
 105398064.54549  20056575.103    82128380.46349  20056574.447
 109015354.76348  20744920.522    84947068.09649  20744920.490
 118098526.94248  22473382.968    92024879.50848  22473383.069
 125936859.91546  23964987.733    98132631.92047  23964989.306
 121530484.89346  23126482.089    94699086.46948  23126482.981
 120015775.50447  22838239.450    93518787.57048  22838240.057
 04 12 10  1 47  0.0000000  0 10G 2G 4G 5G 6G10G17G24G26G29G30
 110499272.86448  21027307.991    86103323.00049  21027305.415
 127444751.13745  24251912.944    99307626.18347  24251913.232
 125496135.92946  23881117.589    97789185.58147  23881118.217
 116872804.12847  22240152.246    91069708.37748  22240152.149
 105409459.61949  20058743.508    82137259.74949  20058742.844
 109010466.96149  20743990.405    84943259.41749  20743990.379
 118157837.43848  22484669.393    92071095.46648  22484669.478
 125816872.11946  23942154.868    98039134.89147  23942156.361
 121429493.72646  23107264.062    94620392.10747  23107264.937
 120078439.30046  22850163.997    93567616.48848  22850164.593
 04 12 10  1 47 30.0000000  0 10G 2G 4G 5G 6G10G17G24G26G29G30
 110546159.05549  21036230.142    86139857.69149  21036227.567
 127524774.10645  24267140.802    99369981.73646  24267141.095
 125584925.40846  23898013.707    97858372.14047  23898014.327
 116793286.88548  22225020.594    91007746.91048  22225020.510
 105421192.99549  20060976.283    82146402.65349  20060975.620
 109005630.70549  20743070.102    84939490.90549  20743070.070
 118217107.52948  22495948.134    92117279.93148  22495948.219
 125696741.59646  23919294.795    97945526.70847  23919296.219
 121328507.53246  23088047.010    94541701.58247  23088047.869
 120141317.88147  22862129.423    93616612.74548  22862130.017
 04 12 10  1 48  0.0000000  0 10G 2G 4G 5G 6G10G17G24G26G29G30
 110593287.07649  21045198.319    86176580.82149  21045195.730
 127604836.20645  24282376.102    99432367.78746  24282376.429
 125673806.22246  23914927.163    97927629.91847  23914927.769
 116714050.09448  22209942.334    90946003.95548  22209942.250
 105433418.33549  20063302.688    82155928.89649  20063302.018
 109001001.49749  20742189.187    84935883.73249  20742189.154
 118276492.43248  22507248.705    92163553.89548  22507248.748
 125576626.56746  23896437.630    97851930.62246  23896439.037
 121227684.59547  23068860.996    94463138.31347  23068861.833
 120204563.76247  22874164.756    93665895.19848  22874165.334
 04 12 10  1 48 30.0000000  0 10G 2G 4G 5G 6G10G17G24G26G29G30
 110640657.68748  21054212.658    86213492.97049  21054210.069
 127684938.44144  24297619.109    99494785.04646  24297619.422
 125762776.22846  23931857.616    97996957.15647  23931858.257
 116635096.94248  22194918.037    90884482.03449  22194917.961
 105446135.60449  20065722.692    82165838.46949  20065722.021
 108996580.55049  20741347.909    84932438.84449  20741347.870
 118335992.91947  22518571.277    92209917.89148  22518571.332
 125456531.14046  23873584.248    97758349.74647  23873585.624
 121127028.86946  23049706.818    94384705.31247  23049707.632
 120268174.86647  22886269.582    93715462.25748  22886270.131
 04 12 10  1 49  0.0000000  0 10G 2G 4G 5G 6G10G17G24G26G29G30
 110688271.71848  21063273.301    86250594.83349  21063270.700
 127765081.48345  24312869.800    99557234.21946  24312870.079
 125851833.49146  23948804.650    98066352.40347  23948805.354
 116556430.48647  22179948.308    90823183.50448  22179948.226
 105459344.17249  20068236.205    82176130.85849  20068235.528
 108992369.19949  20740546.509    84929157.27549  20740546.469
 118395610.01148  22529916.033    92256372.75748  22529916.085
 125336459.58545  23850735.414    97664787.46946  23850736.745
 121026544.32746  23030585.228    94306405.69748  23030586.013
 120332149.13047  22898443.515    93765312.30348  22898444.052
 04 12 10  1 49 30.0000000  0 10G 2G 4G 5G 6G10G17G24G26G29G30
 110736129.64948  21072380.380    86287886.70449  21072377.787
 127845266.47845  24328128.479    99619716.05246  24328128.766
 125940976.10146  23965767.937    98135814.14147  23965768.704
 116478054.41248  22165033.825    90762111.24348  22165033.741
 105473043.44849  20070843.084    82186805.62749  20070842.400
 108988368.96149  20739785.283    84926040.21649  20739785.236
 118455344.34747  22541283.099    92302918.98248  22541283.171
 125216415.93145  23827891.759    97571247.06246  23827893.100
 120926235.03547  23011496.963    94228242.66848  23011497.734
 120396484.95247  22910686.245    93815444.08248  22910686.790
 04 12 10  1 50  0.0000000  0 10G 2G 4G 5G 6G10G17G24G26G29G30
 110784078.52249  21081504.747    86325249.46149  21081502.169
 127925340.04745  24343365.996    99682111.01346  24343366.268
 126030047.91446  23982717.745    98205220.74147  23982718.558
 116399818.40548  22150146.014    90701148.12548  22150145.917
 105487079.34649  20073514.027    82197742.69449  20073513.336
 108984427.29249  20739035.220    84922968.77949  20739035.168
 118515043.05847  22552643.392    92349437.44348  22552643.493
 125096250.70245  23805025.047    97477611.83446  23805026.398
 120825951.30147  22992413.579    94150099.54248  22992414.331
 120461026.44046  22922968.100    93865736.13047  22922968.706
 04 12 10  1 50 30.0000000  0 10G 2G 4G 5G 6G10G17G24G26G29G30
 110832427.16448  21090705.182    86362923.72349  21090702.616
 128005611.28345  24358641.170    99744659.95146  24358641.479
 126119355.10946  23999712.369    98274810.72247  23999713.218
 116322033.54348  22135344.047    90640536.55348  22135343.937
 105501759.35849  20076307.522    82209181.67949  20076306.830
 108980853.64449  20738355.178    84920184.12149  20738355.126
 118575015.45847  22564055.760    92396169.16748  22564055.872
 124976276.08145  23782194.558    97384125.16146  23782195.914
 120726005.10046  22973394.437    94072219.40648  22973395.199
 120526079.83247  22935347.402    93916427.03648  22935348.050
 04 12 10  1 51  0.0000000  0 10G 2G 4G 5G 6G10G17G24G26G29G30
 110881022.20348  21099952.511    86400789.98949  21099949.952
 128085927.03845  24373924.762    99807243.68246  24373925.050
 126208741.81245  24016722.117    98344462.65147  24016722.999
 116244549.23948  22120599.274    90580159.18049  22120599.166
 105516929.05849  20079194.226    82221002.22349  20079193.528
 108977495.20649  20737716.088    84917567.15649  20737716.029
 118635108.68547  22575491.127    92442995.03348  22575491.280
 124856342.58345  23759371.913    97290670.50947  23759373.288
 120626246.32346  22954410.931    93994485.36348  22954411.683
 120591489.11547  22947794.410    93967395.28548  22947795.063
 04 12 10  1 51 30.0000000  0 10G 2G 4G 5G 6G10G17G24G26G29G30
 110929864.54448  21109246.905    86438848.94649  21109244.346
 128166288.33345  24389217.026    99869862.85346  24389217.360
 126298206.22546  24033746.628    98414175.19747  24033747.500
 116167369.11048  22105912.396    90520018.81749  22105912.283
 105532588.05049  20082174.039    82233204.02449  20082173.347
 108974353.67749  20737118.269    84915119.21849  20737118.210
 118695323.42547  22586949.599    92489915.61748  22586949.758
 124736454.22145  23736557.845    97197251.04847  23736559.248
 120526679.49246  22935463.952    93916900.87748  22935464.683
 120657252.50747  22960308.786    94018639.45947  22960309.436
 04 12 10  1 52  0.0000000  0 10G 2G 4G 5G 6G10G17G24G26G29G30
 110979109.63648  21118617.940    86477221.74349  21118615.383
 128246850.70645  24404547.571    99932638.69246  24404547.907
 126387900.91245  24050814.918    98484067.19347  24050815.793
 116090650.95648  22091313.416    90460238.44949  22091313.299
 105548890.53149  20085276.292    82245907.26149  20085275.600
 108971584.96849  20736591.407    84912961.77949  20736591.341
 118755815.29847  22598460.837    92537052.12648  22598460.998
 124616769.92945  23713782.610    97103990.60747  23713784.057
 120427463.26046  22916583.707    93839589.56248  22916584.424
 120723522.86847  22972919.640    94070278.67648  22972920.245
 04 12 10  1 52 30.0000000  0 10G 2G 4G 5G 6G10G17G24G26G29G30
 111028450.75849  21128007.249    86515669.36949  21128004.686
 128327307.93245  24419858.108    99995332.57246  24419858.469
 126477516.84546  24067868.311    98553897.71747  24067869.227
 116014091.04448  22076744.555    90400581.37549  22076744.432
 105565528.64649  20088442.414    82258872.03849  20088441.716
 108968883.28249  20736077.288    84910856.58449  20736077.208
 118816277.93047  22609966.518    92584165.84548  22609966.680
 124496986.90046  23690988.622    97010653.21247  23690990.066
 120328294.29147  22897712.444    93762315.07548  22897713.159
 120789990.93647  22985568.128    94122071.95348  22985568.677
 04 12 10  1 53  0.0000000  0 10G 2G 4G 5G 6G10G17G24G26G29G30
 111078198.05949  21137473.840    86554433.50949  21137471.277
 128407969.82545  24435207.550   100058186.00446  24435207.873
 126567360.93746  24084965.097    98623906.08047  24084966.023
 115938001.86448  22062265.266    90341291.10949  22062265.143
 105582811.36649  20091731.207    82272339.09049  20091730.507
 108966559.29949  20735635.048    84909045.68749  20735634.961
 118877021.71148  22621525.681    92631498.65948  22621525.852
 124377418.43645  23668235.470    96917483.02947  23668236.918
 120229485.99147  22878909.814    93685321.64148  22878910.508
 120856964.13947  22998312.747    94174258.81348  22998313.280
 04 12 10  1 53 30.0000000  0 10G 2G 4G 5G 6G10G17G24G26G29G30
 111128045.62248  21146959.528    86593275.75149  21146956.965
 128488530.69844  24450537.774   100120960.68346  24450538.107
 126657124.67346  24102046.604    98693851.80347  24102047.559
 115862080.24048  22047817.861    90282131.41149  22047817.726
 105600431.28749  20095084.154    82286068.90749  20095083.454
 108964307.58849  20735206.556    84907291.11249  20735206.460
 118937741.17948  22633080.223    92678812.51448  22633080.417
 124257762.27046  23645465.599    96824244.51247  23645467.089
 120130735.68247  22860118.273    93608373.34148  22860118.939
 120924133.59746  23011094.688    94226598.63848  23011095.207
 04 12 10  1 54  0.0000000  0 10G 2G 4G 5G 6G10G17G24G26G29G30
 111178148.80748  21156493.859    86632317.20149  21156491.278
 128569146.15345  24465878.409   100183777.89646  24465878.742
 126746960.66545  24119141.812    98763853.88547  24119142.774
 115786483.86348  22033432.355    90223225.14649  22033432.214
 105618542.51949  20098530.607    82300181.56149  20098529.900
 108962284.32049  20734821.541    84905714.54249  20734821.438
 118998591.91248  22644659.738    92726228.66348  22644659.955
 124138177.35546  23622709.364    96731061.45947  23622710.859
 120032202.11847  22841367.953    93531593.97148  22841368.587
 120991652.33646  23023943.124    94279210.58148  23023943.688
 04 12 10  1 54 30.0000000  0 10G 2G 4G 5G 6G10G17G24G26G29G30
 111228508.62849  21166077.020    86671558.62149  21166074.449
 128649817.15945  24481229.674   100246638.32146  24481230.029
 126836867.04346  24136250.475    98833910.75147  24136251.453
 115711216.41348  22019109.435    90164575.19149  22019109.288
 105637144.75649  20102070.483    82314676.82049  20102069.775
 108960491.02449  20734480.288    84904317.17349  20734480.171
 119059574.67247  22656264.384    92773747.68748  22656264.609
 124018667.94246  23599967.467    96637937.26147  23599968.963
 119933889.50246  22822659.684    93454986.74948  22822660.329
 121059518.23747  23036857.599    94332093.08648  23036858.197
 04 12 10  1 55  0.0000000  0 10G 2G 4G 5G 6G10G17G24G26G29G30
 111278970.77948  21175679.648    86710879.78049  21175677.077
 128730389.68345  24496562.110   100309422.15846  24496562.407
 126926687.10545  24153342.659    98903900.41747  24153343.644
 115636126.43248  22004820.299    90106063.51748  22004820.140
 105656082.47949  20105674.218    82329433.47949  20105673.510
 108958774.17949  20734153.577    84902979.37749  20734153.460
 119120535.93947  22667864.921    92821249.96648  22667865.159
 123899083.60446  23577211.313    96544754.70247  23577212.800
 119835646.85846  22803964.707    93378434.07548  22803965.354
 121127574.57447  23049808.307    94385123.98348  23049808.921
 04 12 10  1 55 30.0000000  0 10G 2G 4G 5G 6G10G17G24G26G29G30
 111329842.24848  21185360.173    86750519.87949  21185357.602
 128811170.88045  24511934.320   100372368.47246  24511934.586
 127016725.26445  24170476.321    98974059.99047  24170477.359
 115561523.41448  21990623.817    90047931.29148  21990623.664
 105675661.34049  20109399.945    82344689.74449  20109399.230
 108957441.35849  20733899.950    84901940.81449  20733899.832
 119181782.58347  22679519.758    92868974.63248  22679519.994
 123779734.58746  23554499.926    96451755.51547  23554501.403
 119737784.49747  22785342.083    93302177.73648  22785342.738
 121196125.55347  23062853.149    94438540.28848  23062853.805
 04 12 10  1 56  0.0000000  0 10G 2G 4G 5G 6G10G17G24G26G29G30
 111380813.12848  21195059.615    86790237.43849  21195057.035
 128891850.83145  24527287.210   100435235.96946  24527287.440
 127106668.77846  24187591.985    99044145.84747  24187593.034
 115487100.09248  21976461.500    89989939.11448  21976461.352
 105695570.06149  20113188.443    82360203.03649  20113187.727
 108956183.38949  20733660.572    84900960.58249  20733660.450
 119243005.06347  22691169.991    92916680.45448  22691170.213
 123660314.94846  23531775.154    96358701.22447  23531776.618
 119639995.91847  22766733.505    93225978.88748  22766734.163
 121264858.63247  23075932.637    94492098.51147  23075933.285
 04 12 10  1 56 30.0000000  0 10G 2G 4G 5G 6G10G17G24G26G29G30
 111432342.70848  21204865.368    86830390.36049  21204862.774
 128972889.13645  24542708.358   100498382.61546  24542708.611
 127196974.37445  24204776.616    99114513.80347  24204777.676
 115413318.17348  21962421.261    89932446.71049  21962421.120
 105716266.50949  20117126.840    82376330.14249  20117126.123
 108955460.29249  20733522.978    84900397.13049  20733522.849
 119304662.92747  22702903.104    92964725.50448  22702903.373
 123541287.22246  23509124.913    96265952.38548  23509126.358
 119542743.59947  22748226.981    93150197.89748  22748227.633
 121334230.35747  23089133.673    94546154.35147  23089134.289
 04 12 10  1 57  0.0000000  0 10G 2G 4G 5G 6G10G17G24G26G29G30
 111483811.08148  21214659.468    86870495.59349  21214656.866
 129053666.00045  24558079.732   100561325.59246  24558079.990
 127287019.41545  24221911.647    99184678.70646  24221912.746
 115339560.70848  21948385.688    89874973.34649  21948385.560
 105737129.81949  20121096.984    82392587.29049  20121096.254
 108954652.97649  20733369.350    84899768.05849  20733369.215
 119366136.80747  22714601.189    93012627.22048  22714601.461
 123422035.34446  23486432.041    96173028.85347  23486433.475
 119445411.15747  22729705.227    93074354.45048  22729705.874
 121403618.19547  23102337.751    94600222.75547  23102338.345
 04 12 10  1 57 30.0000000  0 10G 2G 4G 5G 6G10G17G24G26G29G30
 111535522.05848  21224499.751    86910789.85049  21224497.150
 129134485.33445  24573459.128   100624301.73146  24573459.360
 127377104.62545  24239054.292    99254874.97547  24239055.346
 115266133.87548  21934413.027    89817757.63949  21934412.908
 105758462.21949  20125156.405    82409209.94449  20125155.661
 108954065.73549  20733257.602    84899310.47249  20733257.453
 119427730.54247  22726322.075    93060622.35448  22726322.348
 123302866.66447  23463755.007    96080170.16747  23463756.390
 119348305.43747  22711226.611    92998687.68248  22711227.230
 121473322.97547  23115602.159    94654538.12447  23115602.721
 04 12 10  1 58  0.0000000  0 10G 2G 4G 5G 6G10G17G24G26G29G30
 111587624.97948  21234414.601    86951389.53149  21234412.007
 129215496.60544  24588875.126   100687427.30946  24588875.378
 127467377.19746  24256232.586    99325217.26547  24256233.613
 115193189.58648  21920532.202    89760917.92949  21920532.078
 105780411.50949  20129333.216    82426313.28549  20129332.479
 108953848.67449  20733216.297    84899141.33949  20733216.149
 119489593.77047  22738094.291    93108827.42448  22738094.580
 123183933.82447  23441122.864    95987495.22647  23441124.207
 119251579.33947  22692820.229    92923316.73948  22692820.838
 121543491.39746  23128954.778    94709214.80947  23128955.280
 04 12 10  1 58 30.0000000  0 10G 2G 4G 5G 6G10G17G24G26G29G30
 111640115.30748  21244403.191    86992291.08049  21244400.591
 129296695.35045  24604326.751   100750699.02746  24604327.008
 127557829.70245  24273445.173    99395699.64346  24273446.252
 115120725.71348  21906742.791    89704452.57749  21906742.662
 105802971.48349  20133626.224    82443892.49649  20133625.494
 108953997.74149  20733244.663    84899257.49849  20733244.516
 119551721.89847  22749916.875    93157238.95748  22749917.178
 123065235.97646  23418535.409    95895003.42347  23418536.719
 119155231.23547  22674485.794    92848240.30448  22674486.406
 121614115.96546  23142394.240    94764246.85847  23142394.745
 04 12 10  1 59  0.0000000  0 10G 2G 4G 5G 6G10G17G24G26G29G30
 111692680.68948  21254406.044    87033251.11749  21254403.450
 129377769.42844  24619754.641   100813873.62346  24619754.905
 127648147.32146  24290632.068    99466076.96447  24290633.181
 115048432.50848  21892985.840    89648120.21849  21892985.717
 105825828.54049  20137975.760    82461703.20549  20137975.044
 108954201.26749  20733283.399    84899416.08049  20733283.251
 119613802.74247  22761730.467    93205613.63848  22761730.777
 122946464.31347  23395933.889    95802454.12247  23395935.142
 119058952.16046  22656164.483    92773217.67048  22656165.089
 121684881.62347  23155860.491    94819388.92847  23155860.994
 04 12 10  1 59 30.0000000  0 10G 2G 4G 5G 6G10G17G24G26G29G30
 111745471.79848  21264451.858    87074387.04149  21264449.271
 129458869.71745  24635187.566   100877068.57646  24635187.865
 127738477.94846  24307821.444    99536464.49847  24307822.452
 114976463.71348  21879290.628    89592040.63649  21879290.510
 105849132.25949  20142410.310    82479861.94649  20142409.594
 108954610.95349  20733361.366    84899735.32049  20733361.213
 119675987.72448  22773563.905    93254069.44748  22773564.249
 122827773.48446  23373347.775    95709967.78348  23373348.973
 118962896.41147  22637885.634    92698369.08848  22637886.278
 121755936.57146  23169381.834    94874756.40147  23169382.311
                            4  1
RINEX FILE SPLICE; other post-header comments skipped       COMMENT
 04 12 10  2  0  0.0000000  0 10G 2G 4G 5G 6G10G17G24G26G29G30
 111798486.59848  21274540.245    87115697.27049  21274537.643
 129539994.27144  24650625.067   100940282.48446  24650625.408
 127828816.87245  24325012.352    99606858.45746  24325013.345
 114904819.67548  21865657.215    89536214.12249  21865657.090
 105872878.87649  20146929.141    82498365.80249  20146928.432
 108955225.20049  20733478.253    84900213.95149  20733478.100
 119738274.79547  22785416.764    93302604.79748  22785417.153
 122709164.80346  23350777.282    95617545.44547  23350778.433
 118867064.97347  22619649.488    92623695.26748  22619650.169
 121827275.79346  23182957.272    94930345.34147  23182957.775
 04 12 10  2  0 30.0000000  0 10G 2G 4G 5G 6G10G17G24G26G29G30
 111851724.34748  21284671.046    87157181.22749  21284668.449
 129621142.35144  24666067.093   101003514.66845  24666067.460
 127919160.80145  24342204.236    99677256.27646  24342205.234
 114833502.10448  21852085.920    89480641.99949  21852085.795
 105897066.49749  20151531.886    82517213.31549  20151531.172
 108956044.10449  20733634.091    84900852.05849  20733633.932
 119800663.57347  22797288.948    93351219.43548  22797289.352
 122590641.09446  23328222.964    95525189.32347  23328224.063
 118771460.34847  22601456.491    92549198.19748  22601457.193
 121898895.70546  23196586.118    94986153.02148  23196586.649
 04 12 10  2  1  0.0000000  0 10G 2G 4G 5G 6G10G17G24G26G29G30
 111905339.39948  21294873.657    87198959.18149  21294871.044
 129702468.68944  24681542.933   101066885.88146  24681543.296
 128009661.39646  24359425.986    99747776.16847  24359426.943
 114762668.00448  21838606.639    89425446.60149  21838606.507
 105921847.92249  20156247.647    82536523.51449  20156246.927
 108957222.76049  20733858.382    84901770.48449  20733858.228
 119863308.64747  22809209.927    93400033.75648  22809210.377
 122472360.40546  23305714.867    95433022.59447  23305715.915
 118676240.26747  22583336.671    92475000.77848  22583337.395
 121970947.99047  23210297.230    95042297.63547  23210297.775
 04 12 10  2  1 30.0000000  0 10G 2G 4G 5G 6G10G17G24G26G29G30
 111959025.02348  21305089.698    87240792.13349  21305087.071
 129783666.40444  24696994.380   101130156.80546  24696994.732
 128100009.38145  24376618.648    99818177.20546  24376619.588
 114692013.04948  21825161.454    89370390.78649  21825161.307
 105946914.98149  20161017.744    82556056.29549  20161017.032
 108958454.96549  20734092.863    84902730.64549  20734092.710
 119925903.56847  22821121.339    93448809.03348  22821121.790
 122354019.54746  23283195.315    95340809.00047  23283196.284
 118581101.40647  22565232.306    92400866.64148  22565233.035
 122043123.12046  23224031.718    95098537.96847  23224032.277
 04 12 10  2  2  0.0000000  0 10G 2G 4G 5G 6G10G17G24G26G29G30
 112013091.31048  21315378.182    87282921.69649  21315375.548
 129865046.04244  24712480.446   101193569.45046  24712480.825
 128190512.20945  24393840.758    99888698.85746  24393841.703
 114621850.10948  21811809.897    89315718.36949  21811809.729
 105972576.11749  20165900.889    82576051.99449  20165900.171
 108960051.59149  20734396.697    84903974.76349  20734396.543
 119988758.73547  22833082.291    93497787.06448  22833082.771
 122235932.33246  23260724.053    95248793.01047  23260725.001
 118486356.81847  22547202.957    92327039.73448  22547203.682
 122115728.21047  23237848.061    95155113.29847  23237848.665
 04 12 10  2  2 30.0000000  0 10G 2G 4G 5G 6G10G17G24G26G29G30
 112067386.45648  21325710.217    87325229.59349  21325707.576
 129946455.61144  24727972.196   101257005.45046  24727972.589
 128281015.37546  24411062.991    99959220.75247  24411063.916
 114552029.63248  21798523.496    89261312.80349  21798523.327
 105998678.13849  20170867.939    82596391.23349  20170867.221
 108961861.47349  20734741.106    84905385.06049  20734740.945
 120051722.26347  22845063.864    93546849.54248  22845064.337
 122117950.53246  23238272.828    95156859.17747  23238273.775
 118391857.92747  22529220.398    92253404.25748  22529221.108
 122188608.80247  23251716.794    95211903.35547  23251717.384
 04 12 10  2  3  0.0000000  0  9G 2G 5G 6G10G17G24G26G29G30
 112121758.13348  21336056.809    87367597.13449  21336054.170
 128371364.06645  24428255.841   100029622.30947  24428256.718
 114482402.22648  21785273.829    89207057.70049  21785273.646
 106025067.50649  20175889.657    82616954.38449  20175888.944
 108963733.25349  20735097.282    84906843.59449  20735097.126
 120114642.53047  22857037.229    93595878.28548  22857037.710
 121999925.62747  23215813.394    95064891.78547  23215814.314
 118297456.00747  22511256.274    92179844.36148  22511256.969
 122261609.76446  23265608.439    95268787.20647  23265608.994
 04 12 10  2  3 30.0000000  0  9G 2G 5G 6G10G17G24G26G29G30
 112176516.66348  21346477.022    87410266.10949  21346474.392
 128461865.69246  24445477.787   100100143.00147  24445478.660
 114413280.49348  21772120.412    89153196.59949  21772120.230
 106052052.65149  20181024.765    82637981.76449  20181024.061
 108965977.64949  20735524.376    84908592.47249  20735524.212
 120177829.96347  22869061.409    93645115.22348  22869061.889
 121882171.25347  23193405.463    94973135.16248  23193406.379
 118203464.33747  22493370.213    92106604.15248  22493370.893
 122335038.40545  23279581.481    95326004.28147  23279582.026
 04 12 10  2  4  0.0000000  0  9G 2G 5G 6G10G17G24G26G29G30
 112231509.93848  21356941.907    87453118.00149  21356939.285
 128552365.89645  24462699.421   100170662.61946  24462700.278
 114344515.20648  21759034.819    89099613.25149  21759034.622
 106079480.36049  20186244.073    82659354.02049  20186243.369
 108968443.65349  20735993.641    84910514.03449  20735993.477
 120241132.62947  22881107.536    93694441.96248  22881107.974
 121764539.29446  23171020.798    94881473.94147  23171021.712
 118109734.26747  22475533.955    92033567.76048  22475534.623
 122408740.12546  23293606.469    95383434.15147  23293607.010
 04 12 10  2  4 30.0000000  0  9G 2G 5G 6G10G17G24G26G29G30
 112286741.18549  21367452.069    87496155.33249  21367449.464
 128642865.17646  24479920.903   100241181.50146  24479921.710
 114276112.06448  21746018.146    89046312.09749  21746017.928
 106107352.00449  20191547.858    82681072.19449  20191547.161
 108971135.09149  20736505.805    84912611.25649  20736505.633
 120304554.19047  22893176.299    93743861.33948  22893176.714
 121647036.64446  23148660.764    94789913.47247  23148661.642
 118016272.58047  22457748.752    91960740.52148  22457749.398
 122482715.35346  23307683.481    95441077.16747  23307684.016
 04 12 10  2  5  0.0000000  0  9G 2G 5G 6G10G17G24G26G29G30
 112342214.82348  21378008.358    87539381.54649  21378005.754
 128733365.32046  24497142.526   100311701.10847  24497143.310
 114208077.87848  21733071.677    88993298.44649  21733071.453
 106135670.47749  20196936.685    82703138.54349  20196935.981
 108974056.92949  20737061.812    84914888.01849  20737061.634
 120368099.31747  22905268.570    93793377.00848  22905268.954
 121529671.10546  23126326.797    94698459.86147  23126327.659
 117923086.56747  22440016.020    91888128.07948  22440016.660
 122556965.47746  23321812.840    95498934.35747  23321813.371
 04 12 10  2  5 30.0000000  0  9G 2G 5G 6G10G17G24G26G29G30
 112397935.58148  21388611.665    87582800.31349  21388609.068
 128823868.63144  24514364.805   100382223.04946  24514365.656
 114140419.87248  21720196.798    88940577.92049  21720196.562
 106164439.04349  20202411.161    82725555.60749  20202410.457
 108977214.85049  20737662.738    84917348.74349  20737662.560
 120431772.79947  22917385.249    93842992.70748  22917385.606
 121412451.12246  23104020.528    94607119.65647  23104021.372
 117830183.93047  22422337.212    91815736.45248  22422337.840
 122631492.30046  23335994.840    95557007.17447  23335995.376
 04 12 10  2  6  0.0000000  0  9G 2G 5G 6G10G17G24G26G29G30
 112453753.98948  21399233.555    87626295.17149  21399230.957
 128914222.79945  24531558.649   100452628.84046  24531559.546
 114072991.26948  21707365.556    88888036.16249  21707365.313
 106193506.66749  20207942.540    82748205.70349  20207941.834
 108980460.04149  20738280.272    84919877.45949  20738280.106
 120495425.44247  22929497.956    93892592.16948  22929498.302
 121295231.07146  23081714.252    94515779.39147  23081715.085
 117737418.92947  22404684.601    91743452.07248  22404685.218
 122706143.77646  23350200.580    95615177.11147  23350201.122
 04 12 10  2  6 30.0000000  0  9G 2G 5G 6G10G17G24G26G29G30
 112510136.48348  21409962.787    87670229.57949  21409960.180
 129004891.62045  24548812.340   100523279.92946  24548813.111
 114006260.99748  21694667.213    88836038.54249  21694666.970
 106223338.24749  20213619.294    82771451.09949  20213618.582
 108984259.62349  20739003.302    84922838.17749  20739003.136
 120559524.21347  22941695.553    93942539.27948  22941695.881
 121178480.85446  23059497.377    94424805.23747  23059498.207
 117645260.81647  22387147.472    91671640.60548  22387148.063
 122781383.34246  23364518.241    95673805.30447  23364518.779
 04 12 10  2  7  0.0000000  0  9G 2G 5G 6G10G17G24G26G29G30
 112566470.80948  21420682.847    87714126.46149  21420680.232
 129095260.55745  24566009.019   100593697.22346  24566009.810
 113939619.46248  21681985.751    88784110.07749  21681985.509
 106253319.97649  20219324.628    82794813.48749  20219323.908
 108988002.23049  20739715.497    84925754.49549  20739715.331
 120623457.10747  22953861.590    93992357.09548  22953861.946
 121061592.15146  23037254.167    94333723.16147  23037255.003
 117553100.97547  22369609.995    91599827.77848  22369610.599
 122856595.88346  23378830.747    95732412.45047  23378831.304
 04 12 10  2  7 30.0000000  0  9G 2G 5G 6G10G17G24G26G29G30
 112623068.39748  21431453.016    87758228.46249  21431450.406
 129185638.21245  24583207.415   100664121.22047  24583208.298
 113873380.46148  21669380.894    88732495.26849  21669380.653
 106283761.68349  20225117.492    82818534.29749  20225116.765
 108991999.82049  20740476.213    84928869.50449  20740476.033
 120687535.76147  22966055.334    94042288.51248  22966055.723
 120944879.80746  23015044.499    94242778.51148  23015045.353
 117461253.75247  22352132.020    91528258.54548  22352132.631
 122932090.00746  23393196.819    95791239.03947  23393197.381
 04 12 10  2  8  0.0000000  0  9G 2G 5G 6G10G17G24G26G29G30
 112680085.75548  21442303.064    87802657.56549  21442300.447
 129276178.63646  24600436.703   100734672.22047  24600437.580
 113807703.04348  21656882.909    88681318.05649  21656882.655
 106314818.26049  20231027.362    82842734.22449  20231026.634
 108996409.79649  20741315.403    84932305.85149  20741315.223
 120751917.14747  22978306.711    94092455.79148  22978307.154
 120828504.17046  22992898.927    94152096.22648  22992899.782
 117369879.03847  22334743.937    91457057.52048  22334744.560
 123008019.45346  23407645.760    95850404.79947  23407646.340
 04 12 10  2  8 30.0000000  0  9G 2G 5G 6G10G17G24G26G29G30
 112737371.05948  21453204.101    87847295.45349  21453201.490
 129366727.78145  24617667.621   100805230.01245  24617668.483
 113742437.98948  21644463.382    88630462.16949  21644463.121
 106346336.53649  20237025.097    82867293.91449  20237024.369
 109001081.14349  20742204.331    84935945.86649  20742204.145
 120816449.87846  22990586.851    94142741.03848  22990587.317
 120712317.14146  22970789.247    94061560.89548  22970790.129
 117278828.24948  22317417.530    91386108.87548  22317418.168
 123084229.45546  23422148.094    95909789.17147  23422148.664
 04 12 10  2  9  0.0000000  0  9G 2G 5G 6G10G17G24G26G29G30
 112794772.18548  21464127.178    87892023.59349  21464124.574
 129457130.77145  24634870.744   100875673.87346  24634871.647
 113677435.64148  21632093.852    88579810.98749  21632093.585
 106378162.76949  20243081.421    82892093.58349  20243080.701
 109005862.52349  20743114.203    84939671.61349  20743114.018
 120880981.56547  23002866.835    94193025.43248  23002867.333
 120596170.18046  22948687.150    93971056.83048  22948688.036
 117187952.53848  22300124.451    91315296.65548  22300125.086
 123160565.24046  23436674.353    95969271.55947  23436674.916
 04 12 10  2  9 30.0000000  0  9G 2G 5G 6G10G17G24G26G29G30
 112852290.92248  21475072.624    87936843.39549  21475070.028
 129547386.75845  24652045.970   100946003.13047  24652046.930
 113612700.31748  21619775.118    88529367.89649  21619774.851
 106410296.82749  20249196.329    82917133.10949  20249195.609
 109010756.43549  20744045.490    84943485.04949  20744045.305
 120945514.34447  23015147.020    94243310.71048  23015147.504
 120480068.84046  22926593.758    93880588.27948  22926594.654
 117097256.65648  22282865.593    91244624.56748  22282866.240
 123237025.61246  23451224.302    96028851.03147  23451224.870
 04 12 10  2 10  0.0000000  0  9G 2G 5G 6G10G17G24G26G29G30
 112910082.76448  21486070.046    87981876.00549  21486067.436
 129637648.99845  24669222.339   101016337.28246  24669223.393
 113548390.03548  21607537.278    88479255.98049  21607537.025
 106442892.69349  20255399.116    82942532.48949  20255398.389
 109015919.07849  20745027.902    84947507.88949  20745027.724
 121010203.97546  23027457.072    94293718.20748  23027457.514
 120364172.32146  22904539.330    93790279.34948  22904540.245
 117006899.43148  22265671.161    91174216.37848  22265671.811
 123313763.10146  23465826.978    96088646.46747  23465827.549
 04 12 10  2 10 30.0000000  0  9G 2G 5G 6G10G17G24G26G29G30
 112968149.51848  21497119.788    88027122.81749  21497117.185
 129727916.45545  24686399.706   101086675.49246  24686400.771
 113484508.89548  21595381.095    88429478.47349  21595380.849
 106475950.67349  20261689.829    82968291.96149  20261689.108
 109021353.03249  20746061.949    84951742.14449  20746061.765
 121075052.76447  23039797.404    94344249.71448  23039797.847
 120248486.10446  22882524.933    93700134.26647  22882525.857
 116916885.63247  22248542.080    91104075.80748  22248542.729
 123390776.63846  23480482.197    96148656.99047  23480482.747
 04 12 10  2 11  0.0000000  0  9G 2G 5G 6G10G17G24G26G29G30
 113026647.14448  21508251.528    88072705.36249  21508248.938
 129818342.62645  24703607.270   101157137.43246  24703608.266
 113421215.62648  21583336.769    88380159.06149  21583336.537
 106509625.18549  20268097.875    82994531.84749  20268097.156
 109027215.04449  20747177.453    84956309.94049  20747177.275
 121140217.04247  23052197.753    94395027.06848  23052198.173
 120133169.89647  22860580.965    93610277.50248  22860581.894
 116827374.81847  22231508.721    91034327.15148  22231509.356
 123468219.58446  23495219.135    96209002.08647  23495219.704
 04 12 10  2 11 30.0000000  0  9G 2G 5G 6G10G17G24G26G29G30
 113085115.61648  21519377.702    88118265.20749  21519375.125
 129908465.13645  24720757.055   101227362.71446  24720758.074
 113358052.71148  21571317.266    88330941.20549  21571317.035
 106543454.79749  20274535.437    83020892.58149  20274534.717
 109033045.87349  20748287.017    84960853.44849  20748286.846
 121205237.12547  23064570.688    94445692.03448  23064571.121
 120017767.47647  22838620.603    93520353.54248  22838621.560
 116737909.98948  22214484.106    90964614.31948  22214484.740
 123545629.00846  23509949.694    96269321.08547  23509950.273
 04 12 10  2 12  0.0000000  0  9G 2G 5G 6G10G17G24G26G29G30
 113144018.85948  21530586.616    88164163.82349  21530584.059
 129998745.31845  24737936.862   101297710.83446  24737937.902
 113295486.45348  21559411.297    88282188.27949  21559411.080
 106577901.43549  20281090.414    83047734.12349  20281089.688
 109039310.32949  20749479.097    84965734.84449  20749478.933
 121270576.89947  23077004.421    94496606.15048  23077004.822
 119902746.39546  22816732.783    93430726.78148  22816733.736
 116648958.21948  22197557.130    90895301.27748  22197557.734
 123623465.94047  23524761.588    96329973.22047  23524762.190
 04 12 10  2 12 30.0000000  0  9G 2G 5G 6G10G17G24G26G29G30
 113203203.94248  21541849.157    88210282.06949  21541846.590
 130089027.86745  24755117.078   101368060.86646  24755118.106
 113233366.37748  21547590.233    88233783.02549  21547590.030
 106612810.65849  20287733.406    83074936.12949  20287732.680
 109045856.31249  20750724.756    84970835.61449  20750724.593
 121336083.83947  23089470.001    94547650.48348  23089470.393
 119787957.63347  22794889.214    93341281.00348  22794890.171
 116560369.95648  22180699.338    90826271.48348  22180699.900
 123701574.66746  23539625.208    96390837.12747  23539625.816
 04 12 10  2 13  0.0000000  0  9G 2G 5G 6G10G17G24G26G29G30
 113262517.22948  21553136.106    88256500.20449  21553133.531
 130179156.67745  24772268.044   101438291.04446  24772269.132
 113171541.30748  21535825.302    88185607.65949  21535825.098
 106648027.06449  20294434.865    83102377.48949  20294434.133
 109052530.72449  20751994.843    84976036.45649  20751994.691
 121401604.54047  23101938.188    94598705.55348  23101938.600
 119673250.92147  22773061.240    93251899.18448  22773062.195
 116471994.46148  22163882.028    90757407.48848  22163882.556
 123779798.50946  23554510.740    96451790.75647  23554511.314
 04 12 10  2 13 30.0000000  0  9G 2G 5G 6G10G17G24G26G29G30
 113321957.49248  21564447.218    88302817.28449  21564444.635
 130269127.81745  24789388.965   101508398.45946  24789390.018
 113110012.49248  21524116.752    88137663.12949  21524116.562
 106683547.64449  20301194.213    83130055.86349  20301193.475
 109059333.21649  20753289.302    84981337.09949  20753289.163
 121467138.16047  23114408.833    94649770.68048  23114409.249
 119558629.01447  22751249.387    93162583.46148  22751250.338
 116383833.63548  22147105.575    90688710.76548  22147106.084
 123858133.37146  23569417.422    96512830.87047  23569417.987
 04 12 10  2 14  0.0000000  0  9G 2G 5G 6G10G17G24G26G29G30
 113381829.92648  21575840.570    88349471.11649  21575837.993
 130359244.45545  24806537.627   101578619.14646  24806538.711
 113049087.52448  21512523.110    88090189.13149  21512522.927
 106719675.95649  20308069.208    83158207.79249  20308068.471
 109066569.83949  20754666.386    84986976.02649  20754666.246
 121532990.63646  23126940.173    94701084.26048  23126940.610
 119444400.75147  22729512.424    93073574.49348  22729513.370
 116296195.78447  22130428.646    90620421.54848  22130429.144
 123936881.50746  23584402.730    96574193.01047  23584403.332
 04 12 10  2 14 30.0000000  0  9G 2G 5G 6G10G17G24G26G29G30
 113441667.93848  21587227.353    88396098.14849  21587224.759
 130449037.11246  24823624.655   101648587.37846  24823625.767
 112988302.33748  21500956.062    88042824.05449  21500955.884
 106755944.15349  20314970.823    83186468.71949  20314970.093
 109073774.81449  20756037.447    84992590.29049  20756037.315
 121598695.27047  23139443.354    94752282.67948  23139443.779
 119330103.41247  22707762.339    92984511.65348  22707763.292
 116208617.70148  22113763.074    90552178.91648  22113763.574
 124015573.79346  23599377.374    96635511.65347  23599378.017
 04 12 10  2 15  0.0000000  0  9G 2G 6G10G17G21G24G26G29G30
 113501927.39848  21598694.365    88443053.54749  21598691.770
 112928115.16848  21489502.818    87995924.96849  21489502.640
 106792806.23849  20321985.450    83215192.42349  20321984.715
 109081404.59449  20757489.346    84998535.57349  20757489.213
 130320740.30044  24799212.379   101548623.21545  24799210.857
 121664708.31847  23152005.238    94803721.40648  23152005.672
 119216196.32747  22686086.494    92895752.95048  22686087.434
 116121558.27648  22097196.204    90484340.43048  22097196.700
 124094662.88746  23614427.552    96697139.50647  23614428.168
 04 12 10  2 15 30.0000000  0  9G 2G 6G10G17G21G24G26G29G30
 113562601.01548  21610240.158    88490331.70749  21610237.534
 112868521.26848  21478162.470    87949488.16649  21478162.299
 106830253.19549  20329111.363    83244371.88649  20329110.615
 109089453.10149  20759020.920    85004807.13749  20759020.801
 130235132.95545  24782920.844   101481916.31246  24782921.250
 121731022.68547  23164624.478    94855394.90448  23164624.914
 119102676.36747  22664484.364    92807295.84448  22664485.290
 116035013.41748  22080727.235    90416902.92248  22080727.718
 124174138.84546  23629551.383    96759068.79747  23629551.941
 04 12 10  2 16  0.0000000  0  9G 2G 6G10G17G21G24G26G29G30
 113623219.31848  21621775.455    88537566.72449  21621772.838
 112809053.61548  21466846.158    87903149.73349  21466845.988
 106867813.86549  20336258.921    83273639.94649  20336258.159
 109097451.37449  20760542.935    85011039.55649  20760542.829
 130149211.94245  24766570.940   101414964.87246  24766570.849
 121797168.96946  23177211.715    94906937.45448  23177212.124
 118989077.43247  22642867.182    92718777.24148  22642868.074
 115948516.58948  22064267.436    90349502.80648  22064267.898
 124253529.24545  23644658.892    96820931.41847  23644659.494
 04 12 10  2 16 30.0000000  0  9G 2G 6G10G17G21G24G26G29G30
 113684082.87848  21633357.412    88584992.87549  21633354.781
 112750015.17148  21455611.510    87857145.75949  21455611.348
 106905787.14049  20343484.983    83303229.51649  20343484.226
 109105700.89149  20762112.765    85017467.74949  20762112.667
 130063278.23045  24750218.363   101348003.51745  24750217.920
 121863448.36347  23189824.288    94958583.70248  23189824.718
 118875704.11247  22621292.950    92630434.41848  22621293.832
 115862371.68348  22047874.593    90282376.94049  22047875.015
 124333131.91946  23659806.783    96882959.40347  23659807.483
 04 12 10  2 17  0.0000000  0  9G 2G 6G10G17G21G24G26G29G30
 113745338.66248  21645014.006    88632724.64049  21645011.396
 112691555.50948  21444487.012    87811592.77249  21444486.858
 106944318.40649  20350817.239    83333253.87649  20350816.482
 109114349.49449  20763758.534    85024206.92149  20763758.449
 129977479.68145  24733891.258   101281147.62446  24733890.875
 121930008.07346  23202490.168    95010448.40648  23202490.593
 118762707.11647  22599790.331    92542384.85348  22599791.191
 115776729.03948  22031577.346    90215642.42349  22031577.734
 124413090.95547  23675022.494    96945265.12447  23675023.222
 04 12 10  2 17 30.0000000  0  9G 2G 6G10G17G21G24G26G29G30
 113806673.03748  21656685.555    88680517.65449  21656682.931
 112633363.18948  21433413.382    87766248.11149  21433413.229
 106983092.42949  20358195.684    83363467.40249  20358194.933
 109123084.44549  20765420.740    85031013.37449  20765420.662
 129891502.82145  24717530.370   101214152.72146  24717529.944
 121996534.81647  23215149.798    95062287.38448  23215150.239
 118649776.58247  22578300.341    92454387.07648  22578301.196
 115691277.84548  22015316.513    90149057.11048  22015316.882
 124493089.84046  23690245.758    97007601.97347  23690246.434
 04 12 10  2 18  0.0000000  0  9G 2G 6G10G17G21G24G26G29G30
 113868389.33648  21668429.788    88728608.27149  21668427.173
 112575743.91548  21422448.798    87721349.98049  21422448.654
 107022410.68149  20365677.693    83394105.00349  20365676.949
 109132209.57349  20767157.194    85038123.86649  20767157.117
 129805652.16945  24701193.558   101147256.14146  24701192.895
 122063332.03246  23227860.886    95114337.14048  23227861.337
 118537219.33447  22556881.361    92366680.19548  22556882.212
 115606324.45348  21999150.402    90082859.69449  21999150.759
 124573428.86045  23705533.783    97070203.75747  23705534.505
 04 12 10  2 18 30.0000000  0  9G 2G 6G10G17G21G24G26G29G30
 113930330.38148  21680216.789    88776874.01049  21680214.167
 112518543.02748  21411563.825    87676777.86749  21411563.674
 107062114.38549  20373233.051    83425042.95349  20373232.312
 109141568.74349  20768938.191    85045416.72049  20768938.114
 129719770.79644  24684850.805   101080335.65846  24684850.176
 122130242.94746  23240593.592    95166475.50347  23240594.035
 118424882.16947  22535504.292    92279144.76348  22535505.158
 115521714.90248  21983049.704    90016930.20648  21983050.089
 124653948.14846  23720856.153    97132945.96647  23720856.938
 04 12 10  2 19  0.0000000  0  9G 2G 6G10G17G21G24G26G29G30
 113992494.29148  21692046.194    88825313.40749  21692043.601
 112461760.99348  21400758.564    87632532.12949  21400758.405
 107102199.91749  20380861.062    83456278.43949  20380860.329
 109151160.80949  20770763.500    85052891.05249  20770763.438
 129633857.53945  24668502.014   101013390.34246  24668501.301
 122197265.88246  23253347.614    95218701.15447  23253348.072
 118312766.83647  22514169.424    92191782.21048  22514170.276
 115437450.30448  21967014.660    89951269.51048  21967015.054
 124734642.94147  23736211.885    97195825.02447  23736212.677
 04 12 10  2 19 30.0000000  0  9G 2G 6G10G17G21G24G26G29G30
 114054726.30948  21703888.553    88873805.87049  21703885.994
 112405245.53448  21390004.029    87588494.11649  21390003.865
 107142510.85549  20388531.984    83487689.55549  20388531.252
 109160831.91648  20772603.857    85060426.97849  20772603.795
 129547757.96645  24652117.881   100946299.75046  24652117.032
 122264246.44446  23266093.597    95270893.77047  23266094.034
 118200722.54247  22492848.104    92104474.98348  22492848.937
 115353378.95548  21951016.385    89885759.39449  21951016.799
 124815355.53347  23751570.981    97258717.95847  23751571.797
 04 12 10  2 20  0.0000000  0  9G 2G 6G10G17G21G24G26G29G30
 114117334.39348  21715802.475    88922591.38949  21715799.916
 112349306.75848  21379359.240    87544905.45349  21379359.068
 107183353.56749  20396304.094    83519515.04149  20396303.368
 109170890.95349  20774518.028    85068265.18649  20774517.966
 129461781.13444  24635757.016   100879304.86246  24635756.166
 122331493.43846  23278890.245    95323294.03347  23278890.683
 118089060.93247  22471599.594    92017465.96448  22471600.415
 115269812.00848  21935114.129    89820642.30749  21935114.526
 124896391.25346  23766991.560    97321862.67347  23766992.351
 04 12 10  2 20 30.0000000  0  9G 2G 6G10G17G21G24G26G29G30
 114180165.26448  21727758.816    88971550.49249  21727756.275
 112293794.01748  21368795.529    87501648.76749  21368795.351
 107224573.15449  20404147.915    83551634.20449  20404147.188
 109181185.35549  20776476.981    85076286.80149  20776476.926
 129375774.36345  24619390.406   100812286.66446  24619389.454
 122398853.40946  23291708.451    95375782.29448  23291708.891
 117977632.55747  22450395.473    91930638.68148  22450396.283
 115186599.33548  21919279.279    89755801.28548  21919279.648
 124977593.97146  23782443.971    97385137.45147  23782444.774
 04 12 10  2 21  0.0000000  0  9G 2G 6G10G17G21G24G26G29G30
 114243374.77148  21739787.186    89020804.65249  21739784.636
 112238865.32148  21358342.951    87458847.18649  21358342.768
 107266323.34349  20412092.711    83584166.82049  20412091.985
 109191871.68949  20778510.529    85084613.81149  20778510.474
 129289894.11045  24603047.956   100745366.98146  24603046.916
 122466482.37547  23304577.851    95428480.18948  23304578.270
 117866596.71147  22429266.048    91844117.27148  22429266.840
 115103899.50248  21903542.023    89691359.87349  21903542.359
 125059116.24346  23797957.209    97448661.25747  23797958.020
 04 12 10  2 21 30.0000000  0  9G 2G 6G10G17G21G24G26G29G30
 114306656.19348  21751829.264    89070114.83049  21751826.731
 112184216.54548  21347943.647    87416263.72049  21347943.458
 107308295.98049  20420079.833    83616872.77349  20420079.106
 109202644.44649  20780560.522    85093008.16549  20780560.454
 129203834.24045  24586671.229   100678307.41446  24586670.193
 122534074.39246  23317440.232    95481149.23948  23317440.689
 117755650.92147  22408153.743    91757666.04748  22408154.538
 115021409.29048  21887844.646    89627081.81549  21887844.948
 125140648.98146  23813472.367    97512193.27847  23813473.234
 04 12 10  2 22  0.0000000  0  9G 2G 6G10G17G21G24G26G29G30
 114370165.38648  21763914.661    89119602.51949  21763912.115
 112130005.46048  21337627.626    87374021.31649  21337627.439
 107350644.81849  20428138.543    83649871.88049  20428137.802
 109213659.89749  20782656.699    85101591.63749  20782656.610
 129117750.90845  24570289.991   100611229.56246  24570289.035
 122601784.98447  23330325.111    95533910.77048  23330325.571
 117644954.45247  22387088.899    91671409.08348  22387089.699
 114939287.10648  21872217.290    89563090.53549  21872217.570
 125222344.93045  23829018.589    97575852.39946  23829019.503
 04 12 10  2 22 30.0000000  0  9G 2G 6G10G17G21G24G26G29G30
 114433903.42348  21776043.624    89169268.50049  21776041.085
 112076235.76748  21327395.594    87332122.85849  21327395.400
 107393369.49349  20436268.778    83683163.83449  20436268.037
 109224920.23749  20784799.476    85110365.91849  20784799.387
 129031646.52245  24553904.871   100544135.23246  24553903.930
 122669615.84146  23343232.906    95586765.94847  23343233.399
 117534512.40448  22366072.440    91585350.38648  22366073.241
 114857537.21947  21856660.780    89499389.35149  21856661.052
 125304202.48646  23844595.582    97639637.45247  23844596.480
 04 12 10  2 23  0.0000000  0  9G 2G 6G10G17G21G24G26G29G30
 114497871.41048  21788216.327    89219113.68749  21788213.766
 112022910.87048  21317248.215    87290570.98349  21317248.023
 107436469.35549  20444470.409    83716748.15249  20444469.655
 109236427.43449  20786989.229    85119332.57049  20786989.120
 128945522.79544  24537516.142   100477025.81446  24537515.079
 122737568.59546  23356163.855    95639716.14847  23356164.379
 117424329.55548  22345105.312    91499493.65748  22345106.112
 114776164.01148  21841175.926    89435981.69249  21841176.224
 125386219.69447  23860202.961    97703546.97547  23860203.784
 04 12 10  2 23 30.0000000  0  9G 2G 6G10G17G21G24G26G29G30
 114562070.17148  21800432.945    89269138.69049  21800430.367
 111970033.94848  21307186.060    87249368.20249  21307185.861
 107479943.59049  20452743.281    83750624.17749  20452742.526
 109248183.02049  20789226.243    85128492.76949  20789226.134
 128859380.99345  24521123.837   100409902.37546  24521122.811
 122805644.51546  23369118.254    95692762.29847  23369118.828
 117314410.46947  22324188.393    91413842.45048  22324189.174
 114695171.05048  21825763.448    89372870.32349  21825763.767
 125468394.74346  23875840.383    97767579.43047  23875841.233
 04 12 10  2 24  0.0000000  0  9G 2G 6G10G17G21G24G26G29G30
 114626654.41748  21812722.937    89319464.05049  21812720.372
 111917761.86648  21297239.031    87208636.69249  21297238.833
 107523945.12449  20461116.495    83784911.09349  20461115.726
 109260342.56449  20791540.133    85137967.73249  20791540.024
 128773376.02346  24504757.570   100342885.57546  24504756.571
 122873998.21846  23382125.555    95746024.86947  23382126.168
 117204913.64447  22303351.822    91328520.27848  22303352.583
 114614716.09348  21810453.355    89310178.18149  21810453.691
 125550879.46445  23891536.710    97831853.17346  23891537.652
 04 12 10  2 24 30.0000000  0  9G 2G 6G10G17G21G24G26G29G30
 114691316.92548  21825027.815    89369850.41449  21825025.229
 111865789.69448  21287349.056    87168138.90049  21287348.851
 107568165.05849  20469531.262    83819368.19049  20469530.486
 109272599.71149  20793872.597    85147518.75449  20793872.474
 128687202.06545  24488359.223   100275737.05746  24488358.186
 122942322.81946  23395127.295    95799264.80847  23395127.905
 117095535.79347  22282537.886    91243290.81248  22282538.616
 114534494.92548  21795187.781    89247668.18549  21795188.119
 125633363.76646  23907232.950    97896126.62947  23907233.939
 04 12 10  2 25  0.0000000  0  9G 2G 6G10G17G21G24G26G29G30
 114756212.66548  21837377.081    89420418.50549  21837374.519
 111814274.95848  21277546.127    87127997.54549  21277545.929
 107612756.54849  20478016.735    83854114.80749  20478015.949
 109285110.34549  20796253.285    85157267.29649  20796253.167
 128601014.40644  24471958.245   100208577.82746  24471957.156
 123010773.68446  23408153.097    95852603.10747  23408153.708
 116986435.45247  22261776.769    91158277.57848  22261777.462
 114454665.50148  21779996.723    89185463.47649  21779997.056
 125715999.62346  23922958.025    97960518.24447  23922958.930
 04 12 10  2 25 30.0000000  0  9G 2G 6G10G17G21G24G26G29G30
 114821342.50348  21849770.895    89471169.02249  21849768.322
 111763220.74848  21267830.834    87088215.04349  21267830.636
 107657719.00349  20486572.799    83889150.49349  20486572.006
 109297876.21649  20798682.561    85167214.72449  20798682.431
 128514815.05246  24455555.000   100141409.53347  24455553.926
 123079351.95246  23421203.131    95906040.70647  23421203.716
 116877617.45347  22241069.369    91073484.36948  22241070.041
 114375231.62848  21764880.965    89123566.96349  21764881.280
 125798785.20046  23938711.609    98025026.46847  23938712.482
 04 12 10  2 26  0.0000000  0  9G 2G 6G10G17G21G24G26G29G30
 114886707.35148  21862209.430    89522102.65649  21862206.881
 111712629.92148  21258203.720    87048793.62749  21258203.516
 107703051.46649  20495199.286    83924474.48449  20495198.486
 109310899.11449  20801160.748    85177362.42749  20801160.611
 128428605.63945  24439149.846   100074233.42246  24439148.819
 123148058.76846  23434277.609    95959578.49548  23434278.145
 116769086.48447  22220416.588    90988914.81648  22220417.254
 114296197.21548  21749841.198    89061981.73349  21749841.500
 125881718.76045  23954493.376    98089649.92447  23954494.327
 04 12 10  2 26 30.0000000  0  9G 2G 6G10G17G21G24G26G29G30
 114952308.36648  21874692.906    89573220.32549  21874690.353
 111662506.39148  21248665.517    87009736.33649  21248665.312
 107748753.47749  20503896.090    83960086.44749  20503895.283
 109324181.24949  20803688.261    85187712.14249  20803688.117
 128342388.15344  24422743.151   100007051.04246  24422742.119
 123216895.89746  23447376.915    96013217.80247  23447377.435
 116660847.45647  22199819.344    90904572.76048  22199820.025
 114217566.58248  21734878.251    89000711.14449  21734878.550
 125964798.57446  23970302.981    98154387.39547  23970303.978
 04 12 10  2 27  0.0000000  0  9G 2G 6G10G17G21G24G26G29G30
 115018146.88348  21887221.583    89624523.04949  21887219.041
 111612853.28948  21239216.840    86971045.61949  21239216.628
 107794824.32549  20512663.081    83995985.81249  20512662.275
 109337724.53949  20806265.469    85198265.35549  20806265.312
 128256164.28545  24406335.288    99939863.59446  24406334.235
 123285864.78146  23460501.240    96066959.81747  23460501.722
 116552905.49247  22179278.636    90820462.17648  22179279.323
 114139343.79948  21719992.903    88939758.37049  21719993.199
 126048023.07446  23986140.100    98219237.65446  23986141.104
 04 12 10  2 27 30.0000000  0  9G 2G 6G10G17G21G24G26G29G30
 115084224.50348  21899795.754    89676012.09649  21899793.199
 111563674.70048  21229858.454    86932724.64649  21229858.240
 107841264.10649  20521500.283    84032172.65149  20521499.478
 109351531.64249  20808892.879    85209024.13649  20808892.708
 128169936.51445  24389926.701    99872673.13646  24389925.608
 123354967.54246  23473651.082    96120806.09347  23473651.556
 116445265.98848  22158795.495    90736587.27048  22158796.168
 114061533.41748  21705186.043    88879126.93349  21705186.337
 126131391.12546  24002004.507    98284199.78846  24002005.490
 04 12 10  2 28  0.0000000  0  9G 2G 6G10G17G21G24G26G29G30
 115150543.10848  21912415.788    89727688.91649  21912413.229
 111514974.50848  21220591.110    86894776.44849  21220590.894
 107888072.89749  20530407.694    84068647.03449  20530406.910
 109365605.13249  20811570.981    85219990.48549  20811570.803
 128083707.37145  24373517.781    99805481.65646  24373516.725
 123424206.32846  23486826.778    96174758.40247  23486827.261
 116337934.44347  22138370.940    90652952.34748  22138371.605
 113984140.11448  21690458.552    88818820.49649  21690458.836
 126214901.57045  24017896.040    98349272.78546  24017897.065
 04 12 10  2 28 30.0000000  0  9G 2G 6G10G17G21G24G26G29G30
 115217258.27148  21925111.274    89779674.74749  21925108.700
 111466910.85048  21211444.900    86857324.24349  21211444.683
 107935404.82749  20539414.661    84105529.05849  20539413.877
 109380101.61549  20814329.576    85231286.44449  20814329.384
 127997633.38945  24357138.429    99738411.02246  24357137.391
 123493737.27846  23500058.072    96228938.33147  23500058.583
 116231070.43747  22118035.384    90569681.70348  22118036.040
 113907322.72048  21675840.664    88758962.80749  21675840.946
 126298707.56345  24033843.796    98414576.11547  24033844.881
 04 12 10  2 29  0.0000000  0  9G 2G 6G10G17G21G24G26G29G30
 115283909.80648  21937794.645    89831611.00049  21937792.071
 111419025.63448  21202332.634    86820011.09949  21202332.410
 107982797.82749  20548433.249    84142458.66949  20548432.465
 109394561.84449  20817081.272    85242554.15449  20817081.074
 127911254.83045  24340701.160    99671103.03146  24340700.077
 123563100.18746  23513257.419    96282987.29747  23513257.962
 116124217.50648  22097701.912    90486419.71748  22097702.552
 113830623.73948  21661245.310    88699197.39449  21661245.584
 126382345.75646  24049759.686    98479748.68447  24049760.780
 04 12 10  2 29 30.0000000  0  9G 2G 6G10G17G21G24G26G29G30
 115350807.14548  21950524.815    89883738.77649  21950522.230
 111371630.20048  21193313.589    86783079.58949  21193313.350
 108030559.40149  20557521.968    84179675.47949  20557521.198
 109409295.99549  20819885.088    85254035.31149  20819884.882
 127824881.91845  24324264.911    99603799.50446  24324263.815
 123632604.65745  23526483.698    96337146.58747  23526484.305
 116017688.82648  22077430.154    90403410.38648  22077430.764
 113754355.18948  21646731.881    88639767.37549  21646732.143
 126466122.78746  24065701.961    98545029.44746  24065703.085
 04 12 10  2 30  0.0000000  0  9G 2G 6G10G17G21G24G26G29G30
 115418104.54848  21963331.097    89936178.30149  21963328.490
 111324881.55448  21184417.617    86746652.07749  21184417.372
 108078842.40649  20566709.930    84217298.58949  20566709.169
 109424459.22149  20822770.560    85265850.81049  20822770.340
 127738670.39645  24307859.345    99536621.76346  24307858.286
 123702405.66646  23539766.418    96391536.94047  23539767.030
 115911642.49947  22057250.179    90320776.91148  22057250.780
 113678674.88548  21632330.398    88580795.72249  21632330.656
 126550190.62645  24081699.473    98610536.89046  24081700.596
 04 12 10  2 30 30.0000000  0  9G 2G 6G10G17G21G24G26G29G30
 115485493.81848  21976154.867    89988689.39049  21976152.280
 111278473.13148  21175586.388    86710489.66549  21175586.149
 108127336.59149  20575938.061    84255086.26849  20575937.298
 109439744.44249  20825679.247    85277761.36549  20825679.011
 127652312.33646  24291425.946    99469329.79546  24291424.854
 123772195.31246  23553046.993    96445918.42747  23553047.659
 115805774.22348  22037104.086    90238282.19048  22037104.673
 113603277.03048  21617982.645    88522044.17349  21617982.889
 126634237.86346  24097693.202    98676028.15246  24097694.269
 04 12 10  2 31  0.0000000  0  9G 2G 6G10G17G21G24G26G29G30
 115553127.85048  21989025.195    90041391.23949  21989022.571
 111232560.16748  21166849.448    86674713.32449  21166849.209
 108176192.98649  20585235.130    84293156.18549  20585234.361
 109455305.08649  20828640.339    85289886.54849  20828640.089
 127565961.37545  24274993.851    99402043.42146  24274992.697
 123842126.10746  23566354.435    96500409.91547  23566355.098
 115700240.21647  22017021.597    90156047.93248  22017022.197
 113528317.37547  21603718.262    88463634.08349  21603718.518
 126718414.36746  24113711.452    98741620.26047  24113712.486
 04 12 10  2 31 30.0000000  0  9G 2G 6G10G17G21G24G26G29G30
 115621157.43448  22001970.806    90094401.28549  22001968.196
 111187295.75348  21158235.916    86639442.35049  21158235.685
 108225561.04749  20594629.559    84331624.80649  20594628.783
 109471293.28249  20831682.797    85302344.87649  20831682.541
 127479769.46246  24258592.058    99334880.90147  24258590.947
 123912349.90146  23579717.561    96555129.78347  23579718.173
 115595195.58448  21997032.220    90074195.02348  21997032.827
 113453949.84448  21589566.550    88405685.39149  21589566.818
 126802868.67946  24129782.633    98807428.75446  24129783.684
 04 12 10  2 32  0.0000000  0  9G 2G 6G10G17G21G24G26G29G30
 115689270.91648  22014932.377    90147476.72749  22014929.754
 111142370.31248  21149686.889    86604435.52249  21149686.652
 108275127.42749  20604061.734    84370247.95949  20604060.952
 109487398.09848  20834747.442    85314894.08149  20834747.185
 127393425.67046  24242161.392    99267600.02346  24242160.300
 123982555.21246  23593077.223    96609835.18247  23593077.843
 115490332.17648  21977077.330    89992483.32548  21977077.942
 113379865.49448  21575468.719    88347957.36849  21575468.984
 126887286.13045  24145846.746    98873208.55846  24145847.814
 04 12 10  2 32 30.0000000  0  9G 2G 6G10G17G21G24G26G29G30
 115757617.63548  22027938.343    90200733.88349  22027935.741
 111097935.42948  21141231.218    86569810.93249  21141230.989
 108325039.70849  20613559.731    84409140.65249  20613558.930
 109503769.72548  20837862.865    85327651.19549  20837862.602
 127307079.89345  24225730.331    99200317.61947  24225729.234
 124052891.88146  23606461.840    96664642.97147  23606462.435
 115385803.26447  21957186.103    89911032.25048  21957186.735
 113306216.50548  21561453.759    88290568.56249  21561454.021
 126971813.39244  24161931.790    98939073.91446  24161932.837
 04 12 10  2 33  0.0000000  0  9G 2G 6G10G17G21G24G26G29G30
 115826192.47148  22040987.694    90254168.81949  22040985.098
 111053987.92648  21132868.286    86535566.13149  21132868.059
 108375290.97149  20623122.235    84448297.47749  20623121.434
 109520404.17449  20841028.301    85340613.09849  20841028.046
 127220728.20646  24209298.128    99133030.63546  24209296.981
 124123355.01246  23619870.468    96719549.38147  23619871.034
 115281607.61048  21937358.294    89829840.86648  21937358.917
 113233000.66148  21547521.247    88233517.26149  21547521.503
 127056442.54645  24178036.201    99005018.70246  24178037.205
 04 12 10  2 33 30.0000000  0  9G 2G 6G10G17G21G24G26G29G30
 115894990.18348  22054079.481    90307777.39249  22054076.913
 111010524.63048  21124597.496    86501698.62649  21124597.276
 108425874.07249  20632747.884    84487712.88549  20632747.064
 109537296.53349  20844242.816    85353775.97549  20844242.563
 127134365.77145  24192863.897    99065735.25347  24192862.693
 124193939.47146  23633302.256    96774550.21847  23633302.838
 115177743.13547  21917593.518    89748907.53748  21917594.133
 113160215.16348  21533670.609    88176801.33649  21533670.826
 127141165.29145  24194158.433    99071036.40046  24194159.417
 04 12 10  2 34  0.0000000  0  9G 2G 6G10G17G21G24G26G29G30
 115964158.48248  22067241.753    90361674.77349  22067239.196
 110967695.60148  21116447.414    86468325.34949  21116447.196
 108476935.24049  20642464.496    84527500.81649  20642463.667
 109554595.92749  20847534.793    85367256.01649  20847534.534
 127048141.63846  24176455.990    98998547.61546  24176454.816
 124264793.48445  23646785.362    96829761.08747  23646785.965
 115074361.95748  21897920.710    89668350.79848  21897921.316
 113088010.92648  21519930.600    88120538.31149  21519930.797
 127226127.00345  24210326.103    99137240.31546  24210327.096
 04 12 10  2 34 30.0000000  0  9G 2G 6G10G17G21G24G26G29G30
 116033229.71048  22080385.577    90415496.48249  22080383.053
 110925035.23348  21108329.416    86435083.50649  21108329.183
 108528005.11749  20652182.776    84567295.51649  20652181.955
 109571835.58349  20850815.397    85380689.51249  20850815.139
 126961588.93245  24159985.558    98931103.96546  24159984.380
 124335449.62745  23660230.744    96884817.82847  23660231.360
 114970999.96248  21878251.553    89587809.02148  21878252.138
 113015922.88248  21506212.701    88064365.83049  21506212.881
 127310857.20045  24226449.700    99203263.82946  24226450.728
 04 12 10  2 35  0.0000000  0  9G 2G 6G10G17G21G24G26G29G30
 116102660.54148  22093597.819    90469598.42049  22093595.306
 110883001.73548  21100330.708    86402330.12649  21100330.488
 108579538.30149  20661989.209    84607451.24449  20661988.401
 109589472.89249  20854171.659    85394432.87349  20854171.400
 126875164.94346  24143539.590    98863760.63547  24143538.459
 124406364.79446  23673725.463    96940076.37547  23673726.123
 114868117.50947  21858673.661    89507640.89848  21858674.233
 112944410.36348  21492604.297    88008641.82049  21492604.470
 127395809.57345  24242615.670    99269460.41946  24242616.688
 04 12 10  2 35 30.0000000  0  9G 2G 6G10G17G21G24G26G29G30
 116172600.10848  22106906.882    90524096.76249  22106904.396
 110841746.86048  21092480.172    86370183.46649  21092479.953
 108631682.44249  20671911.903    84648083.04549  20671911.094
 109607658.10749  20857632.196    85408603.16749  20857631.946
 126789019.98446  24127146.791    98796634.68347  24127145.646
 124477688.89346  23687298.006    96995653.58547  23687298.684
 114765867.64447  21839216.141    89427965.70348  21839216.699
 112873625.44648  21479134.340    87953484.77949  21479134.520
 127481130.75545  24258851.823    99335944.40246  24258852.824
 04 12 10  2 36  0.0000000  0  9G 2G 6G10G17G21G24G26G29G30
 116242428.76448  22120194.845    90578508.68149  22120192.365
 110800652.94048  21084660.265    86338162.22449  21084660.039
 108683816.38349  20681832.656    84688706.89849  20681831.839
 109625772.42849  20861079.243    85422718.22049  20861078.986
 126702535.43245  24110689.322    98729244.14947  24110688.167
 124548802.37646  23700830.481    97051066.69647  23700831.108
 114663634.57348  21819761.781    89348303.62149  21819762.359
 112802951.33848  21465685.469    87898414.07249  21465685.660
 127566198.42945  24275039.663    99402230.90446  24275040.619
 04 12 10  2 36 30.0000000  0  9G 2G 6G10G17G21G24G26G29G30
 116312606.42248  22133549.227    90633192.55148  22133546.756
 110760181.85148  21076958.879    86306626.31149  21076958.654
 108736398.02149  20691838.603    84729679.60649  20691837.785
 109644276.53349  20864600.457    85437137.00649  20864600.201
 126616171.42345  24094254.756    98661947.56547  24094253.616
 124620165.18746  23714410.384    97106674.07148  23714411.043
 114561881.64448  21800398.818    89269015.63949  21800399.409
 112732850.37648  21452345.651    87843789.98649  21452345.847
 127651469.64544  24291266.319    99468675.91946  24291267.231
 04 12 10  2 37  0.0000000  0  9G 2G 6G10G17G21G24G26G29G30
 116382823.75748  22146911.166    90687907.33449  22146908.702
 110720026.42348  21069317.561    86275336.36649  21069317.330
 108789116.90649  20701870.674    84770759.25049  20701869.869
 109662862.44048  20868137.237    85451619.52649  20868136.980
 126529620.16545  24077784.605    98594505.05546  24077783.420
 124691468.64346  23727978.999    97162235.19347  23727979.652
 114460303.85948  21781069.173    89189864.15449  21781069.770
 112663016.29448  21439056.656    87789373.82549  21439056.849
 127736632.46245  24307472.324    99535036.47846  24307473.234
 04 12 10  2 37 30.0000000  0  9G 2G 6G10G17G21G24G26G29G30
 116453543.04448  22160368.604    90743013.26549  22160366.157
 110680650.78249  21061824.637    86244654.03749  21061824.415
 108842433.09749  20712016.408    84812304.33049  20712015.610
 109681992.93249  20871777.649    85466526.40849  20871777.386
 126443344.71945  24061366.927    98527277.45146  24061365.692
 124763175.40346  23741624.365    97218110.56247  23741625.010
 114359366.66048  21761861.439    89111211.82649  21761862.030
 112593913.90648  21425906.885    87735527.84949  21425907.059
 127822146.30045  24323745.096    99601670.59846  24323746.005
 04 12 10  2 38  0.0000000  0  9G 2G 6G10G17G21G24G26G29G30
 116524303.05548  22173833.799    90798150.92049  22173831.373
 110641595.94148  21054392.754    86214221.69049  21054392.525
 108895884.02149  20722187.786    84853954.39849  20722186.982
 109701208.09749  20875434.173    85481499.26349  20875433.910
 126356884.89746  24044914.105    98459906.22047  24044912.842
 124834824.55746  23755258.746    97273941.08447  23755259.364
 114258613.09948  21742688.662    89032702.57849  21742689.239
 112525084.83348  21412809.147    87681894.82249  21412809.303
 127907547.57045  24339996.435    99668217.03846  24339997.348
 04 12 10  2 38 30.0000000  0  9G 2G 6G10G17G21G24G26G29G30
 116595413.79448  22187365.728    90853561.88349  22187363.304
 110603173.66649  21047081.244    86184282.24749  21047081.015
 108949777.69749  20732443.412    84895949.47449  20732442.585
 109720818.60449  20879165.923    85496780.17549  20879165.665
 126270551.58846  24028485.416    98392633.51447  24028484.160
 124906726.14746  23768941.140    97329968.28547  23768941.778
 114158356.42648  21723610.427    88954580.52949  21723610.983
 112456841.64448  21399822.883    87628718.34449  21399823.033
 127993143.28345  24356284.799    99734914.94046  24356285.695
 04 12 10  2 39  0.0000000  0  9G 2G 6G10G17G21G24G26G29G30
 116666569.20948  22200906.166    90909007.63549  22200903.753
 110565079.87349  21039832.230    86154598.77949  21039832.009
 109003806.44849  20742724.741    84938049.80249  20742723.908
 109740519.28349  20882914.838    85512131.35249  20882914.586
 126184039.49445  24012022.694    98325221.52747  24012021.441
 124978574.98546  23782613.519    97385954.36446  23782614.173
 114058294.51948  21704569.256    88876610.25049  21704569.799
 112388881.00148  21386890.396    87575762.01349  21386890.541
 128078624.63845  24372551.360    99801523.75546  24372552.279
 04 12 10  2 39 30.0000000  0  9G 2G 6G10G17G21G24G26G29G30
 116738079.66348  22214514.152    90964730.04548  22214511.773
 110527627.08749  21032705.214    86125414.78049  21032704.994
 109058279.04049  20753090.537    84980495.97849  20753089.690
 109760621.62349  20886740.186    85527795.50949  20886739.941
 126097660.22945  23995585.267    98257913.00246  23995584.027
 125050681.51245  23796334.888    97442141.30447  23796335.537
 113958741.63348  21685624.954    88799036.59149  21685625.504
 112321515.83048  21374071.219    87523269.69649  21374071.358
 128164299.47045  24388854.762    99868283.32646  24388855.717
 04 12 10  2 40  0.0000000  0  9G 2G 6G10G17G21G24G26G29G30
 116809793.94148  22228160.920    91020611.28249  22228158.557
 110490665.95349  21025671.744    86096613.89149  21025671.530
 109113042.70949  20763511.722    85023168.96549  20763510.869
 109780975.40549  20890613.382    85543655.59349  20890613.143
 126011263.48946  23979144.508    98190590.87747  23979143.292
 125122894.74745  23810076.657    97498411.28747  23810077.349
 113859550.22548  21666749.427    88721744.61849  21666749.976
 112254597.70048  21361337.092    87471125.72749  21361337.238
 128250013.95244  24405165.716    99935073.79046  24405166.706
 04 12 10  2 40 30.0000000  0  9G 2G 6G10G17G21G24G26G29G30
 116881715.27547  22241847.089    91076653.85648  22241844.749
 110454201.35049  21018732.755    86068199.92049  21018732.541
 109168098.68849  20773988.533    85066069.72949  20773987.674
 109801584.55649  20894535.179    85559714.66749  20894534.941
 125924853.33045  23962701.172    98123258.31447  23962699.962
 125195217.93846  23823839.314    97554767.01947  23823839.994
 113760727.08448  21647943.990    88644739.59249  21647944.555
 112188132.14248  21348689.087    87419334.41649  21348689.225
 128335768.46045  24421484.321   100001895.40447  24421485.326
 04 12 10  2 41  0.0000000  0  9G 2G 6G10G17G21G24G26G29G30
 116954000.14347  22255602.436    91132979.71148  22255600.106
 110418392.08549  21011918.502    86040296.57349  21011918.281
 109223602.00049  20784550.468    85109319.05949  20784549.617
 109822606.61249  20898535.543    85576095.48249  20898535.318
 125838587.10346  23946285.266    98056037.87547  23946284.006
 125267808.42546  23837652.831    97611331.04947  23837653.447
 113662432.73148  21629239.179    88568146.61949  21629239.738
 112122278.41348  21336157.504    87368019.85549  21336157.639
 128421716.96345  24437839.790   100068868.22146  24437840.856
 04 12 10  2 41 30.0000000  0  9G 2G 6G10G17G21G24G26G29G30
 117026342.86247  22269368.803    91189350.63049  22269366.498
 110382934.15048  21005171.075    86012667.01749  21005170.854
 109279245.32649  20795139.041    85152677.49349  20795138.197
 109843736.86449  20902556.496    85592560.60949  20902556.278
 125752160.68546  23929838.830    97988692.65647  23929837.532
 125340360.94146  23851459.169    97667865.40647  23851459.828
 113564364.96548  21610577.492    88491730.20749  21610578.024
 112056733.57048  21323684.705    87316945.96949  21323684.859
 128507551.07545  24454173.526   100135751.89446  24454174.585
 04 12 10  2 42  0.0000000  0  9G 2G 6G10G17G21G24G26G29G30
 117099053.69347  22283205.232    91246008.38749  22283202.939
 110348139.73149  20998549.930    85985554.47649  20998549.709
 109335337.14449  20805812.959    85196385.40049  20805812.122
 109865286.46949  20906657.244    85609352.50249  20906657.038
 125665884.85845  23913421.074    97921464.75447  23913419.738
 125413186.01045  23865317.313    97724612.19047  23865317.988
 113466837.82448  21592018.682    88415735.05949  21592019.187
 111991810.40648  21311330.214    87266356.50849  21311330.373
 128593578.52245  24470544.040   100202786.21246  24470545.112
 04 12 10  2 42 30.0000000  0  9G 2G 6G10G17G21G24G26G29G30
 117171672.41348  22297024.133    91302594.37348  22297021.861
 110313550.52448  20991967.822    85958601.84649  20991967.602
 109391415.58249  20816484.325    85240082.88149  20816483.493
 109886796.21748  20910750.413    85626113.34549  20910750.199
 125579300.20346  23896944.497    97853996.24147  23896943.170
 125485823.51246  23879139.805    97781212.81647  23879140.439
 113369394.73448  21573475.855    88339805.40749  21573476.329
 111927051.26048  21299006.934    87215894.86449  21299007.086
 128679336.13245  24486863.194   100269610.30746  24486864.230
 04 12 10  2 43  0.0000000  0  9G 2G 6G10G17G21G24G26G29G30
 117244816.43048  22310942.989    91359589.70049  22310940.717
 110279785.90148  20985542.628    85932291.75049  20985542.408
 109448096.42849  20827270.331    85284249.77349  20827269.499
 109908884.51149  20914953.681    85643325.00149  20914953.454
 125493025.79746  23880527.029    97786769.39947  23880525.726
 125558891.36746  23893044.162    97838148.79447  23893044.809
 113272657.08848  21555067.275    88264425.44549  21555067.735
 111863076.17548  21286832.863    87166044.17649  21286833.009
 128765439.12845  24503248.050   100336703.53346  24503249.112
 04 12 10  2 43 30.0000000  0  9G 2G 6G10G17G21G24G26G29G30
 117318178.99148  22324903.426    91416755.33049  22324901.148
 110246540.88848  20979216.307    85906386.54949  20979216.086
 109505071.30749  20838112.284    85328645.78149  20838111.466
 109931245.48249  20919208.838    85660749.13149  20919208.604
 125406755.75846  23864110.369    97719546.00947  23864109.042
 125632082.91446  23906972.062    97895181.12447  23906972.732
 113176321.64648  21536735.226    88189358.89549  21536735.678
 111799580.89748  21274750.095    87116567.36549  21274750.236
 128851577.84845  24519639.721   100403824.56146  24519640.829
 04 12 10  2 44  0.0000000  0  9G 2G 6G10G17G21G24G26G29G30
 117391453.54148  22338847.109    91473852.37748  22338844.830
 110213510.58548  20972930.849    85880648.64749  20972930.635
 109562032.11149  20848951.571    85373030.81349  20848950.759
 109953573.52149  20923457.735    85678147.59749  20923457.487
 125320184.27746  23847636.310    97652087.77547  23847634.984
 125705092.09045  23920865.264    97952071.34147  23920865.950
 113080085.42848  21518422.059    88114369.66049  21518422.518
 111736261.32448  21262700.799    87067227.43349  21262700.928
 128937443.09145  24535979.357   100470732.49646  24535980.499
 04 12 10  2 44 30.0000000  0  9G 2G 6G10G17G21G24G26G29G30
 117465103.35648  22352862.209    91531241.83049  22352859.912
 110181160.32748  20966774.806    85855440.64749  20966774.599
 109619440.70049  20859876.062    85417764.78349  20859875.236
 109976332.89949  20927788.718    85695882.16949  20927788.458
 125233776.05046  23831193.389    97584756.66047  23831192.053
 125778382.67545  23934811.951    98009180.88346  23934812.668
 112984415.51648  21500216.650    88039821.71249  21500217.110
 111673583.32048  21250773.559    87018387.44949  21250773.675
 129023495.78245  24552354.699   100537786.46346  24552355.877
 04 12 10  2 45  0.0000000  0  9G 2G 6G10G17G21G24G26G29G30
 117539130.18547  22366949.046    91588925.06648  22366946.740
 110149493.47249  20960748.803    85830765.17249  20960748.596
 109677296.63149  20870885.685    85462847.32449  20870884.853
 109999526.15349  20932202.265    85713954.82749  20932202.001
 125147533.71946  23814782.025    97517554.85247  23814780.662
 125851956.36046  23948812.641    98066510.95547  23948813.334
 112889317.47048  21482120.082    87965719.35949  21482120.543
 111611551.01548  21238969.192    86970050.60649  21238969.301
 129109734.73845  24568765.433   100604985.64846  24568766.627
 04 12 10  2 45 30.0000000  0  9G 2G 6G10G17G21G24G26G29G30
 117613381.38247  22381078.591    91646783.11148  22381076.289
 110118359.56748  20954824.212    85806504.98749  20954824.011
 109735445.92849  20881951.129    85508158.47149  20881950.283
 110023002.01949  20936669.574    85732247.71949  20936669.297
 125061305.89446  23798373.374    97450364.38147  23798371.994
 125925661.18945  23962838.204    98123943.29546  23962838.875
 112794642.27148  21464103.984    87891946.50349  21464104.435
 111550014.49948  21227259.159    86922100.10749  21227259.261
 129196005.19545  24585182.220   100672209.27946  24585183.454
 04 12 10  2 46  0.0000000  0  9G 2G 6G10G17G21G24G26G29G30
 117687551.41947  22395192.685    91704577.90448  22395190.413
 110087454.69648  20948943.211    85782423.26849  20948943.017
 109793581.45448  20893013.952    85553458.88049  20893013.090
 110046455.77449  20941132.687    85750523.37049  20941132.398
 124974788.13646  23781909.592    97382947.94347  23781908.219
 125999191.99146  23976830.674    98181240.01547  23976831.266
 112700088.17948  21446110.939    87818268.01649  21446111.374
 111488670.75148  21215585.802    86874299.81849  21215585.897
 129281998.77845  24601546.291   100739217.19846  24601547.541
 04 12 10  2 46 30.0000000  0  9G 2G 6G10G17G21G24G26G29G30
 117762105.14647  22409379.788    91762671.70348  22409377.528
 110057245.23549  20943194.542    85758883.42749  20943194.347
 109852166.57149  20904162.323    85599109.62149  20904161.467
 110070353.01649  20945680.175    85769144.59849  20945679.884
 124888446.20746  23765479.263    97315668.55347  23765477.852
 126073013.86546  23990878.551    98238763.51447  23990879.130
 112606123.55448  21428230.060    87745048.84749  21428230.474
 111427986.78948  21204038.004    86827013.63249  21204038.104
 129368177.71545  24617945.603   100806369.61546  24617946.847
 04 12 10  2 47  0.0000000  0  9G 2G 6G10G17G21G24G26G29G30
 117836891.05847  22423611.080    91820946.41648  22423608.853
 110027581.56348  20937549.727    85735768.88049  20937549.539
 109911047.72749  20915367.034    85644991.03749  20915366.177
 110094543.28949  20950283.437    85787994.15549  20950283.138
 124802129.51546  23749053.731    97248408.82047  23749052.284
 126146975.55945  24004953.029    98296395.96447  24004953.654
 112512600.49748  21410433.178    87672173.77949  21410433.585
 111367813.66748  21192587.440    86780125.48049  21192587.539
 129454388.04245  24634350.925   100873546.45046  24634352.139
 04 12 10  2 47 30.0000000  0  9G 2G 6G10G17G21G24G26G29G30
 117912065.09947  22437916.248    91879523.55148  22437914.042
 109998621.36648  20932038.784    85713202.48949  20932038.596
 109970379.66349  20926657.526    85691223.71549  20926656.670
 110119183.49349  20954972.312    85807194.31649  20954972.014
 124715995.82046  23732663.046    97181291.64047  23732661.599
 126221233.56245  24019083.881    98354259.30747  24019084.542
 112419678.58148  21392750.689    87599767.11549  21392751.100
 111308309.72048  21181264.185    86733758.80649  21181264.277
 129540783.03044  24650791.380   100940867.17446  24650792.585
 04 12 10  2 48  0.0000000  0  8G 2G 6G10G17G21G24G26G29
 117987166.63348  22452207.613    91938044.21648  22452205.401
 109969905.97848  20926574.439    85690826.85749  20926574.245
 110029700.14249  20937945.844    85737447.45649  20937944.987
 110143814.21749  20959659.395    85826387.07549  20959659.105
 124629585.26446  23716219.664    97113958.76247  23716218.215
 126295327.32646  24033183.485    98411994.69247  24033184.166
 112326901.26448  21375095.717    87527473.13649  21375096.118
 111249016.96548  21169981.143    86687556.67449  21169981.229
 04 12 10  2 48 30.0000000  0  8G 2G 6G10G17G21G24G26G29
 118062504.12948  22466543.885    91996748.74548  22466541.677
 109941745.30649  20921215.636    85668883.47549  20921215.455
 110089315.92049  20949290.355    85783901.31449  20949289.486
 110168744.66249  20964403.495    85845813.40149  20964403.204
 124543207.46946  23699782.474    97046651.43047  23699781.062
 126369565.81245  24047310.594    98469842.83847  24047311.359
 112234580.31248  21357527.583    87455534.77649  21357527.983
 111190246.11448  21158797.434    86641761.21149  21158797.510
 04 12 10  2 49  0.0000000  0  8G 2G 6G10G17G21G24G26G29
 118138231.35748  22480954.315    92055756.96948  22480952.080
 109914294.60748  20915991.947    85647493.32049  20915991.760
 110149379.05949  20960719.996    85830703.75249  20960719.135
 110194129.46948  20969234.063    85865593.76349  20969233.778
 124457017.07146  23683380.981    96979490.08847  23683379.614
 126444103.03245  24061494.603    98527923.69247  24061495.441
 112142873.10448  21340076.275    87384074.63449  21340076.671
 111132153.06748  21147742.671    86596493.94149  21147742.734
 04 12 10  2 49 30.0000000  0  8G 2G 6G10G17G21G24G26G29
 118214193.34548  22495409.425    92114948.11048  22495407.200
 109887400.91048  20910874.247    85626537.19449  20910874.060
 110209733.39549  20972205.051    85877733.10549  20972204.183
 110219815.11848  20974121.874    85885608.55649  20974121.587
 124370860.73646  23666985.964    96912355.29847  23666984.628
 126518784.78945  24075706.092    98586117.22147  24075706.972
 112051628.39248  21322712.978    87312974.87849  21322713.361
 111074585.85448  21136787.995    86551636.39949  21136788.042
 04 12 10  2 50  0.0000000  0  8G 2G 6G10G17G21G24G26G29
 118290081.34747  22509850.431    92174081.62548  22509848.185
 109860757.19449  20905804.117    85605775.85649  20905803.922
 110270068.42449  20983686.431    85924747.41149  20983685.557
 110245493.55348  20979008.323    85905617.71749  20979008.044
 124284430.71946  23650538.866    96845007.26047  23650537.549
 126593302.17945  24089886.316    98644182.69447  24089887.184
 111960541.31548  21305379.678    87241997.95649  21305380.049
 111017237.67548  21125875.005    86506949.50949  21125875.054
 04 12 10  2 50 30.0000000  0  9G 2G 6G10G17G18G21G24G26G29
 118366356.15947  22524365.046    92233516.52848  22524362.818
 109834825.63648  20900869.511    85585569.44049  20900869.301
 110330843.16949  20995251.474    85972104.35949  20995250.607
 110271626.28949  20983981.212    85925980.88349  20983980.945
 130427937.33145  24819610.297
 124198188.93546  23634127.577    96777805.89347  23634126.274
 126668116.34346  24104123.019    98702479.39847  24104123.880
 111870075.79448  21288164.656    87171505.36749  21288165.024
 110960571.53548  21115091.785    86462794.10149  21115091.822
 04 12 10  2 51  0.0000000  0  9G 2G 6G10G17G18G21G24G26G29
 118442860.88247  22538923.422    92293130.56948  22538921.229
 109809451.02348  20896040.877    85565797.01949  20896040.659
 110391899.36949  21006870.089    86019680.61149  21006869.221
 110298057.68748  20989010.945    85946576.76949  20989010.686
 130337378.56644  24802378.012   101561585.61145  24802377.650
 124111979.56446  23617722.467    96710629.74447  23617721.195
 126743070.90946  24118386.447    98760885.50847  24118387.302
 111780078.79048  21271038.777    87101377.85449  21271039.146
 110904432.99048  21104408.964    86419049.79949  21104409.001
 04 12 10  2 51 30.0000000  0  9G 2G 6G10G17G18G21G24G26G29
 118519746.11947  22553554.196    92353041.12948  22553552.015
 109784785.49549  20891347.189    85546577.11849  20891346.963
 110453385.97949  21018570.602    86067592.24749  21018569.732
 110324939.20848  20994126.317    85967523.41849  20994126.056
 130247116.56744  24785201.077   101491251.63646  24785201.085
 124025954.90646  23601352.513    96643597.54847  23601351.233
 126818316.69146  24132705.302    98819518.51747  24132706.189
 111690704.28748  21254031.351    87031735.41749  21254031.713
 110848974.75248  21093855.600    86375835.60249  21093855.630
 04 12 10  2 52  0.0000000  0  8G 2G 6G10G17G21G24G26G29
 118596545.29348  22568168.599    92412884.63248  22568166.425
 109760364.15249  20886699.968    85527547.49849  20886699.728
 110514835.02449  21030263.972    86115474.62649  21030263.075
 110351805.29748  20999238.764    85988458.03049  20999238.502
 123939649.20446  23584929.060    96576346.38647  23584927.766
 126893387.70145  24146990.841    98878015.40947  24146991.735
 111601489.56448  21237054.312    86962217.49549  21237054.681
 110793732.84548  21083343.379    86332789.99949  21083343.401
 04 12 10  2 52 30.0000000  0  9G 2G 6G10G17G18G21G24G26G29
 118673715.63447  22582853.656    92473017.33748  22582851.469
 109736645.95449  20882186.551    85509065.78349  20882186.304
 110576702.43448  21042036.955    86163683.00549  21042036.046
 110379114.33849  21004435.501    86009737.79449  21004435.246
 130066545.12954  24750839.379
 123853521.30046  23568539.453    96509233.73547  23568538.164
 126968741.52545  24161330.208    98936732.62446  24161331.139
 111512895.55948  21220195.404    86893183.24149  21220195.765
 110739166.74848  21072959.772    86290270.98149  21072959.800
 04 12 10  2 53  0.0000000  0  9G 2G 6G10G17G18G21G24G26G29
 118750945.07447  22597549.930    92533196.14348  22597547.717
 109713320.12449  20877747.799    85490889.80849  20877747.561
 110638674.28249  21053829.811    86211972.75349  21053828.903
 110406554.91849  21009657.276    86031120.05749  21009657.020
 129976383.20344  24733682.249   101280306.70055  24733684.338
 123767259.74746  23552124.420    96442016.94847  23552123.130
 127044066.06946  24175663.975    98995427.09546  24175664.906
 111424613.43948  21203395.857    86824392.00449  21203396.212
 110684966.52548  21062645.783    86248037.07549  21062645.810
 04 12 10  2 53 30.0000000  0  9G 2G 6G10G17G18G21G24G26G29
 118828691.60247  22612344.632    92593777.82848  22612342.406
 109690846.47449  20873471.205    85473377.87249  20873470.982
 110701207.14849  21065729.414    86260699.66649  21065728.521
 110434586.41248  21014991.486    86052962.78949  21014991.223
 129886659.41745  24716608.433   101210391.99845  24716609.027
 123681324.45046  23535771.476    96375054.38647  23535770.189
 127119820.10245  24190079.547    99054456.14946  24190080.511
 111337104.92149  21186743.534    86756203.56749  21186743.869
 110631592.46749  21052489.037    86206446.91249  21052489.060
 04 12 10  2 54  0.0000000  0  9G 2G 6G10G17G18G21G24G26G29
 118906336.28448  22627119.930    92654280.17148  22627117.689
 109668607.62749  20869239.305    85456048.89549  20869239.077
 110763680.70549  21077617.743    86309380.35649  21077616.858
 110462590.66548  21020320.518    86074784.27849  21020320.254
 129796756.01645  24699500.343   101140337.36546  24699500.398
 123595097.44246  23519363.028    96307864.52347  23519361.730
 127195385.03545  24204459.064    99113337.90746  24204460.060
 111249754.67248  21170121.322    86688138.47049  21170121.631
 110578427.76449  21042372.119    86165019.89149  21042372.135
 04 12 10  2 54 30.0000000  0  9G 2G 6G10G17G18G21G24G26G29
 118984339.26048  22641963.409    92715061.71048  22641961.162
 109647064.94749  20865139.870    85439262.38749  20865139.640
 110826553.22849  21089581.980    86358371.94349  21089581.089
 110491028.70048  21025732.114    86096943.76449  21025731.850
 129707133.66344  24682445.539   101070501.82845  24682445.518
 123509040.02646  23502986.852    96240806.80847  23502985.536
 127271220.85944  24218890.207    99172430.64946  24218891.226
 111163026.15048  21153617.439    86620557.81249  21153617.729
 110525934.70049  21032383.021    86124116.22549  21032383.019
 04 12 10  2 55  0.0000000  0  9G 2G 6G10G17G18G21G24G26G29
 119062391.13547  22656816.205    92775881.34948  22656813.931
 109625910.65249  20861114.347    85422778.52149  20861114.119
 110889514.06449  21101563.041    86407432.31749  21101562.163
 110519592.36348  21031167.598    86119201.17349  21031167.329
 129617484.96644  24665385.911   101000645.74546  24665385.865
 123422844.50046  23486584.407    96173641.45547  23486583.079
 127347018.69445  24233314.079    99231493.85146  24233315.116
 111076613.78348  21137173.701    86553223.52949  21137173.971
 110473806.18049  21022463.299    86083496.61049  21022463.287
 04 12 10  2 55 30.0000000  0  9G 2G 6G10G17G18G21G24G26G29
 119140800.05847  22671736.926    92836979.20248  22671734.658
 109605454.23549  20857221.626    85406838.44949  20857221.398
 110952870.01448  21113619.283    86456800.58249  21113618.413
 110548590.46748  21036685.760    86141797.08749  21036685.504
 129528118.83645  24648380.239   100931009.84446  24648380.036
 123336819.81946  23470214.425    96106609.27047  23470213.089
 127423087.24145  24247789.520    99290767.96447  24247790.552
 110990829.13548  21120849.395    86486378.38049  21120849.665
 110422352.62648  21012672.008    86043402.94749  21012671.990
 04 12 10  2 56  0.0000000  0  9G 2G 6G10G17G18G21G24G26G29
 119219412.30247  22686696.369    92898235.45248  22686694.129
 109585543.85749  20853432.813    85391323.86349  20853432.578
 111016466.06948  21125721.216    86506355.94949  21125720.348
 110577870.58048  21042257.580    86164612.76049  21042257.325
 129438883.20345  24631399.370   100861475.60246  24631399.163
 123250814.14446  23453848.089    96039591.85147  23453846.758
 127499273.14445  24262287.256    99350133.57046  24262288.315
 110905522.16948  21104615.978    86419905.45649  21104616.260
 110371422.57649  21002980.347    86003717.19349  21002980.331
 04 12 10  2 56 30.0000000  0  9G 2G 6G10G17G18G21G24G26G29
 119298229.30047  22701694.745    92959651.27548  22701692.508
 109566182.13449  20849748.400    85376236.80649  20849748.165
 111080301.44949  21137868.667    86556097.82449  21137867.799
 110607434.99648  21047883.520    86187649.95749  21047883.259
 129349780.09246  24614443.706   100792044.55346  24614443.400
 123164829.97346  23437485.851    95972591.17747  23437484.525
 127575577.80446  24276807.580    99409591.72647  24276808.635
 110820697.48348  21088474.347    86353808.32349  21088474.634
 110321019.28849  20993388.908    85964441.93749  20993388.882
 04 12 10  2 57  0.0000000  0  9G 2G 6G10G17G18G21G24G26G29
 119377252.38447  22716732.362    93021227.67548  22716730.147
 109547371.55649  20846168.872    85361579.20449  20846168.644
 111144376.33548  21150061.724    86606026.28749  21150060.870
 110637285.97348  21053563.978    86210910.45649  21053563.710
 129260811.99745  24597513.629   100722718.79746  24597513.365
 123078869.98246  23421128.185    95905609.39547  23421126.882
 127652003.35745  24291350.909    99469144.05247  24291351.997
 110736360.16848  21072425.460    86288090.97849  21072425.742
 110271146.22848  20983898.363    85925579.83149  20983898.336
 04 12 10  2 57 30.0000000  0  9G 2G 6G10G17G18G21G24G26G29
 119456482.98847  22731809.480    93082965.76648  22731807.273
 109529115.19648  20842694.820    85347353.45949  20842694.587
 111208690.81749  21162300.363    86656141.46149  21162299.522
 110667426.01348  21059299.454    86234396.18449  21059299.180
 129171981.71844  24580609.718   100653500.44646  24580609.476
 122992936.77246  23404775.645    95838648.45047  23404774.327
 127728551.40645  24305917.566    99528791.81247  24305918.674
 110652514.97348  21056470.232    86222757.08449  21056470.507
 110221806.88948  20974509.387    85887133.61749  20974509.355
 04 12 10  2 58  0.0000000  0  9G 2G 6G10G17G18G21G24G26G29
 119535922.45847  22746926.314    93144866.64948  22746924.093
 109511415.83449  20839326.749    85333561.74749  20839326.510
 111273244.65249  21174584.537    86706443.16649  21174583.689
 110697857.53648  21065090.380    86258109.05949  21065090.106
 129083291.66144  24563732.496   100584391.38846  24563732.277
 122907033.33146  23388428.746    95771710.71647  23388427.426
 127805223.81645  24320507.870    99588536.52746  24320508.951
 110569166.82548  21040609.600    86157810.49749  21040609.856
 110173004.86449  20965222.653    85849106.08149  20965222.619
 04 12 10  2 58 30.0000000  0  9G 2G 6G10G17G18G21G24G26G29
 119615572.18547  22762083.189    93206931.33148  22762080.976
 109494276.29949  20836065.210    85320206.26449  20836064.965
 111338037.87649  21186914.272    86756931.39749  21186913.416
 110728582.70249  21070937.185    86282050.74349  21070936.910
 128994744.26044  24546882.545   100515393.39146  24546882.284
 122821162.20646  23372088.002    95704798.14447  23372086.693
 127882021.97745  24335122.057    99648379.22346  24335123.118
 110486320.65649  21024844.487    86093255.06749  21024844.723
 110124743.65948  20956038.839    85811499.96449  20956038.798
 04 12 10  2 59  0.0000000  0  9G 2G 6G10G17G18G21G24G26G29
 119695587.75347  22777309.646    93269281.12648  22777307.410
 109477853.41549  20832940.051    85307409.20249  20832939.799
 111403224.75149  21199318.946    86807726.34749  21199318.069
 110759758.35649  21076869.721    86306343.46149  21076869.432
 128906496.26945  24530089.499   100446628.79046  24530089.136
 122735480.17946  23355783.219    95638032.95647  23355781.906
 127959101.88045  24349789.886    99708441.43646  24349790.962
 110404135.24849  21009205.112    86029214.52049  21009205.337
 110077180.74049  20946987.892    85774437.97349  20946987.859
 04 12 10  2 59 30.0000000  0  9G 2G 6G10G17G18G21G24G26G29
 119775508.85447  22792518.131    93331557.29048  22792515.900
 109461688.41349  20829863.960    85294813.08649  20829863.707
 111468343.55349  21211710.648    86858468.28449  21211709.745
 110790925.12249  21082800.547    86330629.25849  21082800.264
 128818088.84045  24513266.196   100377739.85346  24513265.793
 122649528.89746  23339427.216    95571057.93948  23339425.907
 128036003.81745  24364423.898    99768364.94947  24364425.010
 110322154.11048  20993604.602    85965333.14149  20993604.821
 110029858.06748  20937982.681    85737563.17449  20937982.641
                            4  1
RINEX FILE SPLICE; other post-header comments skipped       COMMENT
 04 12 10  3  0  0.0000000  0  9G 2G 6G10G17G18G21G24G26G29
 119855799.55347  22807796.949    93394121.45648  22807794.731
 109446246.42449  20826925.453    85282780.36749  20826925.201
 111533856.56149  21224177.376    86909517.37249  21224176.454
 110822547.76349  21088818.142    86355270.25949  21088817.871
 128729986.81345  24496500.943   100309088.95546  24496500.534
 122563773.44047  23323108.530    95504235.47847  23323107.226
 128113191.48745  24379112.312    99828511.10946  24379113.469
 110240844.26948  20978131.812    85901974.85949  20978132.043
 109983241.28849  20929111.791    85701238.42249  20929111.750
 04 12 10  3  0 30.0000000  0  9G 2G 6G10G17G18G21G24G26G29
 119936153.32247  22823087.757    93456734.77848  22823085.544
 109431222.19648  20824066.449    85271073.17149  20824066.200
 111599456.25849  21236660.596    86960634.02349  21236659.662
 110854321.03348  21094864.394    86380028.64349  21094864.137
 128641885.04145  24479735.722   100240438.25546  24479735.310
 122477908.84946  23306769.036    95437328.02047  23306767.703
 128190359.45144  24393796.864    99888641.98245  24393798.035
 110159902.92149  20962729.144    85838903.72049  20962729.381
 109937026.10948  20920317.323    85665226.61349  20920317.268
 04 12 10  3  1  0.0000000  0  9G 2G 6G10G17G18G21G24G26G29
 120016879.82447  22838449.523    93519638.49948  22838447.344
 109416927.01449  20821346.172    85259934.06249  20821345.915
 111665451.32949  21249219.034    87012058.76949  21249218.095
 110886555.67748  21100998.455    86405146.53349  21100998.213
 128554094.33444  24463029.640   100172030.00746  24463029.240
 122392246.39046  23290468.006    95370578.06347  23290466.659
 128267817.78245  24408536.557    99948884.99356  24408538.040
 110079643.33649  20947456.241    85776363.79949  20947456.486
 109891524.49949  20911658.643    85629770.83549  20911658.575
 04 12 10  3  1 30.0000000  0  9G 2G 6G10G17G18G21G24G26G29
 120097672.81647  22853823.937    93582594.03948  22853821.798
 109403055.59149  20818706.540    85249125.14949  20818706.276
 111731533.69948  21261794.097    87063551.51549  21261793.173
 110918946.27048  21107162.192    86430385.94149  21107161.957
 128466309.34445  24446324.736   100103626.10646  24446324.301
 122306481.51146  23274147.498    95303748.28747  23274146.145
 128345260.37745  24423274.095   100009229.89347  24423274.995
 109999762.35349  20932255.395    85714118.89349  20932255.629
 109846431.77948  20903077.777    85594633.66449  20903077.696
 04 12 10  3  2  0.0000000  0  9G 2G 6G10G17G18G21G24G26G29
 120178842.21647  22869269.966    93645842.90648  22869267.841
 109389919.01649  20816206.733    85238888.85549  20816206.468
 111798011.70948  21274444.436    87115352.55549  21274443.531
 110951803.71248  21113414.749    86455989.14749  21113414.529
 128378841.13045  24429680.094   100035469.06046  24429679.609
 122220924.97946  23257866.632    95237080.86447  23257865.272
 128422997.49945  24438067.156   100069804.26547  24438068.204
 109920573.14849  20917186.185    85652413.04149  20917186.407
 109802059.73148  20894634.040    85560058.05349  20894633.963
 04 12 10  3  2 30.0000000  0  9G 2G 6G10G17G18G21G24G26G29
 120260235.39747  22884758.567    93709266.16948  22884756.457
 109377366.21549  20813818.032    85229107.44149  20813817.763
 111864731.65948  21287140.820    87167342.12349  21287139.930
 110984976.43548  21119727.302    86481838.03449  21119727.076
 128291538.43345  24413066.866    99967441.08846  24413066.369
 122135425.91546  23241596.695    95170458.23347  23241595.322
 128500876.84844  24452886.782   100130489.34046  24452888.302
 109841926.63249  20902220.251    85591130.06249  20902220.447
 109758257.86348  20886298.809    85525926.75049  20886298.720
 04 12 10  3  3  0.0000000  0  9G 2G 6G10G17G18G21G24G26G29
 120341545.61947  22900231.394    93772624.77848  22900229.299
 109365091.39649  20811482.218    85219542.64249  20811481.949
 111931385.07648  21299824.526    87219279.85849  21299823.655
 111018158.62149  21126041.692    86507694.24349  21126041.479
 128204095.52845  24396427.058    99899303.72546  24396426.605
 122049678.91146  23225279.571    95103642.41448  23225278.201
 128578591.73846  24467675.434   100191046.27846  24467676.909
 109763519.43449  20887299.851    85530033.56749  20887300.029
 109714721.06948  20878014.009    85492001.99249  20878013.932
 04 12 10  3  3 30.0000000  0  9G 2G 6G10G17G18G21G24G26G29
 120423236.12947  22915776.593    93836279.70848  22915774.498
 109353559.09249  20809287.705    85210556.42449  20809287.430
 111998434.11249  21312583.539    87271525.85649  21312582.677
 111051814.53048  21132446.187    86533919.64049  21132445.967
 128116976.74144  24379848.845    99831418.99346  24379848.460
 121964148.50047  23209003.669    95036995.32748  23209002.333
 128656606.24346  24482521.326   100251836.79546  24482522.361
 109685818.12749  20872513.772    85469487.11349  20872513.928
 109671914.83948  20869868.231    85458646.50849  20869868.152
 04 12 10  3  4  0.0000000  0  9G 2G 6G10G17G18G21G24G26G29
 120505154.21147  22931365.127    93900111.93448  22931363.071
 109342617.79349  20807205.651    85202030.73249  20807205.369
 112065724.77948  21325388.527    87323960.14049  21325387.672
 111085792.49249  21138911.972    86560395.97749  21138911.751
 128030030.58644  24363303.476    99763668.80646  24363303.134
 121878683.91446  23192740.257    94970399.58947  23192738.943
 128734767.66845  24497394.951   100312741.77846  24497396.018
 109608673.36049  20857833.593    85409374.32949  20857833.734
 109629688.07949  20861832.728    85425742.55549  20861832.655
 04 12 10  3  4 30.0000000  0  9G 2G 6G10G17G18G21G24G26G29
 120587147.85347  22946967.957    93964003.10248  22946965.902
 109332116.66349  20805207.371    85193848.01949  20805207.075
 112133103.82048  21338210.338    87376463.28049  21338209.490
 111119941.43848  21145410.318    86587005.51749  21145410.118
 127943106.42244  24346762.334    99695935.73146  24346761.980
 121793134.55147  23176460.737    94903737.75548  23176459.450
 128812924.41145  24512267.679   100373643.01046  24512268.934
 109531936.50149  20843231.030    85349579.39549  20843231.162
 109587890.81248  20853878.954    85393173.27249  20853878.873
 04 12 10  3  5  0.0000000  0  9G 2G 6G10G17G18G21G24G26G29
 120669526.85847  22962644.190    94028194.48948  22962642.178
 109322366.76049  20803352.038    85186250.68649  20803351.736
 112200879.80748  21351107.668    87429275.75349  21351106.813
 111154572.56048  21152000.413    86613990.78849  21152000.220
 127856514.66545  24330284.470    99628461.64846  24330284.127
 121707812.00247  23160224.395    94837252.65348  23160223.124
 128891386.95345  24527198.598   100434782.58446  24527199.942
 109455920.67349  20828765.658    85290346.31749  20828765.786
 109546834.77449  20846066.244    85361181.56649  20846066.156
 04 12 10  3  5 30.0000000  0  9G 2G 6G10G17G18G21G24G26G29
 120751985.43047  22978335.534    94092447.89848  22978333.516
 109313063.29649  20801581.653    85179001.22549  20801581.351
 112268745.37548  21364022.062    87482158.01649  21364021.202
 111189380.61548  21158624.154    86641113.96249  21158623.968
 127769950.90545  24313811.958    99561009.38146  24313811.618
 121622411.66647  23143973.264    94770706.92748  23143971.986
 128969849.40745  24542129.602   100495922.05946  24542130.903
 109380323.13849  20814379.895    85231439.17349  20814380.029
 109506215.60349  20838336.661    85329530.27749  20838336.573
 04 12 10  3  6  0.0000000  0  9G 2G 6G10G17G18G21G24G26G29
 120834678.36746  22994071.465    94156883.95448  22994069.452
 109304362.00549  20799925.858    85172220.99649  20799925.558
 112336853.99049  21376982.701    87535229.68049  21376981.821
 111224521.41448  21165311.232    86668496.39049  21165311.060
 127683570.80845  24297374.361    99493700.27446  24297374.008
 121537089.96947  23127737.103    94704222.49048  23127735.815
 129048467.11445  24557090.048   100557182.66745  24557091.201
 109305302.14649  20800103.840    85172981.28849  20800103.986
 109466189.94748  20830720.020    85298341.47249  20830719.933
 04 12 10  3  6 30.0000000  0  9G 2G 6G10G17G18G21G24G26G29
 120917605.40746  23009851.962    94221502.41348  23009849.955
 109296263.83849  20798384.835    85165910.72949  20798384.541
 112405204.20749  21389989.326    87588489.59349  21389988.428
 111259995.82048  21172061.793    86696138.76849  21172061.633
 127597375.46845  24280971.885    99426535.14446  24280971.536
 121451848.17847  23111516.117    94637800.33747  23111514.808
 129127239.98444  24572080.027   100618564.07145  24572081.144
 109230860.48749  20785938.051    85114974.81449  20785938.198
 109426759.39549  20823216.618    85267616.38949  20823216.531
 04 12 10  3  7  0.0000000  0  9G 2G 6G10G17G18G21G24G26G29
 121000457.35547  23025618.158    94286062.39048  23025616.153
 109288460.62049  20796899.932    85159830.29049  20796899.644
 112473485.77748  21402982.889    87641695.99849  21402981.991
 111295495.57248  21178817.171    86723800.89849  21178817.023
 127511056.97945  24264545.963    99359274.04446  24264545.681
 121366378.71047  23095251.800    94571200.77548  23095250.492
 129205859.40744  24587040.829   100679825.81546  24587042.109
 109156692.34549  20771824.317    85057181.47049  20771824.465
 109387616.54049  20815767.962    85237115.47549  20815767.889
 04 12 10  3  7 30.0000000  0  9G 2G 6G10G17G18G21G24G26G29
 121083847.95647  23041486.873    94351042.07348  23041484.832
 109281567.18949  20795588.167    85154458.77449  20795587.880
 112542311.00748  21416079.895    87695326.04449  21416079.011
 111331635.31148  21185694.329    86751961.73549  21185694.187
 127425229.89945  24248213.643    99292395.77046  24248213.423
 121281297.02747  23079061.259    94504903.38748  23079059.962
 129284939.00445  24602089.307   100741446.12247  24602090.631
 109083414.62449  20757880.018    85000081.96949  20757880.161
 109349376.58349  20808491.134    85207318.12049  20808491.047
 04 12 10  3  8  0.0000000  0  9G 2G 6G10G17G18G21G24G26G29
 121167311.17047  23057369.431    94416078.33348  23057367.374
 109275118.54549  20794361.037    85149433.85049  20794360.757
 112611212.64148  21429191.452    87749015.62249  21429190.570
 111367950.24548  21192604.843    86780259.07449  21192604.687
 127339429.23645  24231886.266    99225538.21646  24231886.057
 121196138.84747  23062856.202    94438546.35948  23062854.891
 129364013.49145  24617136.753   100803062.54346  24617138.066
 109010564.63849  20744017.127    84943315.76149  20744017.258
 109311575.52148  20801297.814    85177862.76849  20801297.727
 04 12 10  3  8 30.0000000  0  9G 2G 6G10G17G18G21G24G26G29
 121250996.11547  23073294.182    94481287.36048  23073292.115
 109269264.89149  20793247.129    85144872.55249  20793246.849
 112680338.39548  21442345.639    87802879.84849  21442344.764
 111404590.40348  21199577.251    86808809.82349  21199577.102
 127253805.32045  24215592.547    99158818.30246  24215592.365
 121111054.80347  23046665.259    94372247.08948  23046663.955
 129443232.46645  24632210.713
 108938294.69249  20730264.602    84887001.54049  20730264.712
 109274364.01249  20794216.693    85148866.80149  20794216.593
 04 12 10  3  9  0.0000000  0  9G 2G 6G10G17G18G21G24G26G29
 121334743.62847  23089230.822    94546545.14348  23089228.786
 109263848.01549  20792216.338    85140651.60249  20792216.058
 112749528.02348  21455511.982    87856793.83549  21455511.118
 111441397.31448  21206581.385    86837490.51549  21206581.242
 127168200.40246  24199302.407    99092113.23646  24199302.237
 121025886.90546  23030458.335    94305882.49348  23030457.035
 129522436.62044  24647283.250
 108866448.60149  20716592.733    84831017.58749  20716592.836
 109237584.58249  20787217.794    85120207.51449  20787217.687
 04 12 10  3  9 30.0000000  0  9G 2G 6G10G17G18G21G24G26G29
 121419009.71147  23105266.124    94612207.00948  23105264.114
 109259324.99649  20791355.636    85137127.16949  20791355.363
 112819236.64649  21468777.086    87911112.24649  21468776.229
 111478828.56048  21213704.314    86866657.70949  21213704.200
 127083071.43545  24183102.915    99025778.95046  24183102.766
 120941093.44247  23014322.675    94239809.65048  23014321.387
 129602082.87545  24662439.678
 108795486.13649  20703089.001    84775722.18749  20703089.096
 109201695.13449  20780388.241    85092241.73249  20780388.127
 04 12 10  3 10  0.0000000  0  9G 2G 6G10G17G18G21G24G26G29
 121503173.25146  23121281.901    94677788.97048  23121279.922
 109255075.18349  20790546.924    85133815.62049  20790546.664
 112888841.28949  21482022.415    87965349.62249  21482021.565
 111516263.51848  21220827.956    86895827.80049  21220827.849
 126997798.08845  24166875.860    98959332.24946  24166875.741
 120856054.27747  22998140.224    94173545.40148  22998138.943
 129681550.13845  24677562.063
 108724788.45649  20689635.650    84720633.10949  20689635.743
 109166075.74849  20773610.092    85064486.37949  20773609.963
 04 12 10  3 10 30.0000000  0  9G 2G 6G10G17G18G21G24G26G29
 121587691.18246  23137365.147    94743647.05448  23137363.207
 109251556.98749  20789877.439    85131074.15849  20789877.186
 112958798.22648  21495334.789    88019861.51849  21495333.949
 111554160.25648  21228039.465    86925357.70949  21228039.385
 126912838.75946  24150708.559    98893130.23546  24150708.450
 120771228.51147  22981998.412    94107447.41248  22981997.139
 129761295.94744  24692737.180
 108654816.20549  20676320.344    84666109.30249  20676320.442
 109131185.22049  20766970.633    85037298.96649  20766970.496
 04 12 10  3 11  0.0000000  0  9G 2G 6G10G17G18G21G24G26G29
 121672251.47446  23153456.435    94809538.15247  23153454.502
 109248459.08249  20789287.928    85128660.19749  20789287.688
 113028794.08048  21508654.557    88074403.74449  21508653.718
 111592207.73648  21235279.666    86955005.09049  21235279.586
 126827882.90445  24134541.992    98826930.89047  24134541.832
 120686305.97447  22965838.196    94041273.99948  22965836.923
 129841008.29744  24707905.751   101174754.40546  24707908.160
 108585260.34749  20663084.281    84611909.95549  20663084.377
 109096713.25949  20760410.831    85010437.71249  20760410.681
 04 12 10  3 11 30.0000000  0  9G 2G 6G10G17G18G21G24G26G29
 121757158.37046  23169613.716    94875699.34448  23169611.741
 109246086.63149  20788836.465    85126811.53249  20788836.225
 113099131.86648  21522039.399    88129212.40449  21522038.553
 111630711.37148  21242606.700    86985007.88449  21242606.628
 126743235.42944  24118434.071    98760971.87946  24118433.846
 120601592.38447  22949717.724    93975263.43748  22949716.416
 129920991.82745  24723126.028   101237079.20146  24723128.070
 108516428.25849  20649985.952    84558274.58549  20649986.041
 109062965.53249  20753988.846    84984140.79949  20753988.683
 04 12 10  3 12  0.0000000  0  9G 2G 6G10G17G18G21G24G26G29
 121842100.84647  23185777.767    94941888.27548  23185775.746
 109244129.42648  20788464.033    85125286.42749  20788463.794
 113169499.41348  21535429.886    88184044.28549  21535429.012
 111669361.10848  21249961.488    87015124.58149  21249961.410
 126658586.20844  24102325.819    98695011.46446  24102325.601
 120516778.37247  22933578.172    93909174.58148  22933576.842
 130000936.16145  24738339.173   101299373.49646  24738340.911
 108448011.99149  20636966.763    84504963.21749  20636966.845
 109029632.53549  20747645.782    84958167.04849  20747645.613
 04 12 10  3 12 30.0000000  0  9G 2G 6G10G17G18G21G24G26G29
 121927384.85547  23202006.798    95008343.34348  23202004.729
 109242894.48949  20788229.039    85124324.13149  20788228.799
 113240201.68648  21548884.099    88239136.93849  21548883.224
 111708463.76548  21257402.506    87045594.15349  21257402.429
 126574242.31046  24086275.714    98629288.94346  24086275.467
 120432171.83847  22917478.078    93843247.41448  22917476.732
 130081147.19045  24753603.002   101361875.56046  24753604.737
 108380320.56749  20624085.495    84452216.67749  20624085.571
 108997021.80049  20741440.159    84932756.10049  20741439.977
 04 12 10  3 13  0.0000000  0  8G 2G 6G10G17G18G21G26G29
 122012701.15047  23218241.938    95074823.59948  23218239.818
 109242073.36549  20788072.784    85123684.29249  20788072.544
 113310928.28748  21562342.918    88294248.57849  21562342.034
 111747711.14548  21264871.052    87076176.51049  21264870.983
 126489896.11545  24070225.173    98563564.66646  24070224.813
 120347465.10147  22901358.904    93777242.17948  22901357.549
 108313047.75749  20611283.893    84399796.32449  20611283.963
 108964825.50949  20735313.403    84907668.09449  20735313.222
 04 12 10  3 13 30.0000000  0  8G 2G 6G10G17G18G21G26G29
 122098202.99347  23234512.433    95141448.37348  23234510.329
 109241819.85849  20788024.555    85123486.74549  20788024.308
 113381831.09348  21575835.273    88349497.52549  21575834.368
 111787257.42148  21272396.458    87106991.79549  21272396.391
 126405701.40245  24054203.351    98497958.49246  24054202.978
 120262812.97047  22885250.133    93711279.48948  22885248.771
 108246349.82449  20598591.681    84347823.92949  20598591.757
 108933198.36449  20729294.951    84883023.58049  20729294.764
 04 12 10  3 14  0.0000000  0  8G 2G 6G10G17G18G21G26G29
 122184198.57247  23250876.854    95208457.92548  23250874.731
 109242443.09349  20788143.153    85123972.37949  20788142.913
 113453217.42448  21589419.622    88405123.24749  21589418.707
 111827411.89648  21280037.601    87138280.99649  21280037.541
 126321968.05146  24038269.406    98432711.74947  24038269.072
 120178525.68747  22869210.803    93645601.09548  22869209.429
 108180537.98549  20586068.087    84296541.99549  20586068.170
 108902450.30549  20723443.778    84859064.06849  20723443.584
 04 12 10  3 14 30.0000000  0  8G 2G 6G10G17G18G21G26G29
 122270073.90846  23267218.399    95275373.71348  23267216.349
 109243329.79349  20788311.898    85124663.30449  20788311.651
 113524472.01448  21602978.920    88460646.30249  21602977.997
 111867561.35048  21287677.794    87169566.27549  21287677.748
 126238082.84345  24022306.611    98367346.67146  24022306.291
 120093990.98847  22853124.372    93579729.90948  22853122.997
 108115001.07549  20573596.803    84245474.29849  20573596.894
 108871968.40349  20717643.253    84835311.95549  20717643.045
 04 12 10  3 15  0.0000000  0  8G 2G 6G10G17G18G21G26G29
 122356139.84346  23283596.190    95342438.03248  23283594.233
 109244791.76949  20788590.109    85125802.49849  20788589.854
 113595904.51548  21616572.079    88516307.98249  21616571.170
 111908017.60948  21295376.376    87201090.61849  21295376.345
 126154357.64245  24006374.206    98302106.28646  24006373.907
 120009521.38647  22837050.347    93513909.44248  22837048.952
 108050053.24349  20561237.618    84194865.61749  20561237.722
 108842065.12349  20711952.837    84812010.70949  20711952.627
 04 12 10  3 15 30.0000000  0  8G 2G 6G10G17G18G21G26G29
 122442707.62546  23300069.485    95409893.41448  23300067.572
 109247140.75349  20789037.111    85127632.86849  20789036.857
 113667825.21148  21630258.138    88572350.07649  21630257.260
 111949093.02348  21303192.767    87233097.42449  21303192.750
 126071104.86046  23990531.657    98237234.07547  23990531.389
 119925430.05347  22821048.293    93448383.72648  22821046.895
 107986008.39449  20549050.265    84144960.56849  20549050.369
 108813053.03949  20706432.009    84789403.90449  20706431.792
 04 12 10  3 16  0.0000000  0  8G 2G 6G10G17G18G21G26G29
 122529010.47746  23316492.383    95477142.37948  23316490.471
 109249610.62149  20789507.118    85129557.43649  20789506.864
 113739466.02448  21643890.926    88628174.08649  21643890.076
 111990021.56648  21310981.210    87264989.78449  21310981.212
 125987558.88346  23974633.422    98172133.29247  23974633.182
 119840951.70147  22804972.591    93382556.44748  22804971.194
 107922102.65448  20536889.383    84095163.91349  20536889.487
 108784166.73249  20700935.121    84766895.10049  20700934.912
 04 12 10  3 16 30.0000000  0  8G 2G 6G10G17G18G21G26G29
 122615974.81047  23333041.187    95544906.73748  23333039.319
 109253128.93849  20790176.643    85132298.97449  20790176.383
 113811752.85048  21657646.657    88684501.48149  21657645.832
 112031730.96248  21318918.244    87297490.60449  21318918.252
 125904647.48346  23958855.907    98107527.03847  23958855.660
 119757015.05047  22788999.978    93317151.26248  22788998.579
 107859265.76149  20524931.896    84046200.12149  20524932.006
 108756334.35149  20695638.789    84745207.54249  20695638.574
 04 12 10  3 17  0.0000000  0  8G 2G 6G10G17G18G21G26G29
 122702679.61146  23349540.580    95612468.91248  23349538.699
 109256775.10049  20790870.490    85135140.13249  20790870.230
 113883763.36048  21671349.814    88740613.55849  21671349.005
 112073301.26848  21326828.816    87329883.03849  21326828.838
 125821450.25547  23943023.935    98042698.10847  23943023.712
 119672700.68547  22772955.487    93251451.75748  22772954.097
 107796579.49649  20513003.073    83997353.70549  20513003.181
 108728635.96349  20690367.949    84723624.40049  20690367.734
 04 12 10  3 17 30.0000000  0  8G 2G 6G10G17G18G21G26G29
 122789897.36446  23366137.590    95680430.78948  23366135.676
 109261322.29849  20791735.799    85138683.39649  20791735.547
 113956269.14048  21685147.211    88797111.57449  21685146.420
 112115505.95348  21334860.101    87362769.79949  21334860.137
 125738741.21746  23927284.929    97978249.51447  23927284.692
 119588783.22447  22756986.502    93186061.55248  22756985.126
 107734819.25049  20501250.471    83949228.85749  20501250.564
 108701845.49749  20685269.881    84702748.72649  20685269.674
 04 12 10  3 18  0.0000000  0  8G 2G 6G10G17G18G21G26G29
 122877168.83846  23382744.841    95748434.47947  23382742.925
 109266311.64049  20792685.246    85142571.18349  20792684.999
 114028809.64448  21698951.222    88853636.63849  21698950.434
 112157886.24648  21342924.814    87395793.38349  21342924.864
 125656061.71845  23911551.496    97913823.99447  23911551.276
 119504804.86547  22741005.963    93120623.85448  22741004.610
 107673528.23849  20489587.161    83901469.64249  20489587.245
 108675504.67049  20680257.383    84682223.42149  20680257.177
 04 12 10  3 18 30.0000000  0  8G 2G 6G10G17G18G21G26G29
 122964649.54546  23399391.849    95816601.29847  23399389.867
 109271899.85549  20793748.665    85146925.62249  20793748.421
 114101539.47148  21712791.259    88910309.22649  21712790.474
 112200599.09448  21351052.811    87429076.11349  21351052.846
 125573568.56946  23895853.530    97849543.65747  23895853.369
 119420923.23447  22725043.802    93055261.55848  22725042.462
 107612865.20849  20478043.365    83854199.76249  20478043.420
 108649770.52448  20675360.332    84662170.85449  20675360.128
 04 12 10  3 19  0.0000000  0  8G 2G 6G10G17G18G21G26G29
 123052187.11846  23416049.707    95884812.36047  23416047.751
 109277934.84349  20794897.091    85151628.19749  20794896.845
 114174305.57548  21726638.189    88967010.09449  21726637.397
 112243493.08148  21359215.271    87462499.99249  21359215.299
 125491110.82146  23880162.330    97785290.89447  23880162.188
 119336988.18547  22709071.499    92989857.62048  22709070.160
 107552680.61249  20466590.605    83807302.69149  20466590.653
 108624492.12849  20670550.007    84642473.41149  20670549.811
 04 12 10  3 19 30.0000000  0  8G 2G 6G10G17G18G21G26G29
 123140245.08146  23432806.604    95953428.93347  23432804.649
 109284880.79849  20796218.869    85157040.62849  20796218.616
 114247570.06448  21740579.957    89024099.30449  21740579.158
 112287032.52448  21367500.558    87496426.82649  21367500.586
 125409152.81546  23864566.252    97721427.52847  23864566.094
 119253464.74647  22693177.523    92924774.42748  22693176.172
 107493440.67849  20455317.620    83761141.71849  20455317.649
 108600134.15649  20665914.833    84623493.18449  20665914.638
 04 12 10  3 20  0.0000000  0  8G 2G 6G10G17G18G21G26G29
 123228054.81546  23449516.252    96021852.06747  23449514.316
 109291969.54349  20797567.824    85162564.30949  20797567.578
 114320563.43748  21754470.140    89080977.25149  21754469.333
 112330449.79548  21375762.601    87530258.45349  21375762.630
 125326926.93546  23848919.128    97657355.48047  23848918.977
 119169586.14647  22677215.956    92859414.47748  22677214.612
 107434379.44149  20444078.629    83715119.99749  20444078.652
 108575928.89749  20661308.713    84604631.96049  20661308.512
 04 12 10  3 20 30.0000000  0  8G 2G 6G10G17G18G21G26G29
 123316387.38346  23466325.417    96090682.56548  23466323.518
 109299972.60349  20799090.761    85168800.44949  20799090.507
 114394055.93748  21768455.286    89138244.13749  21768454.469
 112374516.98548  21384148.315    87564596.50749  21384148.356
 125245205.76746  23833368.095    97593676.67447  23833367.924
 119086125.41147  22661333.912    92794380.12948  22661332.583
 107376270.85749  20433020.933    83669840.59449  20433020.944
 108552649.00049  20656878.678    84586491.79549  20656878.475
 04 12 10  3 21  0.0000000  0  8G 2G 6G10G17G18G21G26G29
 123404627.39547  23483116.998    96159440.94848  23483115.139
 109308275.57749  20800670.771    85175270.29049  20800670.516
 114467431.29348  21782418.140    89195419.75749  21782417.301
 112418619.66948  21392540.783    87598962.22249  21392540.838
 125163374.78345  23817796.158    97529912.32747  23817795.920
 119002469.55647  22645414.732    92729193.75948  22645413.398
 107318502.38849  20422027.947    83624826.22649  20422027.945
 108529680.24549  20652507.864    84568594.07049  20652507.661
 04 12 10  3 21 30.0000000  0  8G 2G 6G10G17G18G21G26G29
 123493391.79846  23500008.314    96228608.00147  23500006.463
 109317495.24549  20802425.221    85182454.43649  20802424.973
 114541305.12548  21796475.869    89252983.77149  21796475.021
 112463375.82348  21401057.595    87633837.12949  21401057.662
 125082051.66946  23802320.837    97466543.70247  23802320.555
 118919237.01047  22629576.105    92664337.23348  22629574.779
 107261693.57149  20411217.576    83580559.63049  20411217.575
 108507640.42849  20648313.820    84551420.19349  20648313.609
 04 12 10  3 22  0.0000000  0  8G 2G 6G10G17G18G21G26G29
 123582065.55046  23516882.428    96297704.37748  23516880.588
 109327017.43149  20804237.251    85189874.30949  20804236.997
 114615061.73948  21810511.286    89310456.44149  21810510.442
 112508171.31248  21409581.894    87668742.69349  21409581.972
 125000622.86946  23786825.422    97403092.75247  23786825.086
 118835814.84747  22613701.390    92599332.95548  22613700.078
 107205232.08349  20400473.295    83536563.68849  20400473.301
 108485915.90449  20644179.769    84534492.00949  20644179.551
 04 12 10  3 22 30.0000000  0  8G 2G 6G10G17G18G21G26G29
 123670958.18546  23533798.193    96366971.30647  23533796.363
 109337152.17149  20806165.840    85197771.49649  20806165.594
 114689009.78748  21824583.126    89368078.29549  21824582.295
 112553316.59548  21418172.743    87703920.83749  21418172.819
 124919398.93446  23771369.038    97339801.39047  23771368.643
 118752514.49147  22597849.847    92534423.60248  22597848.536
 107149430.31549  20389854.554    83493081.81249  20389854.568
 108464817.36249  20640164.850    84518051.59349  20640164.626
 04 12 10  3 23  0.0000000  0  8G 2G 6G10G17G18G21G26G29
 123760071.41746  23550755.901    96436410.16448  23550754.072
 109347901.39649  20808211.361    85206147.49949  20808211.115
 114763150.10848  21838691.554    89425849.97549  21838690.737
 112598814.25048  21426830.671    87739373.53449  21426830.752
 124838382.40846  23755952.059    97276671.68647  23755951.618
 118669339.76847  22582022.224    92469612.12748  22582020.912
 107094292.40949  20379362.135    83450117.23549  20379362.164
 108444347.47749  20636269.554    84502101.04449  20636269.308
 04 12 10  3 23 30.0000000  0  8G 2G 6G10G17G18G21G26G29
 123849252.12746  23567726.468    96505901.54847  23567724.669
 109359112.78349  20810344.823    85214883.63849  20810344.585
 114837328.72348  21852807.287    89483651.47449  21852806.476
 112644512.48848  21435526.769    87774982.53449  21435526.849
 124757421.60246  23740545.700    97213585.40747  23740545.220
 118586139.81948  22566189.811    92404780.98748  22566188.493
 107039668.13349  20368967.463    83407552.88449  20368967.515
 108424354.35149  20632464.983    84486521.99649  20632464.723
 04 12 10  3 24  0.0000000  0  8G 2G 6G10G17G18G21G26G29
 123938808.84446  23584768.533    96575685.97947  23584766.725
 109371095.00749  20812624.970    85224220.42449  20812624.746
 114911853.37848  21866988.869    89541722.63349  21866988.054
 112690720.60048  21444319.886    87810988.84549  21444319.966
 124676825.94746  23725208.833    97150783.64547  23725208.342
 118503224.96748  22550411.634    92340172.02048  22550410.308
 106985868.40049  20358729.696    83365631.03149  20358729.762
 108405147.39549  20628810.020    84471555.54349  20628809.747
 04 12 10  3 24 30.0000000  0  8G 2G 6G10G17G18G21G26G29
 124028587.18046  23601852.812    96645643.07347  23601851.023
 109383694.00548  20815022.492    85234037.80649  20815022.281
 114986568.55548  21881206.706    89599942.25049  21881205.894
 112737285.01948  21453180.824    87847272.78549  21453180.905
 124596442.23845  23709912.286    97088147.02847  23709911.826
 118420442.87548  22534658.738    92275666.48748  22534657.398
 106932741.47049  20348619.966    83324233.43849  20348620.040
 108386573.21849  20625275.460    84457082.17549  20625275.180
 04 12 10  3 25  0.0000000  0  8G 2G 6G10G17G18G21G26G29
 124118277.56446  23618920.336    96715531.64047  23618918.555
 109396600.39649  20817478.502    85244094.72249  20817478.298
 115061163.69048  21895401.688    89658068.33549  21895400.877
 112783897.02548  21462050.800    87883593.81949  21462050.880
 124515961.92845  23694597.362    97025435.14047  23694596.911
 118337485.65648  22518872.503    92211024.51048  22518871.160
 106879980.19749  20338579.812    83283120.78349  20338579.879
 108368323.17049  20621802.592    84442861.36249  20621802.304
 04 12 10  3 25 30.0000000  0  8G 2G 6G10G17G18G21G26G29
 124208184.61046  23636029.114    96785589.03747  23636027.348
 109410119.79648  20820051.170    85254629.30349  20820050.973
 115135942.99948  21909631.724    89716337.93149  21909630.916
 112830862.63748  21470988.076    87920190.39049  21470988.137
 124435690.98246  23679322.268    96962886.41247  23679321.820
 118254660.65947  22503111.437    92146485.56148  22503110.082
 106827892.07449  20328667.771    83242532.65549  20328667.821
 108350703.46749  20618449.662    84429131.73949  20618449.367
 04 12 10  3 26  0.0000000  0  8G 2G 6G10G17G18G21G26G29
 124298304.50146  23653178.394    96855812.27247  23653176.633
 109424248.21649  20822739.737    85265638.44749  20822739.534
 115210901.49648  21923895.857    89774747.14549  21923895.058
 112878178.74048  21479992.037    87957060.06849  21479992.096
 124355626.47945  23664086.464    96900498.51747  23664086.089
 118171965.48147  22487375.074    92082047.75448  22487373.719
 106776475.59549  20318883.541    83202467.87749  20318883.570
 108333710.78049  20615216.055    84415890.68949  20615215.752
 04 12 10  3 26 30.0000000  0  8G 2G 6G10G17G18G21G26G29
 124388631.76646  23670367.167    96926197.09048  23670365.408
 109438980.69549  20825543.241    85277118.29349  20825543.037
 115286033.10748  21938192.940    89833291.24349  21938192.147
 112925840.81248  21489061.834    87994199.33049  21489061.906
 124275764.11545  23648889.119    96838268.14447  23648888.812
 118089397.28347  22471662.850    92017708.91448  22471661.501
 106725728.07949  20309226.610    83162924.37449  20309226.627
 108317340.76949  20612100.940    84403134.84649  20612100.622
 04 12 10  3 27  0.0000000  0  8G 2G 6G10G17G18G21G26G29
 124479160.74146  23687594.312    96996739.07747  23687592.604
 109454311.84549  20828460.674    85289064.62649  20828460.484
 115361331.32648  21952521.708    89891965.18749  21952520.901
 112973844.01848  21498196.540    88031604.42149  21498196.627
 124196099.35445  23633729.384    96776191.74047  23633729.105
 118006952.38347  22455974.101    91953466.14148  22455972.760
 106675646.03249  20299696.307    83123899.41749  20299696.311
 108301588.74349  20609103.429    84390860.54649  20609103.097
 04 12 10  3 27 30.0000000  0  8G 2G 6G10G17G18G21G26G29
 124570039.48446  23704887.979    97067553.65147  23704886.284
 109470389.89449  20831520.230    85301592.96549  20831520.040
 115436943.28248  21966910.179    89950883.59449  21966909.370
 113022337.45548  21507424.535    88069391.49649  21507424.655
 124116781.23146  23618635.677    96714385.43947  23618635.337
 117924780.94847  22440337.391    91889436.45348  22440336.049
 106626380.14749  20290321.315    83085510.42949  20290321.313
 108286603.39349  20606251.805    84379183.65849  20606251.459
 04 12 10  3 28  0.0000000  0  8G 2G 6G10G17G18G21G26G29
 124660799.86646  23722159.165    97138275.93647  23722157.511
 109486746.94949  20834632.880    85314338.70849  20834632.696
 115512400.23748  21981269.148    90009681.21949  21981268.358
 113070854.00648  21516656.933    88107196.58349  21516657.066
 124037342.18846  23603518.864    96652484.96847  23603518.472
 117842417.04548  22424664.050    91825256.79948  22424662.714
 106577464.51349  20281012.973    83047394.37049  20281012.952
 108271917.59149  20603457.190    84367740.18249  20603456.823
 04 12 10  3 28 30.0000000  0  8G 2G 6G10G17G18G21G26G29
 124751744.31546  23739465.342    97209141.69847  23739463.714
 109503685.61649  20837856.214    85327537.65749  20837856.030
 115588003.63748  21995655.985    90068592.96149  21995655.207
 113119696.69848  21525951.395    88145255.80149  21525951.554
 123958086.14946  23588436.917    96590727.04147  23588436.494
 117760164.79747  22409011.961    91761164.14048  22409010.624
 106529204.02249  20271829.295    83009788.81349  20271829.252
 108257834.63749  20600777.287    84356766.46049  20600776.905
 04 12 10  3 29  0.0000000  0  8G 2G 6G10G17G18G21G26G29
 124843021.87546  23756834.932    97280267.01047  23756833.326
 109521355.15449  20841218.633    85341306.11449  20841218.435
 115663902.01048  22010098.965    90127734.54049  22010098.215
 113169015.72948  21535336.500    88183686.20849  21535336.651
 123879163.00846  23573418.278    96529228.55247  23573417.783
 117678175.42147  22393409.902    91697276.31648  22393408.565
 106481750.11849  20262799.106    82972811.75749  20262799.055
 108244504.33249  20598240.603    84346379.21849  20598240.211
 04 12 10  3 29 30.0000000  0  8G 2G 6G10G17G18G21G26G29
 124934474.15946  23774237.776    97351528.46547  23774236.178
 109539597.50948  20844690.055    85355520.91549  20844689.865
 115739936.26148  22024567.790    90186982.00348  22024567.074
 113218653.80048  21544782.335    88222365.19649  21544782.501
 123800416.28146  23558433.208    96467867.50547  23558432.697
 117596293.23247  22377828.233    91633472.02648  22377826.898
 106434946.97849  20253892.752    82936341.79749  20253892.688
 108231769.40649  20595817.221    84336455.91049  20595816.815
 04 12 10  3 30  0.0000000  0  8G 2G 6G10G17G18G21G26G29
 125025789.94246  23791614.645    97422683.53147  23791613.040
 109558101.80749  20848211.318    85369939.83349  20848211.135
 115815794.34748  22039003.110    90246092.19149  22039002.416
 113268300.68848  21554229.841    88261051.07949  21554229.989
 123721535.31446  23543422.588    96406401.86447  23543422.083
 117514209.18148  22362208.164    91569510.42748  22362206.830
 106388485.71049  20245051.461    82900138.22849  20245051.376
 108219319.45249  20593448.067    84326754.65849  20593447.647
 04 12 10  3 30 30.0000000  0  8G 2G 6G10G17G18G21G26G29
 125117583.55146  23809082.412    97494210.99547  23809080.785
 109577482.29749  20851899.320    85385041.49349  20851899.138
 115892090.04948  22053521.705    90305543.37849  22053521.033
 113318571.48548  21563796.086    88300223.09649  21563796.241
 123643135.67745  23528503.568    96345311.25747  23528503.133
 117432539.53547  22346666.923    91505871.75948  22346665.602
 106342982.87649  20236392.560    82864681.48149  20236392.461
 108207769.43049  20591250.160    84317754.64749  20591249.745
 04 12 10  3 31  0.0000000  0  8G 2G 6G10G17G18G21G26G29
 125209392.22546  23826553.058    97565750.17247  23826551.436
 109597276.28148  20855666.002    85400465.36049  20855665.826
 115968359.43248  22068035.286    90364974.07449  22068034.616
 113369004.25248  21573393.122    88339521.36849  21573393.266
 123564755.61045  23513588.295    96284235.90147  23513587.915
 117350823.90948  22331116.945    91442197.25648  22331115.623
 106297978.08449  20227828.427    82829612.83649  20227828.301
 108196657.25849  20589135.577    84309095.82049  20589135.156
 04 12 10  3 31 30.0000000  0  8G 2G 6G10G17G18G21G26G29
 125301369.53646  23844055.830    97637420.72847  23844054.225
 109617637.74049  20859540.677    85416331.41549  20859540.502
 116044755.95648  22082573.061    90424503.84849  22082572.380
 113419753.61748  21583050.429    88379066.31449  21583050.560
 123486549.74546  23498706.190    96223296.30047  23498705.842
 117269218.09247  22315587.856    91378608.32348  22315586.533
 106253627.24649  20219388.737    82795053.75249  20219388.605
 108186137.55449  20587133.738    84300898.65349  20587133.324
 04 12 10  3 32  0.0000000  0  8G 2G 6G10G17G18G21G26G29
 125393824.46346  23861649.494    97709463.45947  23861647.887
 109638875.26048  20863582.060    85432880.11649  20863581.879
 116121587.46048  22097193.610    90484372.54848  22097192.920
 113471129.26348  21592826.913    88419099.26249  21592827.031
 123408827.91646  23483916.170    96162733.89347  23483915.845
 117188032.97948  22300138.831    91315347.20848  22300137.500
 106210241.15249  20211132.626    82761246.41949  20211132.493
 108176519.62449  20585303.495    84293404.17849  20585303.074
 04 12 10  3 32 30.0000000  0  8G 2G 6G10G17G18G21G26G29
 125485988.32646  23879187.694    97781279.46647  23879186.051
 109660220.37949  20867643.913    85449512.66249  20867643.732
 116198084.65448  22111750.554    90543980.74648  22111749.851
 113522363.50448  21602576.471    88459022.04749  21602576.582
 123330822.69746  23469072.247    96101950.63947  23469071.908
 117106502.19348  22284624.020    91251816.74448  22284622.689
 106167053.54749  20202914.280    82727593.75649  20202914.154
 108167035.49749  20583498.726    84286013.94749  20583498.311
 04 12 10  3 33  0.0000000  0  8G 2G 6G10G17G18G21G26G29
 125578478.08946  23896787.959    97853349.35047  23896786.314
 109682290.49449  20871843.734    85466710.14149  20871843.547
 116274864.30248  22126361.241    90603809.04248  22126360.540
 113574074.33848  21612416.721    88499316.18549  21612416.838
 123253152.37846  23454292.005    96041428.38247  23454291.656
 117025245.15248  22269161.331    91188499.55048  22269160.006
 106124683.90349  20194851.593    82694578.45949  20194851.474
 108158303.21449  20581837.016    84279209.58349  20581836.609
 04 12 10  3 33 30.0000000  0  8G 2G 6G10G17G18G21G26G29
 125671295.66246  23914450.603    97925674.64647  23914449.012
 109705087.18949  20876181.813    85484473.78149  20876181.632
 116351927.42548  22141025.872    90663858.21148  22141025.191
 113626264.61548  21622348.219    88539983.89849  21622348.377
 123175819.76847  23439576.057    95981169.24647  23439575.683
 116944265.96748  22253751.505    91125398.88548  22253750.195
 106083136.04049  20186945.292    82662203.51849  20186945.167
 108150325.29449  20580318.868    84272993.02349  20580318.469
 04 12 10  3 34  0.0000000  0  8G 2G 6G10G17G18G21G26G29
 125764134.34146  23932117.258    97998016.40447  23932115.654
 109728303.78949  20880599.803    85502564.61549  20880599.629
 116428966.62248  22155685.932    90723888.76249  22155685.249
 113678628.44148  21632312.729    88580786.85749  21632312.915
 123098519.25646  23424866.194    95920935.14447  23424865.786
 116863260.34148  22238336.659    91062277.60948  22238335.358
 106042105.40849  20179137.410    82630231.61449  20179137.279
 108142795.41249  20578885.967    84267125.58949  20578885.582
 04 12 10  3 34 30.0000000  0  8G 2G 6G10G17G18G21G26G29
 125857148.61345  23949817.315    98070495.02247  23949815.711
 109752094.90249  20885127.113    85521103.13349  20885126.940
 116506135.70848  22170370.721    90784020.51348  22170370.052
 113731321.24748  21642339.843    88621846.16949  21642340.049
 123021406.45046  23410192.067    95860847.28747  23410191.610
 116782385.18248  22222946.634    90999258.00248  22222945.326
 106001748.70849  20171457.779    82598784.83949  20171457.648
 108135868.84449  20577567.879    84261728.27549  20577567.487
 04 12 10  3 35  0.0000000  0  8G 2G 6G10G17G18G21G26G29
 125950338.94445  23967550.893    98143110.75847  23967549.345
 109776460.91749  20889763.836    85540089.61749  20889763.664
 116583434.31948  22185080.157    90844253.18448  22185079.516
 113784344.29847  21652429.806    88663162.81149  21652430.025
 122944482.65246  23395553.913    95800906.71147  23395553.410
 116701642.94848  22207581.903    90936341.96848  22207580.603
 105962068.43249  20163906.862    82567865.17049  20163906.718
 108129546.49249  20576364.776    84256801.76649  20576364.383
 04 12 10  3 35 30.0000000  0  8G 2G 6G10G17G18G21G26G29
 126043551.19046  23985288.617    98215743.65647  23985287.048
 109801247.92648  20894480.658    85559404.15149  20894480.493
 116660708.17148  22199784.894    90904466.56848  22199784.247
 113837544.52348  21662553.484    88704617.51349  21662553.717
 122867595.23446  23380922.665    95740994.51147  23380922.132
 116620882.10448  22192213.620    90873411.44948  22192212.305
 105922912.64049  20156455.756    82537354.17249  20156455.606
 108123675.08349  20575247.478    84252226.64749  20575247.085
 04 12 10  3 36  0.0000000  0  8G 2G 6G10G17G18G21G26G29
 126137093.21346  24003089.090    98288633.54647  24003087.504
 109826763.42649  20899336.109    85579286.34449  20899335.951
 116738264.75248  22214543.409    90964900.27348  22214542.775
 113891230.54248  21672769.600    88746450.76949  21672769.833
 122791052.67947  23366357.101    95681350.96247  23366356.576
 116540412.67148  22176900.790    90810708.00948  22176899.454
 105884591.16949  20149163.417    82507493.29649  20149163.259
 108118562.96549  20574274.662    84248243.19449  20574274.270
 04 12 10  3 36 30.0000000  0  8G 2G 6G10G17G18G21G26G29
 126230810.83246  24020923.008    98361660.19147  24020921.471
 109852853.17549  20904300.841    85599615.99949  20904300.683
 116815949.06748  22229326.255    91025433.50648  22229325.608
 113945248.95348  21683048.991    88788543.00748  21683049.233
 122714701.96647  23351828.031    95621856.93248  23351827.511
 116460082.85948  22161614.541    90748113.34948  22161613.183
 105846951.74449  20142000.861    82478163.88949  20142000.696
 108114056.25249  20573417.063    84244731.46649  20573416.678
 04 12 10  3 37  0.0000000  0  8G 2G 6G10G17G18G21G26G29
 126324549.36346  24038760.857    98434703.20747  24038759.306
 109879362.45949  20909345.401    85620272.56749  20909345.251
 116893605.72148  22244103.837    91085945.17748  22244103.184
 113999446.29648  21693362.420    88830774.67848  21693362.677
 122638389.83547  23337306.304    95562392.95748  23337305.801
 116379740.48248  22146325.877    90685508.92248  22146324.504
 105809841.76449  20134939.049    82449247.03949  20134938.875
 108110001.07649  20572645.383    84241571.59649  20572645.013
 04 12 10  3 37 30.0000000  0  8G 2G 6G10G17G18G21G26G29
 126418616.07346  24056661.187    98508001.88947  24056659.646
 109906598.52749  20914528.271    85641495.45749  20914528.128
 116971541.81448  22258934.594    91146674.59248  22258933.958
 114054130.60147  21703768.516    88873385.81549  21703768.775
 122562424.45547  23322850.555    95503199.18848  23322850.040
 116299694.86548  22131093.691    90623135.72148  22131092.309
 105773570.56449  20128036.863    82420983.77549  20128036.682
 108106705.12549  20572018.172    84239003.33749  20572017.802
 04 12 10  3 38  0.0000000  0  8G 2G 6G10G17G18G21G26G29
 126512856.84245  24074594.579    98581436.27247  24074593.019
 109934406.89549  20919820.039    85663164.29949  20919819.896
 117049602.24048  22273789.011    91207500.90048  22273788.364
 114109148.36247  21714238.059    88916256.79449  21714238.313
 122486652.55947  23308431.624    95444156.18948  23308431.091
 116219794.43548  22115889.133    90560875.66449  22115887.729
 105737985.94149  20121265.322    82393255.50949  20121265.133
 108104014.58149  20571506.179    84236906.81149  20571505.824
 04 12 10  3 38 30.0000000  0  8G 2G 6G10G17G18G21G26G29
 126606963.53046  24092502.510    98654766.09747  24092500.988
 109962479.24849  20925162.048    85685038.83949  20925161.912
 117127478.39347  22288608.356    91268183.61248  22288607.694
 114164192.45048  21724712.619    88959148.26748  21724712.880
 122410767.36547  23293991.134    95385024.91947  23293990.554
 116139733.67848  22100654.059    90498490.67849  22100652.647
 105702781.53749  20114566.135    82365823.51649  20114565.938
 108101621.83749  20571050.849    84235042.34149  20571050.502
 04 12 10  3 39  0.0000000  0  8G 2G 6G10G17G18G21G26G29
 126701398.10146  24110472.859    98728351.41047  24110471.357
 109991277.57649  20930642.200    85707479.06949  20930642.084
 117205632.09948  22303480.518    91329082.60848  22303479.844
 114219725.89047  21735280.269    89002421.07149  21735280.548
 122335231.91047  23279617.215    95326166.14948  23279616.596
 116059976.64048  22085476.787    90436342.35248  22085475.361
 105668421.41749  20108027.616    82339049.40949  20108027.404
 108099989.47749  20570740.227    84233770.37449  20570739.882
 04 12 10  3 39 30.0000000  0  8G 2G 6G10G17G18G21G26G29
 126796161.17845  24128505.691    98802192.74347  24128504.180
 110020802.43548  20936260.605    85730485.43349  20936260.496
 117284063.55948  22318405.546    91390198.01748  22318404.858
 114275750.05247  21745941.325    89046076.22548  21745941.628
 122260047.87147  23265310.168    95267581.21248  23265309.502
 115980526.45248  22070357.914    90374433.12248  22070356.472
 105634908.06449  20101650.225    82312935.11549  20101650.004
 108099118.52849  20570574.491    84233091.71449  20570574.154
 04 12 10  3 40  0.0000000  0  8G 2G 6G10G17G18G21G26G29
 126890791.34546  24146513.255    98875930.49047  24146511.759
 110050591.88649  20941929.361    85753697.96649  20941929.271
 117362310.65047  22333295.455    91451169.78548  22333294.779
 114331804.31447  21756608.096    89089754.85048  21756608.417
 122184755.11646  23250982.392    95208911.60548  23250981.694
 115900924.76948  22055210.211    90312405.85248  22055208.748
 105601781.63849  20095346.475    82287122.32349  20095346.234
 108098547.81349  20570465.882    84232647.01449  20570465.546
 04 12 10  3 40 30.0000000  0  8G 2G 6G10G17G18G21G26G29
 126985597.12445  24164554.188    98949805.08347  24164552.758
 110080954.57848  20947707.207    85777357.17849  20947707.131
 117440681.58247  22348208.947    91512238.03948  22348208.270
 114388198.29747  21767339.538    89133698.19048  21767339.860
 122109663.01047  23236692.821    95150398.31048  23236692.126
 115821481.93748  22040092.743    90250502.34749  22040091.280
 105569352.72949  20089175.453    82261853.05149  20089175.204
 108098586.41149  20570473.221    84232677.09749  20570472.893
 04 12 10  3 41  0.0000000  0  8G 2G 6G10G17G18G21G26G29
 127080733.12546  24182658.015    99023936.95947  24182656.596
 110112044.63749  20953623.484    85801583.15949  20953623.416
 117519330.38648  22363175.323    91573522.81848  22363174.632
 114445087.26548  21778165.178    89178027.22648  21778165.494
 122034927.40947  23222471.109    95092162.78747  23222470.379
 115742355.09048  22025035.404    90188845.07648  22025033.930
 105537777.89649  20083166.962    82237249.28849  20083166.699
 108099389.34049  20570626.013    84233302.75649  20570625.685
 04 12 10  3 41 30.0000000  0  8G 2G 6G10G17G18G21G26G29
 127176045.45346  24200795.396    99098206.26747  24200793.973
 110143707.88049  20959648.811    85826255.79149  20959648.748
 117598102.60847  22378165.184    91634903.76248  22378164.500
 114502318.27848  21789055.896    89222622.80648  21789056.206
 121960395.20246  23208288.078    95034085.78447  23208287.298
 115663392.73748  22010009.368    90127315.97448  22010007.887
 105506904.54549  20077291.947    82213192.14849  20077291.677
 108100802.76949  20570894.974    84234404.13849  20570894.646
 04 12 10  3 42  0.0000000  0  8G 2G 6G10G17G18G21G26G29
 127271225.50145  24218907.551    99172372.56347  24218906.086
 110175635.39649  20965724.433    85851134.35049  20965724.384
 117676689.26947  22393119.740    91696140.10748  22393119.057
 114559583.39948  21799953.110    89267244.96848  21799953.401
 121885758.97046  23194085.252    94975927.74147  23194084.425
 115584288.71447  21994956.361    90065676.48348  21994954.886
 105476426.05049  20071492.070    82189442.69049  20071491.786
 108102518.45149  20571221.457    84235741.03849  20571221.123
 04 12 10  3 42 30.0000000  0  8G 2G 6G10G17G18G21G26G29
 127366733.12145  24237082.046    99246794.08546  24237080.529
 110208286.91449  20971937.828    85876577.06249  20971937.793
 117755550.12047  22408126.467    91757590.12048  22408125.793
 114617343.44448  21810944.511    89312252.77348  21810944.805
 121811479.57547  23179950.341    94918047.71047  23179949.477
 115505505.74248  21979964.436    90004287.17148  21979962.966
 105446803.93849  20065855.164    82166360.52649  20065854.878
 108104996.83549  20571693.084    84237672.25249  20571692.745
 04 12 10  3 43  0.0000000  0  8G 2G 6G10G17G18G21G26G29
 127462411.05946  24255289.012    99321348.25847  24255287.472
 110241504.80748  20978259.001    85902461.11549  20978258.973
 117834527.42947  22423155.350    91819130.88548  22423154.684
 114675441.93848  21822000.322    89357524.30948  21822000.592
 121737401.10047  23165853.640    94860324.28147  23165852.758
 115426889.09048  21965004.185    89943027.43249  21965002.735
 105417882.82349  20060351.659    82143824.59949  20060351.367
 108108080.68349  20572279.921    84240075.25449  20572279.583
 04 12 10  3 43 30.0000000  0  8G 2G 6G10G17G18G21G26G29
 127558254.89446  24273527.565    99396031.70147  24273526.024
 110275284.44949  20984687.071    85928782.88449  20984687.056
 117913616.41848  22438205.507    91880758.65548  22438204.853
 114733875.56447  21833119.877    89403057.00548  21833120.156
 121663520.51146  23151794.602    94802755.02447  23151793.704
 115348436.87648  21950075.231    89881895.82348  21950073.787
 105389659.93749  20054981.004    82121832.75649  20054980.719
 108111766.13749  20572981.239    84242947.04649  20572980.896
 04 12 10  3 44  0.0000000  0  8G 2G 6G10G17G18G21G26G29
 127654105.66945  24291767.337    99470720.63246  24291765.770
 110309466.38449  20991191.683    85955418.14649  20991191.674
 117992657.71947  22453246.585    91942349.26248  22453245.938
 114792486.00948  21844273.092    89448727.46648  21844273.380
 121589679.89646  23137743.158    94745216.92247  23137742.266
 115269992.61648  21935147.796    89820770.42049  21935146.355
 105361977.72949  20049713.255    82100262.20749  20049712.978
 108115894.38349  20573766.824    84246163.86249  20573766.476
 04 12 10  3 44 30.0000000  0  8G 2G 6G10G17G18G21G26G29
 127750266.14845  24310066.109    99545650.77446  24310064.568
 110344352.83249  20997830.383    85982602.35549  20997830.382
 118071953.56947  22468336.071    92004138.24748  22468335.417
 114851576.62547  21855517.663    89494772.09148  21855517.978
 121516182.64446  23123757.043    94687946.38447  23123756.162
 115191861.27048  21920279.908    89759888.84449  21920278.467
 105335140.49949  20044606.277    82079350.10249  20044606.013
 108120768.09149  20574694.254    84249961.56949  20574693.899
 04 12 10  3 45  0.0000000  0  8G 2G 6G10G17G18G21G26G29
 127846422.33246  24328364.035    99620577.67747  24328362.483
 110379629.62849  21004543.346    86010090.74749  21004543.351
 118151189.81648  22483414.246    92065880.76548  22483413.593
 114910834.52447  21866794.066    89540947.06148  21866794.400
 121442716.18846  23109776.770    94630699.88347  23109775.875
 115113731.65848  21905412.337    89699008.62549  21905410.896
 105308836.15249  20039600.720    82058853.21349  20039600.464
 108126073.85949  20575703.902    84254095.94149  20575703.547
 04 12 10  3 45 30.0000000  0  8G 2G 6G10G17G18G21G26G29
 127942876.68045  24346718.752    99695736.82446  24346717.213
 110415598.91649  21011388.098    86038118.74249  21011388.096
 118230668.68647  22498538.572    92127812.35748  22498537.890
 114970563.10747  21878160.067    89587488.76948  21878160.414
 121369583.91547  23095860.113    94573713.74247  23095859.224
 115035909.21248  21890603.218    89638367.75649  21890601.776
 105283368.62549  20034754.410    82039008.38749  20034754.155
 108132114.24949  20576853.350    84258802.74149  20576852.988
 04 12 10  3 46  0.0000000  0  8G 2G 6G10G17G18G21G26G29
 128039316.35045  24365070.677    99770884.54247  24365069.160
 110451947.29449  21018304.982    86066442.12849  21018304.987
 118310076.94247  22513649.449    92189688.92048  22513648.771
 115030450.21747  21889556.181    89634154.05848  21889556.531
 121296473.89546  23081947.697    94516744.95847  23081946.781
 114958083.13848  21875793.402    89577724.06449  21875791.975
 105258426.34449  20030008.040    82019572.85849  20030007.792
 108138576.61249  20578083.103    84263838.34949  20578082.735
 04 12 10  3 46 30.0000000  0  8G 2G 6G10G17G18G21G26G29
 128136044.75846  24383477.528    99846257.27347  24383476.065
 110488977.69748  21025351.651    86095296.96349  21025351.663
 118389717.48147  22528804.551    92251746.46148  22528803.879
 115090799.94547  21901040.364    89681179.80048  21901040.713
 121223691.07846  23068097.552    94460031.11847  23068096.613
 114880559.69248  21861041.181    89517316.19049  21861039.755
 105234314.42149  20025419.694    82000784.34849  20025419.446
 108145764.25149  20579450.859    84269439.11849  20579450.485
 04 12 10  3 47  0.0000000  0  8G 2G 6G10G17G18G21G26G29
 128232749.80645  24401879.970    99921611.74547  24401878.573
 110526377.69848  21032468.647    86124439.80349  21032468.657
 118469278.24447  22543944.449    92313741.86448  22543943.775
 115151301.16247  21912553.381    89728323.58048  21912553.721
 121150924.14346  23054250.447    94403329.65047  23054249.482
 114803029.12748  21846287.599    89456902.77049  21846286.166
 105210722.26749  20020930.256    81982400.85549  20020930.002
 108153365.48849  20580897.326    84275362.16749  20580896.946
 04 12 10  3 47 30.0000000  0  8G 2G 6G10G17G18G21G26G29
 128329736.04145  24420335.879    99997185.37846  24420334.449
 110564451.38049  21039713.845    86154107.58349  21039713.870
 118549063.53347  22559127.079    92375912.22148  22559126.388
 115212259.20247  21924153.316    89775823.34348  21924153.648
 121078478.89247  23040464.497    94346878.89048  23040463.523
 114725799.13148  21831591.208    89396723.56749  21831589.767
 105187955.81249  20016597.932    81964660.77449  20016597.685
 108161684.88849  20582480.450    84281844.82149  20582480.077
 04 12 10  3 48  0.0000000  0  8G 2G 6G10G17G18G21G26G29
 128427001.17945  24438844.837   100072976.37346  24438843.391
 110603195.81748  21047086.684    86184298.03649  21047086.710
 118629070.85647  22574351.966    92438255.59348  22574351.253
 115273672.50247  21935839.897    89823677.84548  21935840.214
 121006354.12447  23026739.556    94290677.83647  23026738.591
 114648869.82248  21816952.041    89336778.64949  21816950.606
 105166014.27049  20012422.589    81947563.47349  20012422.357
 108170720.35849  20584199.848    84288885.44449  20584199.476
 04 12 10  3 48 30.0000000  0  8G 2G 6G10G17G18G21G26G29
 128524236.08445  24457348.090   100148743.73747  24457346.662
 110642301.54648  21054528.275    86214770.01349  21054528.309
 118708990.44347  22589560.164    92500530.58348  22589559.464
 115335232.82347  21947554.454    89871646.91148  21947554.742
 120934241.66547  23013016.988    94234486.33048  23013016.021
 114571934.79048  21802311.779    89276829.29149  21802310.337
 105144589.79249  20008345.641    81930869.09049  20008345.411
 108180162.80149  20585996.674    84296243.19949  20585996.308
 04 12 10  3 49  0.0000000  0  8G 2G 6G10G17G18G21G26G29
 128621440.62945  24475845.589   100224487.41647  24475844.202
 110681767.73349  21062038.458    86245522.85949  21062038.506
 118788822.21947  22604751.634    92562737.16148  22604750.946
 115396940.55747  21959297.039    89919730.86848  21959297.320
 120862142.60946  22999296.952    94178305.31548  22999295.967
 114494996.22348  21787670.857    89216877.17649  21787669.396
 105123683.44749  20004367.290    81914578.44149  20004367.068
 108190011.98449  20587870.899    84303917.89849  20587870.540
 04 12 10  3 49 30.0000000  0  8G 2G 6G10G17G18G21G26G29
 128719077.22146  24494425.244   100300567.87846  24494423.798
 110722056.44748  21069705.164    86276916.64749  21069705.212
 118869028.37447  22620014.387    92625235.44148  22620013.710
 115459259.33647  21971155.921    89968290.93248  21971156.214
 120790520.39147  22985667.655    94122495.84048  22985666.677
 114418519.43448  21773117.808    89157284.87649  21773116.347
 105103759.20449  20000575.821    81899053.07049  20000575.614
 108200730.61049  20589910.580    84312270.08249  20589910.229
 04 12 10  3 50  0.0000000  0  8G 2G 6G10G17G18G21G26G29
 128816684.95045  24512999.395   100376625.83246  24512997.881
 110762705.91848  21077440.530    86308591.52249  21077440.586
 118949147.73647  22635260.589    92687666.12748  22635259.898
 115521728.70447  21983043.434    90016968.34448  21983043.766
 120718915.30246  22972041.624    94066699.71648  22972040.640
 114342046.39948  21758565.473    89097695.50949  21758564.008
 105084357.51049  19996883.807    81883934.86549  19996883.609
 108211857.49849  20592027.950    84320940.38749  20592027.598
 04 12 10  3 50 30.0000000  0  8G 2G 6G10G17G18G21G26G29
 128914265.26445  24531568.389   100452662.30346  24531566.932
 110803717.14348  21085244.737    86340548.28949  21085244.801
 119029181.49947  22650490.526    92750030.08848  22650489.838
 115584350.98947  21994960.053    90065764.91748  21994960.395
 120647329.64646  22958419.279    94010918.73848  22958418.287
 114265581.13448  21744014.617    89038112.18649  21744013.144
 105065480.88449  19993291.698    81869225.81849  19993291.502
 108223394.26349  20594223.312    84329930.08549  20594222.967
 04 12 10  3 51  0.0000000  0  8G 2G 6G10G17G18G21G26G29
 129012127.40046  24550191.047   100528918.40747  24550189.604
 110845399.10948  21093176.557    86373027.73349  21093176.621
 119109438.73847  22665762.970    92812568.19948  22665762.283
 115647436.24747  22006964.772    90114922.23548  22006965.160
 120576074.15146  22944859.762    93955395.03048  22944858.762
 114189435.68248  21729524.607    88978778.08549  21729523.128
 105047439.85049  19989858.610    81855167.86649  19989858.414
 108235650.20549  20596555.534    84339480.17149  20596555.188
 04 12 10  3 51 30.0000000  0  8G 2G 6G10G17G18G21G26G29
 129110272.58045  24568867.489   100605395.13846  24568866.041
 110887751.96148  21101236.061    86406029.92849  21101236.117
 119189920.49947  22681078.152    92875281.25348  22681077.467
 115710986.35547  22019057.968    90164441.78848  22019058.356
 120505150.97247  22931363.500    93900130.24748  22931362.515
 114113613.92648  21715096.195    88919696.21549  21715094.724
 105030237.04649  19986585.019    81841763.09849  19986584.817
 108248626.47649  20599024.830    84349591.55949  20599024.476
 04 12 10  3 52  0.0000000  0  8G 2G 6G10G17G18G21G26G29
 129208547.64044  24587568.606   100681973.06946  24587567.161
 110930622.37148  21109394.046    86439435.41749  21109394.101
 119270473.66547  22696406.910    92938049.94648  22696406.238
 115774849.29947  22031210.706    90214205.09748  22031211.103
 120434408.13547  22917901.502    93845006.04148  22917900.537
 114037965.18848  21700700.736    88860749.14149  21700699.254
 105013720.33649  19983441.994    81828892.94349  19983441.794
 108262169.90549  20601602.047    84360144.88949  20601601.692
 04 12 10  3 52 30.0000000  0  8G 2G 6G10G17G18G21G26G29
 129306645.59845  24606236.116   100758412.93346  24606234.656
 110973702.39548  21117591.932    86473004.23649  21117591.972
 119350790.81447  22711690.767    93000634.73448  22711690.082
 115838718.38647  22043364.595    90263973.21548  22043364.970
 120363539.45847  22904415.588    93789783.74848  22904414.650
 113962185.65148  21686280.382    88801700.14249  21686278.901
 104997583.92949  19980371.332    81816319.13149  19980371.133
 108275973.29449  20604228.751    84370900.77349  20604228.389
 04 12 10  3 53  0.0000000  0  8G 2G 6G10G17G18G21G26G29
 129405029.25245  24624957.974   100835075.44647  24624956.532
 111017454.38948  21125917.683    86507096.66749  21125917.723
 119431334.89947  22727017.803    93063396.37248  22727017.100
 115903057.38447  22055607.917    90314107.47648  22055608.291
 120293009.32847  22890994.109    93734825.24448  22890993.176
 113886740.81548  21671923.713    88742911.95649  21671922.225
 104982291.91349  19977461.358    81804403.28249  19977461.161
 108290499.68249  20606993.025    84382220.04349  20606992.655
 04 12 10  3 53 30.0000000  0  8G 2G 6G10G17G18G21G26G29
 129503699.52944  24643734.345   100911961.27046  24643732.972
 111061878.41748  21134371.313    86541712.77249  21134371.344
 119512106.64747  22742388.173    93126335.39148  22742387.467
 115967867.87747  22067940.950    90364609.15448  22067941.309
 120222819.27247  22877637.356    93680131.72248  22877636.437
 113811634.13648  21657631.399    88684387.25849  21657629.904
 104967846.01949  19974712.395    81793146.74749  19974712.208
 108305749.55149  20609894.978    84394103.06249  20609894.609
 04 12 10  3 54  0.0000000  0  8G 2G 6G10G17G18G21G26G29
 129602502.93845  24662536.098   100988950.79346  24662534.784
 111106820.30149  21142923.493    86576732.39049  21142923.531
 119592952.29447  22757772.606    93189332.00248  22757771.867
 116032997.17947  22080334.668    90415359.23448  22080335.005
 120152817.27647  22864316.371    93625584.76048  22864315.466
 113736715.09448  21643374.791    88626008.77749  21643373.283
 104954094.16149  19972095.516    81782431.01149  19972095.323
 108321569.44948  20612905.399    84406430.26249  20612905.030
 04 12 10  3 54 30.0000000  0  8G 2G 6G10G17G18G21G26G29
 129701131.83645  24681304.547   101065804.48946  24681303.165
 111151971.70949  21151515.538    86611915.28149  21151515.583
 119673564.30347  22773112.567    93252146.54948  22773111.821
 116098138.25647  22092730.602    90466118.50148  22092730.944
 120082696.66547  22850972.821    93570945.37048  22850971.908
 113661678.85348  21629095.887    88567538.96649  21629094.365
 104940729.66849  19969552.337    81772017.13349  19969552.140
 108337651.60949  20615965.732    84418961.81649  20615965.364
 04 12 10  3 55  0.0000000  0  8G 2G 6G10G17G18G21G26G29
 129800048.63745  24700127.884   101142882.38146  24700126.564
 111197794.47548  21160235.338    86647621.31649  21160235.376
 119754404.74247  22788495.991    93315139.07448  22788495.262
 116163754.44447  22105216.959    90517247.98648  22105217.286
 120012921.05247  22837694.880    93516574.85548  22837693.958
 113586990.46648  21614883.172    88509340.21549  21614881.636
 104928215.76349  19967171.026    81762266.04549  19967170.810
 108354458.16549  20619163.919    84432057.84249  20619163.531
 04 12 10  3 55 30.0000000  0  8G 2G 6G10G17G18G21G26G29
 129899099.89445  24718976.860   101220064.91346  24718975.678
 111244134.24148  21169053.526    86683730.18449  21169053.577
 119835320.23547  22803893.692    93378190.11548  22803892.962
 116229692.87047  22117764.637    90568628.55848  22117765.000
 119943337.89447  22824453.598    93462354.26148  22824452.697
 113512499.19948  21600707.967    88451295.06249  21600706.424
 104916399.99849  19964922.567    81753058.96549  19964922.332
 108371835.43549  20622470.698    84445598.58149  20622470.303
 04 12 10  3 56  0.0000000  0  7G 6G10G17G18G21G26G29
 111290990.60748  21177970.026    86720241.60449  21177970.076
 119916311.42747  22819305.780    93441300.14648  22819305.077
 116295954.63447  22130373.825    90620261.10548  22130374.188
 119873948.62847  22811249.230    93408284.74548  22811248.331
 113438208.59048  21586570.940    88393406.27449  21586569.391
 104905283.90649  19962807.245    81744397.08549  19962806.997
 108389783.72649  20625886.144    84459584.26649  20625885.735
 04 12 10  3 56 30.0000000  0  7G 6G10G17G18G21G26G29
 111338363.36249  21186984.767    86757155.42249  21186984.831
 119997378.21347  22834732.294    93504469.03048  22834731.624
 116362540.96447  22143044.806    90672146.53848  22143045.194
 119804754.93947  22798082.085    93354367.60448  22798081.215
 113364122.01448  21572472.739    88335676.44949  21572471.201
 104894868.67949  19960825.293    81736281.33049  19960825.031
 108408303.23649  20629410.284    84474015.06249  20629409.860
 04 12 10  3 57  0.0000000  0  7G 6G10G17G18G21G26G29
 111386252.75549  21196097.840    86794471.80349  21196097.910
 120078521.79646  22850173.386    93567697.81648  22850172.709
 116429453.49047  22155777.842    90724286.15948  22155778.237
 119735758.96646  22784952.546    93300604.55448  22784951.698
 113290242.97148  21558414.031    88278108.35649  21558412.500
 104885156.59649  19958977.145    81728713.48249  19958976.870
 108427394.84149  20633043.289    84488891.63849  20633042.872
 04 12 10  3 57 30.0000000  0  7G 6G10G17G18G21G26G29
 111434814.45148  21205338.859    86832312.04849  21205338.930
 120159898.77146  22865658.910    93631108.44748  22865658.256
 116496849.56047  22168602.918    90776802.54948  22168603.314
 119667118.26647  22771890.601    93247118.35348  22771889.753
 113216731.00948  21544425.175    88220826.30149  21544423.637
 104876304.68849  19957292.689    81721815.89549  19957292.394
 108447214.75149  20636814.893    84504335.72949  20636814.461
 04 12 10  3 58  0.0000000  0  7G 6G10G17G18G21G26G29
 111483435.74048  21214591.212    86870198.72649  21214591.282
 120240897.17847  22881072.406    93694224.07548  22881071.737
 116564117.71347  22181403.634    90829219.29448  22181404.019
 119598222.03447  22758780.055    93193433.01348  22758779.214
 113142976.90648  21530390.236    88163355.57149  21530388.698
 104867702.06149  19955655.664    81715112.55649  19955655.355
 108467150.90349  20640608.622    84519870.39649  20640608.178
 04 12 10  3 58 30.0000000  0  7G 6G10G17G18G21G26G29
 111533044.04148  21224031.388    86908854.51249  21224031.458
 120322445.08447  22896590.475    93757767.87248  22896589.827
 116632187.19247  22194356.849    90882260.42448  22194357.227
 119529999.90247  22745797.785    93140272.93248  22745796.949
 113069911.94448  21516486.436    88106421.83349  21516484.898
 104860277.90749  19954242.894    81709327.50649  19954242.571
 108488131.25049  20644601.044    84536218.72549  20644600.592
 04 12 10  3 59  0.0000000  0  7G 6G10G17G18G21G26G29
 111582718.53348  21233484.153    86947561.87549  21233484.222
 120403622.66847  22912038.043    93821023.15348  22912037.359
 116700138.74647  22207287.611    90935209.66048  22207288.040
 119461532.69347  22732768.855    93086921.91848  22732768.010
 112996619.02948  21502539.258    88049310.46349  21502537.741
 104853112.86649  19952879.420    81703744.37349  19952879.083
 108509235.53849  20648617.056    84552663.63149  20648616.590
