     2.10           OBSERVATION DATA    G (GPS)             RINEX VERSION / TYPE
teqc  2004Dec3      Gordon Adams        20050221 04:56:50UTCPGM / RUN BY / DATE
GALB                                                        MARKER NAME
                                                            MARKER NUMBER
                    MSD                                     OBSERVER / AGENCY
80108               LEICA RS500         4.10                REC # / TYPE / VERS
2084                LEIAT303                                ANT # / TYPE
   475546.0224 -4925640.5090  4010733.3612                  APPROX POSITION XYZ
        0.0000        0.0000        0.0000                  ANTENNA: DELTA H/E/N
     1     1                                                WAVELENGTH FACT L1/2
     4    L1    C1    L2    P2                              # / TYPES OF OBSERV
    30.0000                                                 INTERVAL
    13                                                      LEAP SECONDS
Solaris 2.7|Ultra 2|cc SC5.0|=+-|*Sparc                     COMMENT
teqc  2002Mar14                         20041213 00:34:07UTCCOMMENT
Forced Modulo Decimation to 30 seconds                      COMMENT
Forced Modulo Decimation to 30 seconds                      COMMENT
  2004    12    12     0     0    0.0000000     GPS         TIME OF FIRST OBS
HP-UX 10.20|PA-RISC|cc A.10.32.03|=+|=|                     COMMENT
teqc  2002Mar14                         20041213 00:22:57UTCCOMMENT
     2              Observation Data                        COMMENT
CS 4.3              Leica Inc.          Sat 11 Dec 2004     COMMENT
BIT 2 OF LLI FLAGS DATA COLLECTED UNDER A/S CONDITION       COMMENT
SNR is mapped to RINEX snr flag value [2-9]                 COMMENT
L1&L2:  < 25dBHz -> 1; 25-27dBHz -> 2; 28-31dBHz -> 3       COMMENT
       32-35dBHz -> 4; 36-38dBHz -> 5; 39-41dBHz -> 6       COMMENT
       42-44dBHz -> 7; 45-48dBHz -> 8; 49-55dBHz -> 9       COMMENT
                                                            END OF HEADER
 04 12 12  0  0  0.0000000  0  9G 2G 4G 5G 7G10G13G17G24G30
 106550793.61349  20275925.693    83026622.10449  20275923.805
 112879173.22049  21480179.235    87957838.28349  21480179.412
 113675801.85948  21631775.967    88578566.81249  21631776.046
 123372252.90646  23476946.395    96134252.57747  23476948.298
 113463696.00448  21591411.251    88413298.31249  21591411.928
 125661552.77246  23912596.301    97918094.50447  23912596.170
 113978489.93348  21689369.842    88814445.31149  21689370.613
 109358858.37749  20810284.060    85214755.17749  20810284.969
 117617477.89247  22381856.032    91650007.86548  22381856.816
 04 12 12  0  0 30.0000000  0  9G 2G 4G 5G 7G10G13G17G24G30
 106541730.46849  20274201.022    83019559.92849  20274199.127
 112943068.08348  21492338.011    88007626.50149  21492338.173
 113690779.85248  21634626.184    88590237.98149  21634626.257
 123457245.03746  23493119.860    96200480.18047  23493121.763
 113374372.05448  21574413.433    88343695.27749  21574414.111
 125647793.26946  23909977.973    97907372.82646  23909977.788
 113933381.14148  21680785.918    88779295.61249  21680786.682
 109389756.62549  20816163.789    85238831.74649  20816164.690
 117573831.21747  22373550.304    91615997.50748  22373551.109
 04 12 12  0  1  0.0000000  0  9G 2G 4G 5G 7G10G13G17G24G30
 106532868.28949  20272514.606    83012654.33849  20272512.711
 113006988.43148  21504501.643    88057434.57649  21504501.791
 113706210.89848  21637562.602    88602262.17649  21637562.696
 123542335.00445  23509311.954    96266784.03347  23509313.864
 113285322.87548  21557467.920    88274306.32949  21557468.590
 125634455.19046  23907439.827    97896979.54646  23907439.552
 113888360.17748  21672218.695    88744214.35749  21672219.474
 109420747.43349  20822061.138    85262980.44049  20822062.032
 117530617.35347  22365326.973    91582324.37848  22365327.787
 04 12 12  0  1 30.0000000  0  9G 2G 4G 5G 7G10G13G17G24G30
 106524364.12349  20270896.299    83006027.73249  20270894.404
 113071090.61948  21516699.872    88107384.34649  21516700.019
 113722251.11648  21640614.949    88614761.05049  21640615.041
 123627679.67446  23525552.534    96333286.30647  23525554.444
 113196707.98248  21540605.054    88205255.78049  21540605.718
 125621696.74946  23905011.970    97887037.94546  23905011.604
 113843584.13648  21663698.080    88709323.95949  21663698.852
 109451987.16749  20828005.850    85287323.11049  20828006.730
 117487994.92147  22357216.182    91549112.12448  22357216.977
 04 12 12  0  2  0.0000000  0  9G 2G 4G 5G 7G10G13G17G24G30
 106516372.90149  20269375.608    82999800.81949  20269373.712
 113135529.28748  21528962.131    88157596.30749  21528962.278
 113739055.59848  21643812.729    88627855.45649  21643812.813
 123713433.38846  23541870.941    96400107.39947  23541872.822
 113108685.55448  21523854.908    88136666.91749  21523855.564
 125609674.81046  23902724.289    97877670.21046  23902723.854
 113799208.71448  21655253.706    88674745.72249  21655254.478
 109483630.29449  20834027.331    85311980.10549  20834028.205
 117446121.00847  22349247.823    91516483.13148  22349248.613
 04 12 12  0  2 30.0000000  0  9G 2G 4G 5G 7G10G13G17G24G30
 106508432.26149  20267864.548    82993613.31849  20267862.646
 113199841.33548  21541200.307    88207709.59849  21541200.455
 113756161.10248  21647067.804    88641184.41949  21647067.882
 123799133.42046  23558179.133    96466886.63147  23558181.015
 113020795.57948  21507129.984    88068181.24149  21507130.632
 125597928.42846  23900489.027    97868517.22447  23900488.548
 113754771.36548  21646797.542    88640119.23049  21646798.312
 109515213.73849  20840037.448    85336590.59849  20840038.308
 117404534.82247  22341334.223    91484078.32948  22341335.014
 04 12 12  0  3  0.0000000  0  9G 2G 4G 5G 7G10G13G17G24G30
 106500847.99249  20266421.286    82987703.51849  20266419.382
 113264331.58248  21553472.381    88257961.74349  21553472.542
 113773873.04348  21650438.269    88654985.93249  21650438.360
 123885085.08345  23574535.209    96533861.94247  23574537.063
 112933346.55348  21490488.958    88000039.17949  21490489.598
 125586765.10446  23898364.681    97859818.61246  23898364.136
 113710578.49148  21638387.912    88605683.23449  21638388.682
 109547042.67449  20846094.287    85361392.38349  20846095.134
 117363544.33047  22333533.974    91452137.72748  22333534.740
 04 12 12  0  3 30.0000000  0  9G 2G 4G 5G 7G10G13G17G24G30
 106493770.25549  20265074.426    82982188.41949  20265072.516
 113329149.92248  21565806.907    88308469.53749  21565807.077
 113792341.15348  21653952.645    88669376.66349  21653952.724
 123971438.06646  23590967.700    96601149.87847  23590969.617
 112846491.35548  21473960.945    87932359.82849  21473961.564
 125576336.34046  23896380.225    97851692.25846  23896379.613
 113666780.32648  21630053.386    88571554.81249  21630054.150
 109579267.03249  20852226.361    85386502.29249  20852227.208
 117323301.06247  22325875.935    91420779.35048  22325876.665
 04 12 12  0  4  0.0000000  0  9G 2G 4G 5G 7G10G13G17G24G30
 106486731.28249  20263734.942    82976703.51149  20263733.038
 113393827.86648  21578114.704    88358867.94349  21578114.867
 113811097.07948  21657521.791    88683991.66349  21657521.863
 124057724.06146  23607387.385    96668385.73047  23607389.298
 112759764.78048  21457457.409    87864780.70449  21457458.013
 125566176.01046  23894446.760    97843775.18046  23894446.082
 113622909.57548  21621705.048    88537369.81949  21621705.810
 109611418.16249  20858344.506    85411555.13249  20858345.360
 117283339.37447  22318271.461    91389640.39848  22318272.170
 04 12 12  0  4 30.0000000  0  9G 2G 4G 5G 7G10G13G17G24G30
 106480340.21149  20262518.761    82971723.45449  20262516.857
 113458973.85648  21590511.574    88409631.05549  21590511.722
 113830749.22948  21661261.471    88699305.02349  21661261.543
 124144552.02546  23623910.215    96736043.84547  23623912.139
 112673778.56048  21441094.751    87797778.48049  21441095.356
 125556894.72846  23892680.579    97836543.03846  23892679.866
 113579575.51048  21613458.832    88503603.03249  21613459.593
 109644104.63549  20864564.523    85437025.12349  20864565.384
 117244269.84447  22310836.788    91359196.62048  22310837.473
 04 12 12  0  5  0.0000000  0  9G 2G 4G 5G 7G10G13G17G24G30
 106474127.17449  20261336.430    82966882.14849  20261334.530
 113524117.15148  21602907.931    88460392.07449  21602908.059
 113850827.20448  21665082.188    88714950.19549  21665082.253
 124231451.18945  23640446.618    96803757.45847  23640448.526
 112588065.31148  21424784.039    87730988.96349  21424784.635
 125548023.86646  23890992.469    97829630.72846  23890991.710
 113536308.55448  21605225.392    88469888.53649  21605226.146
 109676856.09849  20870796.901    85462545.76349  20870797.762
 117205624.37347  22303482.794    91329083.29048  22303483.467
 04 12 12  0  5 30.0000000  0  9G 2G 4G 5G 7G10G13G17G24G30
 106468237.16049  20260215.586    82962292.54249  20260213.678
 113589402.50848  21615331.321    88511263.77849  21615331.448
 113871475.25648  21669011.382    88731039.59149  21669011.433
 124318566.25646  23657024.100    96871639.28747  23657026.015
 112502772.98048  21408553.436    87664527.42749  21408554.034
 125539710.05846  23889410.398    97823152.46447  23889409.598
 113493254.18248  21597032.411    88436339.68149  21597033.158
 109709817.00249  20877069.141    85488229.60149  20877070.002
 117167549.65647  22296237.410    91299414.70448  22296238.065
 04 12 12  0  6  0.0000000  0  9G 2G 4G 5G 7G10G13G17G24G30
 106462661.74049  20259154.601    82957948.08249  20259152.679
 113654820.66548  21627779.989    88562238.96049  21627780.124
 113892684.31848  21673047.332    88747566.12949  21673047.390
 124405888.32545  23673640.991    96939682.37347  23673642.992
 112417895.61648  21392401.787    87598389.25549  21392402.386
 125531946.44546  23887933.025    97817102.92147  23887932.200
 113450404.04748  21588878.284    88402949.98549  21588879.030
 109742978.40149  20883379.539    85514069.66449  20883380.402
 117130038.77747  22289099.303    91270185.47848  22289099.959
 04 12 12  0  6 30.0000000  0  9G 2G 4G 5G 7G10G13G17G24G30
 106457393.07449  20258151.989    82953842.64749  20258150.059
 113720363.43848  21640252.352    88613311.26449  21640252.471
 113914445.94148  21677188.437    88764523.22949  21677188.510
 124493408.87246  23690295.585    97007880.19047  23690297.573
 112333428.02449  21376328.109    87532570.37849  21376328.714
 125524726.15746  23886559.039    97811476.76747  23886558.190
 113407750.48548  21580761.569    88369713.45549  21580762.307
 109776331.82649  20889726.473    85540059.35849  20889727.335
 117093085.55347  22282067.315    91241390.79148  22282067.972
 04 12 12  0  7  0.0000000  0  9G 2G 4G 5G 7G10G13G17G24G30
 106452424.31949  20257206.455    82949970.90849  20257204.510
 113786023.00548  21652746.958    88664474.56749  21652747.057
 113936752.52048  21681433.238    88781904.97749  21681433.325
 124581120.52946  23706986.564    97076226.94347  23706988.502
 112249365.83148  21360331.582    87467067.40249  21360332.180
 125518043.80445  23885287.453    97806269.71946  23885286.606
 113365287.03548  21572681.026    88336625.06749  21572681.769
 109809869.67249  20896108.501    85566192.75949  20896109.363
 117056684.90747  22275140.502    91213026.65848  22275141.146
 04 12 12  0  7 30.0000000  0  9G 2G 4G 5G 7G10G13G17G24G30
 106447750.02749  20256316.954    82946328.61249  20256315.002
 113851793.71348  21665262.707    88715724.48649  21665262.780
 113959598.09448  21685780.606    88799706.71849  21685780.700
 124669017.66446  23723712.875    97144718.14947  23723714.823
 112165706.04848  21344411.630    87401877.99149  21344412.214
 125511895.50246  23884117.470    97801478.84546  23884116.634
 113323008.71748  21564635.717    88303680.94949  21564636.449
 109843586.46349  20902524.581    85592465.59349  20902525.435
 117020832.90147  22268318.069    91185090.05648  22268318.696
 04 12 12  0  8  0.0000000  0  9G 2G 4G 5G 7G10G13G17G24G30
 106443520.37249  20255512.066    82943032.78949  20255510.113
 113917825.13448  21677828.075    88767177.54449  21677828.135
 113983132.05148  21690258.976    88818044.86649  21690259.078
 124757249.53846  23740502.866    97213470.24647  23740504.795
 112082601.62548  21328597.361    87337121.31849  21328597.935
 125506432.52745  23883077.877    97797222.01446  23883077.026
 113281065.84048  21556654.241    88270998.19749  21556654.987
 109877631.61049  20909003.139    85618994.28949  20909003.998
 116985681.40747  22261628.932    91157699.31748  22261629.552
 04 12 12  0  8 30.0000000  0  9G 2G 4G 5G 7G10G13G17G24G30
 106439424.66049  20254732.642    82939841.36749  20254730.674
 113983805.97449  21690383.799    88818591.21049  21690383.831
 114007043.05648  21694809.088    88836676.81449  21694809.198
 124845505.12046  23757297.398    97282240.74047  23757299.397
 111999744.40948  21312830.133    87272557.28649  21312830.693
 125501345.64945  23882109.822    97793258.26346  23882108.984
 113239147.97548  21548677.531    88238334.94749  21548678.257
 109911694.22349  20915485.021    85645536.60149  20915485.871
 116950921.20347  22255014.279    91130613.46148  22255014.902
 04 12 12  0  9  0.0000000  0  9G 2G 4G 5G 7G10G13G17G24G30
 106435769.45349  20254037.062    82936993.18049  20254035.079
 114050042.11248  21702988.123    88870203.78549  21702988.142
 114031636.79348  21699489.127    88855840.75449  21699489.243
 124934090.38245  23774154.589    97351268.26147  23774156.546
 111917443.21549  21297168.719    87208426.50449  21297169.271
 125496942.51346  23881271.910    97789827.29346  23881271.038
 113197562.06748  21540763.984    88205930.35549  21540764.710
 109946079.99049  20922028.409    85672330.71349  20922029.252
 116916860.31547  22248532.684    91104072.54048  22248533.323
 04 12 12  0  9 30.0000000  0  9G 2G 4G 5G 7G10G13G17G24G30
 106432400.13749  20253395.896    82934367.75449  20253393.900
 114116378.34048  21715611.470    88921894.37949  21715611.467
 114056757.70448  21704269.477    88875415.47949  21704269.598
 125022850.22146  23791045.090    97420431.65447  23791047.143
 111835545.99949  21281584.185    87144610.51349  21281584.716
 125493069.79146  23880534.949    97786809.59846  23880534.086
 113156153.69948  21532884.215    88173664.11249  21532884.941
 109980633.54249  20928603.720    85699255.56749  20928604.553
 116883345.66548  22242155.028    91077957.26748  22242155.660
 04 12 12  0 10  0.0000000  0  9G 2G 4G 5G 7G10G13G17G24G30
 106429470.84749  20252838.453    82932085.21149  20252836.442
 114182968.30748  21728283.107    88973782.67649  21728283.111
 114082559.31448  21709179.366    88895520.61849  21709179.494
 125111937.89846  23807997.983    97489850.56047  23808000.071
 111754209.71649  21266106.387    87081231.61049  21266106.918
 125489882.97046  23879928.488    97784326.40746  23879927.619
 113115077.25848  21525067.611    88141656.51849  21525068.336
 110015509.07949  20935240.302    85726431.31949  20935241.134
 116850532.78547  22235910.945    91052388.80848  22235911.559
 04 12 12  0 10 30.0000000  0  9G 2G 4G 5G 7G10G13G17G24G30
 106426674.74849  20252306.367    82929906.44649  20252304.350
 114249504.73448  21740944.545    89025629.26349  21740944.555
 114108733.95748  21714160.224    88915916.45249  21714160.342
 125201046.47945  23824954.800    97559285.78847  23824956.886
 111673130.15449  21250677.459    87018052.74649  21250677.978
 125487076.46546  23879394.659
 113074026.25248  21517255.846    88109668.74349  21517256.572
 110050399.23449  20941879.672    85753618.46049  20941880.497
 116818116.53847  22229742.332    91027129.40748  22229742.940
 04 12 12  0 11  0.0000000  0  9G 2G 4G 5G 7G10G13G17G24G30
 106424168.45849  20251829.412    82927953.52149  20251827.403
 114316143.41748  21753625.453    89077555.51449  21753625.476
 114135437.09548  21719241.668    88936724.07849  21719241.784
 125290331.54545  23841945.183    97628858.56247  23841947.261
 111592465.90749  21235327.545    86955197.51949  21235328.052
 125484807.56346  23878962.670
 113033157.40748  21509478.752    88077822.91549  21509479.465
 110085459.79449  20948551.468    85780938.38849  20948552.294
 116786254.56447  22223679.188    91002301.91548  22223679.797
 04 12 12  0 11 30.0000000  0  9G 2G 4G 5G 7G10G13G17G24G30
 106422262.44249  20251466.703    82926468.32449  20251464.687
 114383194.69748  21766384.863    89129803.29349  21766384.886
 114162978.40348  21724482.610    88958184.82249  21724482.733
 125380103.23246  23859028.238    97698810.41547  23859030.393
 111512530.03049  21220116.230    86892909.85749  21220116.731
 125483388.30046  23878692.884    97779232.76247  23878689.797
 112992781.55749  21501795.459    88046361.24149  21501796.173
 110121000.74449  20955314.680    85808632.64549  20955315.500
 116755259.01947  22217780.920    90978149.57448  22217781.526
 04 12 12  0 12  0.0000000  0  9G 2G 4G 5G 7G10G13G17G24G30
 106420497.97349  20251130.912    82925093.43949  20251128.896
 114450199.03448  21779135.347    89182014.48549  21779135.370
 114190898.26048  21729795.576    88979940.55449  21729795.705
 125469902.18146  23876116.398    97768783.65047  23876118.534
 111432866.08749  21204956.668    86830834.07249  21204957.167
 125482360.52645  23878497.216    97778431.97647  23878495.198
 112952440.53848  21494118.795    88014926.70949  21494119.516
 110156562.87949  20962081.924    85836343.40949  20962082.736
 116724672.58047  22211960.497    90954316.01148  22211961.096
 04 12 12  0 12 30.0000000  0  9G 2G 4G 5G 7G10G13G17G24G30
 106418878.23149  20250822.674    82923831.32749  20250820.645
 114517159.53648  21791877.495    89234191.51749  21791877.519
 114219199.22448  21735181.065    89001993.25549  21735181.207
 125559731.32545  23893210.370    97838780.30347  23893212.546
 111353479.98549  21189849.965    86768974.80449  21189850.471
 125481729.31946  23878377.042    97777940.12847  23878375.290
 112912137.81948  21486449.430    87983522.00949  21486450.152
 110192149.29149  20968853.787    85864073.08449  20968854.598
 116694499.91047  22206218.793    90930804.87648  22206219.391
 04 12 12  0 13  0.0000000  0  9G 2G 4G 5G 7G10G13G17G24G30
 106417869.57849  20250630.710    82923045.39249  20250628.681
 114584541.62148  21804699.873    89286697.05149  21804699.906
 114248346.47248  21740727.602    89024705.38149  21740727.771
 125650056.03746  23910398.609    97909163.17646  23910400.770
 111274840.41149  21174885.334    86707697.22749  21174885.846
 125481962.21946  23878421.302    97778121.62547  23878419.613
 112872339.85348  21478876.105    87952510.64049  21478876.821
 110228225.81649  20975718.915    85892184.67649  20975719.713
 116665208.55947  22200644.828    90907980.45648  22200645.419
 04 12 12  0 13 30.0000000  0  9G 2G 4G 5G 7G10G13G17G24G30
 106417014.35749  20250467.949    82922379.00349  20250465.919
 114651887.44348  21817515.345    89339174.33149  21817515.379
 114277881.59348  21746347.942    89047719.75149  21746348.138
 125740418.25245  23927594.014    97979575.27947  23927596.140
 111196492.54049  21159976.206    86646646.96949  21159976.711
 125482601.99346  23878543.035    97778620.20647  23878541.387
 112832589.31248  21471311.823    87921536.20149  21471312.531
 110264334.19949  20982590.106    85920321.08049  20982590.903
 116636342.46147  22195151.774    90885487.42448  22195152.353
 04 12 12  0 14  0.0000000  0  9G 2G 4G 5G 7G10G13G17G24G30
 106416471.96149  20250364.722    82921956.36949  20250362.692
 114719355.67148  21830354.104    89391747.00249  21830354.131
 114307962.54348  21752072.145    89071159.45049  21752072.359
 125830976.56645  23944826.765    98050140.12647  23944828.941
 111118597.54949  21145153.270    86585949.59049  21145153.768
 125483808.99646  23878772.690    97779560.73947  23878771.098
 112793045.69848  21463786.894    87890723.02949  21463787.602
 110300633.29149  20989497.582    85948606.09649  20989498.392
 116608061.82647  22189770.131    90863450.58748  22189770.717
 04 12 12  0 14 30.0000000  0  9G 2G 4G 5G 7G10G13G17G24G30
 106416247.13049  20250321.921    82921781.20149  20250319.892
 114786951.06248  21843217.073    89444418.75449  21843217.088
 114338593.41348  21757900.988    89095027.66449  21757901.221
 125921735.38345  23962097.624    98120861.24746  23962099.784
 111041163.06249  21130417.965    86525611.04949  21130418.450
 125485589.45246  23879111.464    97780948.22347  23879109.844
 112753714.40348  21456302.379    87860075.29449  21456303.081
 110337127.84049  20996442.263    85977043.41149  20996443.075
 116580373.15647  22184501.140    90841875.00048  22184501.731
 04 12 12  0 15  0.0000000  0  9G 2G 4G 5G 7G10G13G17G24G30
 106416345.35449  20250340.588    82921857.77049  20250338.552
 114854677.99248  21856105.080    89497192.98849  21856105.095
 114369778.36248  21763835.292    89119327.60249  21763835.537
 126012699.25146  23979407.496    98191742.16547  23979409.628
 110964196.62549  21115771.739    86465637.21549  21115772.204
 125487949.30946  23879560.512    97782787.04946  23879558.942
 112714601.01048  21448859.336    87829597.34149  21448860.031
 110373822.35649  21003424.992    86005636.55249  21003425.805
 116553282.83147  22179346.011    90820765.66848  22179346.586
 04 12 12  0 15 30.0000000  0  9G 2G 4G 5G 7G10G13G17G24G30
 106416617.49149  20250392.380    82922069.81949  20250390.352
 114922387.35248  21868989.730    89549953.54949  21868989.733
 114401367.46648  21769846.475    89143942.49949  21769846.731
 126103718.57145  23996727.944    98262666.27847  23996730.082
 110887551.38249  21101186.629    86405913.66349  21101187.072
 125490740.72846  23880091.642    97784962.23046  23880090.121
 112675556.81948  21441429.450    87799173.33149  21441430.139
 110410567.73049  21010417.398    86034269.32249  21010418.197
 116526643.12547  22174276.649    90800007.45448  22174277.210
 04 12 12  0 16  0.0000000  0  9G 2G 4G 5G 7G10G13G17G24G30
 106417530.83649  20250566.184    82922781.51449  20250564.155
 114990545.70548  21881959.822    89603063.97249  21881959.825
 114433826.78048  21776023.277    89169235.45949  21776023.530
 126195260.05345  24014147.775    98333997.20747  24014149.968
 110811697.06749  21086752.015    86346806.43849  21086752.439
 125494431.73246  23880793.904    97787838.40647  23880792.421
 112637049.13448  21434101.663    87769167.36549  21434102.345
 110447830.52149  21017508.277    86063305.26649  21017509.056
 116500922.52947  22169382.200    90779965.42348  22169382.749
 04 12 12  0 16 30.0000000  0  9G 2G 4G 5G 7G10G13G17G24G30
 106418319.98649  20250716.342    82923396.44749  20250714.313
 115058387.02048  21894869.595    89655927.34049  21894869.592
 114466389.74748  21782219.798    89194609.20049  21782220.057
 126286557.30645  24031521.088    98405137.92747  24031523.281
 110735870.42548  21072322.667    86287720.76049  21072323.089
 125498257.64646  23881521.927    97790819.64746  23881520.516
 112598312.82448  21426730.353    87738983.26449  21426731.034
 110484844.68649  21024551.839    86092147.48049  21024552.611
 116475356.46347  22164517.134    90760043.81648  22164517.682
 04 12 12  0 17  0.0000000  0  9G 2G 4G 5G 7G10G13G17G24G30
 106419912.24249  20251019.327    82924637.19049  20251017.292
 115126838.64248  21907895.505    89709266.28149  21907895.498
 114499982.60348  21788612.306    89220785.45449  21788612.565
 126378537.40745  24049024.313    98476810.72847  24049026.474
 110661001.32049  21058075.532    86229381.21949  21058075.955
 125503147.07746  23882452.278    97794629.63747  23882450.917
 112560275.72148  21419492.115    87709343.98549  21419492.788
 110522537.50849  21031724.532    86121518.53949  21031725.278
 116450873.89147  22159858.255    90740966.48748  22159858.811
 04 12 12  0 17 30.0000000  0  9G 2G 4G 5G 7G10G13G17G24G30
 106421386.15249  20251299.796    82925785.69949  20251297.762
 115194978.45948  21920862.082    89762362.24249  21920862.082
 114533682.85448  21795025.256    89247045.38649  21795025.509
 126470278.02545  24066482.032    98548296.85247  24066484.222
 110586170.42149  21043835.661    86171071.45149  21043836.099
 125508179.25146  23883409.839    97798550.80747  23883408.552
 112522016.65548  21412211.627    87679531.74649  21412212.305
 110559987.16749  21038850.966    86150700.10149  21038851.706
 116426554.25347  22155230.382    90722016.13048  22155230.925
 04 12 12  0 18  0.0000000  0  9G 2G 4G 5G 7G10G13G17G24G30
 106423358.92449  20251675.208    82927322.91549  20251673.181
 115263423.42348  21933886.713    89815695.98749  21933886.712
 114568106.10648  21801575.795    89273868.68749  21801576.056
 126562395.67445  24084011.485    98620076.76747  24084013.710
 110511997.15449  21029720.934    86113274.12249  21029721.385
 125513972.14346  23884512.130    97803064.79347  23884510.875
 112484153.03049  21405006.401    87650027.64149  21405007.070
 110597810.51549  21046048.503    86180172.86249  21046049.224
 116403015.95447  22150751.199    90703674.58348  22150751.739
 04 12 12  0 18 30.0000000  0  9G 2G 4G 5G 7G10G13G17G24G30
 106425675.62349  20252116.044    82929128.15649  20252114.009
 115332018.04348  21946939.829    89869146.34749  21946939.828
 114603096.63848  21808234.278    89301134.02649  21808234.545
 126654734.93145  24101583.109    98692029.38846  24101585.335
 110438329.10449  21015702.353    86055870.46449  21015702.811
 125520371.73845  23885729.897    97808051.52747  23885728.679
 112446530.30948  21397847.000    87620711.26849  21397847.667
 110635852.13549  21053287.589    86209815.69149  21053288.291
 116380105.02647  22146391.394    90685821.90948  22146391.942
 04 12 12  0 19  0.0000000  0  9G 2G 4G 5G 7G10G13G17G24G30
 106428333.94549  20252621.900    82931199.58749  20252619.858
 115400759.57547  21960020.890    89922711.18149  21960020.900
 114638650.81848  21815000.014    89328838.58749  21815000.274
 126747292.77945  24119196.294    98764152.32146  24119198.561
 110365166.01749  21001779.856    85998860.29949  21001780.315
 125527376.35646  23887062.808    97813509.70647  23887061.630
 112409146.48449  21390733.088    87591581.02549  21390733.749
 110674109.07749  21060567.637    86239626.30749  21060568.332
 116357820.33947  22142150.759    90668457.21848  22142151.314
 04 12 12  0 19 30.0000000  0  9G 2G 4G 5G 7G10G13G17G24G30
 106431021.42049  20253133.315    82933293.71749  20253131.281
 115469335.19448  21973070.403    89976146.71049  21973070.440
 114674454.98248  21821813.319    89356737.93749  21821813.581
 126839755.85945  24136791.409    98836201.51347  24136793.633
 110292197.66849  20987894.417    85942001.87249  20987894.877
 125534674.18346  23888451.496    97819196.34647  23888450.388
 112371689.19549  21383605.191    87562393.54049  21383605.851
 110712268.58649  21067829.138    86269361.01349  21067829.836
 116335850.30848  22137970.001    90651337.72448  22137970.544
 04 12 12  0 20  0.0000000  0  9G 2G 4G 5G 7G10G13G17G24G30
 106434348.42949  20253766.424    82935886.19249  20253764.390
 115538354.84148  21986204.387    90029928.26449  21986204.430
 114711118.38548  21828790.139    89385306.81649  21828790.400
 126932734.05045  24154484.648    98908651.97047  24154486.950
 110220036.69449  20974162.635    85885772.55749  20974163.088
 125542876.46545  23890012.297    97825587.76646  23890011.208
 112334769.31348  21376579.559    87533624.81449  21376580.227
 110750940.65549  21075188.194    86299495.08449  21075188.899
 116314806.43647  22133965.480    90634939.90848  22133966.014
 04 12 12  0 20 30.0000000  0  9G 2G 4G 5G 7G10G13G17G24G30
 106437845.61049  20254431.909    82938611.28449  20254429.871
 115607348.92748  21999333.519    90083689.88849  21999333.575
 114748170.51148  21835840.930    89414178.60349  21835841.186
 127025757.37844  24172186.423    98981137.62445  24172188.779
 110148216.03649  20960495.594    85829808.44149  20960496.034
 125551514.51945  23891656.058    97832318.70847  23891654.980
 112297917.96748  21369566.964    87504909.49249  21369567.637
 110789655.69649  21082555.410    86329662.66749  21082556.108
 116294220.46547  22130048.093    90618898.89148  22130048.649
 04 12 12  0 21  0.0000000  0  9G 2G 4G 5G 7G10G13G17G24G30
 106441659.22249  20255157.604    82941582.94449  20255155.557
 115676463.42648  22012485.559    90137545.34049  22012485.642
 114785756.03848  21842993.230    89443466.01449  21842993.478
 127118971.20746  24189924.371    99053771.85647  24189926.655
 110076883.93749  20946921.517    85774225.03049  20946921.936
 125560735.29245  23893410.636    97839503.80147  23893409.569
 112261281.28049  21362595.222    87476361.44149  21362595.888
 110828559.64849  21089958.574    86359977.45549  21089959.266
 116274239.46947  22126245.831    90603329.30148  22126246.389
 04 12 12  0 21 30.0000000  0  9G 2G 4G 5G 7G10G13G17G24G30
 106445626.26949  20255912.490    82944674.17549  20255910.429
 115745534.60248  22025629.373    90191367.03249  22025629.464
 114823710.72948  21850215.773    89473041.10049  21850216.016
 127212211.76045  24207667.547    99126426.76647  24207669.848
 110005879.55149  20933409.808    85718896.96549  20933410.219
 125570376.25646  23895245.220    97847016.27447  23895244.161
 112224696.74048  21355633.410    87447854.01249  21355634.075
 110867488.99249  21097366.570    86390312.02249  21097367.262
 116254701.33048  22122527.840    90588104.77948  22122528.413
 04 12 12  0 22  0.0000000  0  9G 2G 4G 5G 7G10G13G17G24G30
 106450046.13849  20256753.569    82948118.22649  20256751.502
 115814861.71948  22038821.890    90245388.15649  22038821.982
 114862332.73148  21857565.302    89503136.16049  21857565.545
 127305778.05445  24225472.675    99199335.46546  24225475.004
 109935504.46049  20920017.844    85664059.26949  20920018.240
 125580737.50646  23897216.889    97855090.00847  23897215.804
 112188464.10149  21348738.556    87419620.80149  21348739.222
 110906742.72249  21104836.294    86420899.35449  21104836.986
 116235906.32147  22118951.257    90573459.33848  22118951.801
 04 12 12  0 22 30.0000000  0  9G 2G 4G 5G 7G10G13G17G24G30
 106454757.13249  20257650.041    82951789.12549  20257647.980
 115884282.70448  22052032.253    90299482.44548  22052032.337
 114901458.84448  21865010.772    89533624.01949  21865011.014
 127399507.16845  24243308.732    99272371.18247  24243311.034
 109865599.13749  20906715.261    85609587.62649  20906715.655
 125591657.72446  23899294.913    97863599.30547  23899293.831
 112152421.81349  21341879.913    87391535.92849  21341880.571
 110946158.79749  21112336.906    86451613.20649  21112337.599
 116217693.69547  22115485.486    90559267.70748  22115486.029
 04 12 12  0 23  0.0000000  0  9G 2G 4G 5G 7G10G13G17G24G30
 106459906.54949  20258629.925    82955801.68149  20258627.857
 115953944.26548  22065288.413    90353764.17948  22065288.475
 114941234.93148  21872579.927    89564618.36749  21872580.158
 127493545.88645  24261203.758    99345648.03946  24261206.090
 109796312.81049  20893530.488    85555598.30749  20893530.874
 125603285.09846  23901507.493    97872659.64547  23901506.428
 112116717.54249  21335085.622    87363714.42049  21335086.267
 110985883.93549  21119896.337    86482567.87449  21119897.030
 116200211.47448  22112158.730    90545645.20648  22112159.237
 04 12 12  0 23 30.0000000  0  9G 2G 4G 5G 7G10G13G17G24G30
 106465181.06749  20259633.620    82959911.71149  20259631.553
 116023532.79147  22078530.669    90407989.00348  22078530.716
 114981346.40548  21880212.893    89595874.06149  21880213.103
 127587580.16145  24279097.809    99418921.58946  24279100.110
 109727334.19549  20880404.264    85501848.76749  20880404.649
 125615306.87145  23903795.119    97882027.31047  23903794.061
 112081038.39249  21328296.105    87335912.49549  21328296.737
 111025605.01249  21127454.994    86513519.37749  21127455.680
 116183147.31748  22108911.505    90532348.48348  22108912.011
 04 12 12  0 24  0.0000000  0  9G 2G 4G 5G 7G10G13G17G24G30
 106470730.16549  20260689.590    82964235.67149  20260687.516
 116093197.73948  22091787.474    90462273.38049  22091787.500
 115021941.68348  21887937.929    89627506.74549  21887938.112
 127681758.92145  24297019.520    99492307.50147  24297021.913
 109658815.32849  20867365.528    85448457.47649  20867365.913
 125627873.20346  23906186.424    97891819.26546  23906185.372
 112045534.22648  21321539.875    87308246.92949  21321540.501
 111065471.00749  21135041.217    86544583.81349  21135041.902
 116166651.68847  22105772.473    90519494.77948  22105772.951
 04 12 12  0 24 30.0000000  0  9G 2G 4G 5G 7G10G13G17G24G30
 106476859.26349  20261855.913    82969011.59449  20261853.838
 116163244.04247  22105116.842    90516854.91748  22105116.861
 115063324.34548  21895812.800    89659752.96449  21895812.976
 127776386.51045  24315026.581    99566043.24846  24315029.011
 109591063.23549  20854472.709    85395663.66449  20854473.086
 125641289.28745  23908739.367    97902273.41446  23908738.351
 112010510.43449  21314875.063    87280955.67449  21314875.682
 111105786.69049  21142713.025    86575998.64449  21142713.709
 116151030.42847  22102799.840    90507322.38648  22102800.291
 04 12 12  0 25  0.0000000  0  9G 2G 4G 5G 7G10G13G17G24G30
 106482950.77249  20263015.077    82973758.24449  20263012.995
 116233053.84948  22118401.207    90571252.16649  22118401.225
 115104875.31048  21903719.691    89692130.34049  21903719.854
 127870844.81244  24333001.333    99639647.18246  24333003.760
 109523462.47049  20841608.694    85342987.76949  20841609.064
 125654938.59045  23911336.725    97912909.26046  23911335.734
 111975349.95649  21308184.241    87253557.90449  21308184.867
 111145934.31549  21150352.852    86607282.52449  21150353.530
 116135666.71048  22099876.210    90495350.67748  22099876.639
 04 12 12  0 25 30.0000000  0  9G 2G 4G 5G 7G10G13G17G24G30
 106489466.33649  20264254.941    82978835.32349  20264252.847
 116303088.44148  22131728.358    90625824.57449  22131728.372
 115147054.67848  21911746.164    89724997.36749  21911746.325
 127965594.44646  24351031.642    99713478.02047  24351034.073
 109456476.82449  20828861.725    85290791.18749  20828862.088
 125669282.88445  23914066.282    97924086.70846  23914065.297
 111940514.80849  21301555.332    87226413.64749  21301555.947
 111186375.44749  21158048.526    86638795.10949  21158049.202
 116121023.15448  22097089.604    90483940.14748  22097090.040
 04 12 12  0 26  0.0000000  0  9G 2G 4G 5G 7G10G13G17G24G30
 106496407.02149  20265575.698    82984243.65949  20265573.602
 116373348.36247  22145098.389    90680572.56349  22145098.382
 115189862.24948  21919892.192    89758353.90649  21919892.348
 128060635.88344  24369117.480    99787536.19246  24369119.988
 109390109.21049  20816232.365    85239076.19349  20816232.720
 125684323.40445  23916928.386    97935806.59446  23916927.412
 111906006.16648  21294988.527    87199523.82849  21294989.148
 111227110.68649  21165800.184    86670536.85549  21165800.853
 116107101.36648  22094440.376    90473092.01348  22094440.808
 04 12 12  0 26 30.0000000  0  9G 2G 4G 5G 7G10G13G17G24G30
 106503620.27349  20266948.322    82989864.38849  20266946.226
 116443681.02948  22158482.262    90735377.23449  22158482.258
 115233144.24948  21928128.495    89792080.13149  21928128.637
 128155816.04946  24387229.604    99861702.59046  24387232.134
 109324209.23649  20803691.987    85187725.59849  20803692.334
 125699908.46045  23919894.070    97947950.85547  23919893.089
 111871671.99249  21288454.951    87172769.93349  21288455.581
 111267987.11349  21173578.691    86702388.63649  21173579.368
 116093749.45047  22091899.573    90462687.95748  22091899.993
 04 12 12  0 27  0.0000000  0  9G 2G 4G 5G 7G10G13G17G24G30
 106510954.00549  20268343.891    82995578.97849  20268341.795
 116513934.09148  22171850.969    90790119.89849  22171850.945
 115276746.77248  21936425.797    89826056.11849  21936425.935
 128250981.77145  24405339.063    99935857.67847  24405341.594
 109258626.76549  20791212.028    85136622.40849  20791212.360
 125715886.26245  23922934.509    97960401.11746  23922933.539
 111837360.53049  21281925.673    87146033.75249  21281926.310
 111308852.46649  21181355.098    86734231.78149  21181355.781
 116080816.07348  22089438.421    90452610.02348  22089438.820
 04 12 12  0 27 30.0000000  0  9G 2G 4G 5G 7G10G13G17G24G30
 106518872.61849  20269850.753    83001749.32549  20269848.665
 116584571.62248  22185292.868    90845162.11749  22185292.825
 115321132.49148  21944872.130    89860642.38449  21944872.277
 128346596.69145  24423533.989   100010362.74946  24423536.585
 109193828.04849  20778881.212    85086129.93549  20778881.536
 125732721.52246  23926138.146    97973519.50547  23926137.184
 111803536.41049  21275489.133    87119677.32649  21275489.763
 111350171.04349  21189217.755    86766428.08149  21189218.447
 116068766.19547  22087145.406    90443220.52548  22087145.771
 04 12 12  0 28  0.0000000  0  9G 2G 4G 5G 7G10G13G17G24G30
 106526762.94849  20271352.221    83007897.64349  20271350.131
 116654980.16948  22198691.151    90900025.93948  22198691.092
 115365686.83548  21953350.552    89895360.04849  21953350.701
 128442046.73645  24441697.546   100084739.37846  24441700.125
 109129201.80449  20766583.217    85035771.85649  20766583.533
 125749801.37945  23929388.276    97986828.54146  23929387.318
 111769586.73149  21269028.718    87093223.04149  21269029.341
 111391329.22149  21197049.890    86798499.39549  21197050.574
 116056987.39448  22084903.963    90434042.27048  22084904.294
 04 12 12  0 28 30.0000000  0  9G 2G 4G 5G 7G10G13G17G24G30
 106535090.61349  20272936.911    83014386.74149  20272934.820
 116725624.79947  22212134.389    90955073.69048  22212134.346
 115410873.92748  21961949.381    89930570.76449  21961949.532
 128537796.93845  24459918.240   100159349.82646  24459920.850
 109065215.55749  20754407.009    84985912.47449  20754407.325
 125767591.64945  23932773.628    98000691.11147  23932772.684
 111735977.32149  21262633.042    87067033.90949  21262633.665
 111432792.20449  21204940.016    86830808.23649  21204940.700
 116045945.57048  22082802.768    90425438.26448  22082803.092
 04 12 12  0 29  0.0000000  0 10G 2G 4G 5G 6G 7G10G13G17G24G30
 106543859.19249  20274605.504    83021219.41749  20274603.407
 116796508.94948  22225623.189    91010308.10348  22225623.146
 115456695.39248  21970668.928    89966275.79649  21970669.089
 129762256.32955  24692935.051
 128633849.65345  24478196.440   100234196.13546  24478199.030
 109001874.56449  20742353.595    84936555.88949  20742353.897
 125786095.94446  23936294.830    98015110.08946  23936293.899
 111702712.09849  21256302.857    87041112.98549  21256303.472
 111474563.17449  21212888.767    86863357.04749  21212889.452
 116035644.88347  22080842.600    90417411.77348  22080842.926
 04 12 12  0 29 30.0000000  0  9G 2G 4G 5G 6G10G13G17G24G30
 106552763.81349  20276299.979    83028158.10649  20276297.867
 116867327.52747  22239099.522    91065491.41048  22239099.496
 115502844.94948  21979450.909    90002236.47849  21979451.077
 129663844.57145  24674207.191
 108938876.07849  20730365.370    84887466.18249  20730365.666
 125805009.65545  23939893.978    98029848.03647  23939893.080
 111669486.59449  21249980.230    87015223.01249  21249980.839
 111516337.23049  21220838.117    86895908.24949  21220838.803
 116025780.87447  22078965.530    90409725.55548  22078965.842
 04 12 12  0 30  0.0000000  0  9G 2G 4G 5G 6G10G13G17G24G30
 106561961.93649  20278050.318    83035325.47349  20278048.204
 116938237.65448  22252593.270    91120746.05648  22252593.245
 115549478.22648  21988324.932    90038574.08649  21988325.108
 129565432.07344  24655479.737
 108876379.26349  20718472.598    84838767.40649  20718472.874
 125824490.65045  23943601.017    98045028.09846  23943600.152
 111636458.46049  21243695.185    86989486.80749  21243695.794
 111558271.32749  21228817.899    86928584.18349  21228818.592
 116016511.53647  22077201.621    90402502.71448  22077201.936
 04 12 12  0 30 30.0000000  0  9G 2G 4G 5G 6G10G13G17G24G30
 106571456.26249  20279857.016    83042723.65849  20279854.901
 117009241.89348  22266104.928    91176074.03848  22266104.903
 115596596.61448  21997291.287    90075289.70049  21997291.436
 129467023.96045  24636752.873
 108814388.67749  20706676.164    84790463.08749  20706676.428
 125844541.85845  23947416.587    98060652.45647  23947415.734
 111603631.01948  21237448.307    86963907.01449  21237448.902
 111600368.22349  21236828.672    86961386.96749  21236829.360
 116007840.28147  22075551.525    90395745.91448  22075551.841
 04 12 12  0 31  0.0000000  0  9G 2G 4G 5G 6G10G13G17G24G30
 106581251.13749  20281720.901    83050356.04749  20281718.778
 117080344.37347  22279635.268    91231478.57548  22279635.226
 115644202.58148  22006350.413    90112385.25249  22006350.541
 129368626.72746  24618028.538
 108752910.31049  20694977.196    84742557.90349  20694977.447
 125865167.42745  23951341.467    98076724.32846  23951340.665
 111571008.72649  21231240.461    86938487.07749  21231241.055
 111642631.74649  21244871.141    86994319.59649  21244871.829
 115999771.78447  22074016.135    90389458.79348  22074016.446
 04 12 12  0 31 30.0000000  0  9G 2G 4G 5G 6G10G13G17G24G30
 106591351.77149  20283642.976    83058226.67649  20283640.858
 117151549.92347  22293185.216    91286963.42248  22293185.185
 115692299.91348  22015503.049    90149863.67849  22015503.155
 129270247.30745  24599307.747
 108691951.43749  20683377.078    84695057.51649  20683377.322
 125886372.84345  23955376.646    98093248.07146  23955375.878
 111538597.17949  21225072.743    86913231.33749  21225073.323
 111685066.66249  21252946.243    87027385.76549  21252946.925
 115992311.50548  22072596.473    90383645.61448  22072596.786
 04 12 12  0 32  0.0000000  0  9G 2G 4G 5G 6G10G13G17G24G30
 106601917.79949  20285653.612    83066459.96049  20285651.495
 117223018.13048  22306785.164    91342652.94048  22306785.111
 115741046.39248  22024779.208    90187847.94449  22024779.301
 129172047.48045  24580621.090
 108631673.56649  20671906.545    84648087.78649  20671906.788
 125908318.08344  23959552.645    98110348.27746  23959551.870
 111506556.27349  21218975.543    86888264.42449  21218976.117
 111727832.74949  21261084.365    87060709.99149  21261085.041
 115985619.72947  22071323.064    90378431.25348  22071323.378
 04 12 12  0 32 30.0000000  0  9G 2G 4G 5G 6G10G13G17G24G30
 106612646.31549  20287695.169    83074819.85349  20287693.051
 117294445.71347  22320377.381    91398310.81248  22320377.302
 115790137.17448  22034120.891    90226100.48549  22034120.993
 129073726.27344  24561911.276
 108571775.26949  20660508.254    84601413.81149  20660508.496
 125930700.01045  23963811.778    98127788.75646  23963810.952
 111474583.47649  21212891.316    86863350.56449  21212891.883
 111770626.93849  21269227.804    87094056.13749  21269228.473
 115979393.78547  22070138.301    90373579.88648  22070138.617
 04 12 12  0 33  0.0000000  0  9G 2G 4G 5G 6G10G13G17G24G30
 106623541.59449  20289768.454    83083309.70149  20289766.328
 117365836.71447  22333962.642    91453940.15748  22333962.579
 115839574.80748  22043528.577    90264623.29849  22043528.703
 128975289.64845  24543179.076
 108512262.37849  20649183.298    84555040.16349  20649183.532
 125953522.97045  23968154.777    98145572.96346  23968153.899
 111442683.36348  21206820.921    86838493.34449  21206821.473
 111813452.92249  21277377.318    87127427.02649  21277377.992
 115973638.09747  22069043.036    90369094.94048  22069043.340
 04 12 12  0 33 30.0000000  0  9G 2G 4G 5G 6G10G13G17G24G30
 106634914.67049  20291932.667    83092171.85149  20291930.540
 117437501.94748  22347600.071    91509783.21248  22347600.000
 115889668.77648  22053061.154    90303657.55449  22053061.282
 128877051.27945  24524484.775
 108453448.11349  20637991.286    84509210.90149  20637991.512
 125977098.17845  23972640.978    98163943.26846  23972640.100
 111411167.33849  21200823.591    86813935.44349  21200824.129
 111856621.64348  21285592.035    87161065.01149  21285592.701
 115968664.17147  22068096.493    90365219.18548  22068096.787
 04 12 12  0 34  0.0000000  0  9G 2G 4G 5G 6G10G13G17G24G30
 106646613.13849  20294158.805    83101287.55449  20294156.673
 117509288.84948  22361260.676    91565721.04748  22361260.637
 115940264.71048  22062689.264    90343082.93549  22062689.401
 128778860.28545  24505799.930   100347159.50547  24505801.461
 108395181.65749  20626903.530    84463808.49649  20626903.743
 126001273.05345  23977241.268    98182780.89346  23977240.357
 111379883.33649  21194870.449    86789558.29449  21194870.981
 111899980.34149  21293842.915    87194851.01649  21293843.566
 115964319.54347  22067269.714    90361833.77448  22067270.020
 04 12 12  0 34 30.0000000  0  9G 2G 4G 5G 6G10G13G17G24G30
 106658483.19949  20296417.597    83110536.95449  20296415.471
 117581043.20047  22374915.069    91621633.54248  22374915.008
 115991206.93748  22072383.260    90382778.17049  22072383.390
 128680565.05945  24487095.184   100270565.84447  24487096.560
 108337310.75749  20615891.040    84418714.32349  20615891.247
 126025893.68745  23981926.431    98201965.81247  23981925.495
 111348677.54749  21188932.179    86765242.11149  21188932.705
 111943375.19448  21302100.669    87228665.19949  21302101.304
 115960451.04547  22066533.534    90358819.38248  22066533.852
 04 12 12  0 35  0.0000000  0  9G 2G 4G 5G 6G10G13G17G24G30
 106670830.91249  20298767.282    83120158.56149  20298765.150
 117653071.07547  22388621.536    91677759.13848  22388621.498
 116042799.83148  22082201.079    90422980.40749  22082201.202
 128582473.75745  24468428.899   100194131.12846  24468430.345
 108280142.93449  20605012.347    84374167.99949  20605012.534
 126051266.28244  23986754.669    98221736.66747  23986753.755
 111317856.62649  21183067.147    86741225.81849  21183067.673
 111987111.97749  21310423.508    87262745.80149  21310424.135
 115957364.69347  22065946.197    90356414.45048  22065946.543
 04 12 12  0 35 30.0000000  0  9G 2G 4G 5G 6G10G13G17G24G30
 106683190.95149  20301119.314    83129789.76949  20301117.174
 117724906.80047  22402291.414    91733735.04748  22402291.341
 116094576.14548  22092053.796    90463325.57649  22092053.920
 128484122.98945  24449713.305   100117494.20947  24449714.857
 108223214.62149  20594179.232    84329808.30249  20594179.405
 126076925.07745  23991637.346    98241730.55347  23991636.458
 111286955.47449  21177186.847    86717147.00049  21177187.372
 112030725.06249  21318722.802    87296730.02149  21318723.421
 115954595.35247  22065419.185    90354256.53448  22065419.550
 04 12 12  0 36  0.0000000  0  9G 2G 4G 5G 6G10G13G17G24G30
 106696019.93549  20303560.582    83139786.39149  20303558.436
 117797007.22347  22416011.674    91789917.19348  22416011.610
 116146990.66148  22102027.958    90504168.04649  22102028.084
 128385971.63045  24431035.711   100041012.65046  24431037.226
 108166984.36349  20583478.946    84285992.54449  20583479.104
 126103326.94845  23996661.449    98262303.44347  23996660.583
 111256431.38849  21171378.301    86693362.01249  21171378.813
 112074671.04549  21327085.433    87330973.66049  21327086.044
 115952600.14047  22065039.491    90352701.82548  22065039.867
 04 12 12  0 36 30.0000000  0  9G 2G 4G 5G 6G10G13G17G24G30
 106709003.71349  20306031.313    83149903.63349  20306029.147
 117869057.59548  22429722.404    91846060.33548  22429722.339
 116199727.57148  22112063.471    90545261.72049  22112063.594
 128287707.52745  24412336.549    99964443.21446  24412338.012
 108111139.31649  20572851.969    84242476.95749  20572852.107
 126130157.63245  24001767.152    98283210.48947  24001766.274
 111225970.22449  21165581.722    86669626.04649  21165582.240
 112118635.41649  21335451.580    87365231.61749  21335452.180
 115951064.80747  22064747.297    90351505.48948  22064747.671
 04 12 12  0 37  0.0000000  0  9G 2G 4G 5G 6G10G13G17G24G30
 106722443.01349  20308588.721    83160375.82049  20308586.554
 117941358.48948  22443480.807    91902398.69548  22443480.749
 116253085.58448  22122217.181    90586839.38549  22122217.292
 128189633.29545  24393673.684    99888021.74547  24393675.002
 108055981.39749  20562355.742    84199496.79149  20562355.866
 126157717.35645  24007011.522    98304685.69447  24007010.625
 111195872.97849  21159854.401    86646173.65749  21159854.912
 112162918.71348  21343878.411    87399738.08949  21343879.005
 115950290.06047  22064599.844    90350901.81248  22064600.217
 04 12 12  0 37 30.0000000  0  9G 2G 4G 5G 6G10G13G17G24G30
 106736175.72049  20311201.962    83171076.63849  20311199.788
 118013747.53148  22457255.989    91958805.74648  22457255.927
 116306900.49248  22132457.841    90628773.05949  22132457.954
 128091588.85845  24375016.478    99811623.53347  24375017.717
 108001350.43449  20551959.786    84156927.24049  20551959.908
 126185843.96945  24012363.868    98326602.52146  24012362.953
 111165977.93649  21154165.539    86622878.84649  21154166.043
 112207358.50849  21352335.035    87434366.49449  21352335.631
 115950113.76347  22064566.272    90350764.45948  22064566.643
 04 12 12  0 38  0.0000000  0  9G 2G 4G 5G 6G10G13G17G24G30
 106750193.27349  20313869.414    83181999.41849  20313867.227
 118086216.35147  22471046.335    92015274.96548  22471046.257
 116361162.25748  22142783.517    90671054.94949  22142783.623
 127993568.22045  24356363.711    99735243.92747  24356364.892
 107947239.70649  20541662.832    84114763.06249  20541662.947
 126214528.79845  24017822.416    98348954.36447  24017821.471
 111136277.16249  21148513.664    86599735.40149  21148514.146
 112251946.24849  21360819.806    87469110.19249  21360820.389
 115950527.78447  22064645.040    90351087.09148  22064645.403
 04 12 12  0 38 30.0000000  0  9G 2G 4G 5G 6G10G13G17G24G30
 106764334.64249  20316560.427    83193018.67549  20316558.227
 118158603.56547  22484821.152    92071680.58348  22484821.108
 116415707.96048  22153163.237    90713558.06749  22153163.349
 127895412.01345  24337685.081    99658758.63546  24337686.349
 107893489.42349  20531434.470    84072879.76049  20531434.572
 126243610.55545  24023356.461    98371615.52046  24023355.488
 111106609.89648  21142868.159    86576618.06549  21142868.642
 112296520.69449  21369302.035    87503843.54449  21369302.598
 115951371.03247  22064805.498    90351744.17448  22064805.854
 04 12 12  0 39  0.0000000  0  9G 2G 4G 5G 6G10G13G17G24G30
 106778748.17349  20319303.219    83204250.00749  20319301.018
 118231057.17447  22498608.592    92128137.96148  22498608.530
 116470683.32548  22163624.708    90756396.01049  22163624.812
 127797270.53745  24319009.385    99582284.76047  24319010.625
 107840249.09849  20521303.155    84031393.82049  20521303.243
 126273237.07045  24028994.187    98394701.16047  24028993.183
 111077124.34049  21137257.232    86553642.32449  21137257.708
 112341229.71349  21377809.872    87538681.75049  21377810.436
 115952791.62547  22065075.804    90352851.14648  22065076.172
 04 12 12  0 39 30.0000000  0  9G 2G 4G 5G 6G10G13G17G24G30
 106793736.59749  20322155.415    83215929.31049  20322153.200
 118303879.91747  22512466.305    92184882.93448  22512466.286
 116526389.64448  22174225.285    90799803.51049  22174225.398
 127699448.97945  24300394.556    99506060.17946  24300395.713
 107787822.99649  20511326.794    83990542.33049  20511326.869
 126303710.98346  24034793.174    98418447.08847  24034792.151
 111048123.97849  21131738.659    86531044.63349  21131739.136
 112386376.33749  21386400.995    87573860.92849  21386401.550
 115955092.46548  22065513.628    90354644.01048  22065514.015
 04 12 12  0 40  0.0000000  0  9G 2G 4G 5G 6G10G13G17G24G30
 106808680.27349  20324999.108    83227573.73149  20324996.879
 118376451.83747  22526276.264    92241432.50348  22526276.230
 116582204.91148  22184846.578    90843295.91949  22184846.696
 127601329.62945  24281722.987    99429603.62246  24281724.103
 107735592.78549  20501387.691    83949843.49649  20501387.760
 126334412.24645  24040635.400    98442370.18847  24040634.386
 111018989.22449  21126194.488    86508342.24549  21126194.966
 112431340.65849  21394957.415    87608898.06749  21394957.962
 115957653.53847  22066000.960    90356639.67048  22066001.361
 04 12 12  0 40 30.0000000  0  9G 2G 4G 5G 6G10G13G17G24G30
 106824192.48449  20327950.977    83239661.17849  20327948.749
 118449386.21747  22540155.251    92298264.44448  22540155.254
 116638740.81748  22195605.021    90887349.85849  22195605.133
 127503527.94645  24263111.904    99353394.56847  24263113.005
 107684173.47249  20491602.903    83909776.52849  20491602.951
 126365953.85746  24046637.569    98466948.07247  24046636.564
 110990333.90549  21120741.562    86486013.43349  21120742.027
 112476735.60249  21403595.780    87644270.75649  21403596.334
 115961088.27147  22066654.556    90359316.09448  22066654.948
 04 12 12  0 41  0.0000000  0  9G 2G 4G 5G 6G10G13G17G24G30
 106839809.48849  20330922.794    83251830.27449  20330920.559
 118522219.14147  22554014.872    92355017.40548  22554014.861
 116695531.62048  22206411.963    90931602.41549  22206412.082
 127405582.38045  24244473.465    99277073.35347  24244474.554
 107633102.69149  20481884.439    83869981.14049  20481884.481
 126397871.50345  24052711.277    98491818.98746  24052710.287
 110961694.72649  21115291.695    86463697.20549  21115292.153
 112522097.49449  21412227.855    87679617.68149  21412228.422
 115964932.89347  22067386.157    90362311.90848  22067386.556
 04 12 12  0 41 30.0000000  0  9G 2G 4G 5G 6G10G13G17G24G30
 106855838.60249  20333973.040    83264320.49849  20333970.800
 118595257.82947  22567913.684    92411930.65948  22567913.674
 116752882.33548  22217325.453    90976291.27349  22217325.573
 127307802.17045  24225866.450    99200881.05146  24225867.547
 107582689.01949  20472291.013    83830697.78749  20472291.047
 126430472.30346  24058914.986    98517222.25947  24058913.988
 110933379.17749  21109903.420    86441633.15649  21109903.872
 112567733.40249  21420912.067    87715178.14149  21420912.626
 115969494.37547  22068254.161    90365866.32748  22068254.567
 04 12 12  0 42  0.0000000  0  9G 2G 4G 5G 6G10G13G17G24G30
 106872125.82649  20337072.401    83277011.84049  20337070.155
 118668348.08747  22581822.291    92468884.10548  22581822.303
 116810636.75248  22228315.771    91021294.70249  22228315.893
 127210035.61845  24207262.076    99124699.32847  24207263.200
 107532779.69649  20462793.572    83791807.42749  20462793.593
 126463601.71746  24065219.291    98543037.42247  24065218.307
 110905233.52449  21104547.462    86419701.50749  21104547.901
 112613488.99848  21429619.062    87750831.86449  21429619.622
 115974618.62447  22069229.273    90369859.24548  22069229.693
 04 12 12  0 42 30.0000000  0  9G 2G 4G 5G 6G10G13G17G24G30
 106888672.49249  20340221.121    83289905.35749  20340218.868
 118741491.20447  22595740.970    92525878.72648  22595741.017
 116868794.17348  22239382.772    91066612.16749  22239382.896
 127112286.16745  24188660.950    99048530.98647  24188662.060
 107483377.49449  20453392.640    83753312.22549  20453392.649
 126497260.69746  24071624.376    98569265.23147  24071623.406
 110877259.54649  21099224.197    86397903.60449  21099224.631
 112659365.43948  21438349.058    87786579.73849  21438349.618
 115980306.73247  22070311.690    90374291.54248  22070312.090
 04 12 12  0 43  0.0000000  0  9G 2G 4G 5G 6G10G13G17G24G30
 106905480.36549  20343419.553    83303002.41049  20343417.287
 118814688.90147  22609670.040    92582915.88548  22609670.104
 116927354.86548  22250526.531    91112243.85249  22250526.673
 127014558.13744  24170063.918    98972379.30846  24170064.996
 107434485.77849  20444088.844    83715214.81549  20444088.834
 126531450.83946  24078130.562    98595906.89547  24078129.610
 110849459.62749  21093934.031    86376241.35049  21093934.464
 112705364.79349  21447102.444    87822423.39149  21447103.004
 115986560.51648  22071501.739    90379164.61748  22071502.122
 04 12 12  0 43 30.0000000  0  9G 2G 4G 5G 6G10G13G17G24G30
 106922552.43949  20346668.272    83316305.31749  20346666.008
 118887943.75947  22623609.982    92639997.58748  22623610.054
 116986319.08148  22261747.060    91158189.98149  22261747.210
 126916856.11645  24151471.759    98896247.94146  24151472.794
 107386108.14149  20434882.874    83677517.98049  20434882.851
 126566174.30146  24084738.193    98622964.16247  24084737.256
 110821836.60449  21088677.538    86354716.92649  21088677.972
 112751489.48549  21455879.681    87858364.72449  21455880.222
 115993382.23348  22072799.875    90384480.24348  22072800.252
 04 12 12  0 44  0.0000000  0  9G 2G 4G 5G 6G10G13G17G24G30
 106940200.07049  20350026.505    83330056.71949  20350024.249
 118961567.25947  22637620.057    92697366.57248  22637620.108
 117045996.41448  22273103.297    91204691.78049  22273103.447
 126819493.74745  24132944.280    98820381.16347  24132945.298
 107338557.39849  20425834.250    83640465.48249  20425834.222
 126601742.00346  24091506.460    98650679.28447  24091505.556
 110794702.56049  21083514.077    86333573.54249  21083514.511
 112798050.81249  21464740.013    87894646.28449  21464740.534
 116001083.29747  22074265.356    90390481.06648  22074265.722
 04 12 12  0 44 30.0000000  0  9G 2G 4G 5G 6G10G13G17G24G30
 106957657.16449  20353348.473    83343659.66649  20353346.212
 119034793.19847  22651554.495    92754425.74448  22651554.525
 117105618.69548  22284449.052    91251150.68749  22284449.194
 126721707.46746  24114336.116    98744184.14447  24114337.117
 107291069.25349  20416797.539    83603461.75849  20416797.504
 126637387.15845  24098289.508    98678454.71946  24098288.609
 110767291.64349  21078297.953    86312214.39449  21078298.374
 112844282.70648  21473537.656    87930671.13849  21473538.164
 116008897.41148  22075752.333    90396569.99448  22075752.685
 04 12 12  0 45  0.0000000  0  9G 2G 4G 5G 6G10G13G17G24G30
 106975852.57149  20356810.933    83357837.92049  20356808.679
 119108550.14147  22665589.963    92811898.69848  22665589.947
 117166112.76148  22295960.684    91298288.91349  22295960.838
 126624427.87546  24095824.396    98668381.90747  24095825.398
 107244573.39549  20407949.659    83567231.23749  20407949.618
 126674038.12845  24105263.920    98707013.94646  24105263.026
 110740533.01649  21073205.938    86291363.53749  21073206.359
 112891113.86849  21482449.330    87967162.95549  21482449.838
 116017752.77147  22077437.464    90403470.26748  22077437.802
 04 12 12  0 45 30.0000000  0  9G 2G 4G 5G 6G10G13G17G24G30
 106994021.48249  20360268.373    83371995.50249  20360266.128
 119182073.20447  22679580.943    92869189.39348  22679580.889
 117226711.34448  22307492.222    91345508.57049  22307492.391
 126526892.54845  24077264.052    98592380.37747  24077265.040
 107198306.23149  20399145.281    83531178.93349  20399145.239
 126710929.50945  24112284.098    98735760.49946  24112283.205
 110713661.97849  21068092.544    86270425.07449  21068092.965
 112937779.14248  21491329.430    88003525.51649  21491329.932
 116026884.19247  22079175.115    90410585.66448  22079175.432
 04 12 12  0 46  0.0000000  0  9G 2G 4G 5G 6G10G13G17G24G30
 107012477.94049  20363780.509    83386377.17649  20363778.256
 119255676.33647  22693587.165    92926542.49848  22693587.042
 117287726.48948  22319103.012    91393052.82349  22319103.206
 126429417.66645  24058715.098    98516426.02446  24058716.113
 107152582.92949  20390444.414    83495550.40349  20390444.373
 126748374.51645  24119409.599    98764938.47346  24119408.695
 110686993.33149  21063017.663    86249644.31949  21063018.084
 112984592.68748  21500237.740    88040003.61549  21500238.241
 116036605.43047  22081025.005    90418160.65548  22081025.322
 04 12 12  0 46 30.0000000  0  9G 2G 4G 5G 6G10G13G17G24G30
 107031535.75749  20367407.102    83401227.41449  20367404.844
 119329673.26447  22707668.324    92984202.43748  22707668.158
 117349469.75948  22330852.378    91441164.44649  22330852.579
 126332319.14946  24040237.775    98440764.92147  24040238.792
 107107718.18949  20381906.920    83460590.89049  20381906.872
 126786686.60145  24126700.116    98794792.07146  24126699.188
 110660840.93149  21058041.027    86229265.83349  21058041.442
 113031867.95748  21509233.931    88076841.48649  21509234.425
 116047229.88948  22083046.773    90426439.46448  22083047.092
 04 12 12  0 47  0.0000000  0  9G 2G 4G 5G 6G10G13G17G24G30
 107050584.72249  20371032.000    83416070.76149  20371029.748
 119403453.59847  22721708.273    93041693.58048  22721708.120
 117411328.66348  22342623.742    91489366.18349  22342623.943
 126234989.13346  24021716.483    98364923.35647  24021717.476
 107063103.07249  20373416.922    83425825.89249  20373416.874
 126825254.67845  24134039.360    98824845.13746  24134038.415
 110634595.00349  21053046.581    86208814.47749  21053046.989
 113078994.58348  21518201.823    88113563.53549  21518202.317
 116058146.75348  22085124.201    90434946.10348  22085124.523
 04 12 12  0 47 30.0000000  0  9G 2G 4G 5G 6G10G13G17G24G30
 107069937.63249  20374714.712    83431150.97749  20374712.461
 119477330.22647  22735766.504    93099259.82348  22735766.308
 117473613.79548  22354476.209    91537900.04149  22354476.422
 126137742.48946  24003211.056    98289146.78447  24003212.010
 107019051.60149  20365034.200    83391500.08649  20365034.139
 126864391.08145  24141486.734    98855341.06946  24141485.803
 110608568.67349  21048093.917    86188534.25549  21048094.306
 113126285.54248  21527201.000    88150413.62649  21527201.493
 116069668.52047  22087316.708    90443924.11648  22087317.022
 04 12 12  0 48  0.0000000  0  9G 2G 4G 5G 6G10G13G17G24G30
 107089598.59049  20378456.074    83446471.20549  20378453.817
 119551307.32047  22749843.900    93156904.29248  22749843.722
 117536327.27348  22366410.199    91586767.67149  22366410.404
 126040585.93146  23984722.694    98213440.48147  23984723.636
 106975569.16649  20356759.756    83357617.69149  20356759.681
 126904099.27544  24149042.958    98886282.50046  24149042.047
 110582766.76649  21043183.977    86168428.86949  21043184.373
 113173745.20648  21536232.273    88187395.18849  21536232.768
 116081799.00947  22089625.081    90453376.43048  22089625.397
 04 12 12  0 48 30.0000000  0  9G 2G 4G 5G 6G10G13G17G24G30
 107109725.55449  20382286.102    83462154.56149  20382283.845
 119625542.57447  22763970.382    93214749.96148  22763970.187
 117599624.55348  22378455.282    91636090.20349  22378455.493
 125943679.46745  23966281.930    98137929.03347  23966282.908
 106932814.55549  20348623.812    83324302.43449  20348623.732
 126944536.24745  24156737.792    98917791.87146  24156736.881
 110557347.38449  21038346.812    86148621.58149  21038347.208
 113221531.04048  21545325.615    88224630.90749  21545326.104
 116094695.55548  22092079.212    90463425.68748  22092079.543
 04 12 12  0 49  0.0000000  0  9G 2G 4G 5G 6G10G13G17G24G30
 107130013.76349  20386146.820    83477963.55249  20386144.562
 119699731.14447  22778087.991    93272559.22348  22778087.830
 117663198.70948  22390553.054    91685628.49249  22390553.264
 125846720.38245  23947831.182    98062376.55747  23947832.206
 106890483.72649  20340568.511    83291317.39549  20340568.426
 126985396.47545  24164513.235    98949630.97446  24164512.338
 110532005.98349  21033524.498    86128875.04049  21033524.901
 113269338.22948  21554423.015    88261883.27649  21554423.497
 116108052.51447  22094620.939    90473833.71848  22094621.291
 04 12 12  0 49 30.0000000  0  9G 2G 4G 5G 6G10G13G17G24G30
 107150464.93549  20390038.549    83493899.54149  20390036.270
 119773874.51347  22792196.999    93330333.28548  22792196.831
 117727049.52848  22402703.467    91735382.36749  22402703.676
 125749712.83546  23929371.206    97986786.31747  23929372.229
 106848579.67949  20332594.436    83258664.90249  20332594.346
 127026680.84145  24172369.442    98981800.52846  24172368.578
 110506744.84849  21028717.452    86109191.05649  21028717.849
 113317168.41048  21563524.790    88299153.55649  21563525.265
 116121871.27548  22097250.562    90484601.59048  22097250.907
 04 12 12  0 50  0.0000000  0  9G 2G 4G 5G 6G10G13G17G24G30
 107171387.43449  20394019.950    83510202.80849  20394017.664
 119848281.03247  22806356.095    93388312.38248  22806355.933
 117791482.63348  22414964.709    91785589.94849  22414964.934
 125652967.09346  23910961.115    97911400.03247  23910962.136
 106807411.49149  20324760.378    83226585.82249  20324760.277
 127068696.90045  24180364.815    99014540.35746  24180363.925
 110481872.38349  21023984.373    86089809.92549  21023984.771
 113365329.45248  21572689.537    88336681.63449  21572690.020
 116136459.38347  22100026.581    90495968.95648  22100026.904
 04 12 12  0 50 30.0000000  0  9G 2G 4G 5G 6G10G13G17G24G30
 107192471.62649  20398032.120    83526632.06849  20398029.827
 119922641.17247  22820506.359    93446255.35248  22820506.214
 117856186.30048  22427277.413    91836008.37848  22427277.652
 125556176.02145  23892542.327    97835978.49147  23892543.349
 106766670.64549  20317007.635    83194839.73549  20317007.535
 127111134.26346  24188440.370    99047608.47247  24188439.451
 110457079.54849  21019266.453    86070490.83849  21019266.860
 113413511.98549  21581858.351    88374226.48649  21581858.834
 116151506.66047  22102889.988    90507694.09848  22102890.303
 04 12 12  0 51  0.0000000  0  9G 2G 4G 5G 6G10G13G17G24G30
 107213714.28349  20402074.458    83543184.80249  20402072.150
 119996951.55047  22834647.130    93504159.55748  22834646.982
 117921154.95947  22439640.556    91886633.29149  22439640.804
 125459338.81745  23874114.796    97760520.96547  23874115.797
 106726355.15049  20309335.834    83163425.08649  20309335.734
 127153988.92546  24196595.347    99081001.72547  24196594.394
 110432363.47349  21014563.123    86051231.57449  21014563.536
 113461712.83649  21591030.662    88411785.60149  21591031.146
 116167009.40347  22105840.045    90519774.17848  22105840.359
 04 12 12  0 51 30.0000000  0  9G 2G 4G 5G 6G10G13G17G24G30
 107235418.55549  20406204.632    83560097.23349  20406202.324
 120071515.42347  22848836.175    93562261.27648  22848836.030
 117986689.60348  22452111.390    91937699.23348  22452111.651
 125362760.87446  23855736.565    97685265.49847  23855737.559
 106686768.83749  20301802.791    83132578.63349  20301802.692
 127197563.08546  24204887.216    99114955.66447  24204886.224
 110408027.71849  21009932.165    86032268.65949  21009932.598
 113510235.14448  21600264.144    88449595.19849  21600264.620
 116183269.97747  22108934.335    90532444.74948  22108934.658
 04 12 12  0 52  0.0000000  0  9G 2G 4G 5G 6G10G13G17G24G30
 107257270.56149  20410362.924    83577124.77749  20410360.608
 120146018.64047  22863013.666    93620315.73248  22863013.506
 118052474.01348  22464629.747    91988959.79348  22464630.011
 125266130.26146  23837348.336    97609968.97047  23837349.332
 106647598.67449  20294348.951    83102056.44149  20294348.854
 127241541.72946  24213256.086    99149224.75746  24213255.041
 110383758.69949  21005313.918    86013357.74649  21005314.353
 113558764.58049  21609498.983    88487410.34649  21609499.466
 116199973.61947  22112112.920    90545460.57748  22112113.256
 04 12 12  0 52 30.0000000  0  9G 2G 4G 5G 6G10G13G17G24G30
 107279725.18149  20414635.896    83594621.88749  20414633.574
 120220916.23247  22877266.222    93678677.46948  22877266.076
 118118960.60448  22477281.742    92040767.49548  22477282.019
 125169904.43746  23819037.146    97534987.85347  23819038.147
 106609300.50349  20287061.028    83072213.73649  20287060.930
 127286378.96746  24221788.341    99184162.88347  24221787.242
 110360011.76049  21000795.020    85994853.63449  21000795.467
 113607756.42348  21618821.814    88525585.81549  21618822.297
 116217574.74848  22115462.286    90559175.75848  22115462.605
 04 12 12  0 53  0.0000000  0  9G 2G 4G 5G 6G10G13G17G24G30
 107302158.70149  20418904.841    83612102.56149  20418902.525
 120295584.05747  22891475.025    93736860.20048  22891474.878
 118185523.38147  22489948.223    92092634.56848  22489948.519
 125073461.76746  23800684.728    97459837.73647  23800685.690
 106571251.49549  20279820.524    83042565.17749  20279820.434
 127331450.03745  24230365.062    99219283.23947  24230363.938
 110336163.34949  20996256.806    85976270.47149  20996257.246
 113656586.65948  21628113.899    88563635.35649  21628114.384
 116235448.64147  22118863.581    90573103.46748  22118863.878
 04 12 12  0 53 30.0000000  0  9G 2G 4G 5G 6G10G13G17G24G30
 107324871.15049  20423226.871    83629800.58349  20423224.555
 120370322.39047  22905697.244    93795097.88248  22905697.107
 118252460.10347  22502685.846    92144793.04548  22502686.151
 124977104.76646  23782348.565    97384754.39947  23782349.466
 106533752.47949  20272684.687    83013345.18049  20272684.589
 127377054.33345  24239043.277    99254819.04446  24239042.168
 110312514.11649  20991756.495    85957842.50849  20991756.934
 113705555.30748  21637432.317    88601792.75249  21637432.810
 116253894.69148  22122373.747    90587477.00948  22122374.052
 04 12 12  0 54  0.0000000  0  9G 2G 4G 5G 6G10G13G17G24G30
 107348009.39849  20427629.921    83647830.40149  20427627.613
 120445278.06647  22919960.841    93853504.88648  22919960.702
 118319915.26347  22515522.148    92197355.47248  22515522.471
 124880982.52246  23764057.098    97309853.94647  23764057.987
 106496950.85849  20265681.553    82984668.60949  20265681.455
 127423337.33645  24247850.658    99290883.68146  24247849.581
 110289211.18049  20987322.076    85939684.39449  20987322.514
 113754809.01349  21646804.998    88640172.25049  21646805.498
 116273058.92947  22126020.575    90602410.19448  22126020.880
 04 12 12  0 54 30.0000000  0  9G 2G 4G 5G 6G10G13G17G24G30
 107371258.96449  20432054.160    83665946.95849  20432051.846
 120520136.64846  22934205.932    93911836.27848  22934205.785
 118387571.99347  22528396.790    92250074.99348  22528397.132
 124784782.81345  23745750.878    97234893.17047  23745751.762
 106460533.23949  20258751.493    82956291.26249  20258751.394
 127469983.78145  24256727.104    99327231.64146  24256726.018
 110265940.52449  20982893.793    85921551.44149  20982894.216
 113804033.22448  21656172.048    88678528.79049  21656172.549
 116292625.99547  22129744.069    90617657.25548  22129744.361
 04 12 12  0 55  0.0000000  0  9G 2G 4G 5G 6G10G13G17G24G30
 107394769.25949  20436528.015    83684266.67449  20436525.708
 120595047.42347  22948460.979    93970208.28348  22948460.863
 118455577.00847  22541337.714    92303065.89348  22541338.082
 124688657.48646  23727458.807    97159990.34947  23727459.713
 106424649.49349  20251923.020    82928329.93849  20251922.907
 127517142.09245  24265701.026    99363978.35046  24265699.970
 110242851.92049  20978500.160    85903560.34249  20978500.568
 113853377.47249  21665561.934    88716978.86649  21665562.443
 116312744.45747  22133572.491    90633333.97148  22133572.775
 04 12 12  0 55 30.0000000  0  9G 2G 4G 5G 6G10G13G17G24G30
 107418844.87049  20441109.451    83703026.89649  20441107.146
 120670314.84646  22962783.881    94028858.25248  22962783.754
 118524232.86047  22554402.494    92356563.92748  22554402.894
 124592913.34946  23709239.322    97085384.53747  23709240.204
 106389604.91549  20245254.240    82901022.50049  20245254.121
 127565115.57645  24274830.029    99401360.32746  24274828.946
 110220250.14649  20974199.168    85885948.58949  20974199.567
 113903146.08848  21675032.599    88755759.60449  21675033.095
 116333717.79848  22137563.579    90649676.84248  22137563.856
 04 12 12  0 56  0.0000000  0  9G 2G 4G 5G 6G10G13G17G24G30
 107442867.19449  20445680.736    83721745.60149  20445678.437
 120745320.33147  22977056.968    94087304.06648  22977056.850
 118592918.67747  22567472.959    92410085.32948  22567473.397
 124496934.22646  23690975.102    97010595.62847  23690975.966
 106354781.65349  20238627.588    82873887.49949  20238627.469
 127613284.68945  24283996.318    99438894.65646  24283995.236
 110197517.21049  20969873.234    85868234.61149  20969873.625
 113952720.76148  21684466.357    88794389.21549  21684466.833
 116354926.75647  22141599.498    90666203.32348  22141599.768
 04 12 12  0 56 30.0000000  0  9G 2G 4G 5G 6G10G13G17G24G30
 107467297.05649  20450329.584    83740781.85749  20450327.286
 120820524.70747  22991367.879    94145904.90148  22991367.764
 118662092.82947  22580636.380    92463987.24348  22580636.818
 124401183.20545  23672754.276    96935984.44147  23672755.136
 106320641.36849  20232130.896    82847284.69849  20232130.771
 127662108.97744  24293287.236    99476939.59946  24293286.100
 110175114.40749  20965610.116    85850777.89349  20965610.501
 114002562.29148  21693950.885    88833226.78149  21693951.333
 116376831.04247  22145767.751    90683271.57548  22145768.040
 04 12 12  0 57  0.0000000  0  9G 2G 4G 5G 6G10G13G17G24G30
 107491980.47849  20455026.677    83760015.70049  20455024.379
 120895773.89047  23005687.340    94204540.61048  23005687.241
 118731598.51247  22593862.889    92518147.48148  22593863.332
 124305508.43446  23654547.967    96861432.66847  23654548.824
 106287030.72949  20225734.998    82821094.60049  20225734.866
 127711433.17844  24302673.313    99515374.04946  24302672.140
 110152887.70049  20961380.515    85833458.38349  20961380.900
 114052516.48949  21703456.859    88872152.14149  21703457.288
 116399275.80747  22150038.836    90700761.01748  22150039.133
 04 12 12  0 57 30.0000000  0  9G 2G 4G 5G 6G10G13G17G24G30
 107517072.04549  20459801.443    83779567.57349  20459799.138
 120971222.65347  23020044.763    94263331.87248  23020044.645
 118801587.86548  22607181.444    92572684.61448  22607181.872
 124210067.17546  23636386.075    96787062.87647  23636386.939
 106254104.94449  20219469.411    82795438.18049  20219469.260
 127761410.78245  24312183.699    99554317.72746  24312182.439
 110130992.43249  20957213.978    85816397.14449  20957214.364
 114102737.92349  21713013.686    88911285.72549  21713014.109
 116422414.57047  22154442.008    90718791.20848  22154442.297
 04 12 12  0 58  0.0000000  0  9G 2G 4G 5G 6G10G13G17G24G30
 107542265.61149  20464595.625    83799198.92549  20464593.307
 121046564.85547  23034381.925    94322040.07248  23034381.810
 118871752.68847  22620533.378    92627358.49948  22620533.778
 124114555.67046  23618210.840    96712638.32547  23618211.719
 106221558.68749  20213276.041    82770077.49549  20213275.869
 127811734.87245  24321760.091    99593531.28546  24321758.790
 110109123.00049  20953052.357    85799356.03649  20953052.743
 114152920.59649  21722563.137    88950389.10949  21722563.555
 116445940.40547  22158918.826    90737123.02748  22158919.130
 04 12 12  0 58 30.0000000  0  9G 2G 4G 5G 6G10G13G17G24G30
 107567871.69249  20469468.301    83819151.73049  20469465.955
 121122110.85447  23048757.827    94380907.10548  23048757.718
 118942400.58247  22633977.267    92682408.75448  22633977.666
 124019286.61146  23600081.741    96638402.72247  23600082.603
 106189702.48349  20207214.013    82745254.48849  20207213.822
 127862714.53045  24331461.191    99633255.70846  24331459.877
 110087589.88349  20948954.741    85782576.98649  20948955.128
 114203374.84448  21732164.267    88989704.10849  21732164.671
 116470162.43348  22163528.136    90755997.33248  22163528.436
 04 12 12  0 59  0.0000000  0  9G 2G 4G 5G 6G10G13G17G24G30
 107593585.64949  20474361.492    83839188.59049  20474359.146
 121197556.02747  23063114.560    94439695.54948  23063114.464
 119013224.89247  22647454.685    92737596.53348  22647455.054
 123923957.66446  23581941.228    96564120.44847  23581942.083
 106158232.51049  20201225.482    82720732.43749  20201225.279
 127914043.78445  24341228.841    99673252.51146  24341227.551
 110066088.99549  20944863.259    85765823.05049  20944863.646
 114253796.07548  21741759.114    89028993.38349  21741759.506
 116494775.08647  22168211.798    90775175.99648  22168212.099
 04 12 12  0 59 30.0000000  0  9G 2G 4G 5G 6G10G13G17G24G30
 107619719.67849  20479334.632    83859552.77149  20479332.279
 121273212.44647  23077511.486    94498648.59548  23077511.408
 119084535.43047  22661024.665    92793163.14848  22661025.035
 123828883.55946  23563849.197    96490036.74147  23563850.062
 106127461.74549  20195369.982    82696755.24349  20195369.772
 127966033.82745  24351122.211    99713764.24446  24351120.937
 110044933.16449  20940837.426    85749337.99849  20940837.812
 114304496.40049  21751407.065    89068500.13449  21751407.450
 116520089.50248  22173028.977    90794901.50548  22173029.270
                            4  1
RINEX FILE SPLICE; other post-header comments skipped       COMMENT
 04 12 12  1  0  0.0000000  0  9G 2G 4G 5G 6G10G13G17G24G30
 107646124.79549  20484359.359    83880128.19749  20484356.993
 121348931.55646  23091920.335    94557650.49748  23091920.252
 119156180.40547  22674658.262    92848990.39648  22674658.642
 123733917.51846  23545777.761    96416037.22847  23545778.602
 106097241.56649  20189619.261    82673207.07349  20189619.038
 128018534.27245  24361112.714    99754673.66846  24361111.474
 110023973.70849  20936848.974    85733005.96049  20936849.354
 114355326.90448  21761079.788    89108108.31549  21761080.180
 116545955.46747  22177951.107    90815056.79848  22177951.383
 04 12 12  1  0 30.0000000  0  9G 2G 4G 5G 6G10G13G17G24G30
 107672806.53849  20489436.720    83900919.17749  20489434.348
 121424718.47846  23106342.107    94616705.22948  23106342.043
 119228162.90047  22688356.093    92905080.62048  22688356.516
 123639067.57046  23527728.416    96342128.17147  23527729.256
 106067577.89349  20183974.446    82650092.53949  20183974.210
 128071549.36445  24371201.121    99795984.14646  24371199.892
 110003216.28749  20932898.956    85716831.37149  20932899.316
 114406292.98248  21770778.299    89147822.15149  21770778.689
 116572377.40748  22182979.035    90835645.32648  22182979.297
 04 12 12  1  1  0.0000000  0  9G 2G 4G 5G 6G10G13G17G24G30
 107699770.58249  20494567.801    83921930.13149  20494565.422
 121500578.91346  23120777.856    94675817.23947  23120777.792
 119300486.20547  22702118.773    92961436.42048  22702119.232
 123544341.76746  23509702.689    96268315.87247  23509703.508
 106038477.04149  20178436.732    82627416.56349  20178436.482
 128125083.52645  24381388.321    99837699.07346  24381387.119
 109982667.25649  20928988.594    85700819.15049  20928988.945
 114457400.51348  21780503.733    89187646.20649  21780504.123
 116599359.86248  22188113.631    90856670.61348  22188113.925
 04 12 12  1  1 30.0000000  0  9G 2G 4G 5G 6G10G13G17G24G30
 107726868.68749  20499724.393    83943045.54349  20499722.021
 121576364.84547  23135199.428    94734871.23048  23135199.334
 119372999.60947  22715917.626    93017940.35548  22715918.077
 123449594.16546  23491672.790    96194486.61247  23491673.603
 106009791.24649  20172977.989    82605064.01349  20172977.738
 128178987.08045  24391645.850    99879701.80646  24391644.684
 109962178.53849  20925089.720    85684853.92449  20925090.059
 114508501.34348  21790227.897    89227465.02649  21790228.293
 116626753.38648  22193326.451    90878016.20848  22193326.745
 04 12 12  1  2  0.0000000  0  9G 2G 4G 5G 6G10G13G17G24G30
 107754414.50849  20504966.182    83964509.82549  20504963.818
 121652389.78747  23149666.529    94794111.41648  23149666.439
 119446014.06447  22729811.851    93074834.69448  22729812.294
 123355140.85746  23473698.911    96120886.64547  23473699.724
 105981834.27349  20167657.936    82583279.38549  20167657.687
 128233572.37145  24402033.074    99922235.78546  24402031.954
 109942064.43749  20921262.128    85669180.60449  20921262.466
 114559909.00148  21800010.443    89267522.94949  21800010.832
 116654870.30548  22198676.929    90899925.49848  22198677.217
 04 12 12  1  2 30.0000000  0  9G 2G 4G 5G 6G10G13G17G24G30
 107782105.30449  20510235.554    83986087.08349  20510233.190
 121728351.25047  23164121.520    94853302.18348  23164121.398
 119519224.30347  22743743.320    93131881.61648  22743743.743
 123260681.74346  23455723.886    96047282.20147  23455724.706
 105954304.03849  20162419.083    82561827.28149  20162418.833
 128288535.38244  24412492.157    99965064.08846  24412491.071
 109922022.62549  20917448.298    85653563.61149  20917448.637
 114611320.89148  21809793.789    89307584.17749  21809794.162
 116683406.93248  22204107.251    90922161.86048  22204107.518
 04 12 12  1  3  0.0000000  0  9G 2G 4G 5G 6G10G13G17G24G30
 107810100.05449  20515562.778    84007901.18049  20515560.407
 121804407.75947  23178594.605    94912567.00448  23178594.488
 119592786.70948  22757741.822    93189202.93648  22757742.241
 123166377.74746  23437778.432    95973798.57648  23437779.239
 105927359.70949  20157291.736    82540831.71149  20157291.486
 128344033.58244  24423053.048   100008309.51446  24423051.954
 109902212.32649  20913678.506    85638127.03349  20913678.844
 114662895.82649  21819608.173    89347772.43949  21819608.539
 116712520.53748  22209647.380    90944847.79648  22209647.648
 04 12 12  1  3 30.0000000  0  9G 2G 4G 5G 6G10G13G17G24G30
 107838248.74049  20520919.294    84029835.23649  20520916.913
 121880409.65446  23193057.284    94971789.24648  23193057.210
 119666548.91247  22771778.308    93246679.96948  22771778.719
 123072081.55846  23419834.470    95900321.02847  23419835.240
 105900851.62749  20152247.403    82520176.07649  20152247.153
 128399915.77944  24433687.089   100051854.05146  24433686.028
 109882484.05249  20909924.334    85622754.37049  20909924.660
 114714483.85848  21829425.037    89387970.91849  21829425.402
 116742059.98048  22215268.561    90967865.53348  22215268.837
 04 12 12  1  4  0.0000000  0  9G 2G 4G 5G 6G10G13G17G24G30
 107866862.25849  20526364.266    84052131.49049  20526361.878
 121956667.69646  23207568.713    95031211.08748  23207568.653
 119740819.03947  22785911.479    93304552.75148  22785911.882
 122978106.40246  23401951.563    95827093.67448  23401952.335
 105875091.03749  20147345.308    82500102.90449  20147345.064
 128456491.29444  24444453.057   100095938.86846  24444451.975
 109863149.09949  20906245.003    85607688.18749  20906245.329
 114766395.96348  21839303.576    89428421.91149  21839303.933
 116772334.95748  22221029.709    90991456.41448  22221030.002
 04 12 12  1  4 30.0000000  0  9G 2G 4G 5G 6G10G13G17G24G30
 107895788.41149  20531868.718    84074671.36749  20531866.331
 122033030.10146  23222099.966    95090714.27848  23222099.948
 119815442.62847  22800111.912    93362700.97448  22800112.294
 122884302.58246  23384101.265    95753999.82247  23384102.023
 105849926.16249  20142556.574    82480493.93349  20142556.323
 128513606.36745  24455321.706   100140444.12846  24455320.591
 109844055.72249  20902611.642    85592810.25449  20902611.955
 114818480.00948  21849214.834    89469006.88549  21849215.198
 116803191.90348  22226901.585    91015500.80748  22226901.865
 04 12 12  1  5  0.0000000  0  9G 2G 4G 5G 6G10G13G17G24G30
 107924719.85549  20537374.183    84097215.35149  20537371.794
 122109189.11646  23236592.539    95150058.94948  23236592.561
 119890109.29547  22814320.536    93420882.75448  22814320.925
 122790364.95146  23366225.499    95680801.70047  23366226.264
 105825049.89649  20137822.760    82461109.85749  20137822.503
 128570951.98845  24466234.233   100185129.03046  24466233.101
 109824896.75149  20898965.799    85577881.20449  20898966.098
 114870428.42448  21859100.289    89509486.16649  21859100.667
 116834321.95947  22232825.437    91039757.99548  22232825.711
 04 12 12  1  5 30.0000000  0  9G 2G 4G 5G 6G10G13G17G24G30
 107954117.09949  20542968.280    84120122.30749  20542965.892
 122185605.58246  23251134.073    95209604.25747  23251134.148
 119965277.49047  22828624.592    93479455.36248  22828624.947
 122696756.78847  23348412.452    95607860.29648  23348413.228
 105800923.20849  20133231.586    82442309.86649  20133231.323
 128628987.78045  24477278.089   100230351.74846  24477276.950
 109806133.56149  20895395.265    85563260.55749  20895395.564
 114922701.82148  21869047.580    89550218.68949  21869047.957
 116866184.32048  22238888.631    91064585.82248  22238888.889
 04 12 12  1  6  0.0000000  0  9G 2G 4G 5G 6G10G13G17G24G30
 107983823.69849  20548621.252    84143270.32049  20548618.858
 122262122.80646  23265694.834    95269228.04247  23265694.924
 120040787.97547  22842993.771    93538294.70448  22842994.084
 122603323.77446  23330632.723    95535055.39148  23330633.481
 105777389.46949  20128753.241    82423971.91449  20128752.969
 128687555.20245  24488423.176   100275988.62646  24488422.034
 109787609.78349  20891870.302    85548826.45149  20891870.600
 114975143.76748  21879026.938    89591082.55849  21879027.316
 116898621.19748  22245061.164    91089861.30548  22245061.428
 04 12 12  1  6 30.0000000  0  9G 2G 4G 5G 6G10G13G17G24G30
 108013681.23949  20554302.941    84166535.94449  20554300.561
 122338582.75046  23280244.678    95328807.20747  23280244.795
 120116479.78047  22857397.490    93597275.27948  22857397.820
 122509910.11046  23312856.693    95462265.51548  23312857.435
 105754290.70349  20124357.680    82405972.89249  20124357.401
 128746494.75745  24499638.982   100321915.60346  24499637.809
 109769167.50549  20888360.847    85534455.85449  20888361.146
 115027596.36948  21889008.343    89631954.71349  21889008.714
 116931472.64248  22251312.574    91115459.85148  22251312.831
 04 12 12  1  7  0.0000000  0 10G 2G 4G 5G 6G10G13G17G24G29G30
 108043837.56349  20560041.499    84190034.38349  20560039.119
 122415133.12046  23294811.747    95388456.84947  23294811.847
 120192498.16847  22871863.338    93656510.36548  22871863.648
 122416666.07246  23295112.895    95389607.87248  23295113.627
 105731774.79549  20120073.033    82388428.04549  20120072.748
 128805952.57245  24510953.464   100368246.34646  24510952.281
 109750955.07349  20884895.124    85520264.36049  20884895.431
 115080207.22548  21899019.862    89672950.17349  21899020.239
 128037993.97845  24364821.511    99769864.67046  24364822.905
 116964885.15348  22257670.769    91141495.57248  22257671.020
 04 12 12  1  7 30.0000000  0 10G 2G 4G 5G 6G10G13G17G24G29G30
 108074283.99849  20565835.257    84213758.88749  20565832.870
 122491765.01647  23309394.312    95448170.03747  23309394.364
 120268831.75147  22886389.154    93715991.06048  22886389.456
 122323585.35446  23277400.200    95317077.47248  23277400.917
 105709833.23049  20115897.686    82371330.73149  20115897.394
 128865918.39946  24522364.593   100414972.97546  24522363.378
 109732964.18749  20881471.561    85506245.50249  20881471.859
 115132967.65648  21909059.838    89714062.20749  21909060.210
 127932361.77044  24344719.883    99687553.92246  24344722.261
 116998848.42547  22264133.765    91167960.46648  22264134.002
 04 12 12  1  8  0.0000000  0 10G 2G 4G 5G 6G10G13G17G24G29G30
 108104855.85549  20571652.882    84237581.12049  20571650.495
 122568314.17647  23323961.121    95507818.76047  23323961.122
 120345313.19147  22900943.112    93775586.96448  22900943.408
 122230505.77747  23259687.745    95244547.94648  23259688.466
 105688301.72249  20111800.371    82354552.95249  20111800.058
 128926225.73546  24533840.674   100461965.77346  24533839.423
 109715030.60549  20878058.907    85492271.29449  20878059.200
 115185713.14748  21919096.959    89755162.60249  21919097.324
 127826568.19044  24324587.957    99605117.34846  24324590.362
 117033196.43548  22270669.986    91194725.14048  22270670.217
 04 12 12  1  8 30.0000000  0 10G 2G 4G 5G 6G10G13G17G24G29G30
 108136003.58749  20577580.098    84261852.08149  20577577.712
 122645230.83947  23338597.893    95567753.80948  23338597.896
 120422390.44647  22915610.438    93835647.15048  22915610.734
 122137880.31246  23242061.670    95172372.30448  23242062.384
 105667630.44449  20107866.745    82338445.48349  20107866.427
 128987323.62646  24545467.258   100509574.46746  24545466.036
 109697605.18149  20874742.948    85478693.05349  20874743.240
 115238894.07748  21929216.948    89796602.29949  21929217.313
 127721066.56644  24304511.416    99522908.41046  24304514.069
 117068377.86448  22277364.795    91222139.23948  22277365.035
 04 12 12  1  9  0.0000000  0 10G 2G 4G 5G 6G10G13G17G24G29G30
 108167253.59049  20583526.776    84286202.73849  20583524.383
 122722041.26547  23353214.455    95627606.08348  23353214.440
 120499586.93147  22930300.470    93895800.22748  22930300.775
 122045237.59846  23224432.341    95100183.18148  23224433.055
 105647346.06849  20104006.745    82322639.49749  20104006.421
 129048737.19845  24557153.872   100557429.19446  24557152.657
 109680214.43549  20871433.587    85465141.83649  20871433.886
 115292036.79048  21939329.688    89838012.20449  21939330.027
 127615386.48544  24284401.093    99440560.35646  24284403.810
 117103917.52748  22284127.768    91249832.48448  22284128.031
 04 12 12  1  9 30.0000000  0 10G 2G 4G 5G 6G10G13G17G24G29G30
 108198748.67949  20589520.092    84310744.37349  20589517.694
 122798889.03046  23367838.080    95687487.47047  23367838.079
 120577043.37447  22945039.959    93956155.87648  22945040.256
 121952723.20646  23206827.408    95028094.08948  23206828.094
 105627591.60449  20100247.590    82307246.42549  20100247.253
 129110606.98445  24568927.295   100605639.41346  24568926.085
 109663002.31049  20868158.228    85451729.79449  20868158.529
 115345284.42248  21949462.381    89879503.86649  21949462.700
 127509674.30144  24264284.704    99358187.28046  24264287.540
 117139956.94448  22290985.847    91277915.14348  22290986.126
 04 12 12  1 10  0.0000000  0 10G 2G 4G 5G 6G10G13G17G24G29G30
 108230325.74249  20595529.002    84335349.88449  20595526.596
 122875610.44946  23382437.699    95747270.35747  23382437.747
 120654593.53047  22959797.287    94016584.55348  22959797.587
 121860176.20646  23189216.294    94955979.56248  23189216.944
 105608204.12949  20096558.264    82292139.32449  20096557.921
 129172768.27545  24580756.189   100654076.77146  24580754.974
 109645805.70949  20864885.824    85438329.85149  20864886.118
 115398473.82348  21959583.987    89920950.15449  21959584.291
 127403770.09445  24244131.815    99275664.53647  24244134.544
 117176331.27848  22297907.659    91306258.77648  22297907.923
 04 12 12  1 10 30.0000000  0 10G 2G 4G 5G 6G10G13G17G24G29G30
 108262439.02449  20601639.950    84360373.22749  20601637.544
 122952659.99345  23397099.722    95807308.96147  23397099.795
 120732689.09347  22974658.420    94077438.18948  22974658.735
 121768053.39246  23171685.923    94884195.56348  23171686.528
 105589637.50249  20093025.146    82277671.83649  20093024.798
 129235674.28144  24592726.780   100703094.46546  24592725.550
 109629079.26349  20861702.875    85425296.26349  20861703.175
 115452059.10348  21969780.939    89962704.91249  21969781.215
 127298130.90945  24224029.400    99193348.32447  24224032.145
 117213493.04348  22304979.325    91335215.98748  22304979.562
 04 12 12  1 11  0.0000000  0 10G 2G 4G 5G 6G10G13G17G24G29G30
 108294774.20749  20607793.125    84385569.48649  20607790.712
 123029723.47346  23411764.379    95867358.42047  23411764.494
 120811013.68247  22989563.093    94138470.33348  22989563.416
 121676043.22146  23154176.946    94812499.34548  23154177.556
 105571577.70349  20089588.475    82263599.28149  20089588.121
 129299009.04244  24604778.943   100752446.24846  24604777.744
 109612509.59549  20858549.766    85412384.84849  20858550.053
 115505726.21248  21979993.438    90004523.46949  21979993.687
 127192445.99745  24203918.153    99110996.55447  24203920.926
 117251126.51048  22312140.742    91364540.75748  22312140.971
 04 12 12  1 11 30.0000000  0 10G 2G 4G 5G 6G10G13G17G24G29G30
 108327173.05549  20613958.427    84410815.33649  20613956.014
 123106642.90846  23426401.690    95927295.61648  23426401.792
 120889405.93347  23004480.684    94199555.16248  23004481.008
 121583989.60646  23136659.696    94740769.28748  23136660.305
 105553866.53349  20086218.139    82249798.38949  20086217.771
 129362612.73144  24616882.311   100802007.51145  24616881.157
 109595938.52249  20855396.384    85399472.33449  20855396.662
 115559316.91948  21990191.423    90046282.45449  21990191.666
 127086560.29646  24183768.786    99028488.24447  24183771.561
 117289071.78948  22319361.494    91394108.50048  22319361.738
 04 12 12  1 12  0.0000000  0 10G 2G 4G 5G 6G10G13G17G24G29G30
 108360249.08149  20620252.579    84436588.86749  20620250.166
 123184031.38546  23441128.251    95987598.29247  23441128.337
 120968476.70947  23019527.383    94261168.72748  23019527.723
 121492508.92647  23119251.477    94669485.65848  23119252.107
 105537117.19149  20083030.840    82236746.96549  20083030.465
 129427095.19344  24629152.903   100852253.59946  24629151.727
 109579979.90049  20852359.547    85387037.05449  20852359.825
 115613444.81248  22000491.636    90088460.02149  22000491.881
 126981090.41145  24163698.552    98946303.98647  24163701.303
 117327940.56248  22326757.976    91424395.85648  22326758.228
 04 12 12  1 12 30.0000000  0 10G 2G 4G 5G 6G10G13G17G24G29G30
 108393230.98449  20626528.827    84462289.06049  20626526.401
 123261117.78347  23455797.317    96047665.62948  23455797.341
 121047451.93747  23034555.887    94322707.84348  23034556.242
 121400831.76547  23101805.852    94598048.95448  23101806.496
 105520558.49749  20079879.819    82223844.09949  20079879.431
 129491685.12244  24641443.976   100902583.35246  24641442.843
 109563862.96949  20849292.597    85374478.41049  20849292.875
 115667338.92748  22010747.328    90130455.46249  22010747.566
 126875268.29246  24143561.248    98863845.27447  24143564.013
 117366959.65747  22334183.075    91454800.33948  22334183.313
 04 12 12  1 13  0.0000000  0 10G 2G 4G 5G 6G10G13G17G24G29G30
 108426580.43749  20632875.011    84488275.65549  20632872.577
 123338364.15646  23470496.849    96107857.59347  23470496.856
 121126790.94547  23049653.616    94384530.43448  23049653.973
 121309422.82246  23084411.326    94526821.20648  23084411.953
 105504651.99949  20076852.913    82211449.43449  20076852.512
 129556842.00144  24653842.948   100953354.90846  24653841.867
 109548050.16549  20846283.515    85362156.75449  20846283.786
 115721460.93148  22021046.390    90172628.46549  22021046.621
 126769559.06345  24123445.499    98781474.46847  24123448.190
 117406589.37547  22341724.371    91485680.62848  22341724.587
 04 12 12  1 13 30.0000000  0 10G 2G 4G 5G 6G10G13G17G24G29G30
 108460298.45149  20639291.335    84514549.43549  20639288.903
 123415771.33247  23485226.945    96168174.86547  23485226.934
 121206491.80447  23064820.215    94446634.96648  23064820.580
 121218285.58446  23067068.469    94455805.18748  23067069.078
 105489398.52749  20073950.262    82199563.62849  20073949.853
 129622566.12145  24666349.850   101004568.49846  24666348.764
 109532542.63449  20843332.524    85350072.97449  20843332.788
 115775811.71748  22031389.043    90214979.67149  22031389.280
 126663966.70145  24103351.940    98699194.77347  24103354.565
 117446828.78148  22349381.694    91517035.99948  22349381.897
 04 12 12  1 14  0.0000000  0  9G 2G 4G 5G 6G10G17G24G29G30
 108494079.22449  20645719.597    84540872.12749  20645717.165
 123493033.84246  23499929.500    96228379.43647  23499929.467
 121286246.06447  23079996.952    94508781.13048  23079997.316
 121127116.46347  23049719.562    94384764.31748  23049720.141
 105474492.02549  20071113.631    82187948.20549  20071113.210
 109517035.11048  20840381.540    85337989.18549  20840381.803
 115830085.82748  22041717.027    90257271.22349  22041717.263
 126558188.67845  24083223.022    98616770.38046  24083225.617
 117487370.25847  22357096.486    91548626.75748  22357096.690
 04 12 12  1 14 30.0000000  0  9G 2G 4G 5G 6G10G17G24G29G30
 108528234.00649  20652219.030    84567486.25049  20652216.598
 123570462.56846  23514663.690    96288713.49147  23514663.675
 121366362.35447  23095242.587    94571209.39748  23095242.959
 121036229.33546  23032424.281    94313943.20548  23032424.856
 105460243.81249  20068402.274    82176845.71149  20068401.860
 109501839.20949  20837489.862    85326148.21649  20837490.126
 115884594.22848  22052089.601    90299745.31749  22052089.863
 126452539.45045  24063118.601    98534446.37347  24063121.155
 117528523.28747  22364927.665    91580694.04148  22364927.871
 04 12 12  1 15  0.0000000  0  9G 2G 4G 5G 6G10G17G24G29G30
 108562767.77149  20658790.587    84594395.67949  20658788.156
 123648062.71846  23529430.490    96349181.13447  23529430.484
 121446842.75947  23110557.504    94633921.39348  23110557.877
 120945631.83347  23015184.143    94243347.75348  23015184.726
 105446658.44449  20065817.059    82166259.72049  20065816.646
 109486960.51749  20834658.535    85314554.44249  20834658.800
 115939342.06148  22062507.773    90342405.95449  22062508.049
 126347027.58945  24043040.367    98452229.35646  24043042.897
 117570291.19447  22372875.845    91613240.45348  22372876.068
 04 12 12  1 15 30.0000000  0  9G 2G 4G 5G 6G10G17G24G29G30
 108597224.95049  20665347.564    84621245.44349  20665345.127
 123725379.10546  23544143.291    96409427.68147  23544143.268
 121527229.15447  23125854.545    94696560.10848  23125854.929
 120854870.62146  22997912.829    94172624.76248  22997913.411
 105433280.24249  20063271.272    82155835.15249  20063270.852
 109471943.83949  20831800.957    85302853.13249  20831801.228
 115993874.25048  22072884.910    90384898.54949  22072885.205
 126241200.31845  24022902.089    98369766.56146  24022904.602
 117612216.41547  22380853.973    91645909.44148  22380854.184
 04 12 12  1 16  0.0000000  0  9G 2G 4G 5G 6G10G17G24G29G30
 108632383.57949  20672038.029    84648641.77849  20672035.584
 123803189.30246  23558950.085    96470058.98647  23558950.082
 121608296.76747  23141281.222    94759729.64948  23141281.614
 120764726.37146  22980758.925    94102382.50548  22980759.527
 105420887.12149  20060912.933    82146178.18749  20060912.507
 109457567.80949  20829065.289    85291651.02749  20829065.560
 116048968.82048  22083369.064    90427829.38149  22083369.353
 126135839.23545  24002852.488    98287667.07746  24002854.955
 117655075.25248  22389009.763    91679305.91848  22389009.952
 04 12 12  1 16 30.0000000  0  9G 2G 4G 5G 6G10G17G24G29G30
 108667328.19449  20678687.762    84675871.35949  20678685.311
 123880578.33546  23573676.747    96530362.11247  23573676.790
 121689127.70447  23156662.862    94822714.77048  23156663.247
 120674286.05047  22963548.710    94031909.52148  22963549.304
 105408563.30749  20058567.772    82136575.24049  20058567.339
 109442917.28049  20826277.380    85280235.03649  20826277.643
 116103710.25948  22093786.001    90470485.05649  22093786.297
 126030031.99545  23982718.022    98205219.91247  23982720.454
 117697950.16147  22397168.586    91712714.93948  22397168.769
 04 12 12  1 17  0.0000000  0  9G 2G 4G 5G 6G10G17G24G29G30
 108702991.59749  20685474.270    84703661.03949  20685471.819
 123958478.86646  23588500.713    96591063.85047  23588500.759
 121770652.05147  23172176.429    94886240.22948  23172176.820
 120584485.17647  22946460.142    93961934.85948  22946460.709
 105397241.37249  20056413.279    82127752.94949  20056412.845
 109428925.64149  20823614.854    85269332.47149  20823615.110
 116159031.50848  22104313.291    90513592.52049  22104313.587
 125924714.78145  23962676.781    98123154.60046  23962679.144
 117741772.26647  22405507.662    91746862.02948  22405507.852
 04 12 12  1 17 30.0000000  0  9G 2G 4G 5G 6G10G17G24G29G30
 108738767.01649  20692282.106    84731537.99049  20692279.655
 124036284.38746  23603306.653    96651691.49947  23603306.704
 121852260.30347  23187705.981    94949831.03448  23187706.413
 120494719.70347  22929378.335    93891987.74748  22929378.871
 105386314.53449  20054333.965    82119238.54349  20054333.517
 109414986.71049  20820962.363    85258470.97449  20820962.606
 116214326.10748  22114835.491    90556679.23049  22114835.794
 125819284.01545  23942613.908    98041000.83447  23942616.203
 117785932.96547  22413911.175    91781272.93648  22413911.400
 04 12 12  1 18  0.0000000  0  9G 2G 4G 5G 6G10G17G24G29G30
 108774509.63149  20699083.687    84759389.38749  20699081.236
 124113850.07746  23618066.943    96712132.29348  23618067.001
 121933804.83747  23203223.390    95013372.23448  23203223.815
 120404847.07847  22912276.131    93821957.16048  22912276.641
 105375637.28149  20052302.145    82110918.61049  20052301.697
 109400955.97949  20818292.404    85247537.92949  20818292.652
 116269449.07048  22125325.048    90599632.17649  22125325.358
 125713598.28546  23922502.523    97958648.38746  23922504.742
 117830285.40947  22422351.159    91815833.28748  22422351.383
 04 12 12  1 18 30.0000000  0  9G 2G 4G 5G 6G10G17G24G29G30
 108810844.12449  20705997.911    84787701.98549  20705995.454
 124191800.75246  23632900.481    96772873.06247  23632900.532
 122015907.34047  23218846.989    95077348.18548  23218847.450
 120315494.49847  22895272.871    93752331.80848  22895273.373
 105365834.16049  20050436.667    82103279.82649  20050436.205
 109387458.77949  20815723.984    85237020.62249  20815724.226
 116325025.19848  22135900.822    90642938.26049  22135901.138
 125608285.27446  23902462.028    97876586.41647  23902464.164
 117875452.26147  22430946.149    91851028.20548  22430946.365
 04 12 12  1 19  0.0000000  0  9G 2G 4G 5G 6G10G17G24G29G30
 108847315.64149  20712938.198    84816121.35749  20712935.739
 124269681.87446  23647720.760    96833559.66647  23647720.806
 122098110.73347  23234489.780    95141402.77448  23234490.242
 120226209.96347  22878282.559    93682759.48848  22878283.048
 105356449.99449  20048650.902    82095967.50449  20048650.439
 109374040.80649  20813170.623    85226565.06249  20813170.864
 116380599.96848  22146476.331    90686243.28449  22146476.652
 125502893.77446  23882406.633    97794463.26146  23882408.660
 117920976.96147  22439609.229    91886501.98148  22439609.431
 04 12 12  1 19 30.0000000  0  9G 2G 4G 5G 6G10G17G24G29G30
 108884238.36249  20719964.359    84844892.30949  20719961.900
 124347807.34346  23662587.560    96894436.63247  23662587.598
 122180726.12947  23250210.985    95205778.37548  23250211.490
 120137309.92747  22861365.438    93613486.75848  22861365.910
 105347798.34149  20047004.547    82089225.96349  20047004.070
 109361016.42949  20810692.155    85216416.20549  20810692.402
 116436487.69448  22157111.418    90729792.15649  22157111.747
 125397740.85245  23862396.638    97712526.00547  23862398.585
 117967171.49347  22448399.750    91922497.72548  22448399.952
 04 12 12  1 20  0.0000000  0  9G 2G 4G 5G 6G10G17G24G29G30
 108921308.51849  20727018.575    84873778.14649  20727016.124
 124425873.55446  23677443.054    96955267.44847  23677443.074
 122263447.09047  23265952.249    95270236.26848  23265952.789
 120048492.98447  22844464.107    93544278.79648  22844464.550
 105339575.23949  20045439.743    82082818.34749  20045439.265
 109348082.50149  20808230.898    85206337.83549  20808231.138
 116492384.65448  22167748.250    90773348.22949  22167748.600
 125292526.17146  23842374.896    97630540.61947  23842376.779
 118013729.87747  22457259.528    91958776.94548  22457259.776
 04 12 12  1 20 30.0000000  0  9G 2G 4G 5G 6G10G17G24G29G30
 108958528.24349  20734101.253    84902780.53549  20734098.811
 124503882.70346  23692287.707    97016053.79747  23692287.691
 122346273.06147  23281713.519    95334775.96248  23281714.095
 119959764.16747  22827579.556    93475139.48048  22827579.985
 105331782.56949  20043956.841    82076746.14349  20043956.363
 109335241.75049  20805787.384    85196332.05949  20805787.618
 116548293.07348  22178387.274    90816913.22749  22178387.625
 125187255.31845  23822342.447    97548511.48947  23822344.268
 118060652.46448  22466188.587    91995340.01348  22466188.843
 04 12 12  1 21  0.0000000  0  9G 2G 4G 5G 6G10G17G24G29G30
 108996051.90049  20741241.767    84932019.74349  20741239.347
 124581989.44945  23707150.891    97076916.21347  23707150.891
 122429355.48147  23297523.590    95399515.48648  23297524.193
 119871280.19547  22810741.592    93406190.96848  22810742.008
 105324574.01449  20042585.093    82071129.08949  20042584.621
 109322648.96549  20803391.051    85186519.50349  20803391.284
 116604367.13248  22189057.801    90860607.30349  22189058.172
 125082085.67545  23802329.276    97466561.17447  23802331.072
 118108091.58747  22475215.976    92032305.53648  22475216.225
 04 12 12  1 21 30.0000000  0  9G 2G 4G 5G 6G10G17G24G29G30
 109033878.15349  20748439.864    84961494.75349  20748437.446
 124660192.28845  23722032.391    97137853.47347  23722032.408
 122512690.20246  23313381.684    95464451.60848  23313382.303
 119783042.36447  22793950.468    93337434.24548  22793950.876
 105317947.70649  20041324.142    82065965.73849  20041323.670
 109310303.22949  20801041.736    85176899.45049  20801041.969
 116660605.96948  22199759.719    90904429.74549  22199760.098
 124977019.67246  23782336.053    97384702.71657  23782338.317
 118156043.65747  22484340.969    92069670.75848  22484341.224
 04 12 12  1 22  0.0000000  0  9G 2G 4G 5G 6G10G17G24G29G30
 109071849.65049  20755665.600    84991082.94049  20755663.175
 124738334.00746  23736902.242    97198743.16347  23736902.208
 122596117.32046  23329257.348    95529459.72948  23329258.004
 119694896.05447  22777176.765    93268748.83048  22777177.173
 105311746.05649  20040143.990    82061133.30449  20040143.525
 109298047.85349  20798709.597    85167349.82149  20798709.836
 116716852.44948  22210463.057    90948258.18449  22210463.435
 124871902.46246  23762332.901    97302793.30547  23762334.455
 118204349.55947  22493533.271    92107311.71748  22493533.546
 04 12 12  1 22 30.0000000  0  9G 2G 4G 5G 6G10G17G24G29G30
 109110269.98049  20762976.751    85021020.86449  20762974.322
 124816718.22146  23751818.297    97259821.75547  23751818.255
 122679937.86446  23345207.867    95594774.43748  23345208.515
 119607146.80647  22760478.608    93200372.84148  22760478.990
 105306271.98349  20039102.303    82056867.79549  20039101.852
 109286186.69349  20796452.476    85158107.38549  20796452.709
 116773410.24748  22221225.660    90992329.19949  22221226.020
 124767041.10446  23742378.216    97221083.25847  23742380.004
 118253310.43047  22502850.209    92145463.03448  22502850.510
 04 12 12  1 23  0.0000000  0  9G 2G 4G 5G 6G10G17G24G29G30
 109148824.67749  20770313.466    85051063.49149  20770311.038
 124895030.62846  23766720.689    97320844.38047  23766720.664
 122763834.50046  23361172.896    95660148.39648  23361173.542
 119519483.08147  22743796.762    93132063.44548  22743797.137
 105301210.46349  20038139.110    82052923.77149  20038138.666
 109274406.03449  20794210.673    85148927.67349  20794210.899
 116829965.06948  22231987.673    91036397.90549  22231988.048
 124662124.66346  23722413.258    97139330.28447  23722414.886
 118302609.81247  22512231.593    92183878.11248  22512231.918
 04 12 12  1 23 30.0000000  0  9G 2G 4G 5G 6G10G17G24G29G30
 109187814.13149  20777732.901    85081444.89649  20777730.465
 124973571.60447  23781666.551    97382045.14247  23781666.546
 122848104.54847  23377208.983    95725813.33548  23377209.629
 119432208.12347  22727188.854    93064057.02848  22727189.215
 105296861.37049  20037311.511    82049534.86549  20037311.061
 109263006.56049  20792041.419    85140044.97549  20792041.645
 116886817.07848  22242806.250    91080698.16849  22242806.632
 124557456.80646  23702495.615    97057770.99047  23702497.045
 118352545.95847  22521734.144    92222789.37248  22521734.483
 04 12 12  1 24  0.0000000  0  9G 2G 4G 5G 6G10G17G24G29G30
 109226921.52449  20785174.784    85111918.19349  20785172.348
 125052024.82146  23796595.696    97443177.53548  23796595.700
 122932428.78846  23393255.358    95791520.51348  23393256.008
 119345007.57647  22710595.136    92996108.55748  22710595.489
 105292907.44249  20036559.067    82046453.92449  20036558.610
 109251672.03849  20789884.520    85131212.89549  20789884.738
 116943649.69848  22253621.126    91124983.32649  22253621.535
 124452723.93546  23682565.571    96976161.05247  23682566.965
 118402800.10947  22531297.185    92261948.44948  22531297.530
 04 12 12  1 24 30.0000000  0  9G 2G 4G 5G 6G10G17G24G29G30
 109266291.42849  20792666.616    85142596.04649  20792664.178
 125130534.73546  23811535.648    97504354.07347  23811535.697
 123016949.11846  23409339.048    95857380.47548  23409339.721
 119258028.61847  22694043.543    92928332.79548  22694043.918
 105289492.66349  20035909.239    82043793.08249  20035908.775
 109240547.84049  20787767.643    85122544.70849  20787767.856
 117000607.90248  22264459.906    91169366.34549  22264460.299
 124348074.24346  23662651.319    96894615.94847  23662652.658
 118453514.60547  22540947.868    92301466.20648  22540948.208
 04 12 12  1 25  0.0000000  0  9G 2G 4G 5G 6G10G17G24G29G30
 109305914.59349  20800206.653    85173471.23749  20800204.214
 125209092.33445  23826484.644    97565567.76347  23826484.751
 123101653.42147  23425457.747    95923383.80748  23425458.424
 119171264.14547  22677532.801    92860724.11948  22677533.181
 105286607.15749  20035360.127    82041544.65649  20035359.671
 109229625.03249  20785689.096    85114033.44649  20785689.296
 117057682.48348  22275320.856    91213840.02749  22275321.241
 124243501.40346  23642751.692    96813130.69947  23642753.006
 118504677.87647  22550683.945    92341333.65748  22550684.307
 04 12 12  1 25 30.0000000  0  9G 2G 4G 5G 6G10G17G24G29G30
 109345782.37649  20807793.234    85204537.05249  20807790.788
 125287688.83545  23841441.008    97626811.81446  23841441.136
 123186530.11747  23441609.239    95989521.48748  23441609.929
 119084708.52147  22661061.801    92793278.19348  22661062.189
 105284241.58149  20034909.967    82039701.35349  20034909.510
 109218895.33049  20783647.302    85105672.64149  20783647.494
 117114865.02948  22286202.297    91258397.89749  22286202.652
 124139000.18246  23622865.711    96731701.28047  23622866.965
 118556279.03347  22560503.342    92381542.32348  22560503.743
 04 12 12  1 26  0.0000000  0  9G 2G 4G 5G 6G10G17G24G29G30
 109385733.51449  20815395.665    85235667.82549  20815393.218
 125366162.98545  23856374.124    97687960.45647  23856374.289
 123271415.22046  23457762.349    96055665.70348  23457763.037
 118998202.80347  22644600.310    92725871.14348  22644600.691
 105282234.02349  20034527.936    82038137.02149  20034527.491
 109208198.12949  20781611.686    85097337.17049  20781611.872
 117171994.08747  22297073.601    91302914.03849  22297073.956
 124034412.40946  23602963.237    96650204.42347  23602964.470
 118608154.75247  22570374.981    92421964.94148  22570375.413
 04 12 12  1 26 30.0000000  0  9G 2G 4G 5G 6G10G17G24G29G30
 109426223.73649  20823100.692    85267218.65149  20823098.245
 125444971.02545  23871370.843    97749369.23547  23871371.039
 123356762.03746  23474003.356    96122169.65648  23474004.050
 118912205.62247  22628235.579    92658860.37448  22628235.954
 105281039.89449  20034300.700    82037206.53449  20034300.242
 109197989.90249  20779669.113    85089382.71749  20779669.298
 117229525.89048  22308021.539    91347744.01949  22308021.880
 123930197.52546  23583131.762    96568998.07247  23583133.012
 118660758.51047  22580385.179    92462954.84148  22580385.618
 04 12 12  1 27  0.0000000  0  9G 2G 4G 5G 6G10G17G24G29G30
 109466786.83849  20830819.588    85298826.26749  20830817.140
 125523646.73045  23886342.338    97810674.99046  23886342.485
 123442101.42746  23490242.938    96188667.86548  23490243.623
 118826253.16147  22611879.376    92591884.44348  22611879.740
 105280191.97249  20034139.346    82036545.81749  20034138.888
 109187804.77749  20777730.936    85081446.27549  20777731.115
 117286994.59648  22318957.482    91392524.82049  22318957.839
 123825892.59446  23563283.104    96487721.62847  23563284.337
 118713621.92648  22590444.771    92504147.08948  22590445.201
 04 12 12  1 27 30.0000000  0  9G 2G 4G 5G 6G10G17G24G29G30
 109507882.50349  20838639.833    85330848.86949  20838637.379
 125602649.52646  23901376.094    97872235.61347  23901376.157
 123527889.98546  23506567.975    96255516.08047  23506568.647
 118740807.41247  22595619.560    92525303.36548  22595619.930
 105280149.20949  20034131.209    82036512.50249  20034130.737
 109178102.95749  20775884.735    85073886.42849  20775884.907
 117344859.82648  22329968.851    91437614.62549  22329969.185
 123721960.31646  23543505.396    96406735.52247  23543506.657
 118767202.08947  22600640.754    92545897.85348  22600641.187
 04 12 12  1 28  0.0000000  0  9G 2G 4G 5G 6G10G17G24G29G30
 109549047.44149  20846473.260    85362925.44049  20846470.812
 125681516.55846  23916383.991    97933690.46847  23916384.029
 123613661.95446  23522889.856    96322351.35948  23522890.528
 118655408.10848  22579368.607    92458758.46248  22579368.985
 105280447.86949  20034188.030    82036745.23549  20034187.557
 109168421.67649  20774042.443    85066342.58449  20774042.609
 117402658.47648  22340967.569    91482652.53749  22340967.910
 123617940.78946  23523711.096    96325681.42547  23523712.357
 118821033.74347  22610884.607    92587844.56248  22610885.055
 04 12 12  1 28 30.0000000  0  9G 2G 4G 5G 6G10G17G24G29G30
 109590281.64549  20854319.863    85395055.99349  20854317.414
 125760247.86046  23931366.077    97995039.55047  23931366.079
 123699414.61247  23539208.068    96389171.57648  23539208.753
 118570057.63447  22563126.952    92392251.59848  22563127.315
 105281087.21949  20034309.682    82037243.44649  20034309.203
 109158761.62849  20772204.185    85058815.28849  20772204.358
 117460390.68348  22351953.648    91527638.65849  22351953.973
 123513837.47246  23503900.793    96244562.07547  23503902.061
 118875114.64147  22621175.890    92629985.48348  22621176.360
 04 12 12  1 29  0.0000000  0  9G 2G 4G 5G 6G10G17G24G29G30
 109631893.90149  20862238.406    85427481.14249  20862235.959
 125839152.58446  23946381.159    98056523.74347  23946381.101
 123785453.99746  23555580.836    96456215.23847  23555581.531
 118485067.54247  22546953.869    92326025.56948  22546954.227
 105282375.17249  20034554.766    82038247.05649  20034554.279
 109149431.99049  20770428.808    85051545.44649  20770428.981
 117518365.49748  22362985.895    91572813.83449  22362986.243
 123409962.37146  23484133.977    96163620.52647  23484135.217
 118929751.14547  22631572.871    92672559.36748  22631573.352
 04 12 12  1 29 30.0000000  0 10G 2G 4G 5G 6G10G17G24G26G29G30
 109674039.41449  20870258.436    85460321.80549  20870255.977
 125918385.65745  23961458.694    98118263.80647  23961458.647
 123871932.51846  23572037.176    96523601.07347  23572037.863
 118400595.68747  22530879.416    92260203.35948  22530879.763
 105284466.17949  20034952.665    82039876.41249  20034952.192
 109140588.78049  20768745.989    85044654.65149  20768746.156
 117576738.17548  22374093.840    91618299.05148  22374094.167
 128087777.48345  24374293.422    99808673.53857  24374296.551
 123306474.33246  23464440.768    96082980.59447  23464442.038
 118985096.27347  22642104.704    92715685.41148  22642105.196
 04 12 12  1 30  0.0000000  0 10G 2G 4G 5G 6G10G17G24G26G29G30
 109716257.95849  20878292.352    85493219.37849  20878289.900
 125997487.13345  23976511.192    98179901.31947  23976511.196
 123958386.96446  23588488.928    96590968.15447  23588489.615
 118316184.06948  22514816.425    92194428.08348  22514816.761
 105286899.18149  20035415.626    82041772.29849  20035415.141
 109131771.98549  20767068.203    85037784.42249  20767068.375
 117635048.67948  22385189.966    91663735.81249  22385190.295
 127967804.10445  24351462.111    99715187.88547  24351466.239
 123202916.07346  23444734.228    96002285.89147  23444735.521
 119040687.30347  22652683.343    92759003.08448  22652683.798
 04 12 12  1 30 30.0000000  0 10G 2G 4G 5G 6G10G17G24G26G29G30
 109758704.99849  20886369.761    85526295.00149  20886367.297
 126076612.69045  23991568.309    98241557.54346  23991568.367
 124044970.23946  23604965.225    96658435.58948  23604965.920
 118231991.21648  22498795.058    92128823.28448  22498795.369
 105289828.66649  20035973.077    82044055.02849  20035972.592
 109123137.77349  20765425.155    85031056.47649  20765425.327
 117693452.55548  22396303.848    91709245.33748  22396304.156
 127847768.85145  24328620.179    99621653.89746  24328623.780
 123099446.58046  23425044.560    95921660.41047  23425045.841
 119096677.38847  22663337.902    92802631.70048  22663338.360
 04 12 12  1 31  0.0000000  0 10G 2G 4G 5G 6G10G17G24G26G29G30
 109801381.75449  20894490.878    85559549.61949  20894488.399
 126155763.40345  24006630.147    98303233.44747  24006630.222
 124131680.60646  23621465.659    96726002.09547  23621466.359
 118148020.49247  22482815.978    92063391.54348  22482816.270
 105293255.00149  20036625.081    82046724.90349  20036624.603
 109114687.90449  20763817.193    85024472.17249  20763817.365
 117751950.94247  22407435.715    91754828.50648  22407436.024
 127727676.14645  24305767.072    99528075.14546  24305770.496
 122996069.99446  23405372.597    95841107.28147  23405373.868
 119153065.19847  22674068.169    92846570.22048  22674068.626
 04 12 12  1 31 30.0000000  0 10G 2G 4G 5G 6G10G17G24G26G29G30
 109844288.95049  20902655.846    85592983.80849  20902653.355
 126234940.30045  24021697.009    98364929.67647  24021697.163
 124218516.41747  23637989.988    96793666.33648  23637990.711
 118064275.74548  22466879.877    91998135.92248  22466880.142
 105297178.47949  20037371.676    82049782.18049  20037371.198
 109106423.78149  20762244.576    85018032.60449  20762244.749
 117810545.22848  22418585.837    91800486.39148  22418586.130
 127607530.29945  24282903.994    99434455.05947  24282907.515
 122892790.86246  23385719.178    95760630.07247  23385720.450
 119209849.40247  22684873.862    92890817.63148  22684874.341
 04 12 12  1 32  0.0000000  0 10G 2G 4G 5G 6G10G17G24G26G29G30
 109887274.19449  20910835.671    85626478.79749  20910833.173
 126313991.11446  24036739.909    98426527.65947  24036740.096
 124305322.35646  23654508.627    96861307.31447  23654509.329
 117980606.75047  22450958.190    91932939.31548  22450958.450
 105301445.71749  20038183.692    82053107.31649  20038183.207
 109098193.53049  20760678.406    85011619.43449  20760678.572
 117869083.32748  22429725.267    91846100.49148  22429725.567
 127487182.12545  24260002.623    99340677.22246  24260006.002
 122789459.92646  23366055.883    95680112.54247  23366057.140
 119266875.11147  22695725.512    92935253.23048  22695726.014
 04 12 12  1 32 30.0000000  0 10G 2G 4G 5G 6G10G17G24G26G29G30
 109930955.82849  20919148.004    85660516.44049  20919145.521
 126393534.07246  24051876.437    98488509.20047  24051876.583
 124392713.86546  23671138.702    96929404.56547  23671139.380
 117897634.59747  22435169.109    91868285.70648  22435169.340
 105306674.05249  20039178.588    82057181.37849  20039178.097
 109090615.83049  20759236.406    85005714.74349  20759236.571
 117928183.34548  22440971.614    91892152.45248  22440971.934
 127367253.22445  24237180.787    99247226.21247  24237184.151
 122686698.62146  23346501.015    95600038.84547  23346502.272
 119324757.98947  22706740.293    92980356.74348  22706740.798
 04 12 12  1 33  0.0000000  0 10G 2G 4G 5G 6G10G17G24G26G29G30
 109974566.70449  20927446.872    85694498.95449  20927444.390
 126472802.14046  24066960.654    98550276.52447  24066960.787
 124479920.95946  23687733.708    96997358.09648  23687734.365
 117814594.57447  22419367.094    91803579.22048  22419367.324
 105312095.51349  20040210.245    82061405.91149  20040209.748
 109082924.24449  20757772.733    84999721.31749  20757772.885
 117987078.46748  22452178.977    91938044.75348  22452179.318
 127246979.83045  24214293.479    99153506.74247  24214296.822
 122583743.19046  23326909.195    95519813.89347  23326910.451
 119382728.76447  22717771.782    93025528.76448  22717772.275
 04 12 12  1 33 30.0000000  0 10G 2G 4G 5G 6G10G17G24G26G29G30
 110018418.83049  20935791.648    85728669.44449  20935789.188
 126552108.08446  24082052.038    98612073.40447  24082052.162
 124567253.32746  23704352.505    97065409.29947  23704353.141
 117731801.78147  22403612.143    91739065.37448  22403612.369
 105318021.25149  20041337.870    82066023.37349  20041337.379
 109075431.56449  20756346.912    84993882.87849  20756347.063
 118046080.88148  22463406.764    91984020.66448  22463407.097
 127126677.59545  24191400.755    99059764.72046  24191404.063
 122480909.44746  23307340.507    95439683.79147  23307341.755
 119441097.07147  22728878.920    93071010.53948  22728879.396
 04 12 12  1 34  0.0000000  0 10G 2G 4G 5G 6G10G17G24G26G29G30
 110062671.34948  20944212.629    85763151.91749  20944210.175
 126631610.55346  24097180.890    98674023.33247  24097181.013
 124654867.06446  23721024.874    97133679.71247  23721025.519
 117649417.39947  22387934.899    91674869.77048  22387935.124
 105324609.28649  20042591.526    82071156.91749  20042591.028
 109068297.16649  20754989.275    84988323.61849  20754989.420
 118105349.97548  22474685.303    92030204.38448  22474685.610
 127006508.52846  24168533.306    98966126.55247  24168536.491
 122378359.43046  23287825.828    95359774.75947  23287827.054
 119500019.32047  22740091.475    93116923.95148  22740091.974
 04 12 12  1 34 30.0000000  0 10G 2G 4G 5G 6G10G17G24G26G29G30
 110107329.27249  20952710.743    85797950.30049  20952708.288
 126711315.02645  24112348.106    98736130.74646  24112348.209
 124742764.21146  23737751.169    97202170.94947  23737751.839
 117567449.58947  22372336.931    91610998.76248  22372337.149
 105331863.96849  20043972.034    82076809.93249  20043971.529
 109061527.18649  20753700.985    84983048.31049  20753701.136
 118164891.34948  22486015.650    92076600.26148  22486015.965
 126886481.55346  24145692.926    98872599.12547  24145696.031
 122276101.61646  23268366.783    95280093.38347  23268367.979
 119559498.30547  22751409.979    93163271.17448  22751410.508
 04 12 12  1 35  0.0000000  0 10G 2G 4G 5G 6G10G17G24G26G29G30
 110151782.76048  20961169.954    85832589.38249  20961167.506
 126790611.52745  24127437.681    98797920.22346  24127437.785
 124830332.27846  23754414.836    97270405.80147  23754415.472
 117485290.82347  22356702.626    91546978.96248  22356702.829
 105339174.29249  20045363.136    82082506.30049  20045362.625
 109054511.85449  20752366.006    84977581.82949  20752366.150
 118224094.90448  22497281.724    92122732.88148  22497282.045
 126765989.95146  24122764.131    98778709.63647  24122767.183
 122173529.45846  23248847.927    95200167.05647  23248849.085
 119618921.47447  22762717.844    93209574.92948  22762718.373
 04 12 12  1 35 30.0000000  0 10G 2G 4G 5G 6G10G17G24G26G29G30
 110196961.17448  20969767.121    85867793.33949  20969764.672
 126870429.65145  24142626.582    98860116.10147  24142626.738
 124918498.10146  23771192.282    97339106.38947  23771192.926
 117403872.73847  22341209.250    91483536.32948  22341209.444
 105347468.53649  20046941.455    82088969.37749  20046940.929
 109048181.19949  20751161.316    84972648.85549  20751161.460
 118283890.15348  22508660.357    92169326.60348  22508660.685
 126645966.46046  24099924.438    98685184.89647  24099927.326
 122071575.39146  23229446.606    95120722.44147  23229447.739
 119679215.77647  22774191.468    93256557.50148  22774191.997
 04 12 12  1 36  0.0000000  0 10G 2G 4G 5G 6G10G17G24G26G29G30
 110242253.07448  20978385.883    85903085.73549  20978383.428
 126950157.84445  24157798.353    98922241.94646  24157798.572
 125006647.36246  23787966.564    97407794.10247  23787967.205
 117322587.05747  22325741.058    91420196.87948  22325741.273
 105356134.56849  20048590.534    82095722.13749  20048590.006
 109041924.40849  20749970.682    84967773.44049  20749970.834
 118343665.96148  22520035.333    92215905.13048  22520035.675
 126525803.02146  24077058.072    98591551.16947  24077060.807
 121969631.62946  23210047.383    95041285.71247  23210048.471
 119739767.45747  22785714.105    93303740.59648  22785714.629
 04 12 12  1 36 30.0000000  0 10G 2G 4G 5G 6G10G17G24G26G29G30
 110287661.85249  20987026.886    85938469.20149  20987024.424
 127029799.66645  24172953.688    98984300.49346  24172953.941
 125094780.51846  23804737.782    97476469.26748  23804738.427
 117241439.32847  22310299.128    91356964.91148  22310299.335
 105365174.45749  20050310.767    82102766.21049  20050310.233
 109035745.38849  20748794.842    84962958.63249  20748794.993
 118403425.58047  22531407.199    92262471.07148  22531407.530
 126405506.14546  24054166.337    98497813.44947  24054168.900
 121867704.49746  23190651.235    94961862.04847  23190652.286
 119800576.92047  22797285.779    93351124.59148  22797286.299
 04 12 12  1 37  0.0000000  0 10G 2G 4G 5G 6G10G17G24G26G29G30
 110333342.67049  20995719.662    85974064.63849  20995717.193
 127109510.80546  24188122.243    99046413.05547  24188122.486
 125183050.43246  23821535.017    97545250.98747  23821535.657
 117160587.76047  22294913.569    91293963.71048  22294913.768
 105374742.52949  20052131.499    82110221.86449  20052130.965
 109029800.19949  20747663.504    84958326.02649  20747663.656
 118463324.90447  22542805.661    92309145.86048  22542806.013
 126285234.95846  24031279.480    98404095.69347  24031281.952
 121765953.18146  23171288.550    94882575.37247  23171289.571
 119861797.42747  22808935.660    93398828.86848  22808936.194
 04 12 12  1 37 30.0000000  0 10G 2G 4G 5G 6G10G17G24G26G29G30
 110379141.18949  21004434.831    86009751.79649  21004432.369
 127189136.86446  24203274.632    99108459.30847  24203274.846
 125271299.97946  23838328.377    97614016.84147  23838328.996
 117079880.56547  22279555.464    91231075.02148  22279555.670
 105384683.32549  20054023.140    82117967.97449  20054022.598
 109023934.96849  20746547.382    84953755.72649  20746547.527
 118523209.69147  22554201.357    92355809.32948  22554201.709
 126164838.20846  24008368.710    98310280.16747  24008371.014
 121664226.13046  23151930.476    94803307.60448  23151931.473
 119923271.95047  22820633.885    93446731.07648  22820634.441
 04 12 12  1 38  0.0000000  0 10G 2G 4G 5G 6G10G17G24G26G29G30
 110425517.29649  21013259.916    86045889.02149  21013257.449
 127269137.67446  24218498.321    99170797.57747  24218498.541
 125359985.90746  23855204.760    97683122.74047  23855205.393
 116999779.93447  22264312.803    91168658.95848  22264312.991
 105395455.79649  20056073.079    82126362.10249  20056072.530
 109018610.18049  20745534.109    84949606.54749  20745534.247
 118583539.68448  22565681.785    92402819.69848  22565682.152
 126044779.23746  23985522.212    98216727.83547  23985524.365
 121562986.66246  23132665.204    94724419.73948  23132666.213
 119985457.53647  22832467.444    93495187.34448  22832468.017
 04 12 12  1 38 30.0000000  0 10G 2G 4G 5G 6G10G17G24G26G29G30
 110471850.76049  21022076.887    86081993.01749  21022074.413
 127348893.22546  24233675.322    99232944.74847  24233675.530
 125448485.24946  23872045.673    97752083.20047  23872046.310
 116919668.53547  22249068.087    91106234.52348  22249068.269
 105406438.47449  20058163.001    82134920.05049  20058162.445
 109013206.06049  20744505.733    84945395.55349  20744505.872
 118643695.17147  22577128.994    92449694.10548  22577129.384
 125924441.29147  23962622.597    98122958.13747  23962624.611
 121461617.90046  23113375.311    94645431.15847  23113376.310
 120047731.74147  22844317.849    93543712.70248  22844318.405
 04 12 12  1 39  0.0000000  0 10G 2G 4G 5G 6G10G17G24G26G29G30
 110518751.90949  21031001.885    86118539.35949  21030999.418
 127429014.08146  24248921.802    99295376.61447  24248921.984
 125537405.70346  23888966.690    97821371.84747  23888967.328
 116840159.40747  22233937.962    91044279.40748  22233938.135
 105418240.67149  20060408.873    82144116.58649  20060408.310
 109008333.79949  20743578.566    84941599.00049  20743578.699
 118704286.88947  22588659.226    92496908.41948  22588659.617
 125804438.32546  23939786.756    98029449.41947  23939788.666
 121360733.56746  23094177.613    94566820.03547  23094178.595
 120110702.29047  22856300.752    93592780.65748  22856301.293
 04 12 12  1 39 30.0000000  0 10G 2G 4G 5G 6G10G17G24G26G29G30
 110565597.97649  21039916.401    86155042.79349  21039913.922
 127508877.51145  24264119.355    99357607.81246  24264119.539
 125626121.95646  23905848.832    97890501.39047  23905849.453
 116760631.97848  22218804.371    90982309.99548  22218804.549
 105430238.40149  20062691.971    82153465.46349  20062691.402
 109003371.04049  20742634.185    84937731.91949  20742634.311
 118764692.08548  22600153.953    92543977.40648  22600154.367
 125684150.59545  23916896.726    97935718.79547  23916898.576
 121259714.18646  23074954.240    94488103.65047  23074955.204
 120173743.68647  22868297.167    93641903.78248  22868297.678
 04 12 12  1 40  0.0000000  0 10G 2G 4G 5G 6G10G17G24G26G29G30
 110612996.86449  21048936.104    86191977.00349  21048933.618
 127589091.50845  24279383.601    99420112.17846  24279383.804
 125715238.83146  23922807.263    97959943.04747  23922807.884
 116681696.90448  22203783.496    90920802.18348  22203783.667
 105443038.43549  20065127.730    82163439.52849  20065127.155
 108998926.32649  20741788.378    84934268.51749  20741788.498
 118825518.96747  22611728.929    92591374.96848  22611729.351
 125564189.72546  23894068.831    97842242.92847  23894070.632
 121159170.82346  23055821.427    94409758.22948  23055822.360
 120237461.24547  22880422.203    93691553.83948  22880422.675
 04 12 12  1 40 30.0000000  0 10G 2G 4G 5G 6G10G17G24G26G29G30
 110660324.09949  21057942.189    86228855.35849  21057939.697
 127669031.73345  24294595.696    99482403.27646  24294595.881
 125804129.30346  23939722.581    98029208.33347  23939723.227
 116602732.53848  22188757.065    90859271.51949  22188757.251
 105456014.96249  20067597.075    82173551.11649  20067596.493
 108994375.83449  20740922.436    84930722.69249  20740922.548
 118886143.16948  22623265.337    92638614.60648  22623265.761
 125443934.53046  23871184.968    97748537.66447  23871186.712
 121058482.44247  23036661.053    94331299.74248  23036661.958
 120301227.78847  22892556.597    93741242.02948  22892557.046
 04 12 12  1 41  0.0000000  0 10G 2G 4G 5G 6G10G17G24G26G29G30
 110708186.85149  21067050.174    86266151.00749  21067047.683
 127749305.48745  24309871.289    99544954.22246  24309871.491
 125893397.91245  23956709.862    98098768.20947  23956710.582
 116524348.70048  22173841.087    90798193.23049  22173841.271
 105469774.47149  20070215.423    82184272.81549  20070214.833
 108990327.51549  20740152.067    84927568.16049  20740152.179
 118947172.04747  22634878.747    92686169.59048  22634879.158
 125323995.95745  23848361.346    97655079.12246  23848363.044
 120958259.60047  23017589.239    94253204.06448  23017590.112
 120365648.00847  22904815.387    93791439.58048  22904815.839
 04 12 12  1 41 30.0000000  0 10G 2G 4G 5G 6G10G17G24G26G29G30
 110756114.95548  21076170.583    86303497.58849  21076168.099
 127829442.77045  24325120.913    99607398.83746  24325121.158
 125982571.51046  23973679.052    98168254.09747  23973679.822
 116446077.67248  22158946.588    90737202.84049  22158946.764
 105483845.49749  20072893.032    82195237.26549  20072892.441
 108986311.62849  20739387.863    84924438.91049  20739387.962
 119008135.46448  22646479.741    92733673.50548  22646480.176
 125203907.10346  23825509.078    97561503.50147  23825510.777
 120858035.42347  22998517.164    94175107.36148  22998518.016
 120430248.91847  22917108.543    93841777.95648  22917109.015
 04 12 12  1 42  0.0000000  0 10G 2G 4G 5G 6G10G17G24G26G29G30
 110804409.70749  21085360.781    86341129.85149  21085358.305
 127909744.94745  24340401.951    99669971.93046  24340402.199
 126071948.75746  23990686.994    98237898.68647  23990687.803
 116368223.26648  22144131.369    90676537.09249  22144131.538
 105498528.06049  20075687.031    82206678.22549  20075686.441
 108982630.04649  20738687.275    84921570.14949  20738687.381
 119069335.06248  22658125.613    92781361.53548  22658126.026
 125083972.67345  23802686.225    97468048.22447  23802687.891
 120758114.61047  22979502.824    94097247.03248  22979503.683
 120495329.48847  22929492.970    93892490.09148  22929493.467
 04 12 12  1 42 30.0000000  0 10G 2G 4G 5G 6G10G17G24G26G29G30
 110852911.27548  21094590.310    86378923.29749  21094587.835
 127990052.56045  24355683.928    99732549.32346  24355684.215
 126161367.21445  24007702.761    98307575.38347  24007703.617
 116290628.32648  22129365.525    90616073.52649  22129365.687
 105513661.25049  20078566.769    82218470.33549  20078566.179
 108979123.78549  20738020.044    84918838.00849  20738020.149
 119130611.51248  22669786.134    92829109.42048  22669786.540
 124964036.39345  23779863.021    97374591.44347  23779864.706
 120658340.53146  22960516.436    94019501.00248  22960517.315
 120560727.19247  22941937.769    93943449.33248  22941938.280
 04 12 12  1 43  0.0000000  0 10G 2G 4G 5G 6G10G17G24G26G29G30
 110901615.12348  21103858.338    86416874.34849  21103855.877
 128070360.94345  24370966.147    99795127.27147  24370966.435
 126250819.57546  24024725.021    98377278.45547  24024725.911
 116213291.24148  22114648.750    90555810.88949  22114648.905
 105529239.35649  20081531.184    82230609.12249  20081530.595
 108975788.81149  20737385.414    84916239.33549  20737385.511
 119191960.22947  22681460.413    92876913.60048  22681460.809
 124844097.43845  23757039.289    97281132.60347  23757041.004
 120558712.08446  22941557.714    93941868.52748  22941558.573
 120626434.82547  22954441.539    93994650.07748  22954442.032
 04 12 12  1 43 30.0000000  0 10G 2G 4G 5G 6G10G17G24G26G29G30
 110950364.33349  21113135.022    86454860.72949  21113132.555
 128150513.59445  24386218.707    99857583.86446  24386219.011
 126340146.22445  24041723.340    98446883.61047  24041724.246
 116136057.58148  22099951.667    90495628.82949  22099951.824
 105545104.19349  20084550.163    82242971.33549  20084549.566
 108972468.99049  20736753.678    84913652.46649  20736753.764
 119253224.78147  22693118.663    92924652.21948  22693119.044
 124724002.10846  23734185.813    97187551.89047  23734187.562
 120459075.69347  22922597.497    93864229.83348  22922598.342
 120692292.89147  22966973.936    94045968.02947  22966974.385
 04 12 12  1 44  0.0000000  0 10G 2G 4G 5G 6G10G17G24G26G29G30
 110999773.51848  21122537.272    86493361.40949  21122534.799
 128231124.74345  24401558.534    99920397.68946  24401558.865
 126429958.89845  24058814.118    98516867.50647  24058815.044
 116059544.38448  22085391.684    90436008.17449  22085391.828
 105561868.79049  20087740.341    82256034.67349  20087739.744
 108969779.44749  20736241.869    84911556.72849  20736241.948
 119315019.39947  22704877.782    92972803.86448  22704878.183
 124604368.51345  23711420.190    97094330.99347  23711421.990
 120360048.98447  22903753.300    93787066.20948  22903754.129
 120758912.97847  22979651.329    94097879.76448  22979651.731
 04 12 12  1 44 30.0000000  0 10G 2G 4G 5G 6G10G17G24G26G29G30
 111049072.17149  21131918.494    86531775.94449  21131916.021
 128311424.25645  24416839.024    99982968.71846  24416839.364
 126519484.40546  24075850.280    98586627.59547  24075851.239
 115982983.46748  22070822.602    90376350.34449  22070822.746
 105578761.42249  20090954.896    82269197.77249  20090954.299
 108966950.20249  20735703.476    84909352.12949  20735703.547
 119376574.37547  22716591.293    93020768.79448  22716591.686
 124484429.69046  23688596.495    97000872.24247  23688598.325
 120260864.84447  22884879.132    93709779.92048  22884879.951
 120825522.17047  22992326.649    94149783.03148  22992326.993
 04 12 12  1 45  0.0000000  0 10G 2G 4G 5G 6G10G17G24G26G29G30
 111098722.81549  21141366.697    86570464.75849  21141364.224
 128391875.03445  24432148.310   100045657.62546  24432148.613
 126609182.80145  24092919.352    98656522.41047  24092920.327
 115906840.34448  22056333.053    90317018.04749  22056333.186
 105596243.75649  20094281.668    82282820.37549  20094281.063
 108964444.67949  20735226.685    84907399.78449  20735226.749
 119438352.63147  22728347.322    93068907.66148  22728347.750
 124364651.89046  23665803.455    96907538.98447  23665805.291
 120161989.46247  22866063.784    93632734.16648  22866064.576
 120892580.29046  23005087.397    94202036.10148  23005087.734
 04 12 12  1 45 30.0000000  0 10G 2G 4G 5G 6G10G17G24G26G29G30
 111148726.77848  21150882.147    86609428.87749  21150879.667
 128472478.45845  24447486.607   100108465.52146  24447486.912
 126699052.37746  24110020.976    98726550.64447  24110021.937
 115831119.05348  22041923.753    90258014.45949  22041923.884
 105614315.62649  20097720.631    82296902.35449  20097720.018
 108962264.83249  20734811.880    84905701.20549  20734811.931
 119500355.49347  22740146.080    93117221.56648  22740146.522
 124245039.91446  23643041.975    96814334.92848  23643043.832
 120063427.23147  22847307.997    93555932.47048  22847308.756
 120960086.05247  23017933.316    94254637.99548  23017933.669
 04 12 12  1 46  0.0000000  0 10G 2G 4G 5G 6G10G17G24G26G29G30
 111198932.08449  21160435.905    86648549.90049  21160433.421
 128553082.37545  24462825.035   100171273.72146  24462825.377
 126788938.75546  24127125.827    98796591.91547  24127126.823
 115755669.96048  22027566.256    90199222.98149  22027566.374
 105632823.47949  20101242.558    82311324.05949  20101241.946
 108960259.24449  20734430.223    84904138.41549  20734430.266
 119562431.19548  22751958.711    93165592.23848  22751959.157
 124125445.21646  23620283.855    96721144.29347  23620285.696
 119965029.38247  22828583.497    93479258.85048  22828584.237
 121027884.62047  23030834.967    94307468.02048  23030835.384
 04 12 12  1 46 30.0000000  0 10G 2G 4G 5G 6G10G17G24G26G29G30
 111249495.11448  21170057.735    86687949.66349  21170055.253
 128633843.62945  24478193.462   100234204.47646  24478193.832
 126878995.64146  24144263.106    98866766.09447  24144264.127
 115680652.29748  22013290.863    90140767.67749  22013290.977
 105651922.75549  20104877.017    82326206.62549  20104876.397
 108958585.08449  20734111.635    84902833.88349  20734111.671
 119624736.34647  22763815.017    93214141.69348  22763815.468
 124006027.69646  23597559.427    96628091.71547  23597561.284
 119866955.88847  22809920.714    93402837.96348  22809921.468
 121096129.77347  23043821.593    94360646.06648  23043822.022
 04 12 12  1 47  0.0000000  0 10G 2G 4G 5G 6G10G17G24G26G29G30
 111300265.45648  21179719.010    86727510.96549  21179716.535
 128714611.66445  24493563.155   100297140.58346  24493563.488
 126969069.65945  24161403.604    98936953.64147  24161404.643
 115605917.89248  21999069.379    90082533.08649  21999069.479
 105671461.62449  20108595.123    82341431.73949  20108594.495
 108957092.36649  20733827.575    84901670.73449  20733827.611
 119687120.66848  22775686.359    93262752.86748  22775686.798
 123886640.47046  23574840.769    96535062.76248  23574842.602
 119769059.27947  22791291.567    93326554.94948  22791292.308
 121164668.29447  23056864.052    94414052.69448  23056864.496
 04 12 12  1 47 30.0000000  0 10G 2G 4G 5G 6G10G17G24G26G29G30
 111351092.57848  21189391.078    86767116.52949  21189388.595
 128795236.57544  24508905.566   100359965.15346  24508905.905
 127059007.86145  24178518.293    99007035.29347  24178519.375
 115531319.24247  21984873.734    90024404.27049  21984873.829
 105691288.47349  20112368.047    82356881.23749  20112367.413
 108955631.47349  20733549.576    84900532.38149  20733549.606
 119749434.10748  22787544.230    93311308.79648  22787544.651
 123767136.81946  23552099.957    96441943.07947  23552101.771
 119671192.76747  22772668.153    93250295.36748  22772668.917
 121233347.09247  23069933.223    94467568.60648  23069933.666
 04 12 12  1 48  0.0000000  0 10G 2G 4G 5G 6G10G17G24G26G29G30
 111402288.80148  21199133.395    86807009.69349  21199130.890
 128876030.24144  24524280.095   100422921.27246  24524280.379
 127149119.60346  24195666.011    99077252.22147  24195667.066
 115457171.06348  21970763.763    89966626.50549  21970763.863
 105711713.64649  20116254.816    82372796.96449  20116254.181
 108954515.40849  20733337.202    84899662.72349  20733337.226
 119811989.30048  22799448.105    93360053.11048  22799448.503
 123647832.34746  23529397.065    96348978.57547  23529398.859
 119573671.62347  22754110.485    93174304.87948  22754111.271
 121302475.63347  23083087.958    94521434.99048  23083088.372
 04 12 12  1 48 30.0000000  0 10G 2G 4G 5G 6G10G17G24G26G29G30
 111453704.81448  21208917.531    86847074.12849  21208915.012
 128956843.77744  24539658.406   100485892.86046  24539658.653
 127239253.32945  24212817.936    99147486.21647  24212819.047
 115383326.76548  21956711.660    89909085.50049  21956711.762
 105732587.16049  20120226.913    82389062.04049  20120226.271
 108953595.45049  20733162.128    84898945.88749  20733162.152
 119874637.04248  22811369.592    93408869.53348  22811369.988
 123528581.51746  23506704.374    96256055.88647  23506706.136
 119476350.02647  22735590.747    93098469.94048  22735591.528
 121371901.83047  23096299.318    94575533.33348  23096299.695
 04 12 12  1 49  0.0000000  0 10G 2G 4G 5G 6G10G17G24G26G29G30
 111505500.42548  21218773.914    86887434.33949  21218771.395
 129037837.06145  24555070.992   100549004.42746  24555071.249
 127329565.98845  24230003.869    99217859.69847  24230004.962
 115309948.61548  21942748.268    89851907.71749  21942748.378
 105754067.04949  20124314.394    82405799.62849  20124313.745
 108953031.97449  20733054.902    84898506.81649  20733054.919
 119937536.93248  22823339.025    93457882.45548  22823339.398
 123409547.44747  23484052.950    96163302.08547  23484054.680
 119379391.08747  22717140.075    93022917.52348  22717140.856
 121441782.76147  23109597.247    94629985.96648  23109597.591
 04 12 12  1 49 30.0000000  0 10G 2G 4G 5G 6G10G17G24G26G29G30
 111557373.73048  21228645.070    86927855.09349  21228642.563
 129118708.56945  24570460.299   100612021.24646  24570460.523
 127419752.82446  24247165.848    99288135.16147  24247166.895
 115236737.42448  21928816.636    89794860.05249  21928816.741
 105775850.30849  20128459.605    82422773.60449  20128458.956
 108952523.95749  20732958.223    84898110.97149  20732958.227
 120000388.20847  22835299.231    93506857.45048  22835299.630
 123290432.12246  23461386.016    96070485.02048  23461387.690
 119282496.00847  22698701.548    92947414.89148  22698702.304
 121511814.05646  23122923.765    94684555.79248  23122924.077
 04 12 12  1 50  0.0000000  0 10G 2G 4G 5G 6G10G17G24G26G29G30
 111609485.52548  21238561.621    86968461.68249  21238559.115
 129199618.80244  24585857.046   100675068.10746  24585857.295
 127509971.99645  24264334.003    99358435.81147  24264335.047
 115163856.26448  21914947.812    89738069.55049  21914947.912
 105798096.03349  20132692.820    82440107.94249  20132692.171
 108952232.76049  20732902.804    84897884.07349  20732902.808
 120063351.26947  22847280.656    93555919.61648  22847281.036
 123171399.66747  23438734.898    95977732.47748  23438736.526
 119185829.07347  22680306.424    92872090.03348  22680307.189
 121582153.39446  23136308.902    94739365.64547  23136309.188
 04 12 12  1 50 30.0000000  0 10G 2G 4G 5G 6G10G17G24G26G29G30
 111661996.39948  21248554.102    87009379.25549  21248551.596
 129280728.75445  24601291.733   100738270.69846  24601291.960
 127600381.37845  24281538.408    99428884.55146  24281539.524
 115091468.68248  21901172.913    89681663.64549  21901173.007
 105820963.56149  20137044.360    82457926.79649  20137043.725
 108952319.79249  20732919.360    84897951.89649  20732919.371
 120126587.14347  22859314.066    93605194.27948  22859314.458
 123052614.32347  23416130.805    95885172.50848  23416132.390
 119089554.08047  22661985.879    92797070.58848  22661986.644
 121652958.72047  23149782.732    94794538.58847  23149783.037
 04 12 12  1 51  0.0000000  0 10G 2G 4G 5G 6G10G17G24G26G29G30
 111714605.44548  21258565.276    87050373.29249  21258562.790
 129361737.61544  24616707.224   100801394.43346  24616707.474
 127690677.51146  24298721.250    99499245.14047  24298722.306
 115019276.04648  21887435.088    89625409.65449  21887435.192
 105844150.56949  20141456.689    82475994.61049  20141456.054
 108952484.60849  20732950.718    84898080.33849  20732950.723
 120189795.04448  22871342.124    93654447.19848  22871342.501
 122933778.84347  23393517.171    95792573.44847  23393518.701
 118993373.54047  22643683.295    92722124.75448  22643684.075
 121723926.33146  23163287.437    94849838.01447  23163287.730
 04 12 12  1 51 30.0000000  0 10G 2G 4G 5G 6G10G17G24G26G29G30
 111767473.18648  21268625.655    87091568.95049  21268623.167
 129442805.98345  24632134.040   100864564.56646  24632134.311
 127781018.40246  24315912.568    99569640.65347  24315913.548
 114947441.68648  21873765.458    89569434.83549  21873765.562
 105867815.95549  20145960.062    82494435.17649  20145959.429
 108952888.63049  20733027.595    84898395.16549  20733027.607
 120253135.76447  22883395.450    93703803.61148  22883395.825
 122815057.23046  23370925.211    95700063.10348  23370926.699
 118897451.02847  22625429.830    92647379.95748  22625430.640
 121795213.88146  23176853.013    94905386.74047  23176853.311
 04 12 12  1 52  0.0000000  0 10G 2G 4G 5G 6G10G17G24G26G29G30
 111820605.12348  21278736.321    87132970.46549  21278733.817
 129523939.57045  24647573.319   100927785.45546  24647573.612
 127871406.81045  24333112.916    99640073.12746  24333113.916
 114875973.49748  21860165.513    89513745.34349  21860165.604
 105891964.08949  20150555.299    82513251.91249  20150554.660
 108953537.90149  20733151.135    84898901.10249  20733151.147
 120316615.48248  22895475.257    93753268.30548  22895475.639
 122696458.69447  23348356.666    95607648.66048  23348358.087
 118801795.40547  22607227.122    92572843.15648  22607227.954
 121866824.39247  23190480.040    94961187.10347  23190480.391
 04 12 12  1 52 30.0000000  0 10G 2G 4G 5G 6G10G17G24G26G29G30
 111874006.47148  21288898.265    87174581.89549  21288895.753
 129605143.51245  24663025.969   100991061.18946  24663026.277
 127961844.83646  24350322.766    99710544.23847  24350323.757
 114804879.38848  21846636.742    89458347.35449  21846636.819
 105916598.67049  20155243.098    82532447.70149  20155242.460
 108954438.43649  20733322.495    84899602.82749  20733322.500
 120380239.22147  22907582.452    93802845.25948  22907582.800
 122577992.11147  23325813.183    95515337.09747  23325814.539
 118706415.01947  22589076.797    92498520.82448  22589077.651
 121938759.89547  23204168.935    95017240.69847  23204169.328
 04 12 12  1 53  0.0000000  0 10G 2G 4G 5G 6G10G17G24G26G29G30
 111927680.96248  21299112.175    87216406.18849  21299109.642
 129686422.07545  24678492.748   101054395.16746  24678493.005
 128052334.13546  24367542.313    99781055.40047  24367543.265
 114734165.69348  21833180.380    89403245.78249  21833180.437
 105941721.85649  20160023.881    82552024.21449  20160023.245
 108955594.67649  20733542.520    84900503.79549  20733542.518
 120444011.07848  22919717.839    93852537.61248  22919718.195
 122459664.71247  23303296.204    95423133.96447  23303297.508
 118611317.22547  22570980.253    92424418.68248  22570981.120
 122011021.58046  23217919.894    95073548.49647  23217920.305
 04 12 12  1 53 30.0000000  0 10G 2G 4G 5G 6G10G17G24G26G29G30
 111981322.63048  21309319.840    87258204.89049  21309317.297
 129767469.28045  24693915.494   101117548.88046  24693915.710
 128142565.95745  24384712.846    99851365.89146  24384713.797
 114663529.13248  21819738.689    89348204.31549  21819738.718
 105967026.27049  20164839.145    82571741.94349  20164838.508
 108956701.35649  20733753.102    84901366.15549  20733753.107
 120507625.43548  22931823.266    93902107.22348  22931823.616
 122341174.35246  23280748.214    95330803.84747  23280749.474
 118516199.23747  22552879.871    92350300.80048  22552880.723
 122083300.63547  23231674.164    95129869.81048  23231674.614
 04 12 12  1 54  0.0000000  0 10G 2G 4G 5G 6G10G17G24G26G29G30
 112035701.72648  21319667.843    87300578.21449  21319665.288
 129849055.42545  24709440.863   101181122.43046  24709441.097
 128233308.07945  24401980.551    99922073.94346  24401981.525
 114593742.37348  21806458.704    89293825.03549  21806458.720
 105993280.68549  20169835.188    82592199.94149  20169834.545
 108958529.58449  20734101.003    84902790.75349  20734101.001
 120571852.93647  22944045.341    93952154.64548  22944045.684
 122223294.87446  23258316.466    95238949.75548  23258317.706
 118421834.63046  22534922.878    92276769.94948  22534923.715
 122156364.58347  23245577.801    95186802.73247  23245578.253
 04 12 12  1 54 30.0000000  0 10G 2G 4G 5G 6G10G17G24G26G29G30
 112089892.47248  21329979.999    87342804.77349  21329977.445
 129930254.81345  24724892.593   101244394.66746  24724892.884
 128323631.81246  24419168.663    99992456.04747  24419169.577
 114523882.16148  21793164.724    89239388.53549  21793164.724
 106019557.69749  20174835.532    82612675.54249  20174834.888
 108960154.07549  20734410.127    84904056.60549  20734410.104
 120635767.74847  22956207.938    94001958.37948  22956208.288
 122105103.80646  23235825.430    95146852.85947  23235826.627
 118327300.69147  22516933.632    92203107.19048  22516934.433
 122229284.67846  23259454.087    95243623.54747  23259454.492
 04 12 12  1 55  0.0000000  0 10G 2G 4G 5G 6G10G17G24G26G29G30
 112144661.18548  21340402.151    87385481.68249  21340399.605
 130011834.20444  24740416.623   101307962.99746  24740416.996
 128414301.21546  24436422.518   100063107.49947  24436423.429
 114454717.55548  21780003.125    89185494.04849  21780003.133
 106046622.21949  20179985.727    82633764.79249  20179985.098
 108962342.00249  20734826.476    84905761.48249  20734826.453
 120700136.71246  22968456.932    94052116.00348  22968457.307
 121987371.50047  23213421.693    95055113.42948  23213422.868
 118233367.10747  22499058.635    92129912.23448  22499059.416
 122302824.51746  23273448.289    95300927.28147  23273448.657
 04 12 12  1 55 30.0000000  0 10G 2G 4G 5G 6G10G17G24G26G29G30
 112199540.37349  21350845.313    87428244.69349  21350842.769
 130093325.87744  24755924.038   101371462.94346  24755924.446
 128504846.10045  24453652.673   100133661.90046  24453653.595
 114385783.50648  21766885.406    89131779.21349  21766885.414
 106074005.25549  20185196.539    82655102.23249  20185195.911
 108964626.53449  20735261.196    84907541.64249  20735261.171
 120764492.54546  22980703.440    94102263.39548  22980703.843
 121869633.98147  23191016.946    94963369.98348  23191018.097
 118139569.50447  22481209.551    92056823.18248  22481210.324
 122376513.67346  23287470.899    95358347.35647  23287471.263
 04 12 12  1 56  0.0000000  0  9G 2G 5G 6G10G17G24G26G29G30
 112254369.19848  21361278.898    87470968.45349  21361276.355
 128595102.69245  24470827.955   100203991.65946  24470828.871
 114316921.63448  21753781.428    89078120.61749  21753781.421
 106101544.46149  20190437.070    82676561.35749  20190436.449
 108966847.46149  20735683.818    84909272.25149  20735683.780
 120828674.37747  22992916.813    94152275.21848  22992917.226
 121751733.80947  23168581.230    94871499.79248  23168582.367
 118045750.38248  22463356.336    91983717.42048  22463357.081
 122450188.64346  23301490.774    95415756.41647  23301491.127
 04 12 12  1 56 30.0000000  0  9G 2G 5G 6G10G17G24G26G29G30
 112309909.64849  21371847.894    87514246.72649  21371845.359
 128685830.63346  24488092.926   100274688.77447  24488093.775
 114248896.59148  21740836.692    89025114.09749  21740836.673
 106130000.36949  20195852.043    82698734.79749  20195851.422
 108969767.48549  20736239.468    84911547.60849  20736239.423
 120893444.72947  23005242.207    94202745.59148  23005242.675
 121634436.91746  23146260.344    94780099.66348  23146261.430
 117952674.98947  22445644.654    91911191.16648  22445645.391
 122524608.49446  23315652.413    95473745.86847  23315652.774
 04 12 12  1 57  0.0000000  0  9G 2G 5G 6G10G17G24G26G29G30
 112365229.59848  21382374.930    87557353.18649  21382372.397
 128776095.24045  24505269.775   100345024.78147  24505270.630
 114180778.81548  21727874.305    88972035.33149  21727874.273
 106158439.27749  20201263.776    82720895.00649  20201263.141
 108972455.62249  20736751.004    84913642.26449  20736750.959
 120957871.76347  23017502.270    94252948.47648  23017502.732
 121516814.74846  23123877.542    94688446.07847  23123878.604
 117859414.63148  22427897.780    91838520.79248  22427898.505
 122598838.39546  23329777.905    95531587.31247  23329778.268
 04 12 12  1 57 30.0000000  0  9G 2G 5G 6G10G17G24G26G29G30
 112421092.50748  21393005.282    87600882.72049  21393002.746
 128866657.74444  24522503.288   100415592.85746  24522504.228
 114113334.56248  21715040.090    88919481.38249  21715040.039
 106187623.30749  20206817.300    82743635.81749  20206816.663
 108975675.92949  20737363.802    84916151.60249  20737363.757
 121022719.35247  23029842.362    94303479.05648  23029842.831
 121399634.58146  23101578.850    94597136.90547  23101579.880
 117766735.91947  22410261.607    91766303.63448  22410262.307
 122673639.16146  23344012.041    95589873.58747  23344012.441
 04 12 12  1 58  0.0000000  0  9G 2G 5G 6G10G17G24G26G29G30
 112477339.96148  21403708.793    87644711.92149  21403706.254
 128957356.72645  24539762.689   100486267.47646  24539763.531
 114046407.60048  21702304.289    88867330.53149  21702304.230
 106217392.32549  20212482.150    82766832.46649  20212481.507
 108979270.51749  20738047.811    84918952.59249  20738047.773
 121087829.00147  23042232.328    94354213.84648  23042232.793
 121282741.64346  23079334.792    94506051.56648  23079335.803
 117674483.55148  22392706.553    91694418.70148  22392707.242
 122748849.24346  23358324.074    95648478.81347  23358324.496
 04 12 12  1 58 30.0000000  0  9G 2G 5G 6G10G17G24G26G29G30
 112533660.52048  21414426.233    87688598.07849  21414423.679
 129047878.34445  24556988.427   100556803.76246  24556989.220
 113979689.23548  21689608.212    88815342.20549  21689608.127
 106247433.32049  20218198.755    82790241.04649  20218198.098
 108982928.99349  20738743.990    84921803.36149  20738743.944
 121152889.93647  23054612.982    94404910.70248  23054613.422
 121165828.22946  23057086.844    94414950.27647  23057087.831
 117582349.59247  22375174.038    91622626.01848  22375174.720
 122824154.42446  23372654.232    95707158.13547  23372654.655
 04 12 12  1 59  0.0000000  0  9G 2G 5G 6G10G17G24G26G29G30
 112589898.71648  21425128.000    87732420.04749  21425125.443
 129138064.52645  24574150.353   100627078.56646  24574151.267
 113913026.25148  21676922.650    88763397.04649  21676922.566
 106277589.16749  20223937.210    82813739.11949  20223936.552
 108986496.24749  20739422.816    84924583.04249  20739422.763
 121217746.67747  23066954.822    94455448.39748  23066955.266
 121048742.20846  23034806.049    94323714.47748  23034807.048
 117490181.47047  22357634.986    91550806.74648  22357635.675
 122899396.33546  23386972.322    95765788.16347  23386972.783
 04 12 12  1 59 30.0000000  0  9G 2G 5G 6G10G17G24G26G29G30
 112646824.00848  21435960.529    87776777.39549  21435957.991
 129228682.06346  24591394.398   100697689.54247  24591395.364
 113847190.69148  21664394.560    88712096.60849  21664394.483
 106308627.77249  20229843.649    82837925.05849  20229842.990
 108990742.56049  20740230.863    84927891.85949  20740230.810
 121283168.93747  23079404.228    94506426.80448  23079404.645
 120932256.70647  23012639.524    94232946.61448  23012640.533
 117398751.84147  22340236.488    91479562.88548  22340237.204
 122975341.44946  23401424.214    95824966.14847  23401424.704
                            4  1
RINEX FILE SPLICE; other post-header comments skipped       COMMENT
 04 12 12  2  0  0.0000000  0  9G 2G 5G 6G10G17G24G26G29G30
 112703974.74948  21446835.947    87821310.44849  21446833.402
 129319266.61445  24608632.106   100768274.90446  24608633.015
 113781723.44848  21651936.546    88661083.19049  21651936.462
 106340085.98949  20235829.942    82862437.96449  20235829.285
 108995207.17549  20741080.451    84931370.78649  20741080.392
 121348695.35446  23091873.485    94557486.31648  23091873.945
 120815914.06046  22990500.195    94142290.06048  22990501.223
 117307602.32247  22322891.300    91408537.30448  22322892.024
 123051525.35946  23415921.554    95884330.21847  23415922.039
 04 12 12  2  0 30.0000000  0  9G 2G 5G 6G10G17G24G26G29G30
 112761197.80948  21457725.134    87865899.85649  21457722.584
 129409662.70745  24625833.845   100838713.47746  24625834.681
 113716474.09948  21639520.001    88610239.54749  21639519.910
 106371809.12049  20241866.653    82887157.28949  20241865.996
 108999737.65149  20741942.572    84934901.03049  20741942.514
 121414173.37147  23104333.525    94608508.13948  23104333.988
 120699564.75046  22968359.551    94051628.35948  22968360.603
 117216583.32448  22305570.978    91337613.40348  22305571.706
 123127792.38646  23430434.711    95943759.06747  23430435.187
 04 12 12  2  1  0.0000000  0  9G 2G 5G 6G10G17G24G26G29G30
 112818648.84148  21468657.719    87910666.88349  21468655.164
 129500023.26645  24643028.948   100909124.26047  24643029.813
 113651600.75348  21627175.014    88559688.90049  21627174.910
 106403951.05449  20247983.048    82912202.96449  20247982.391
 109004490.60249  20742847.028    84938604.63549  20742846.964
 121479758.91346  23116814.057    94659613.74048  23116814.513
 120583368.05746  22946247.984    93961085.55848  22946249.042
 117125853.47448  22288305.638    91266914.86348  22288306.362
 123204295.07945  23444992.766    96003371.44447  23444993.268
 04 12 12  2  1 30.0000000  0  9G 2G 5G 6G10G17G24G26G29G30
 112876175.89148  21479604.753    87955493.16149  21479602.191
 129590194.10845  24660187.977   100979387.12246  24660188.950
 113586953.81348  21614873.093    88509314.67649  21614873.003
 106436358.29949  20254149.936    82937455.37949  20254149.273
 109009314.68149  20743765.014    84942363.66449  20743764.957
 121545299.92346  23129286.120    94710684.63348  23129286.615
 120467175.84846  22924137.270    93870546.24748  22924138.326
 117035263.91548  22271067.006    91196325.62748  22271067.742
 123280878.62646  23459566.149    96063046.92447  23459566.652
 04 12 12  2  2  0.0000000  0  9G 2G 5G 6G10G17G24G26G29G30
 112934397.32348  21490683.923    88000860.51549  21490681.363
 129680790.90345  24677428.016   101049981.95546  24677429.051
 113523154.16748  21602732.406    88459600.69049  21602732.317
 106469647.45849  20260484.652    82963394.98349  20260483.990
 109014828.91749  20744814.332    84946660.48449  20744814.262
 121611415.20246  23141867.439    94762203.04448  23141867.922
 120351610.14346  22902145.770    93780495.13548  22902146.826
 116945436.35448  22253973.384    91126330.14548  22253974.123
 123358158.54347  23474272.046    96123265.04747  23474272.510
 04 12 12  2  2 30.0000000  0  9G 2G 5G 6G10G17G24G26G29G30
 112992391.96148  21501719.930    88046051.14849  21501717.377
 129770890.21345  24694573.297   101120189.28446  24694574.284
 113459283.28748  21590578.170    88409831.18349  21590578.087
 106502896.09349  20266811.645    82989303.02249  20266810.990
 109020113.14749  20745819.888    84950778.06449  20745819.825
 121677184.04947  23154382.853    94813451.47748  23154383.358
 120235753.39946  22880098.900    93690217.22648  22880099.939
 116855452.79747  22236850.058    91056213.12748  22236850.800
 123435210.98346  23488934.661    96183305.88347  23488935.134
 04 12 12  2  3  0.0000000  0  9G 2G 5G 6G10G17G24G26G29G30
 113050779.27548  21512830.672    88091547.73949  21512828.139
 129861108.87945  24711741.410   101190489.47747  24711742.393
 113395963.22548  21578528.739    88360490.89649  21578528.662
 106536722.18049  20273248.536    83015661.01149  20273247.887
 109025787.50549  20746899.670    84955199.64749  20746899.613
 121743226.16947  23166950.262    94864912.86548  23166950.778
 120120229.06546  22858115.302    93600198.31848  22858116.349
 116765936.05348  22219815.570    90986459.84548  22219816.298
 123512652.40846  23503671.310    96243649.80647  23503671.782
 04 12 12  2  3 30.0000000  0  9G 2G 5G 6G10G17G24G26G29G30
 113109563.15748  21524016.867    88137353.35649  21524014.347
 129951448.02145  24728932.454   101260883.50246  24728933.501
 113333199.89348  21566585.262    88311584.41449  21566585.192
 106571127.59649  20279795.657    83042470.44549  20279795.002
 109031856.73149  20748054.600    84959928.92049  20748054.549
 121809545.40347  23179570.393    94916590.20248  23179570.896
 120005044.50847  22836196.362    93510444.16948  22836197.416
 116676893.00447  22202871.212    90917075.69248  22202871.919
 123590483.76147  23518482.160    96304297.57647  23518482.648
 04 12 12  2  4  0.0000000  0  9G 2G 5G 6G10G17G24G26G29G30
 113168593.75548  21535249.999    88183351.22949  21535247.489
 130041755.47446  24746117.385   101331252.96246  24746118.434
 113270846.28248  21554719.758    88262997.19149  21554719.704
 106605960.81049  20286424.197    83069613.21849  20286423.529
 109038171.63549  20749256.286    84964849.62749  20749256.236
 121875992.33447  23192214.823    94968367.02048  23192215.362
 119890053.68247  22814314.300    93420840.98848  22814315.343
 116588177.07048  22185989.125    90847946.41148  22185989.804
 123668552.44547  23533338.130    96365130.33547  23533338.621
 04 12 12  2  4 30.0000000  0  9G 2G 5G 6G10G17G24G26G29G30
 113227567.58148  21546472.345    88229304.84949  21546469.833
 130131725.32645  24763238.132   101401359.27046  24763239.225
 113208601.40748  21542874.946    88214494.69349  21542874.898
 106640916.84449  20293076.109    83096851.69449  20293075.428
 109044429.55449  20750447.116    84969725.93649  20750447.073
 121942264.09146  23204825.919    95020007.34448  23204826.464
 119774956.80247  22792412.062    93331155.16948  22792413.104
 116499487.83048  22169112.100    90778837.95448  22169112.744
 123746552.19046  23548181.024    96425909.30847  23548181.498
 04 12 12  2  5  0.0000000  0  9G 2G 5G 6G10G17G24G26G29G30
 113287105.57248  21557802.042    88275698.09449  21557799.530
 130221976.16245  24780412.295   101471684.58646  24780413.408
 113147088.60948  21531169.432    88166562.65449  21531169.389
 106676614.72749  20299869.190    83124668.23249  20299868.503
 109051252.11449  20751745.400    84975042.21649  20751745.363
 122008981.76846  23217521.871    95071995.12848  23217522.435
 119660378.56247  22770608.525    93241873.47348  22770609.556
 116411449.35848  22152358.912    90710236.57548  22152359.533
 123825100.95646  23563128.387    96487116.10747  23563128.854
 04 12 12  2  5 30.0000000  0  9G 2G 5G 6G10G17G24G26G29G30
 113346750.74248  21569152.140    88322174.84549  21569149.627
 130312048.55945  24797552.544   101541870.81246  24797553.655
 113085853.47348  21519516.755    88118846.98249  21519516.712
 106712596.14049  20306716.225    83152705.70649  20306715.540
 109058183.49149  20753064.386    84980443.29349  20753064.361
 122075688.66646  23230215.736    95123974.53448  23230216.314
 119545865.69647  22748817.433    93152642.72648  22748818.443
 116323608.08648  22135643.262    90641788.86248  22135643.872
 123903738.91146  23578092.740    96548392.39348  23578093.225
 04 12 12  2  6  0.0000000  0 10G 2G 5G 6G10G17G21G24G26G29G30
 113406661.86948  21580552.837    88368858.84449  21580550.328
 130402098.40845  24814688.514   101612039.46746  24814689.610
 113025056.93048  21507947.552    88071473.05249  21507947.507
 106749018.22749  20313647.112    83181086.56349  20313646.428
 109065382.87049  20754434.382    84986053.19849  20754434.357
 130459269.32344  24825573.445   101656570.58046  24825572.492
 122142543.65646  23242937.823    95176069.30548  23242938.389
 119431580.60947  22727069.662    93063589.46248  22727070.680
 116236125.60748  22118995.876    90573620.74049  22118996.482
 123982622.00046  23593103.705    96609859.70847  23593104.240
 04 12 12  2  6 30.0000000  0 10G 2G 5G 6G10G17G21G24G26G29G30
 113466842.03948  21592004.736    88415752.48749  21592002.212
 130492126.63845  24831820.346   101682191.32747  24831821.434
 112964704.58048  21496462.870    88024445.26149  21496462.825
 106785882.23549  20320662.106    83209811.76849  20320661.416
 109072854.22349  20755856.133    84991875.03049  20755856.108
 130373591.72145  24809269.539   101589808.76846  24809268.332
 122209550.35745  23255688.792    95228282.29147  23255689.372
 119317530.07347  22705366.531    92974718.95948  22705367.550
 116149008.34048  22102417.982    90505737.20848  22102418.585
 124061750.33046  23608161.361    96671518.10347  23608161.903
 04 12 12  2  7  0.0000000  0  9G 2G 6G10G17G21G24G26G29G30
 113526984.77448  21603449.524    88462616.95449  21603446.986
 112904492.75148  21485004.934    87977526.95849  21485004.888
 106822880.07849  20327702.561    83238641.25849  20327701.865
 109080292.14249  20757271.510    84997670.81649  20757271.491
 130287617.50945  24792909.000   101522815.91646  24792907.932
 122276402.39546  23268410.300    95280374.80447  23268410.827
 119203411.72947  22683650.497    92885795.61548  22683651.500
 116061952.95248  22085851.844    90437901.89749  22085852.448
 124140814.62946  23623206.821    96733126.66247  23623207.289
 04 12 12  2  7 30.0000000  0  9G 2G 6G10G17G21G24G26G29G30
 113587706.68348  21615004.513    88509932.73249  21615001.959
 112845039.93448  21473691.445    87931200.09249  21473691.395
 106860626.50449  20334885.455    83268054.06949  20334884.758
 109088313.61149  20758797.945    85003921.31149  20758797.933
 130201963.74045  24776609.493   101456072.83146  24776608.856
 122343716.76046  23281219.816    95332827.52447  23281220.339
 119089845.51147  22662039.540    92797302.50448  22662040.518
 115975579.22448  22069415.453    90370597.71949  22069416.035
 124220428.50946  23638356.862    96795163.44147  23638357.319
 04 12 12  2  8  0.0000000  0  9G 2G 6G10G17G21G24G26G29G30
 113648544.73648  21626581.604    88557339.01749  21626579.043
 112785885.81948  21462434.785    87885105.99249  21462434.745
 106898657.15049  20342122.441    83297688.34749  20342121.736
 109096456.67349  20760347.512    85010266.56349  20760347.501
 130116167.92645  24760283.223   101389218.94845  24760282.356
 122411030.67546  23294029.234    95385279.93247  23294029.715
 118976372.34947  22640446.292    92708881.90248  22640447.242
 115889427.11948  22053021.228    90303466.25949  22053021.770
 124300126.33246  23653522.895    96857265.55947  23653523.413
 04 12 12  2  8 30.0000000  0  9G 2G 6G10G17G21G24G26G29G30
 113709497.40648  21638180.511    88604834.59649  21638177.971
 112727031.18048  21451235.126    87839245.23549  21451235.087
 106936968.89649  20349412.918    83327541.65249  20349412.218
 109104720.73749  20761920.105    85016706.09449  20761920.108
 130030229.19244  24743929.466   101322253.76146  24743928.613
 122478342.95346  23306838.358    95437731.06048  23306838.809
 118862994.53247  22618871.216    92620535.56348  22618872.149
 115803498.38548  22036669.522    90236508.83549  22036670.015
 124379903.77647  23668704.050    96919429.77247  23668704.602
 04 12 12  2  9  0.0000000  0  9G 2G 6G10G17G21G24G26G29G30
 113770871.31648  21649859.572    88652658.43749  21649857.011
 112668785.39448  21440151.309    87793858.91749  21440151.277
 106975866.30749  20356814.843    83357851.32049  20356814.156
 109113413.00449  20763574.183    85023479.29449  20763574.192
 129944454.52645  24727607.006   101255416.45446  24727606.221
 122545960.66146  23319705.604    95490420.16448  23319706.079
 118750022.37548  22597373.324    92532505.34148  22597374.239
 115718102.57948  22020419.205    90169966.70849  22020419.671
 124460064.20247  23683958.072    96981892.47447  23683958.555
 04 12 12  2  9 30.0000000  0  9G 2G 6G10G17G21G24G26G29G30
 113832355.81848  21661559.684    88700568.43749  21661557.130
 112610840.03548  21429124.674    87748706.69749  21429124.644
 107015037.12549  20364268.796    83388374.04149  20364268.109
 109122223.62949  20765250.777    85030344.71849  20765250.799
 129858534.04045  24711256.911   101188465.45346  24711256.134
 122613573.27346  23332571.857    95543105.32247  23332572.325
 118637148.80247  22575894.167    92444551.95748  22575895.071
 115632932.30648  22004211.811    90103600.31449  22004212.259
 124540294.29945  23699225.357    97044409.40947  23699225.837
 04 12 12  2 10  0.0000000  0  9G 2G 6G10G17G21G24G26G29G30
 113894255.39248  21673338.787    88748801.86849  21673336.234
 112553502.00248  21418213.609    87704027.72349  21418213.574
 107054784.26249  20371832.418    83419345.84049  20371831.739
 109131458.04749  20767008.029    85037540.37049  20767008.051
 129772772.93245  24694937.156   101121638.59346  24694936.370
 122681485.69046  23345495.172    95596024.07148  23345495.655
 118524682.32947  22554492.485    92356915.77948  22554493.391
 115548295.00848  21988105.821    90037649.22949  21988106.277
 124620895.81945  23714563.322    97107215.71747  23714563.886
 04 12 12  2 10 30.0000000  0  9G 2G 6G10G17G21G24G26G29G30
 113956103.29748  21685108.040    88796995.04249  21685105.500
 112496306.94648  21407329.752    87659460.14849  21407329.710
 107094639.15149  20379416.546    83450401.60649  20379415.859
 109140650.33949  20768757.264    85044703.19449  20768757.293
 129686705.06944  24678558.808   101054572.86146  24678558.104
 122749231.40646  23358386.759    95648812.92648  23358387.270
 118412160.03747  22533080.169    92269236.13248  22533081.072
 115463727.08047  21972013.044    89971752.17749  21972013.521
 124701399.05846  23729882.597    97169945.47047  23729883.216
 04 12 12  2 11  0.0000000  0  9G 2G 6G10G17G21G24G26G29G30
 114018201.80248  21696924.993    88845383.48149  21696922.481
 112439559.47348  21396531.061    87615241.35249  21396531.005
 107134902.58849  20387078.423    83481775.71649  20387077.737
 109150103.55649  20770556.145    85052069.34849  20770556.168
 129600633.31945  24662179.881   100987503.95446  24662179.222
 122817112.94246  23371304.168    95701707.62447  23371304.696
 118299887.56547  22511715.404    92181751.13148  22511716.296
 115379533.91048  21955991.581    89906147.15949  21955992.059
 124782103.34747  23745240.119    97232831.94247  23745240.742
 04 12 12  2 11 30.0000000  0  9G 2G 6G10G17G21G24G26G29G30
 114080698.09548  21708817.630    88894081.89049  21708815.138
 112383409.20148  21385846.025    87571487.89449  21385845.956
 107175719.88949  20394845.697    83513581.40549  20394845.011
 109159965.69449  20772432.853    85059754.13549  20772432.871
 129514705.33345  24645828.329   100920547.12646  24645827.658
 122885277.79546  23384275.514    95754823.05848  23384276.096
 118188016.31347  22490426.977    92094578.79348  22490427.844
 115295865.90048  21940070.052    89840951.34749  21940070.546
 124863153.23646  23760663.394    97295987.68947  23760664.021
 04 12 12  2 12  0.0000000  0  9G 2G 6G10G17G21G24G26G29G30
 114143431.26248  21720755.361    88942964.87649  21720752.870
 112327697.42748  21375244.421    87528076.13049  21375244.345
 107216928.19049  20402687.364    83545691.78449  20402686.678
 109170076.79849  20774356.932    85067632.91649  20774356.950
 129428760.77044  24629473.557   100853577.40446  24629472.937
 122953565.36646  23397270.195    95808034.15047  23397270.804
 118076388.81047  22469184.952    92007596.36548  22469185.793
 115212564.86648  21924218.369    89776041.49349  21924218.843
 124944384.74246  23776121.259    97359284.92247  23776121.912
 04 12 12  2 12 30.0000000  0  9G 2G 6G10G17G21G24G26G29G30
 114206548.52548  21732766.182    88992147.16249  21732763.694
 112272573.93848  21364754.776    87485122.77249  21364754.681
 107258673.34349  20410631.209    83578220.46949  20410630.523
 109180584.99049  20776356.569    85075821.12049  20776356.593
 129342947.96145  24613143.893   100786710.32646  24613143.261
 123022123.14746  23410316.319    95861455.79147  23410316.899
 117965156.17948  22448018.062    91920921.62548  22448018.891
 115129781.32048  21908465.189    89711534.84749  21908465.623
 125025942.21746  23791641.178    97422836.15347  23791641.856
 04 12 12  2 13  0.0000000  0  9G 2G 6G10G17G21G24G26G29G30
 114269582.43948  21744761.155    89041264.48449  21744758.661
 112217573.57948  21354288.562    87442265.34949  21354288.468
 107300486.31149  20418587.946    83610802.01049  20418587.253
 109191023.49549  20778342.950    85083955.01949  20778342.974
 129256799.78945  24596750.482   100719581.86646  24596749.759
 123090483.93146  23423324.991    95914723.89447  23423325.559
 117853854.86348  22426838.102    91834193.36648  22426838.926
 115047050.93048  21892722.102    89647069.64049  21892722.493
 125107355.49747  23807133.658    97486275.04047  23807134.364
 04 12 12  2 13 30.0000000  0  9G 2G 6G10G17G21G24G26G29G30
 114332836.26548  21756797.958    89090553.18149  21756795.479
 112163002.02948  21343903.929    87399742.07949  21343903.836
 107342668.49349  20426614.948    83643671.24649  20426614.256
 109201696.38749  20780373.940    85092271.55949  20780373.951
 129170620.47345  24580351.008   100652429.23446  24580350.256
 123158951.54747  23436353.951    95968075.27447  23436354.511
 117742791.64847  22405703.434    91747650.65648  22405704.266
 114964679.91348  21877047.389    89582884.47949  21877047.744
 125188925.07346  23822655.820    97549835.71747  23822656.592
 04 12 12  2 14  0.0000000  0  9G 2G 6G10G17G21G24G26G29G30
 114396460.93048  21768905.323    89140130.85249  21768902.830
 112109012.27348  21333630.026    87357672.13849  21333629.942
 107385368.77549  20434740.536    83676944.19849  20434739.843
 109212755.46449  20782478.413    85100889.02549  20782478.408
 129084561.22045  24563974.388   100585370.12646  24563973.714
 123227677.17047  23449432.026    96021627.69847  23449432.568
 117632121.32848  22384643.542    91661414.07848  22384644.390
 114882822.15348  21861470.333    89519099.25949  21861470.673
 125270798.70746  23838235.849    97613633.31246  23838236.654
 04 12 12  2 14 30.0000000  0  9G 2G 6G10G17G21G24G26G29G30
 114460453.70848  21781082.744    89189995.35649  21781080.236
 112055604.12848  21323466.788    87316055.41449  21323466.697
 107428582.70849  20442963.874    83710617.39849  20442963.175
 109224198.81849  20784656.010    85109805.93249  20784655.993
 128998620.17645  24547620.428   100518403.02646  24547619.679
 123296657.94846  23462558.602    96075378.98747  23462559.105
 117521844.85148  22363658.579    91575484.42448  22363659.422
 114801477.78048  21845990.960    89455714.09449  21845991.300
 125352970.96047  23853872.745    97677663.61647  23853873.463
 04 12 12  2 15  0.0000000  0  9G 2G 6G10G17G21G24G26G29G30
 114524658.74648  21793300.563    89240025.25049  21793298.047
 112002623.96248  21313384.986    87274772.17849  21313384.902
 107472153.01549  20451255.022    83744568.29449  20451254.323
 109235871.44149  20786877.243    85118901.48349  20786877.212
 128912641.90444  24531259.301   100451407.00346  24531258.482
 123365739.05246  23475704.322    96129208.37047  23475704.874
 117411810.32347  22342719.657    91489743.28948  22342720.501
 114720494.28948  21830580.279    89392610.10649  21830580.639
 125435283.11846  23869536.257    97741802.95547  23869536.937
 04 12 12  2 15 30.0000000  0  9G 2G 6G10G17G21G24G26G29G30
 114588920.90848  21805529.245    89290099.66249  21805526.699
 111949919.00148  21303355.577    87233703.37449  21303355.481
 107515922.85249  20459584.139    83778674.66649  20459583.432
 109247619.31449  20789112.789    85128055.67349  20789112.751
 128826472.35145  24514861.673   100384262.00746  24514860.874
 123434765.19146  23488839.542    96182994.99647  23488840.095
 117301866.38547  22321797.985    91404072.74748  22321798.803
 114639719.38548  21815209.284    89329668.67149  21815209.660
 125517577.52845  23885196.374    97805928.39247  23885197.146
 04 12 12  2 16  0.0000000  0  9G 2G 6G10G17G21G24G26G29G30
 114653548.13048  21817827.421    89340458.51449  21817824.891
 111897799.66248  21293437.591    87193090.91149  21293437.487
 107560198.70249  20468009.553    83813175.33249  20468008.831
 109259751.16449  20791421.409    85137509.05849  20791421.372
 128740420.10146  24498486.504   100317208.26047  24498485.771
 123504044.93045  23502023.038    96236979.17247  23502023.643
 117192324.89047  22300952.896    91318715.78548  22300953.685
 114559464.31048  21799937.239    89267132.27649  21799937.626
 125600159.06346  23900911.112    97870277.61947  23900911.937
 04 12 12  2 16 30.0000000  0  9G 2G 6G10G17G21G24G26G29G30
 114718233.16048  21830136.567    89390862.44649  21830134.016
 111845960.67648  21283572.960    87152696.89649  21283572.856
 107604671.08649  20476472.366    83847829.14149  20476471.638
 109271960.38549  20793744.746    85147022.74449  20793744.696
 128654178.21644  24482075.225   100250006.81946  24482074.447
 123573270.80846  23515196.291    96290921.38047  23515196.950
 117082881.95048  22280126.573    91233435.60048  22280127.324
 114479424.24448  21784706.103    89204763.43049  21784706.478
 125682717.35246  23916621.468    97934608.75847  23916622.220
 04 12 12  2 17  0.0000000  0  9G 2G 6G10G17G21G24G26G29G30
 114783284.88148  21842515.515    89441552.08449  21842512.989
 111794713.49249  21273820.945    87112764.03249  21273820.835
 107649647.53349  20485031.093    83882875.73049  20485030.350
 109284556.98649  20796141.800    85156838.27649  20796141.749
 128568056.77245  24465686.854   100182899.17546  24465686.037
 123642752.43646  23528418.217    96345062.88747  23528418.905
 116973850.67547  22259378.594    91148476.19248  22259379.315
 114399911.68848  21769575.349    89142805.63549  21769575.706
 125765558.98946  23932385.713    97999160.69247  23932386.401
 04 12 12  2 17 30.0000000  0  9G 2G 6G10G17G21G24G26G29G30
 114848551.65848  21854935.370    89492409.31049  21854932.858
 111743908.70848  21264153.110    87073175.89749  21264153.001
 107694974.47949  20493656.518    83918195.43449  20493655.775
 109297390.10249  20798583.860    85166838.11349  20798583.804
 128481904.63545  24449292.611   100115767.67847  24449291.817
 123712338.44646  23541660.000    96399285.72647  23541660.699
 116865083.12248  22238680.781    91063722.29848  22238681.488
 114320777.60348  21754516.621    89081142.74449  21754516.953
 125848529.22445  23948174.454    98063812.74347  23948175.191
 04 12 12  2 18  0.0000000  0  9G 2G 6G10G17G21G24G26G29G30
 114913882.42748  21867367.414    89543316.39549  21867364.919
 111693397.41748  21254541.137    87033816.44349  21254541.020
 107740499.07249  20502319.566    83953669.14649  20502318.810
 109310309.39849  20801042.327    85176905.10149  20801042.250
 128395571.51245  24432863.923   100048495.17047  24432863.160
 123781878.02746  23554892.978    96453472.39448  23554893.697
 116756431.76247  22218005.097    90979058.92848  22218005.790
 114241873.77448  21739501.662    89019659.31349  21739501.979
 125931474.24746  23963958.391    98128445.16647  23963959.211
 04 12 12  2 18 30.0000000  0  9G 2G 6G10G17G21G24G26G29G30
 114979742.52248  21879900.203    89594635.93149  21879897.719
 111643647.13548  21245073.955    86995050.00349  21245073.837
 107786685.04749  20511108.465    83989658.22449  20511107.703
 109323781.27849  20803605.940    85187402.67449  20803605.856
 128309523.34945  24416489.519    99981444.58946  24416488.800
 123851837.03046  23568205.781    96507985.85747  23568206.503
 116648365.94948  22197440.833    90894851.82948  22197441.541
 114163668.69048  21724619.694    88958720.31749  21724620.008
 126014856.39146  23979825.533    98193418.24147  23979826.376
 04 12 12  2 19  0.0000000  0  9G 2G 6G10G17G21G24G26G29G30
 115045520.00648  21892417.248    89645891.12249  21892414.745
 111594048.43148  21235635.624    86956401.66949  21235635.503
 107832918.65149  20519906.427    84025684.41049  20519905.673
 109337194.43449  20806158.379    85197854.48749  20806158.288
 128223149.32145  24400053.112    99914140.14746  24400052.330
 123921603.41647  23581481.883    96562349.30047  23581482.565
 116540277.44147  22176872.256    90810627.05348  22176872.952
 114085553.30548  21709754.777    88897851.23449  21709755.095
 126098061.01346  23995658.816    98258253.04946  23995659.652
 04 12 12  2 19 30.0000000  0  9G 2G 6G10G17G21G24G26G29G30
 115111681.77548  21905007.438    89697445.72849  21905004.945
 111545070.32548  21226315.400    86918236.91049  21226315.279
 107879665.13549  20528801.988    84062110.24049  20528801.240
 109351017.06849  20808788.739    85208625.37349  20808788.634
 128136916.77345  24383643.604    99846945.98446  24383642.798
 123991644.93047  23594810.346    96616927.08747  23594811.056
 116432636.96148  22156388.923    90726751.39649  22156389.622
 114007997.58848  21694996.379    88837418.24149  21694996.695
 126181552.31544  24011546.682    98323311.18346  24011547.475
 04 12 12  2 20  0.0000000  0  9G 2G 6G10G17G21G24G26G29G30
 115178233.69048  21917671.852    89749304.36549  21917669.330
 111496720.90248  21217114.799    86880562.04749  21217114.670
 107926928.61949  20537795.924    84098938.93249  20537795.183
 109365255.66249  20811498.259    85219720.37949  20811498.140
 128050832.35345  24367262.200    99779867.30246  24367261.422
 124061967.53146  23608192.298    96671723.90547  23608192.976
 116325454.14547  22135992.670    90643232.36048  22135993.367
 113931010.03748  21680346.082    88777427.99349  21680346.395
 126265333.24645  24027489.669    98388594.97647  24027490.498
 04 12 12  2 20 30.0000000  0  9G 2G 6G10G17G21G24G26G29G30
 115244874.56348  21930353.201    89801232.31349  21930350.666
 111448701.07048  21207976.929    86843143.99549  21207976.800
 107974406.00349  20546830.564    84135934.29849  20546829.829
 109379609.63849  20814229.724    85230905.30449  20814229.605
 127964595.71745  24350851.920    99712669.91246  24350851.103
 124132269.97846  23621570.379    96726505.07547  23621571.013
 116218431.41648  22115626.892    90559838.06448  22115627.567
 113854292.49448  21665747.201    88717648.11949  21665747.501
 126349099.67946  24043429.933    98453867.47947  24043430.801
 04 12 12  2 21  0.0000000  0  9G 2G 6G10G17G21G24G26G29G30
 115311764.91948  21943082.024    89853354.66149  21943079.483
 111401173.71248  21198932.755    86806109.70349  21198932.617
 108022256.29249  20555936.171    84173220.23749  20555935.444
 109394240.86449  20817013.954    85242306.25649  20817013.826
 127878368.44245  24334443.439    99645479.80347  24334442.554
 124202713.73046  23634975.403    96781396.26247  23634976.048
 116111733.37348  22095322.912    90476696.75648  22095323.565
 113778008.43648  21651230.809    88658206.03849  21651231.092
 126433009.48545  24059397.444    98519251.76147  24059398.318
 04 12 12  2 21 30.0000000  0  9G 2G 6G10G17G21G24G26G29G30
 115378602.90948  21955800.894    89905436.19949  21955798.334
 111353838.97748  21189925.243    86769225.50349  21189925.103
 108070175.96749  20565054.988    84210560.23449  20565054.268
 109408848.23849  20819793.650    85253688.62349  20819793.516
 127791849.11545  24317979.305    99578062.21547  24317978.437
 124272996.81945  23648349.842    96836162.28747  23648350.508
 116005061.89748  22075023.987    90393576.15248  22075024.611
 113701858.99048  21636740.034    88598868.83549  21636740.318
 126516758.05845  24075334.280    98584510.35646  24075335.156
 04 12 12  2 22  0.0000000  0  9G 2G 6G10G17G21G24G26G29G30
 115446163.56048  21968657.270    89958080.85949  21968654.690
 111307474.22149  21181102.317    86733097.12649  21181102.177
 108118938.16049  20574334.124    84248556.74649  20574333.412
 109424207.56249  20822716.433    85265656.93149  20822716.284
 127705813.54746  24301607.245    99511021.55547  24301606.408
 124343894.63746  23661841.266    96891407.31147  23661841.945
 115899195.57148  22054878.271    90311082.93548  22054878.887
 113626621.87748  21622422.864    88540242.56049  21622423.130
 126601117.54645  24091387.369    98650244.96046  24091388.226
 04 12 12  2 22 30.0000000  0  9G 2G 6G10G17G21G24G26G29G30
 115513526.85248  21981476.085    90010571.73149  21981473.498
 111261161.61148  21172289.321    86697009.38249  21172289.181
 108167621.02449  20583598.165    84286491.45249  20583597.439
 109439399.82049  20825607.423    85277495.05749  20825607.260
 127619342.42745  24285152.332    99443641.50846  24285151.436
 124414487.63546  23675274.679    96946414.81547  23675275.409
 115793218.33448  22034711.450    90228503.29748  22034712.065
 113551380.02948  21608104.774    88481612.60149  21608105.034
 126685165.22546  24107381.152    98715736.64547  24107381.949
 04 12 12  2 23  0.0000000  0  9G 2G 6G10G17G21G24G26G29G30
 115581465.40848  21994404.380    90063510.84749  21994401.770
 111215675.85648  21163633.651    86661565.95249  21163633.518
 108216995.63849  20592993.848    84324965.17249  20592993.115
 109455198.58449  20828613.828    85289805.78549  20828613.651
 127533209.11946  24268761.661    99376524.69646  24268760.749
 124485548.48346  23688797.162    97001786.86847  23688797.891
 115687906.47548  22014671.228    90146442.14248  22014671.855
 113476908.77448  21593933.318    88423583.10649  21593933.578
 126769670.80246  24123462.070    98781585.12847  24123462.844
 04 12 12  2 23 30.0000000  0  9G 2G 6G10G17G21G24G26G29G30
 115649209.71948  22007295.706    90116298.62149  22007293.084
 111170249.62448  21154989.333    86626168.88249  21154989.200
 108266290.98449  20602374.434    84363377.14349  20602373.695
 109470835.33149  20831589.408    85301990.26149  20831589.224
 127446645.63446  24252289.142    99309072.66747  24252288.274
 124556308.30846  23702262.315    97056924.42147  23702262.998
 115582494.52547  21994611.959    90064303.00649  21994612.593
 113402441.74648  21579762.648    88365556.90749  21579762.911
 126853862.20745  24139483.197    98847188.77846  24139483.994
 04 12 12  2 24  0.0000000  0  9G 2G 6G10G17G21G24G26G29G30
 115717682.94948  22020325.728    90169654.38349  22020323.098
 111125808.19848  21146532.399    86591539.21049  21146532.273
 108316428.15949  20611915.228    84402445.07149  20611914.474
 109487233.76749  20834709.927    85314768.26849  20834709.736
 127360575.24446  24235910.485    99242004.85147  24235909.651
 124627690.67746  23715845.994    97112546.97248  23715846.731
 115477909.02148  21974709.958    89982807.84849  21974710.605
 113328904.47548  21565768.929    88308255.18049  21565769.175
 126938659.53345  24155619.586    98913264.59146  24155620.436
 04 12 12  2 24 30.0000000  0  9G 2G 6G10G17G21G24G26G29G30
 115785957.87748  22033318.003    90222855.62549  22033315.385
 111081426.64348  21138086.870    86556956.17649  21138086.750
 108366478.26749  20621439.446    84441445.16249  20621438.680
 109503467.93348  20837799.192    85327418.26449  20837799.002
 127274071.90146  24219449.405    99174599.72846  24219448.510
 124698768.49846  23729371.671    97167932.29247  23729372.391
 115373226.93948  21954789.584    89901237.42248  21954790.243
 113255373.09848  21551776.344    88250958.04049  21551776.567
 127023133.04545  24171694.414    98979088.03546  24171695.292
 04 12 12  2 25  0.0000000  0  9G 2G 6G10G17G21G24G26G29G30
 115854646.16148  22046388.961    90276378.94849  22046386.358
 111037718.46348  21129769.473    86522897.86749  21129769.356
 108417051.05749  20631063.128    84480852.53249  20631062.354
 109520150.12249  20840973.713    85340417.36949  20840973.532
 127187747.66646  24203022.419    99107334.13947  24203021.482
 124770153.55846  23742955.785    97223557.02247  23742956.496
 115269063.46547  21934967.910    89820071.10548  21934968.569
 113182461.82948  21537901.791    88194144.08149  21537901.995
 127107891.40845  24187823.371    99045133.55846  24187824.192
 04 12 12  2 25 30.0000000  0  9G 2G 6G10G17G21G24G26G29G30
 115923587.16448  22059507.997    90330099.20349  22059505.400
 110994525.54549  21121550.129    86489241.05549  21121550.011
 108467984.74749  20640755.487    84520541.12649  20640754.707
 109537121.01849  20844203.167    85353641.45049  20844202.980
 127101443.66745  24186599.290    99040084.32047  24186598.305
 124841685.92046  23756567.958    97279296.49947  23756568.676
 115165261.96247  21915215.111    89739186.84649  21915215.769
 113110013.03648  21524115.226    88137690.51349  21524115.404
 127192771.73245  24203975.577    99111274.04746  24203976.405
 04 12 12  2 26  0.0000000  0  9G 2G 6G10G17G21G24G26G29G30
 115992619.30848  22072644.378    90383890.46849  22072641.799
 110951688.13248  21113398.434    86455861.26649  21113398.310
 108519115.82849  20650485.403    84560383.52849  20650484.628
 109554219.59149  20847456.917    85366965.01449  20847456.730
 127014998.48645  24170149.302    98972724.49746  24170148.295
 124913203.96445  23770177.360    97335024.86047  23770178.050
 115061664.45748  21895501.156    89658461.52848  21895501.799
 113037867.67948  21510386.403    88081473.39549  21510386.549
 127277609.32445  24220119.646    99177381.20746  24220120.518
 04 12 12  2 26 30.0000000  0  9G 2G 6G10G17G21G24G26G29G30
 116062041.92248  22085855.062    90437986.00949  22085852.483
 110909507.52948  21105371.744    86422993.25249  21105371.621
 108570741.71349  20660309.482    84600611.49149  20660308.708
 109571746.18749  20850792.123    85380622.10149  20850791.930
 126928712.64245  24153729.616    98905488.84146  24153728.585
 124985007.86845  23783841.171    97390975.91346  23783841.899
 114958574.13148  21875883.695    89578131.43749  21875884.324
 112966327.73748  21496772.787    88025728.00949  21496772.926
 127362700.69945  24236312.074    99243686.09146  24236312.962
 04 12 12  2 27  0.0000000  0  9G 2G 6G10G17G21G24G26G29G30
 116131692.84148  22099109.203    90492259.43949  22099106.639
 110867823.89948  21097439.613    86390512.50749  21097439.491
 108622698.68249  20670196.564    84641097.43749  20670195.797
 109589539.48949  20854178.082    85394487.01149  20854177.890
 126842424.60045  24137309.571    98838251.38947  24137308.566
 125056935.33745  23797528.483    97447023.30547  23797529.206
 114855832.52148  21856332.611    89498073.04749  21856333.233
 112895234.27148  21483244.109    87970330.54949  21483244.239
 127447881.00045  24252521.352    99310060.37146  24252522.193
 04 12 12  2 27 30.0000000  0  9G 2G 6G10G17G21G24G26G29G30
 116201410.39848  22112376.013    90546584.80249  22112373.456
 110826477.49548  21089571.648    86358294.53849  21089571.519
 108674823.45349  20680115.578    84681714.14149  20680114.803
 109607439.09949  20857584.264    85408434.76049  20857584.073
 126755973.66246  24120858.493    98770887.05346  24120857.446
 125128825.19845  23811208.699    97503041.30547  23811209.481
 114753281.71848  21836817.812    89418163.36249  21836818.433
 112824428.12548  21469770.099    87915156.97749  21469770.243
 127532986.03345  24268716.301    99376376.02946  24268717.063
 04 12 12  2 28  0.0000000  0  9G 2G 6G10G17G21G24G26G29G30
 116271496.05448  22125712.887    90601196.99149  22125710.340
 110785771.78448  21081825.621    86326575.79949  21081825.486
 108727415.62549  20690123.524    84722695.06249  20690122.747
 109625747.02249  20861068.141    85422700.67449  20861067.955
 126669661.99345  24104433.863    98703631.28647  24104432.825
 125200979.17946  23824939.168    97559265.19047  23824939.920
 114651227.06448  21817397.428    89338640.27849  21817398.069
 112754213.35848  21456408.650    87860444.18949  21456408.799
 127618314.33645  24284953.761    99442865.57946  24284954.505
 04 12 12  2 28 30.0000000  0  9G 2G 6G10G17G21G24G26G29G30
 116341790.45448  22139089.473    90655971.84749  22139086.920
 110745549.39148  21074171.560    86295233.66649  21074171.433
 108780314.11449  20700189.772    84763914.66049  20700189.002
 109644304.98349  20864599.603    85437161.42749  20864599.411
 126583331.57846  24088005.719    98636360.84747  24088004.689
 125273238.22446  23838689.602    97615570.95947  23838690.341
 114549512.78148  21798041.801    89259382.43449  21798042.448
 112684433.61048  21443129.964    87806070.40549  21443130.112
 127703703.86145  24301202.865    99509402.83346  24301203.598
 04 12 12  2 29  0.0000000  0  9G 2G 6G10G17G21G24G26G29G30
 116412135.72448  22152475.751    90710786.32349  22152473.220
 110705654.69048  21066579.850    86264146.89249  21066579.717
 108833359.24449  20710283.925    84805248.52649  20710283.154
 109662956.03749  20868148.781    85451694.72149  20868148.582
 126496825.34845  24071544.101    98568953.43747  24071543.034
 125345444.87846  23852430.107    97671835.83347  23852430.890
 114447984.90948  21778721.672    89180269.82149  21778722.324
 112614933.57348  21429904.523    87751914.56049  21429904.663
 127788994.16145  24317433.117    99575862.73546  24317433.868
 04 12 12  2 29 30.0000000  0  9G 2G 6G10G17G21G24G26G29G30
 116482837.25248  22165929.816    90765878.42149  22165927.281
 110666395.19749  21059109.023    86233555.08449  21059108.885
 108886855.25849  20720463.866    84846933.73949  20720463.093
 109682006.57749  20871773.972    85466539.30049  20871773.772
 126410449.51545  24055107.309    98501647.61646  24055106.212
 125417904.96746  23866218.815    97728298.22547  23866219.598
 114346952.72048  21759495.880    89101543.44049  21759496.538
 112546021.51148  21416790.981    87698216.86649  21416791.115
 127874487.95145  24333702.021    99642481.29146  24333702.815
 04 12 12  2 30  0.0000000  0  9G 2G 6G10G17G21G24G26G29G30
 116553740.14148  22179422.181    90821127.42449  22179419.682
 110627617.58049  21051729.894    86203338.75349  21051729.749
 108940645.22549  20730699.756    84888848.00349  20730698.970
 109701302.49049  20875445.856    85481575.08449  20875445.657
 126324050.17745  24038666.008    98434323.52047  24038664.912
 125490463.60346  23880026.252    97784837.43047  23880027.026
 114246264.77248  21740335.606    89023085.29549  21740336.258
 112477544.89848  21403760.285    87644858.51449  21403760.400
 127960027.35645  24349979.658    99709135.31946  24349980.479
 04 12 12  2 30 30.0000000  0  9G 2G 6G10G17G21G24G26G29G30
 116624844.67148  22192952.917    90876533.54749  22192950.416
 110589324.10149  21044442.881    86173499.68449  21044442.736
 108994727.61049  20740991.292    84930990.12949  20740990.484
 109720845.07549  20879164.680    85496803.07849  20879164.481
 126237628.46946  24022220.516    98366981.91446  24022219.449
 125563121.33645  23893852.595    97841453.79247  23893853.419
 114145925.24748  21721241.582    88944898.71849  21721242.198
 112409506.91348  21390813.087    87591841.92349  21390813.191
 128045610.15545  24366265.541    99775823.19346  24366266.354
 04 12 12  2 31  0.0000000  0  9G 2G 6G10G17G21G24G26G29G30
 116696305.75448  22206551.509    90932217.48849  22206549.049
 110551672.04649  21037277.928    86144160.42749  21037277.789
 109049255.89249  20751367.685    84973479.70049  20751366.864
 109740790.25249  20882960.122    85512344.77549  20882959.922
 126151340.34846  24005800.408    98299744.43547  24005799.347
 125636033.98246  23907727.416    97898268.80847  23907728.272
 114046092.94548  21702244.097    88867107.35249  21702244.706
 112342065.17148  21377979.327    87539289.95649  21377979.418
 128131388.71145  24382588.699    99842663.59846  24382589.486
 04 12 12  2 31 30.0000000  0  9G 2G 6G10G17G21G24G26G29G30
 116767971.50948  22220189.031    90988060.93049  22220186.572
 110514511.10049  21030206.435    86115203.84549  21030206.297
 109104076.07949  20761799.619    85016196.74349  20761798.787
 109760986.84449  20886803.405    85528082.38349  20886803.207
 126065034.73846  23989376.973    98232493.30047  23989375.956
 125709049.34545  23921621.790    97955163.86247  23921622.648
 113946619.18248  21683314.869    88789595.30549  21683315.503
 112275070.22448  21365230.600    87487086.12049  21365230.686
 128217208.11845  24398919.595    99909535.86346  24398920.399
 04 12 12  2 32  0.0000000  0  9G 2G 6G10G17G21G24G26G29G30
 116839536.68248  22233807.425    91043825.97348  22233805.011
 110477538.12049  21023170.710    86086393.73649  21023170.566
 109158881.67049  20772228.777    85058902.40349  20772227.937
 109781130.77949  20890636.663    85543778.95849  20890636.470
 125978407.59146  23972892.351    98164991.66447  23972891.337
 125781863.08945  23935477.802    98011901.81147  23935478.658
 113847203.07848  21664396.590    88712128.23849  21664397.231
 112208219.65648  21352509.325    87434994.80549  21352509.409
 128302760.59145  24415199.696    99976200.10246  24415200.556
 04 12 12  2 32 30.0000000  0  9G 2G 6G10G17G21G24G26G29G30
 116911774.92848  22247553.900    91100115.50249  22247551.489
 110441528.66849  21016318.345    86058334.42249  21016318.187
 109214444.51049  20782802.045    85102198.12049  20782801.209
 109801996.54549  20894607.292    85560037.99149  20894607.108
 125892233.31046  23956493.907    98097842.90047  23956492.892
 125855248.81345  23949442.671    98069085.48447  23949443.518
 113748621.66448  21645637.147    88635311.59049  21645637.783
 112142289.59948  21339963.210    87383620.77549  21339963.292
 128388817.39745  24431575.773   100043257.32146  24431576.698
 04 12 12  2 33  0.0000000  0  9G 2G 6G10G17G21G24G26G29G30
 116983920.58048  22261282.749    91156332.87549  22261280.376
 110405719.05048  21009504.008    86030430.82349  21009503.843
 109269997.29249  20793373.388    85145486.00449  20793372.560
 109822819.27249  20898569.725    85576263.49149  20898569.541
 125805747.68845  23940036.223    98030451.52747  23940035.154
 125928441.15645  23963370.711    98126118.46447  23963371.554
 113650113.11548  21626891.581    88558551.70649  21626892.212
 112076516.94948  21327447.061    87332369.38649  21327447.149
 128474609.72344  24447901.540   100110108.44446  24447902.448
 04 12 12  2 33 30.0000000  0  9G 2G 6G10G17G21G24G26G29G30
 117056440.34148  22275082.813    91212841.75549  22275080.452
 110370578.02949  21002816.900    86003048.20449  21002816.736
 109326004.91349  20804031.272    85189128.31249  20804030.450
 109844067.03149  20902613.033    85592820.18749  20902612.855
 125719418.18146  23923608.228    97963181.82947  23923607.123
 126001907.47946  23977350.905    98183364.95947  23977351.687
 113552147.89548  21608249.414    88482215.19349  21608250.018
 112011371.26148  21315050.225    87281606.53149  21315050.319
 128560602.08245  24464265.353   100177115.43646  24464266.270
 04 12 12  2 34  0.0000000  0  9G 2G 6G10G17G21G24G26G29G30
 117129185.74848  22288925.804    91269526.46849  22288923.476
 110335958.47848  20996229.024    85976071.92949  20996228.862
 109382317.17349  20814747.133    85233008.00049  20814746.310
 109865591.90249  20906709.068    85609592.82349  20906708.888
 125633096.93046  23907181.840    97895918.50447  23907180.740
 126075499.43846  23991355.007    98240709.35647  23991355.782
 113454581.26848  21589683.060    88406189.31349  21589683.630
 111946706.42148  21302744.892    87231218.36949  21302744.984
 128646643.01045  24480638.409   100244160.30146  24480639.303
 04 12 12  2 34 30.0000000  0  9G 2G 6G10G17G21G24G26G29G30
 117202008.23348  22302783.462    91326271.25949  22302781.141
 110301714.35048  20989712.583    85949388.19149  20989712.420
 109438784.41849  20825492.487    85277008.45849  20825491.664
 109887246.52849  20910829.806    85626466.55749  20910829.619
 125546637.00746  23890729.040    97828547.15947  23890727.931
 126149069.07646  24005354.909    98298036.27547  24005355.738
 113357268.40948  21571164.997    88330361.17249  21571165.524
 111882376.61948  21290503.313    87181091.28449  21290503.393
 128732581.54745  24496991.987   100311125.37446  24496992.865
 04 12 12  2 35  0.0000000  0  9G 2G 6G10G17G21G24G26G29G30
 117275222.55147  22316715.695    91383321.36048  22316713.382
 110268162.02049  20983327.787    85923243.52549  20983327.618
 109495719.29749  20836326.834    85321373.29849  20836326.011
 109909346.51749  20915035.300    85643687.32449  20915035.099
 125460354.04146  23874309.938    97761313.67447  23874308.797
 126222931.05446  24019410.376    98355591.06447  24019411.214
 113260527.63148  21552755.804    88254978.78849  21552756.308
 111818699.10648  21278385.862    87131472.48449  21278385.921
 128818729.90945  24513385.487   100378253.94046  24513386.385
 04 12 12  2 35 30.0000000  0  9G 2G 6G10G17G21G24G26G29G30
 117348527.73148  22330665.213    91440442.27948  22330662.886
 110235002.12449  20977017.663    85897404.64849  20977017.500
 109552819.04149  20847192.542    85365866.61249  20847191.725
 109931591.84449  20919268.445    85661021.34949  20919268.237
 125373947.85046  23857867.362    97693984.20047  23857866.221
 126296784.53346  24033464.250    98413139.20547  24033465.095
 113164061.74448  21534398.926    88179810.60349  21534399.416
 111755375.27348  21266335.749    87082129.23549  21266335.803
 128904784.24645  24529761.077   100445309.23646  24529762.042
 04 12 12  2 36  0.0000000  0  9G 2G 6G10G17G21G24G26G29G30
 117422084.61948  22344662.617    91497759.34048  22344660.275
 110202397.58349  20970813.231    85871998.51249  20970813.062
 109610243.11449  20858119.974    85410612.64849  20858119.156
 109954144.31849  20923560.038    85678594.71049  20923559.823
 125287580.56846  23841432.209    97626685.03947  23841431.048
 126370791.02945  24047547.212    98470806.59347  24047548.091
 113068035.35648  21516125.688    88104984.87749  21516126.179
 111692568.78148  21254384.047    87033189.14949  21254384.081
 128990903.03345  24546148.973   100512414.72546  24546149.979
 04 12 12  2 36 30.0000000  0  9G 2G 6G10G17G21G24G26G29G30
 117495745.07248  22358679.742    91555157.07948  22358677.397
 110170202.12749  20964686.633    85846911.14449  20964686.479
 109667841.62349  20869080.606    85455494.61049  20869079.774
 109976856.83549  20927882.093    85696292.78149  20927881.866
 125201105.18146  23824976.478    97559301.62747  23824975.285
 126444803.13945  24061631.266    98528478.31447  24061632.198
 112972304.15948  21497908.611    88030389.17649  21497909.109
 111630133.83248  21242503.054    86984538.56349  21242503.081
 129076935.52245  24562520.417   100579453.01446  24562521.452
 04 12 12  2 37  0.0000000  0  9G 2G 6G10G17G21G24G26G29G30
 117569668.01148  22372746.803    91612759.35648  22372744.453
 110138576.32948  20958668.438    85822267.66749  20958668.275
 109725771.90449  20880104.372    85500635.09549  20880103.527
 109999889.24949  20932265.027    85714240.11249  20932264.795
 125114681.49046  23808530.585    97491958.52347  23808529.358
 126518979.46645  24075746.575    98586278.04047  24075747.482
 112877030.46648  21479778.601    87956149.98949  21479779.087
 111568231.83848  21230723.484    86936303.26549  21230723.498
 129163037.84545  24578905.162   100646545.69946  24578906.202
 04 12 12  2 37 30.0000000  0  9G 2G 6G10G17G21G24G26G29G30
 117644010.72247  22386893.745    91670688.72848  22386891.405
 110107679.41448  20952788.957    85798192.14749  20952788.794
 109784189.88249  20891220.937    85546155.60649  20891220.077
 110023399.80249  20936738.943    85732560.02849  20936738.698
 125028467.98846  23792124.695    97424779.16347  23792123.479
 126593477.79845  24089923.196    98644328.59547  24089924.158
 112782375.34449  21461766.342    87882392.75549  21461766.833
 111507022.65148  21219075.727    86888607.83849  21219075.726
 129249364.88145  24595332.711   100713813.44246  24595333.740
 04 12 12  2 38  0.0000000  0  9G 2G 6G10G17G21G24G26G29G30
 117718312.99947  22401032.998    91728586.58548  22401030.676
 110077052.62548  20946960.872    85774327.11949  20946960.718
 109842633.50349  20902342.377    85591696.09849  20902341.515
 110046929.07749  20941216.415    85750894.53449  20941216.156
 124942005.41946  23775671.391    97357405.76447  23775670.177
 126667838.40646  24104073.549    98702271.93047  24104074.535
 112687882.18148  21443784.879    87808761.76249  21443785.347
 111446048.31348  21207472.667    86841095.39249  21207472.671
 129335453.59645  24611714.837   100780895.57246  24611715.874
 04 12 12  2 38 30.0000000  0  9G 2G 6G10G17G21G24G26G29G30
 117793036.29247  22415252.368    91786812.51848  22415250.051
 110047159.58748  20941272.417    85751033.84449  20941272.263
 109901562.94849  20913556.277    85637615.14649  20913555.416
 110070939.91349  20945785.531    85769604.27749  20945785.259
 124855756.70446  23759258.818    97290198.96447  23759257.582
 126742523.17046  24118285.581    98760467.83947  24118286.578
 112594016.40348  21425922.809    87735619.62849  21425923.252
 111385773.07248  21196002.628    86794127.71349  21196002.631
 129421763.39945  24628139.088   100848149.88746  24628140.141
 04 12 12  2 39  0.0000000  0  9G 2G 6G10G17G21G24G26G29G30
 117868024.40847  22429522.144    91845244.79448  22429519.856
 110017845.79149  20935694.187    85728191.92249  20935694.032
 109960820.01449  20924832.516    85683789.49149  20924831.647
 110095276.80249  20950416.675    85788568.09749  20950416.402
 124769566.65746  23742857.374    97223037.92747  23742856.117
 126817376.30146  24132529.676    98818794.94247  24132530.644
 112500625.57948  21408151.079    87662847.62149  21408151.509
 111326043.13248  21184636.369    86747584.92549  21184636.376
 129508135.20145  24644575.095   100915452.57546  24644576.168
 04 12 12  2 39 30.0000000  0  9G 2G 6G10G17G21G24G26G29G30
 117943119.54448  22443812.291    91903760.46849  22443809.988
 109988954.92548  20930196.438    85705679.56349  20930196.277
 110020245.28249  20936140.768    85730094.89349  20936139.899
 110119782.97149  20955080.050    85807663.80649  20955079.777
 124683278.36545  23726437.258    97155800.30547  23726436.026
 126892240.03346  24146775.800    98877130.28147  24146776.783
 112407555.00248  21390440.295    87590325.13649  21390440.716
 111266702.69448  21173344.235    86701345.64849  21173344.242
 129594408.63545  24660992.419   100982678.57446  24660993.512
 04 12 12  2 40  0.0000000  0  8G 2G 6G10G17G21G24G26G29
 118018316.33148  22458121.775    91962355.35549  22458119.489
 109960483.58948  20924778.528    85683494.09649  20924778.374
 110079832.11849  20947479.766    85776526.20149  20947478.884
 110144454.04449  20959774.793    85826888.02649  20959774.520
 124596887.64846  23709997.633    97088482.88947  23709996.418
 126967109.51946  24161022.996    98935470.13347  24161023.963
 112314803.42648  21372790.215    87518051.21649  21372790.641
 111207749.20349  21162125.747    86655407.88449  21162125.748
 04 12 12  2 40 30.0000000  0  8G 2G 6G10G17G21G24G26G29
 118093762.62548  22472478.734    92021144.67448  22472476.426
 109932581.20649  20919468.882    85661751.98749  20919468.721
 110139726.52549  20958877.299    85823197.16449  20958876.417
 110169438.81949  20964529.232    85846356.68349  20964528.972
 124510543.72646  23693566.919    97021201.91247  23693565.770
 127042132.84146  24175299.471    98993929.85847  24175300.418
 112222522.21948  21355229.644    87446143.82949  21355230.069
 111149332.77349  21151009.464    86609888.61149  21151009.461
 04 12 12  2 41  0.0000000  0  8G 2G 6G10G17G21G24G26G29
 118169605.43248  22486911.164    92080242.96549  22486908.824
 109905396.24148  20914295.761    85640568.89249  20914295.601
 110200073.95849  20970361.034    85870221.13949  20970360.160
 110194885.15249  20969371.502    85866184.99649  20969371.242
 124424394.72546  23677173.298    96954072.84447  23677172.189
 127117457.25045  24189633.265    99052624.14346  24189634.245
 112130861.90348  21337787.254    87374720.23649  21337787.660
 111091602.91749  21140023.843    86564904.32849  21140023.825
 04 12 12  2 41 30.0000000  0  8G 2G 6G10G17G21G24G26G29
 118245529.85148  22501359.082    92139404.87148  22501356.743
 109878615.76749  20909199.606    85619700.98849  20909199.445
 110260557.72149  20981870.705    85917351.34749  20981869.823
 110220479.45349  20974241.929    85886128.60649  20974241.682
 124338126.81246  23660757.054    96886851.10147  23660755.975
 127192768.41245  24203964.515    99111308.13546  24203965.498
 112039511.20848  21320403.771    87303537.92149  21320404.158
 111034246.84849  21129109.347    86520211.30149  21129109.323
 04 12 12  2 42  0.0000000  0  8G 2G 6G10G17G21G24G26G29
 118321529.57647  22515821.367    92198625.40948  22515819.041
 109852234.84348  20904179.483    85599144.42449  20904179.307
 110321170.10149  20993404.852    85964581.77749  20993403.976
 110246215.87549  20979139.396    85906182.96349  20979139.161
 124251734.91746  23644317.199    96819532.76747  23644316.151
 127268059.92445  24218292.079    99169976.77446  24218293.056
 111948467.46949  21303078.712    87232594.78149  21303079.081
 110977260.36948  21118265.162    86475806.28949  21118265.128
 04 12 12  2 42 30.0000000  0  9G 2G 6G10G17G18G21G24G26G29
 118398059.52947  22530384.545    92258259.11348  22530382.239
 109826710.41749  20899322.340    85579255.26749  20899322.157
 110382364.72549  21005049.795    86012265.90649  21005048.912
 110272550.78449  20984150.756    85926703.67549  20984150.521
 130412173.94845  24816611.463
 124165675.13946  23627940.544    96752473.22347  23627939.502
 127343787.50245  24232702.575    99228985.24747  24232703.527
 111858189.35648  21285899.334    87162248.23949  21285899.699
 110921101.39348  21107578.459    86432046.06849  21107578.412
 04 12 12  2 43  0.0000000  0  9G 2G 6G10G17G18G21G24G26G29
 118474651.06247  22544959.423    92317940.81448  22544957.143
 109801575.10349  20894539.261    85559669.29949  20894539.063
 110443671.29449  21016716.048    86060037.25649  21016715.164
 110299016.41749  20989187.005    85947326.24549  20989186.763
 130321660.23944  24799386.789
 124079479.89146  23611538.128    96685308.11547  23611537.051
 127419482.77445  24247106.913    99287968.58147  24247107.829
 111768211.76148  21268777.137    87092135.87249  21268777.489
 110865303.20548  21096960.387    86388566.99749  21096960.333
 04 12 12  2 43 30.0000000  0  9G 2G 6G10G17G18G21G24G26G29
 118551451.00147  22559573.983    92377784.89148  22559571.731
 109776977.50949  20889858.494    85540502.34449  20889858.290
 110505235.11149  21028431.264    86108009.05649  21028430.367
 110325760.43949  20994276.223    85968165.74349  20994275.974
 130231271.38844  24782185.709   101478912.72445  24782186.377
 123993297.57646  23595138.184    96618153.06147  23595137.116
 127495292.73145  24261533.086    99347041.26047  24261533.973
 111678685.17648  21251740.759    87022374.93549  21251741.118
 110810014.93748  21086439.355    86345485.24749  21086439.299
 04 12 12  2 44  0.0000000  0  8G 2G 6G10G17G21G24G26G29
 118628452.47847  22574226.883    92437786.04448  22574224.610
 109752912.25549  20885279.035    85521750.19249  20885278.823
 110567047.35049  21040193.742    86156174.45449  21040192.826
 110352776.90148  20999417.291    85989217.51849  20999417.048
 123907122.21646  23578739.529    96551003.46047  23578738.460
 127571210.97545  24275979.853    99406198.33847  24275980.728
 111589606.09348  21234789.537    86952962.70149  21234789.895
 110755231.97049  21076014.485    86302797.24049  21076014.421
 04 12 12  2 44 30.0000000  0  8G 2G 6G10G17G21G24G26G29
 118705648.72948  22588916.865    92497938.95148  22588914.595
 109729374.35449  20880799.915    85503408.97449  20880799.710
 110629100.22149  21052002.011    86204527.34149  21052001.095
 110380060.40749  21004609.152    86010477.40649  21004608.914
 123820948.44347  23562341.199    96483855.07947  23562340.116
 127647230.82846  24290446.016    99465434.48647  24290446.938
 111500971.67348  21217922.909    86883896.99449  21217923.253
 110700949.98348  21065684.943    86260499.61549  21065684.879
 04 12 12  2 45  0.0000000  0  9G 2G 6G10G17G18G21G24G26G29
 118783034.72048  22603642.936    92558239.71948  22603640.666
 109706360.19149  20876420.472    85485475.86049  20876420.268
 110691387.12949  21063854.804    86253062.61549  21063853.882
 110407606.60449  21009851.018    86031941.97149  21009850.780
 129960801.82544  24730716.967   101268155.84556  24730717.311
 123734772.58446  23545942.461    96416705.10047  23545941.352
 127723347.82146  24304930.610    99524746.40247  24304931.552
 111412780.26948  21201140.613    86815176.45349  21201140.941
 110647166.13949  21055450.194    86218590.15449  21055450.130
 04 12 12  2 45 30.0000000  0  9G 2G 6G10G17G18G21G24G26G29
 118860606.69047  22618404.408    92618685.40448  22618402.120
 109683867.49049  20872140.253    85467949.08249  20872140.050
 110753902.73749  21075751.140    86301776.06949  21075750.228
 110435412.77548  21015142.357    86053609.11949  21015142.111
 129870863.05145  24713602.384   101198073.76246  24713601.909
 123648591.96746  23529542.834    96349551.36747  23529541.740
 127799558.62646  24319433.032    99584131.48347  24319433.957
 111325031.83749  21184442.623    86746801.08449  21184442.932
 110593878.82449  21045309.943    86177067.59349  21045309.873
 04 12 12  2 46  0.0000000  0  9G 2G 6G10G17G18G21G24G26G29
 118938515.93548  22633230.075    92679393.88948  22633227.775
 109662049.10949  20867988.359    85450947.74149  20867988.156
 110816796.84849  21087719.492    86350784.47549  21087718.574
 110463631.23948  21020512.152    86075597.53449  21020511.892
 129781183.55245  24696536.847   101128193.64146  24696536.058
 123562558.99945  23513171.299    96282512.72147  23513170.188
 127876014.80545  24333982.183    99643707.67746  24333983.103
 111237881.11649  21167858.393    86678891.45349  21167858.676
 110541241.58149  21035293.397    86136051.58549  21035293.315
 04 12 12  2 46 30.0000000  0  9G 2G 6G10G17G18G21G24G26G29
 119016606.57348  22648090.241    92740243.73648  22648087.906
 109640750.79149  20863935.424    85434351.65249  20863935.222
 110879912.06549  21099729.912    86399965.17049  21099728.994
 110492107.34149  21025930.968    86097786.71349  21025930.701
 129691609.41444  24679491.343   101058395.64745  24679490.370
 123476519.71946  23496798.557    96215469.14047  23496797.437
 127952560.95544  24348548.383    99703354.03646  24348549.315
 111151175.88449  21151358.918    86611328.97249  21151359.175
 110489100.81749  21025371.328    86095422.44949  21025371.227
 04 12 12  2 47  0.0000000  0  9G 2G 6G10G17G18G21G24G26G29
 119094878.03647  22662984.817    92801234.46548  22662982.480
 109619973.09649  20859981.560    85418161.24549  20859981.351
 110943246.07449  21111781.979    86449316.34349  21111781.062
 110520840.93149  21031398.800    86120176.51049  21031398.548
 129602140.66444  24662466.184
 123390474.41146  23480424.673    96148420.85847  23480423.562
 128029196.52945  24363131.672    99763070.01946  24363132.636
 111064918.79848  21134944.716    86544115.68549  21134944.965
 110437457.68448  21015543.954    86055181.07649  21015543.834
 04 12 12  2 47 30.0000000  0  9G 2G 6G10G17G18G21G24G26G29
 119173483.69947  22677942.971    92862485.62148  22677940.653
 109599871.29949  20856156.321    85402497.50649  20856156.114
 111006951.16949  21123904.650    86498956.68349  21123903.733
 110549986.77649  21036945.064    86142887.56449  21036944.819
 129512932.03745  24645490.085   100919155.76246  24645489.346
 123304577.82746  23464079.120    96081488.45547  23464077.978
 128106075.25045  24377761.218    99822975.48546  24377762.232
 110979266.99448  21118645.672    86477374.07849  21118645.915
 110386468.21849  21005840.976    86015449.04249  21005840.850
 04 12 12  2 48  0.0000000  0  9G 2G 6G10G17G18G21G24G26G29
 119252117.01247  22692906.387    92923758.31548  22692904.086
 109580140.17249  20852401.618    85387122.60149  20852401.405
 111070718.93649  21136039.240    86548645.86649  21136038.331
 110579239.28349  21042511.637    86165681.72149  21042511.393
 129423678.19045  24628505.809   100849607.36846  24628505.078
 123218524.54546  23447703.678    96014433.98947  23447702.539
 128182891.00745  24392378.770    99882831.88646  24392379.852
 110893917.43448  21102404.150    86410867.96349  21102404.404
 110335827.89249  20996204.442    85975989.05249  20996204.318
 04 12 12  2 48 30.0000000  0  9G 2G 6G10G17G18G21G24G26G29
 119330933.72347  22707904.726    92985173.90148  22707902.438
 109560936.65349  20848747.316    85372158.82049  20848747.097
 111134703.84149  21148215.175    86598504.21449  21148214.287
 110608754.96549  21048128.291    86188680.95549  21048128.033
 129334535.65745  24611542.692   100780145.65646  24611541.605
 123132471.99046  23431328.403    95947380.06747  23431327.279
 128259799.81045  24407014.011    99942760.81846  24407015.102
 110809029.24648  21086250.429    86344721.35349  21086250.688
 110285694.38749  20986664.335    85936924.00649  20986664.212
 04 12 12  2 49  0.0000000  0  9G 2G 6G10G17G18G21G24G26G29
 119409936.48047  22722938.463    93046734.47148  22722936.188
 109542265.03749  20845194.226    85357609.51049  20845194.007
 111198907.12049  21160432.647    86648532.74649  21160431.765
 110638537.72149  21053795.761    86211888.30249  21053795.497
 129245508.61245  24594601.153   100710773.94346  24594600.484
 123046423.87246  23414953.985    95880329.59747  23414952.869
 128336804.85246  24421667.607   100002764.72746  24421668.662
 110724608.55748  21070185.664    86278939.05249  21070185.917
 110236072.60349  20977221.612    85898257.70749  20977221.476
 04 12 12  2 49 30.0000000  0  9G 2G 6G10G17G18G21G24G26G29
 119489283.27147  22738037.679    93108563.13748  22738035.395
 109524284.68849  20841772.673    85343598.85349  20841772.461
 111263485.32849  21172721.471    86698853.42649  21172720.589
 110668746.47349  21059544.307    86235427.57849  21059544.036
 129156756.22344  24577711.980   100641616.27146  24577711.467
 122960539.64646  23398610.754    95813406.82247  23398609.629
 128414064.30946  24436369.646   100062966.87747  24436370.703
 110640817.16949  21054240.681    86213647.08049  21054240.928
 110187122.75349  20967906.747    85860114.98749  20967906.611
 04 12 12  2 50  0.0000000  0  9G 2G 6G10G17G18G21G24G26G29
 119568979.34347  22753203.349    93170663.96848  22753201.037
 109507002.12749  20838483.911    85330131.92749  20838483.693
 111328442.37449  21185082.386    86749469.31149  21185081.482
 110699387.32349  21065375.073    86259303.56149  21065374.803
 129068284.60744  24560876.344   100572677.44546  24560875.894
 122874825.90446  23382299.947    95746616.92847  23382298.809
 128491583.69545  24451121.143   100123371.51846  24451122.263
 110557663.48249  21038417.061    86148852.01949  21038417.281
 110138851.85849  20958721.078    85822501.32749  20958720.941
 04 12 12  2 50 30.0000000  0  9G 2G 6G10G17G18G21G24G26G29
 119648413.83847  22768319.249    93232560.96748  22768316.955
 109489808.14849  20835212.012    85316734.02649  20835211.773
 111393165.84449  21197398.853    86799903.19849  21197397.922
 110729850.64949  21071172.039    86283041.23249  21071171.761
 128979484.08145  24543978.154   100503482.31146  24543977.559
 122788673.37646  23365905.666    95679485.09647  23365904.507
 128568752.88344  24465805.981   100183503.26246  24465807.194
 110474540.37348  21022599.241    86084080.80149  21022599.443
 110090651.30549  20949548.794    85784942.48349  20949548.657
 04 12 12  2 51  0.0000000  0  9G 2G 6G10G17G18G21G24G26G29
 119728517.12147  22783562.409    93294979.09848  22783560.085
 109473634.45749  20832134.267    85304131.14749  20832134.022
 111458584.83449  21209847.679    86850879.03749  21209846.728
 110761067.85248  21077112.487    86307366.31749  21077112.203
 128891286.46245  24527194.729   100434756.88046  24527194.085
 122703013.93046  23349605.210    95612737.47247  23349604.048
 128646502.11146  24480601.202   100244087.08646  24480602.359
 110392381.58149  21006964.919    86020061.00749  21006965.109
 110043453.62449  20940567.356    85748165.08949  20940567.219
 04 12 12  2 51 30.0000000  0  9G 2G 6G10G17G18G21G24G26G29
 119808526.14447  22798787.620    93357323.77948  22798785.308
 109457718.94649  20829105.646    85291729.45449  20829105.401
 111523934.63449  21222283.350    86901800.96349  21222282.374
 110792276.67949  21083051.324    86331684.88649  21083051.039
 128802929.46145  24510380.992   100365907.30446  24510380.223
 122617085.56147  23333253.579    95545780.32147  23333252.420
 128724068.84846  24495361.668   100304528.74447  24495362.769
 110310427.39148  20991369.532    85956200.63549  20991369.709
 109996497.61549  20931631.912    85711576.00849  20931631.761
 04 12 12  2 52  0.0000000  0  9G 2G 6G10G17G18G21G24G26G29
 119889064.20647  22814113.503    93420080.69248  22814111.217
 109442686.50249  20826245.079    85280015.85549  20826244.836
 111589837.37249  21234824.230    86953153.74749  21234823.241
 110824101.41648  21089107.376    86356483.38149  21089107.092
 128715037.65345  24493655.719   100297420.20646  24493655.005
 122531513.09246  23316969.674    95479100.48548  23316968.508
 128802076.85444  24510206.157   100365314.09346  24510207.317
 110229304.49048  20975932.309    85892988.03149  20975932.492
 109950408.50149  20922861.422    85675662.43849  20922861.270
 04 12 12  2 52 30.0000000  0  9G 2G 6G10G17G18G21G24G26G29
 119969522.10047  22829424.143    93482775.13248  22829421.848
 109427929.28149  20823436.873    85268516.72349  20823436.623
 111655682.33049  21247354.115    87004461.50349  21247353.127
 110855934.13848  21095164.935    86381288.09649  21095164.664
 128627003.26845  24476903.303   100228822.05946  24476902.644
 122445688.94046  23300637.887    95412224.52748  23300636.693
 128879917.30845  24525018.733   100425968.90546  24525019.963
 110148407.31449  20960538.041    85829951.30949  20960538.242
 109904579.24849  20914140.393    85639951.35149  20914140.227
 04 12 12  2 53  0.0000000  0  9G 2G 6G10G17G18G21G24G26G29
 120050367.92347  22844808.610    93545771.84448  22844806.372
 109413916.42549  20820770.315    85257597.61349  20820770.065
 111721936.27449  21259961.809    87056087.95949  21259960.835
 110888243.59648  21101313.221    86406464.29049  21101312.963
 128539295.39645  24460213.050   100160478.29746  24460212.339
 122360082.32347  23284347.483    95345518.08848  23284346.269
 128958058.34945  24539888.544   100486857.96846  24539889.786
 110068207.16249  20945276.436    85767457.71249  20945276.637
 109859479.76549  20905558.235    85604808.91449  20905558.062
 04 12 12  2 53 30.0000000  0  9G 2G 6G10G17G18G21G24G26G29
 120131144.60347  22860179.895    93608714.71648  22860177.634
 109400191.99849  20818158.661    85246903.24349  20818158.398
 111788140.54848  21272560.064    87107675.69549  21272559.109
 110920573.77948  21107465.462    86431656.63349  21107465.214
 128451457.85545  24443498.068   100092033.55146  24443497.311
 122274237.66746  23268011.800    95278626.13647  23268010.578
 129036043.12745  24554728.548   100547625.34746  24554729.732
 109988250.20849  20930061.115    85705153.61849  20930061.310
 109814654.97149  20897028.354    85569880.52249  20897028.162
 04 12 12  2 54  0.0000000  0  8G 2G 6G10G17G18G21G26G29
 120212471.69347  22875655.943    93672086.44248  22875653.718
 109387377.28249  20815720.108    85236917.74949  20815719.838
 111854913.55049  21285266.537    87159706.59949  21285265.603
 110953545.36749  21113739.752    86457348.77849  21113739.505
 128364111.35645  24426876.659   100023971.26946  24426875.882
 122188776.06146  23251749.009    95212032.65648  23251747.793
 109909159.84049  20915010.719    85643524.79149  20915010.883
 109770726.37749  20888669.009    85535650.46049  20888668.816
 04 12 12  2 54 30.0000000  0  9G 2G 6G10G17G18G21G24G26G29
 120293581.77247  22891090.684    93735289.10348  22891088.445
 109374705.45849  20813308.746    85227043.59449  20813308.484
 111921486.15948  21297934.872    87211581.36449  21297933.958
 110986391.55249  21119990.168    86482943.20849  21119989.927
 128276489.64445  24410202.736    99955694.70346  24410201.971
 122102931.33546  23235413.277    95145140.69248  23235412.062
 129192637.18845  24584526.842   100669539.62246  24584528.734
 109830171.41449  20899979.703    85581975.40649  20899979.849
 109726928.23149  20880334.481    85501522.05749  20880334.281
 04 12 12  2 55  0.0000000  0  9G 2G 6G10G17G18G21G24G26G29
 120375398.99547  22906659.978    93799042.76948  22906657.772
 109363102.21049  20811100.733    85218002.09249  20811100.472
 111988781.44748  21310740.745    87264019.24549  21310739.832
 111020037.74448  21126392.825    86509161.02249  21126392.585
 128189517.99944  24393652.583    99887924.57946  24393651.876
 122017629.49146  23219180.846    95078671.75148  23219179.637
 129271403.72845  24599515.860   100730916.03846  24599517.955
 109752212.71449  20885144.644    85521228.40149  20885144.757
 109684186.59548  20872201.000    85468216.90249  20872200.807
 04 12 12  2 55 30.0000000  0  9G 2G 6G10G17G18G21G24G26G29
 120456997.68047  22922187.709    93862626.13048  22922185.547
 109351643.33249  20808920.181    85209073.09349  20808919.920
 112055872.76448  21323507.792    87316298.19449  21323506.893
 111053559.65848  21132771.839    86535281.99849  21132771.586
 128102272.11744  24377050.184    99819940.83646  24377049.513
 121931946.18946  23202875.832    95011905.55147  23202874.649
 129349866.57045  24614447.044   100792055.91246  24614448.860
 109674361.76349  20870330.077    85460565.35849  20870330.168
 109641578.06549  20864092.837    85435015.47649  20864092.641
 04 12 12  2 56  0.0000000  0  9G 2G 6G10G17G18G21G24G26G29
 120539144.99247  22937819.805    93926637.02348  22937817.661
 109341096.94649  20806913.282    85200855.11949  20806913.014
 112123525.53048  21336381.680    87369014.63749  21336380.787
 111087725.01048  21139273.295    86561904.34049  21139273.042
 128015520.24145  24360541.833    99752341.98446  24360541.183
 121846650.35546  23186644.545    94945441.29248  23186643.376
 129428792.78544  24629465.972   100853556.87645  24629467.711
 109597388.74849  20855682.575    85400586.41649  20855682.652
 109599871.50049  20856156.324    85402516.86749  20856156.126
 04 12 12  2 56 30.0000000  0  9G 2G 6G10G17G18G21G24G26G29
 120621220.09147  22953438.195    93990591.59148  22953436.104
 109330843.25848  20804962.082    85192865.22549  20804961.800
 112191117.65548  21349244.028    87421683.83049  21349243.134
 111121914.13848  21145779.276    86588545.21649  21145779.023
 127928642.46145  24344009.571    99684645.02446  24344008.879
 121761122.59647  23170369.130    94878796.29148  23170367.978
 129507561.81945  24644455.328
 109520676.14748  20841084.617    85340810.39449  20841084.691
 109558447.92649  20848273.662    85370238.78349  20848273.458
 04 12 12  2 57  0.0000000  0  9G 2G 6G10G17G18G21G24G26G29
 120703678.58747  22969129.531    94054844.93548  22969127.464
 109321339.09849  20803153.507    85185459.37549  20803153.224
 112259103.34848  21362181.287    87474659.69349  21362180.388
 111156583.37149  21152376.612    86615560.20349  21152376.367
 127842095.57145  24327540.204    99617205.93446  24327539.519
 121675819.80347  23154136.524    94812326.58948  23154135.390
 129586629.54646  24659501.969
 109444682.81349  20826623.519    85281594.85249  20826623.598
 109517764.36149  20840531.831    85338537.31149  20840531.627
 04 12 12  2 57 30.0000000  0  9G 2G 6G10G17G18G21G24G26G29
 120786050.35847  22984804.376    94119030.68548  22984802.318
 109312115.51249  20801398.323    85178272.15849  20801398.040
 112327011.36749  21375103.759    87527575.04649  21375102.835
 111191264.03649  21158976.123    86642584.09749  21158975.885
 127755410.71445  24311044.618    99549659.31246  24311043.967
 121590273.45047  23137857.594    94745667.09448  23137856.461
 129665526.59845  24674515.662
 109368942.06049  20812210.491    85222576.11949  20812210.582
 109477352.99149  20832841.797    85307047.94949  20832841.595
 04 12 12  2 58  0.0000000  0  9G 2G 6G10G17G18G21G24G26G29
 120868788.62046  23000548.902    94183502.09648  23000546.827
 109303626.79049  20799782.972    85171657.56749  20799782.697
 112395293.53849  21388097.424    87580781.93949  21388096.494
 111226410.11748  21165664.194    86669970.65449  21165663.970
 127669041.93045  24294609.220    99482358.94646  24294608.583
 121504938.58747  23121618.898    94679172.41348  23121617.758
 129744706.37644  24689582.966
 109293910.42649  20797932.416    85164109.93849  20797932.513
 109437668.54649  20825290.086    85276125.02649  20825289.879
 04 12 12  2 58 30.0000000  0  9G 2G 6G10G17G18G21G24G26G29
 120951884.24747  23016361.522    94248251.86048  23016359.510
 109295864.64149  20798305.890    85165609.12849  20798305.629
 112463939.50749  21401160.318    87634272.30249  21401159.387
 111262013.19248  21172439.234    86697713.30049  21172439.030
 127582981.23845  24278232.356    99415298.71746  24278231.729
 121419807.46447  23105418.960    94612836.50048  23105417.804
 129824159.62745  24704700.977   101161632.62346  24704703.489
 109219581.67849  20783788.114    85106191.45749  20783788.198
 109398703.56249  20817875.284    85245762.71449  20817875.084
 04 12 12  2 59  0.0000000  0  9G 2G 6G10G17G18G21G24G26G29
 121035019.25347  23032181.599    94313032.38748  23032179.531
 109288512.33749  20796906.794    85159880.05249  20796906.538
 112532630.19648  21414231.721    87687797.51449  21414230.790
 111297756.64348  21179240.968    86725565.35449  21179240.763
 127496912.13545  24261853.914    99348231.89846  24261853.335
 121334563.72946  23089197.611    94546412.81448  23089196.469
 129903569.15645  24719812.905   101223510.17146  24719814.664
 109145641.30149  20769717.710    85048575.60849  20769717.796
 109360141.98349  20810537.242    85215714.75149  20810537.042
 04 12 12  2 59 30.0000000  0  9G 2G 6G10G17G18G21G24G26G29
 121118184.37747  23048007.420    94377836.37148  23048005.348
 109281561.65349  20795584.128    85154463.92849  20795583.880
 112601355.19948  21427309.649    87741349.46849  21427308.732
 111333632.18348  21186067.869    86753520.30149  21186067.662
 127410826.50145  24245472.369    99281152.18646  24245471.822
 121249199.85347  23072953.423    94479895.48748  23072952.274
 129982925.80945  24734914.242   101285346.55846  24734915.352
 109072083.36649  20755720.089    84991257.76049  20755720.162
 109321976.27549  20803274.537    85185975.25849  20803274.324
                            4  1
RINEX FILE SPLICE; other post-header comments skipped       COMMENT
 04 12 12  3  0  0.0000000  0  9G 2G 6G10G17G18G21G24G26G29
 121201834.09647  23063925.456    94443017.96348  23063923.351
 109275467.97949  20794424.547    85149715.60349  20794424.298
 112670567.29549  21440480.278    87795280.96849  21440479.363
 111370095.07948  21193006.521    86781932.95549  21193006.307
 127325179.30244  24229174.178    99214414.20546  24229173.649
 121164171.57547  23056773.068    94413639.70748  23056771.905
 130062684.59945  24750092.013   101347496.22046  24750093.186
 108999365.35849  20741882.294    84934594.40949  20741882.362
 109284662.49949  20796173.944    85156899.61049  20796173.723
 04 12 12  3  0 30.0000000  0  9G 2G 6G10G17G18G21G24G26G29
 121285653.99347  23079875.882    94508332.13648  23079873.816
 109269918.15249  20793368.456    85145391.05249  20793368.214
 112739950.94149  21453683.535    87849346.15349  21453682.626
 111406832.08348  21199997.341    86810559.18349  21199997.132
 127239657.90145  24212899.984    99147774.14147  24212899.473
 121079166.60747  23040597.160    94347402.08048  23040596.000
 130142531.45945  24765286.419   101409714.42846  24765287.897
 108927176.15649  20728145.128    84878343.11349  20728145.176
 109247887.92049  20789175.968    85128244.10149  20789175.747
 04 12 12  3  1  0.0000000  0  8G 2G 6G10G17G18G21G26G29
 121369485.41747  23095828.483    94573655.32248  23095826.420
 109264754.21649  20792385.797    85141367.19649  20792385.555
 112809346.25649  21466889.025    87903420.41249  21466888.127
 111443685.40348  21207010.306    86839276.04149  21207010.105
 127154104.28446  24196619.619    99081109.02247  24196619.124
 120994027.43747  23024395.691    94281059.88348  23024394.543
 108855360.44949  20714479.029    84822382.85549  20714479.063
 109211495.67048  20782250.748    85099886.51749  20782250.520
 04 12 12  3  1 30.0000000  0  8G 2G 6G10G17G18G21G26G29
 121453633.10946  23111841.274    94639224.92448  23111839.225
 109260282.16149  20791534.805    85137882.46749  20791534.571
 112879057.02649  21480154.549    87957740.49349  21480153.661
 111480961.09348  21214103.634    86868322.02449  21214103.453
 127068824.70845  24180391.473    99014657.39146  24180390.972
 120909061.04547  23008227.089    94214852.33848  23008225.946
 108784226.09449  20700942.582    84766953.52149  20700942.600
 109175792.11449  20775456.581    85072065.57749  20775456.332
 04 12 12  3  2  0.0000000  0  8G 2G 6G10G17G18G21G26G29
 121537941.67546  23127884.679    94704919.85948  23127882.675
 109256347.37549  20790786.046    85134816.39249  20790785.820
 112948926.39948  21493450.249    88012184.16449  21493449.362
 111518504.55648  21221247.917    86897576.67549  21221247.738
 126983664.68845  24164186.006    98948298.95446  24164185.534
 120824113.28447  22992062.026    94148659.30348  22992060.916
 108713620.57649  20687506.763    84711936.26749  20687506.779
 109140623.29049  20768764.170    85044661.31449  20768763.908
 04 12 12  3  2 30.0000000  0  8G 2G 6G10G17G18G21G26G29
 121622566.10047  23143988.189    94770860.91348  23143986.215
 109253105.83149  20790169.201    85132290.50849  20790168.981
 113019108.36948  21506805.440    88066871.41049  21506804.553
 111556471.84248  21228472.852    86927161.56849  21228472.679
 126898780.64245  24148033.008    98882155.62547  24148032.535
 120739340.51447  22975930.298    94082602.59148  22975929.207
 108643702.32449  20674201.726    84657454.53849  20674201.747
 109106145.96849  20762203.354    85017795.88049  20762203.072
 04 12 12  3  3  0.0000000  0  8G 2G 6G10G17G18G21G26G29
 121707355.26246  23160123.048    94836930.37948  23160121.031
 109250406.90549  20789655.613    85130187.45049  20789655.385
 113089450.41948  21520191.093    88121683.39749  21520190.200
 111594712.60949  21235749.828    86956959.56849  21235749.662
 126814021.73445  24131903.942    98816109.71847  24131903.381
 120654593.46947  22959803.483    94016565.92948  22959802.372
 108574322.95149  20660999.247    84603392.70949  20660999.273
 109072210.33549  20755745.600    84991352.54849  20755745.310
 04 12 12  3  3 30.0000000  0  8G 2G 6G10G17G18G21G26G29
 121792158.88547  23176260.683    94903011.09748  23176258.632
 109248101.64949  20789216.943    85128391.13249  20789216.729
 113159801.14948  21533578.379    88176502.16149  21533577.479
 111633077.66948  21243050.468    86986854.41349  21243050.296
 126729239.22044  24115770.366    98750045.40246  24115769.778
 120569724.32446  22943653.416    93950434.13948  22943652.291
 108505335.56849  20647871.366    84549636.33349  20647871.379
 109038667.80949  20749362.663    84965215.53149  20749362.360
 04 12 12  3  4  0.0000000  0  8G 2G 6G10G17G18G21G26G29
 121877289.30747  23192460.499    94969346.47848  23192458.394
 109246503.17549  20788912.763    85127145.56449  20788912.548
 113230472.03748  21547026.608    88231570.37749  21547025.700
 111671880.43949  21250434.401    87017090.33249  21250434.224
 126644746.85545  24099691.891    98684207.31546  24099691.269
 120485046.42347  22927539.741    93884451.36948  22927538.594
 108437055.63149  20634878.108    84496431.21149  20634878.114
 109005832.47049  20743114.300    84939629.56949  20743113.992
 04 12 12  3  4 30.0000000  0  8G 2G 6G10G17G18G21G26G29
 121962597.10747  23208694.051    95035820.10648  23208691.872
 109245463.05249  20788714.841    85126335.07649  20788714.619
 113301312.30448  21560507.063    88286770.58549  21560506.139
 111710972.49548  21257873.378    87047551.67149  21257873.194
 126560396.53046  24083640.563    98618479.78146  24083639.911
 120400412.36747  22911434.380    93818502.80948  22911433.190
 108369336.67949  20621991.608    84443663.22049  20621991.609
 108973556.36049  20736972.349    84914479.37249  20736972.034
 04 12 12  3  5  0.0000000  0  8G 2G 6G10G17G18G21G26G29
 122048087.27446  23224962.301    95102435.80148  23224960.113
 109244986.80749  20788624.226    85125963.96349  20788624.005
 113372325.61048  21574020.446    88342105.63549  21574019.501
 111750359.73648  21265368.539    87078243.01549  21265368.357
 126476193.61645  24067617.335    98552867.08146  24067616.627
 120315828.75547  22895338.678    93752593.47948  22895337.467
 108302186.85749  20609213.410    84391338.70549  20609213.405
 108941845.83349  20730938.036    84889769.88249  20730937.709
 04 12 12  3  5 30.0000000  0  8G 2G 6G10G17G18G21G26G29
 122133765.14947  23241266.277    95169197.75248  23241264.109
 109245080.75749  20788642.116    85126037.16349  20788641.888
 113443516.22048  21587567.568    88397578.83649  21587566.616
 111790048.41948  21272921.044    87109169.26149  21272920.870
 126392144.62145  24051623.224    98487374.48447  24051622.483
 120231302.71247  22879253.889    93686729.06348  22879252.650
 108235614.28449  20596545.053    84339464.00049  20596545.049
 108910707.55649  20725012.607    84865506.30549  20725012.280
 04 12 12  3  6  0.0000000  0  8G 2G 6G10G17G18G21G26G29
 122219636.59446  23257607.063    95236110.56348  23257604.916
 109245751.37649  20788769.737    85126559.71349  20788769.508
 113514889.01748  21601149.354    88453194.00549  21601148.408
 111830045.48648  21280532.233    87140335.79349  21280532.086
 126308257.00546  24035659.924    98422007.52147  24035659.203
 120146841.80747  22863181.507    93620915.38648  22863180.263
 108169628.07649  20583988.277    84288046.19149  20583988.287
 108880149.00149  20719197.496    84841694.45949  20719197.162
 04 12 12  3  6 30.0000000  0  8G 2G 6G10G17G18G21G26G29
 122305707.63146  23273985.837    95303178.84848  23273983.783
 109247005.62249  20789008.418    85127537.04249  20789008.189
 113586448.92848  21614766.752    88508954.96349  21614765.834
 111870357.80148  21288203.405    87171747.99149  21288203.273
 126224537.58045  24019728.665    98356771.61646  24019727.929
 120062453.88347  22847123.013    93555158.58148  22847121.756
 108104237.09149  20571544.757    84237092.20349  20571544.772
 108850177.52549  20713494.101    84818340.07749  20713493.768
 04 12 12  3  7  0.0000000  0  8G 2G 6G10G17G18G21G26G29
 122391984.78046  23290403.839    95370407.74248  23290401.850
 109248850.46049  20789359.491    85128974.57149  20789359.249
 113658201.30748  21628420.782    88564865.90649  21628419.873
 111910993.02248  21295936.043    87203411.78249  21295935.925
 126140993.73846  24003830.735    98291672.59647  24003830.014
 119978147.13447  22831079.966    93489465.01648  22831078.709
 108039450.80149  20559216.312    84186609.40349  20559216.334
 108820801.17949  20707903.951    84795449.43349  20707903.616
 04 12 12  3  7 30.0000000  0  8G 2G 6G10G17G18G21G26G29
 122478320.54146  23306832.999    95437682.33448  23306831.038
 109251139.39849  20789795.061    85130758.15749  20789794.826
 113729997.54948  21642083.152    88620811.02949  21642082.266
 111951804.70648  21303702.242    87235213.08649  21303702.143
 126057479.63546  23987938.512    98226596.66947  23987937.854
 119893775.91947  22815024.640    93423721.23548  22815023.376
 107975124.75149  20546975.448    84136485.23149  20546975.477
 108791873.81649  20702399.251    84772908.64449  20702398.917
 04 12 12  3  8  0.0000000  0  8G 2G 6G10G17G18G21G26G29
 122564875.40846  23323303.885    95505127.63348  23323301.953
 109254033.99949  20790345.891    85133013.68549  20790345.657
 113801997.41848  21655784.290    88676914.80849  21655783.427
 111992954.32748  21311532.749    87267277.72349  21311532.655
 125974156.75346  23972082.683    98161669.77947  23972082.029
 119809503.00047  22798988.025    93358054.03348  22798986.767
 107911422.74449  20534853.335    84086847.32749  20534853.363
 108763557.62249  20697010.858    84750844.08249  20697010.518
 04 12 12  3  8 30.0000000  0  8G 2G 6G10G17G18G21G26G29
 122651809.93047  23339847.028    95572868.78048  23339845.094
 109257695.01049  20791042.570    85135866.41049  20791042.337
 113874359.95948  21669554.442    88733301.18949  21669553.596
 112034603.27548  21319458.274    87299731.43749  21319458.206
 125891186.28946  23956293.887    98097017.52747  23956293.251
 119725490.28147  22783000.918    93292589.59948  22782999.661
 107848507.66049  20522880.963    84037822.61549  20522880.989
 108736014.12749  20691769.499    84729381.63049  20691769.153
 04 12 12  3  9  0.0000000  0  8G 2G 6G10G17G18G21G26G29
 122738667.58847  23356375.496    95640550.10648  23356373.504
 109261666.87649  20791798.397    85138961.36649  20791798.164
 113946628.07348  21683306.618    88789614.00349  21683305.775
 112076296.07148  21327392.161    87332219.31549  21327392.101
 125808113.28347  23940485.578    98032285.35247  23940484.962
 119641283.09347  22766976.811    93226973.62248  22766975.554
 107785926.34549  20510972.117    83989057.97749  20510972.136
 108708788.20149  20686588.572    84708166.63749  20686588.220
 04 12 12  3  9 30.0000000  0  8G 2G 6G10G17G18G21G26G29
 122826069.44046  23373007.569    95708655.36847  23373005.611
 109266571.12049  20792731.656    85142782.84249  20792731.423
 114019421.64848  21697158.781    88846336.26749  21697157.939
 112118654.85848  21335452.764    87365226.16249  21335452.710
 125725559.82247  23924776.170    97967958.00047  23924775.558
 119557504.60347  22751034.253    93161691.72248  22751033.024
 107724302.39449  20499245.451    83941039.33049  20499245.462
 108682502.49549  20681586.557    84687684.28349  20681586.204
 04 12 12  3 10  0.0000000  0  8G 2G 6G10G17G18G21G26G29
 122913403.92447  23389626.745    95776708.24347  23389624.727
 109271796.74048  20793726.064    85146854.74849  20793725.831
 114092127.89248  21710994.325    88902990.48149  21710993.492
 112161068.89848  21343523.906    87398276.04349  21343523.859
 125642915.11745  23909049.388    97903559.56047  23909048.816
 119473544.94447  22735057.237    93096268.62448  22735056.020
 107663027.21349  20487585.160    83893292.45649  20487585.149
 108656546.26548  20676647.238    84667458.66449  20676646.894
 04 12 12  3 10 30.0000000  0  8G 2G 6G10G17G18G21G26G29
 123000827.83746  23406262.987    95844830.73947  23406260.951
 109277501.22449  20794811.603    85151299.79249  20794811.364
 114164902.98248  21724842.964    88959698.34649  21724842.124
 112203696.10748  21351635.594    87431492.05649  21351635.533
 125560337.41646  23893335.285    97839213.38947  23893334.779
 119389562.80147  22719075.943    93030828.02148  22719074.726
 107602260.66349  20476021.664    83845941.91249  20476021.632
 108631077.96149  20671800.781    84647613.24249  20671800.447
 04 12 12  3 11  0.0000000  0  8G 2G 6G10G17G18G21G26G29
 123088650.31946  23422975.061    95913263.81047  23422973.037
 109283994.32749  20796047.205    85156359.34549  20796046.974
 114238054.59948  21738763.254    89016699.60149  21738762.413
 112246846.39048  21359846.825    87465115.65449  21359846.759
 125478136.66046  23877693.049    97775160.81847  23877692.548
 119305869.26847  22703149.587    92965612.29548  22703148.364
 107542314.35249  20464614.255    83799230.51649  20464614.209
 108606407.73649  20667106.188    84628389.70249  20667105.847
 04 12 12  3 11 30.0000000  0  8G 2G 6G10G17G18G21G26G29
 123176408.48046  23439674.908    95981646.76448  23439672.898
 109290813.87149  20797344.927    85161673.27349  20797344.689
 114311119.21648  21752666.982    89073633.07449  21752666.133
 112290058.11248  21368069.761    87498787.11049  21368069.688
 125395851.28745  23862034.675    97711042.35947  23862034.142
 119222003.48847  22687190.460    92900262.35148  22687189.225
 107482728.56049  20453275.449    83752800.04649  20453275.384
 108582074.09949  20662475.639    84609428.44349  20662475.291
 04 12 12  3 12  0.0000000  0  8G 2G 6G10G17G18G21G26G29
 123264715.97046  23456479.264    96050457.75247  23456477.298
 109298574.16548  20798821.668    85167720.24749  20798821.422
 114384709.45448  21766670.745    89130976.11149  21766669.881
 112333945.95448  21376421.339    87532985.42149  21376421.280
 125314096.23946  23846477.123    97647337.22147  23846476.582
 119138581.00748  22671315.672    92835257.84248  22671314.445
 107424119.56649  20442122.529    83707130.71549  20442122.451
 108558692.06748  20658026.174    84591208.68549  20658025.832
 04 12 12  3 12 30.0000000  0  8G 2G 6G10G17G18G21G26G29
 123352798.98147  23473240.934    96119093.82348  23473238.996
 109306501.41149  20800330.179    85173897.31749  20800329.926
 114458050.43748  21780627.064    89188124.92549  21780626.190
 112377736.56848  21384754.422    87567107.96549  21384754.369
 125232098.29246  23830873.409    97583442.75647  23830872.848
 119054829.77547  22655378.337    92769997.16048  22655377.097
 107365716.08549  20431008.704    83661621.52849  20431008.620
 108535488.53648  20653610.683    84573128.01949  20653610.334
 04 12 12  3 13  0.0000000  0  8G 2G 6G10G17G18G21G26G29
 123441421.51946  23490105.272    96188150.33448  23490103.332
 109315360.39949  20802015.988    85180800.41449  20802015.748
 114531905.22148  21794681.174    89245674.09649  21794680.293
 112422195.20648  21393214.620    87601751.04849  21393214.587
 125150622.92445  23815369.168    97519955.46047  23815368.556
 118971515.79648  22639524.213    92705077.17748  22639522.982
 107308285.06549  20420079.938    83616870.09949  20420079.849
 108513228.86949  20649374.791    84555782.83749  20649374.448
 04 12 12  3 13 30.0000000  0  8G 2G 6G10G17G18G21G26G29
 123529960.40447  23506953.703    96257141.63848  23506951.759
 109324528.35349  20803760.604    85187944.27049  20803760.358
 114605649.83548  21808714.302    89303137.42649  21808713.417
 112466699.79248  21401683.555    87636429.93349  21401683.532
 125069047.47146  23799845.816    97456390.26547  23799845.111
 118888017.92147  22623635.090    92640013.92148  22623633.855
 107251206.11849  20409218.164    83572393.01749  20409218.068
 108491291.08949  20645200.165    84538688.47449  20645199.814
 04 12 12  3 14  0.0000000  0  8G 2G 6G10G17G18G21G26G29
 123618715.19346  23523843.213    96326301.17048  23523841.299
 109334305.48849  20805621.137    85195562.81449  20805620.892
 114679582.85448  21822783.287    89360747.56949  21822782.410
 112511550.76148  21410218.416    87671378.72949  21410218.400
 124987673.29646  23784360.855    97392981.82247  23784360.091
 118804637.51547  22607768.321    92575042.18548  22607767.093
 107194781.41749  20398480.882    83528425.74049  20398480.795
 108469975.92249  20641144.011    84522079.26449  20641143.660
 04 12 12  3 14 30.0000000  0  8G 2G 6G10G17G18G21G26G29
 123707676.76847  23540772.044    96395621.88348  23540770.110
 109344683.10649  20807595.932    85203649.26049  20807595.700
 114753694.36248  21836886.244    89418496.79249  21836885.368
 112556739.84348  21418817.607    87706590.99549  21418817.595
 124906491.87646  23768912.562    97329723.58847  23768911.746
 118721367.71847  22591922.587    92510156.65448  22591921.346
 107139004.65649  20387866.906    83484963.33949  20387866.833
 108449275.48449  20637204.843    84505949.05849  20637204.484
 04 12 12  3 15  0.0000000  0  8G 2G 6G10G17G18G21G26G29
 123796989.32346  23557767.694    96465216.03047  23557765.795
 109355805.84249  20809712.524    85212316.32149  20809712.293
 114828127.31648  21851050.376    89476496.48449  21851049.508
 112602412.39048  21427508.821    87742179.96649  21427508.816
 124825648.67946  23753528.566    97266728.95647  23753527.722
 118638354.55847  22576125.690    92445471.09848  22576124.442
 107084022.55249  20377404.142    83442120.15649  20377404.083
 108429335.00249  20633410.289    84490411.03749  20633409.903
 04 12 12  3 15 30.0000000  0  8G 2G 6G10G17G18G21G26G29
 123886335.85046  23574769.755    96534836.71347  23574767.831
 109367356.92649  20811910.628    85221317.15849  20811910.404
 114902563.96348  21865215.211    89534499.06249  21865214.338
 112648252.15948  21436231.845    87777899.25749  21436231.839
 124744827.89246  23738148.863    97203751.75647  23738148.008
 118555283.05648  22560317.709    92380740.04748  22560316.466
 107029520.91249  20367032.800    83399651.36849  20367032.771
 108409838.34249  20629700.192    84475218.84349  20629699.798
 04 12 12  3 16  0.0000000  0  8G 2G 6G10G17G18G21G26G29
 123975861.96446  23591806.026    96604597.25447  23591804.121
 109379482.63849  20814218.080    85230765.75749  20814217.864
 114977149.13648  21879408.310    89592617.38549  21879407.433
 112694405.89148  21445014.602    87813863.19949  21445014.609
 124664176.34746  23722801.385    97140906.38947  23722800.558
 118472301.27148  22544526.800    92316078.91948  22544525.542
 106975647.62749  20356781.031    83357672.21149  20356781.016
 108390932.20649  20626102.468    84460486.80249  20626102.060
 04 12 12  3 16 30.0000000  0  8G 2G 6G10G17G18G21G26G29
 124065560.63446  23608875.109    96674492.31647  23608873.209
 109392176.41049  20816633.625    85240656.99949  20816633.421
 115051875.15248  21893628.210    89650845.44249  21893627.335
 112740867.58048  21453855.986    87850067.09049  21453855.992
 124583687.84245  23707484.860    97078188.14247  23707484.060
 118389403.93848  22528751.968    92251483.60048  22528750.698
 106922398.73249  20346648.098    83316179.57449  20346648.083
 108372610.84949  20622616.030    84446210.42349  20622615.623
 04 12 12  3 17  0.0000000  0  8G 2G 6G10G17G18G21G26G29
 124155426.43746  23625976.027    96744517.58547  23625974.110
 109405432.88849  20819156.255    85250986.71549  20819156.051
 115126735.30948  21907873.636    89709178.03149  21907872.756
 112787632.52348  21462755.070    87886507.29249  21462755.077
 124503358.10645  23692198.584    97015593.59247  23692197.809
 118306587.39948  22512992.535    92186951.23048  22512991.242
 106869770.92249  20336633.352    83275170.91149  20336633.326
 108354869.56049  20619239.975    84432386.04749  20619239.561
 04 12 12  3 17 30.0000000  0  8G 2G 6G10G17G18G21G26G29
 124245609.37546  23643137.299    96814789.96347  23643135.389
 109419402.19449  20821814.531    85261871.88249  20821814.335
 115201878.83548  21922172.979    89767731.42849  21922172.102
 112834851.66248  21471740.586    87923301.41249  21471740.576
 124423338.06245  23676971.264    96953240.31847  23676970.534
 118224003.91747  22497277.415    92122600.49448  22497276.097
 106817916.94949  20326765.881    83234765.21949  20326765.843
 108337859.24549  20616003.014    84419131.26949  20616002.586
 04 12 12  3 18  0.0000000  0  8G 2G 6G10G17G18G21G26G29
 124335644.92746  23660270.501    96884947.52948  23660268.591
 109433620.46049  20824520.189    85272951.04249  20824519.987
 115276840.72248  21936437.758    89826143.27949  21936436.895
 112882061.51748  21480724.334    87960088.30149  21480724.318
 124343164.56745  23661714.737    96890767.49947  23661714.048
 118141190.68947  22481518.575    92058070.71748  22481517.251
 106766374.65349  20316957.708    83194602.41349  20316957.645
 108321116.42548  20612816.955    84406084.92349  20612816.520
 04 12 12  3 18 30.0000000  0  8G 2G 6G10G17G18G21G26G29
 124426147.85946  23677492.672    96955469.25448  23677490.792
 109448702.63749  20827390.238    85284703.37949  20827390.043
 115352234.78348  21950784.771    89884891.89349  21950783.907
 112929877.79048  21489823.462    87997347.73649  21489823.460
 124263453.49345  23646546.183    96828655.02147  23646545.532
 118058765.20748  22465833.504    91993843.09248  22465832.186
 106715761.52249  20307326.350    83155163.62249  20307326.274
 108305256.82149  20609798.973    84393726.79449  20609798.524
 04 12 12  3 19  0.0000000  0  8G 2G 6G10G17G18G21G26G29
 124516809.89646  23694745.072    97026114.97947  23694743.238
 109464341.03748  20830366.133    85296889.12849  20830365.950
 115427751.89948  21965155.188    89943736.40749  21965154.323
 112977993.19948  21498979.532    88034840.24249  21498979.544
 124183897.31045  23631407.150    96766663.20947  23631406.483
 117976421.18547  22450163.946    91929678.91548  22450162.639
 106665771.71549  20297813.594    83116210.55049  20297813.506
 108289973.39548  20606890.622    84381817.64249  20606890.157
 04 12 12  3 19 30.0000000  0  8G 2G 6G10G17G18G21G26G29
 124607477.54946  23711998.570    97096765.05347  23711996.769
 109480382.20049  20833418.676    85309388.72349  20833418.494
 115503237.74348  21979519.661    90002556.54349  21979518.808
 113026255.23848  21508163.499    88072447.00749  21508163.538
 124104343.88446  23616268.625    96704673.56847  23616267.903
 117894007.35747  22434481.122    91865460.34748  22434479.808
 106616254.35649  20288390.754    83077625.60149  20288390.652
 108275113.26949  20604062.828    84370238.32549  20604062.354
 04 12 12  3 20  0.0000000  0  8G 2G 6G10G17G18G21G26G29
 124698305.71146  23729282.625    97167540.19947  23729280.866
 109496981.27749  20836577.387    85322323.05549  20836577.213
 115578846.47348  21993907.541    90061472.41349  21993906.704
 113074819.75248  21517405.013    88110289.47649  21517405.063
 124024949.16546  23601160.294    96642807.57147  23601159.526
 117811680.44247  22418814.819    91801309.51848  22418813.498
 106567366.52749  20279087.703    83039531.20549  20279087.589
 108260832.22149  20601345.217    84359110.25049  20601344.734
 04 12 12  3 20 30.0000000  0  8G 2G 6G10G17G18G21G26G29
 124789449.81846  23746626.783    97238561.54247  23746625.065
 109514293.97049  20839871.901    85335813.45149  20839871.721
 115654732.97148  22008348.268    90120604.74849  22008347.439
 113123843.08848  21526733.849    88148489.45949  21526733.920
 123945869.70846  23586111.944    96581187.24647  23586111.121
 117729597.98848  22403195.047    91737349.16248  22403193.733
 106519266.39149  20269934.540    83002050.59649  20269934.411
 108247286.68649  20598767.581    84348555.29449  20598767.075
 04 12 12  3 21  0.0000000  0  8G 2G 6G10G17G18G21G26G29
 124880758.27146  23764002.246    97309710.92947  23764000.556
 109532168.79149  20843273.378    85349741.86649  20843273.205
 115730744.86148  22022812.838    90179834.79349  22022812.044
 113173174.41248  21536121.294    88186929.44049  21536121.363
 123866954.74846  23571094.867    96519695.13147  23571093.974
 117647610.60048  22387593.360    91673462.89248  22387592.054
 106471804.42149  20260902.810    82965067.26849  20260902.666
 108234325.68649  20596301.173    84338455.82949  20596300.652
 04 12 12  3 21 30.0000000  0  8G 2G 6G10G17G18G21G26G29
 124972079.79146  23781380.153    97380870.54747  23781378.438
 109550454.60349  20846753.071    85363990.53449  20846752.898
 115806729.99048  22037272.333    90239043.97849  22037271.554
 113222663.54448  21545538.775    88225492.38449  21545538.858
 123788054.57346  23556080.610    96458214.50747  23556079.701
 117565569.42847  22371981.432    91609534.71448  22371980.132
 106424831.71949  20251964.196    82928465.17549  20251964.038
 108221798.98549  20593917.409    84328694.77349  20593916.880
 04 12 12  3 22  0.0000000  0  8G 2G 6G10G17G18G21G26G29
 125063879.99946  23798849.152    97452403.17947  23798847.384
 109569617.40649  20850399.643    85378922.57949  20850399.464
 115883153.45248  22051815.234    90298594.72349  22051814.485
 113272777.09948  21555075.085    88264541.89549  21555075.163
 123709635.49745  23541157.902    96397108.76747  23541157.010
 117483942.21547  22356448.272    91545929.10748  22356446.978
 106378816.61049  20243207.806    82892609.25449  20243207.633
 108210172.78249  20591705.010    84319635.40149  20591704.481
 04 12 12  3 22 30.0000000  0  8G 2G 6G10G17G18G21G26G29
 125155547.54146  23816292.935    97523832.39747  23816291.167
 109589045.63449  20854096.723    85394061.43549  20854096.558
 115959402.69748  22066324.989    90358009.72949  22066324.229
 113322904.29348  21564613.979    88303602.04149  21564614.065
 123631086.97445  23526210.550    96335902.16947  23526209.718
 117402119.33047  22340877.883    91482171.02348  22340876.595
 106333149.56749  20234517.656    82857024.55649  20234517.471
 108198836.58049  20589547.791    84310802.00549  20589547.268
 04 12 12  3 23  0.0000000  0  8G 2G 6G10G17G18G21G26G29
 125247394.70446  23833770.881    97595401.60047  23833769.120
 109609052.15649  20857903.856    85409650.91149  20857903.697
 116035789.67148  22080860.965    90417532.03749  22080860.199
 113373358.77648  21574215.165    88342917.20749  21574215.238
 123552723.10346  23511298.419    96274839.38247  23511297.615
 117320415.92248  22325330.241    91418506.02748  22325328.945
 106288145.78149  20225953.709    82821956.68449  20225953.516
 108188103.47349  20587505.337    84302438.55349  20587504.812
 04 12 12  3 23 30.0000000  0  8G 2G 6G10G17G18G21G26G29
 125339580.97347  23851313.386    97667235.02847  23851311.623
 109629796.20649  20861851.335    85425815.09649  20861851.164
 116112473.17248  22095453.344    90477285.42649  22095452.564
 113424300.69748  21583909.114    88382612.19449  21583909.182
 123474704.00146  23496451.848    96214045.31147  23496451.075
 117238993.56448  22309836.070    91355060.04748  22309834.766
 106243966.46849  20217546.659    82787531.25749  20217546.459
 108178133.62649  20585608.132    84294669.84949  20585607.615
 04 12 12  3 24  0.0000000  0  8G 2G 6G10G17G18G21G26G29
 125431958.22346  23868892.216    97739217.29647  23868890.420
 109651129.81049  20865910.997    85442438.67049  20865910.818
 116189304.45548  22110073.851    90537153.95649  22110073.071
 113475582.96648  21593667.800    88422572.41449  21593667.853
 123396882.71246  23481642.919    96153405.36747  23481642.189
 117157706.34248  22294367.620    91291719.35348  22294366.329
 106200465.65249  20209268.717    82753634.52849  20209268.517
 108168779.55349  20583828.099    84287380.97249  20583827.589
 04 12 12  3 24 30.0000000  0  8G 2G 6G10G17G18G21G26G29
 125524377.89546  23886479.137    97811232.57047  23886477.316
 109672904.54449  20870054.603    85459405.98549  20870054.425
 116266134.36948  22124694.097    90597021.42449  22124693.326
 113527057.82247  21603463.139    88462682.68349  21603463.198
 123319111.85647  23466843.576    96092804.74347  23466842.836
 117076407.83548  22278897.023    91228369.87648  22278895.732
 106157497.71549  20201092.179    82720153.03749  20201091.972
 108159893.68949  20582137.170    84280456.92949  20582136.660
 04 12 12  3 25  0.0000000  0  8G 2G 6G10G17G18G21G26G29
 125616999.68546  23904104.495    97883405.34347  23904102.713
 109695280.01048  20874312.530    85476841.39449  20874312.353
 116343121.66748  22139344.293    90657011.51349  22139343.533
 113578885.72848  21613325.686    88503068.03949  21613325.752
 123241551.80546  23452084.353    96032368.38047  23452083.590
 116995259.78048  22263455.049    91165137.62848  22263453.764
 106115223.63349  20193047.670    82687212.21149  20193047.470
 108151635.87748  20580565.748    84274022.28449  20580565.246
 04 12 12  3 25 30.0000000  0  8G 2G 6G10G17G18G21G26G29
 125709520.17746  23921710.559    97955499.19947  23921708.800
 109717953.07349  20878627.083    85494508.70649  20878626.898
 116419962.51848  22153966.621    90716887.50249  22153965.862
 113630764.57948  21623197.903    88543493.10549  21623197.997
 123163900.84847  23437307.831    95971861.17747  23437307.029
 116913961.55348  22247984.505    91101788.36448  22247983.234
 106073342.83349  20185078.007    82654577.83649  20185077.807
 108143703.74449  20579056.314    84267841.40349  20579055.819
 04 12 12  3 26  0.0000000  0  8G 2G 6G10G17G18G21G26G29
 125802559.28746  23939415.331    98027997.18747  23939413.541
 109741543.55749  20883116.214    85512890.88449  20883116.037
 116497276.42548  22168678.968    90777132.10748  22168678.209
 113683314.95548  21633197.913    88584441.42949  21633198.034
 123086779.70247  23422632.118    95911766.80647  23422631.294
 116833135.15248  22232603.752    91038806.75348  22232602.489
 106032477.15449  20177301.515    82622734.46749  20177301.316
 108136717.75149  20577726.917    84262397.78049  20577726.423
 04 12 12  3 26 30.0000000  0  8G 2G 6G10G17G18G21G26G29
 125895657.84545  23957131.416    98100541.47547  23957129.643
 109765592.08949  20887692.516    85531629.98049  20887692.339
 116574603.27648  22183393.773    90837386.79649  22183393.027
 113736078.57848  21643238.508    88625555.91849  21643238.650
 123009729.99246  23407970.028    95851728.09147  23407969.158
 116752323.40648  22217225.794    90975836.56449  22217224.518
 105992169.61049  20169631.239    82591326.00549  20169631.026
 108130219.49149  20576490.334    84257334.20849  20576489.832
 04 12 12  3 27  0.0000000  0  8G 2G 6G10G17G18G21G26G29
 125988816.84946  23974859.014    98173132.84947  23974857.274
 109790099.79049  20892356.188    85550726.87749  20892356.011
 116651943.64248  22198111.149    90897652.02249  22198110.404
 113789057.48048  21653320.064    88666838.17049  21653320.213
 122932754.16946  23393321.998    95791746.95547  23393321.098
 116671529.97348  22201851.309    90912880.65148  22201850.018
 105952423.32949  20162067.767    82560354.89249  20162067.541
 108124210.40049  20575346.836    84252651.81149  20575346.328
 04 12 12  3 27 30.0000000  0  8G 2G 6G10G17G18G21G26G29
 126082190.09446  23992627.382    98245891.20847  23992625.616
 109815220.43749  20897136.506    85570301.38749  20897136.337
 116729450.66848  22212860.252    90958047.10348  22212859.522
 113842406.23548  21663472.001    88708408.61549  21663472.163
 122856006.98547  23378717.447    95731944.01347  23378716.541
 116590911.09548  22186510.053    90850060.75048  22186508.734
 105913393.96649  20154640.726    82529942.41249  20154640.488
 108118844.76849  20574325.778    84248470.81149  20574325.270
 04 12 12  3 28  0.0000000  0  8G 2G 6G10G17G18G21G26G29
 126175774.85446  24010436.029    98318814.32847  24010434.309
 109840951.52849  20902032.988    85590351.57649  20902032.806
 116807121.27748  22227640.477    91018569.66348  22227639.742
 113896123.23348  21673694.017    88750265.99549  21673694.186
 122779486.99146  23364156.152    95672318.06348  23364155.275
 116510466.51348  22171201.952    90787376.66349  22171200.625
 105875081.27549  20147350.052    82500088.38449  20147349.799
 108114120.80349  20573426.843    84244789.80049  20573426.329
 04 12 12  3 28 30.0000000  0  8G 2G 6G10G17G18G21G26G29
 126269567.57945  24028284.203    98391899.56747  24028282.471
 109867288.96549  20907044.847    85610874.23749  20907044.672
 116884951.01448  22242450.984    91079216.22248  22242450.243
 113950205.54248  21683985.544    88792408.04649  21683985.721
 122703191.75547  23349637.622    95612867.25648  23349636.780
 116430194.45748  22155926.687    90724827.01049  22155925.337
 105837483.41049  20140195.404    82470791.36449  20140195.144
 108110034.98049  20572649.331    84241606.05049  20572648.817
 04 12 12  3 29  0.0000000  0  8G 2G 6G10G17G18G21G26G29
 126363408.39345  24046141.564    98465022.21347  24046139.829
 109894073.02949  20912141.703    85631744.92249  20912141.529
 116962779.61548  22257261.286    91139861.87049  22257260.560
 114004494.51248  21694316.416    88834711.13349  21694316.574
 122626962.30547  23335131.622    95553467.71248  23335130.797
 116349937.72548  22140654.321    90662289.32248  22140652.950
 105800442.61949  20133146.764    82441928.42449  20133146.497
 108106428.16349  20571962.971    84238795.54749  20571962.464
 04 12 12  3 29 30.0000000  0  8G 2G 6G10G17G18G21G26G29
 126457444.27746  24064035.962    98538296.94047  24064034.250
 109921450.34449  20917351.445    85653077.87949  20917351.278
 117040753.53348  22272099.235    91200620.76748  22272098.504
 114059137.52148  21704714.670    88877290.08149  21704714.834
 122550946.71947  23320666.331    95494234.81148  23320665.495
 116269845.75848  22125413.327    90599879.99749  22125411.947
 105764107.78249  20126232.468    82413615.57649  20126232.195
 108103447.71849  20571395.799    84236473.13849  20571395.292
 04 12 12  3 30  0.0000000  0  8G 2G 6G10G17G18G21G26G29
 126551820.96445  24081995.290    98611837.14547  24081993.603
 109949566.59249  20922701.801    85674986.62349  20922701.640
 117119017.86147  22286992.441    91261605.96548  22286991.697
 114114281.31148  21715208.202    88920259.25549  21715208.352
 122475291.64847  23306269.644    95435282.82348  23306268.787
 116190066.51848  22110231.830    90537714.36849  22110230.451
 105728626.43949  20119480.575    82385967.79549  20119480.294
 108101239.72549  20570975.632    84234752.62449  20570975.133
 04 12 12  3 30 30.0000000  0  8G 2G 6G10G17G18G21G26G29
 126646066.85545  24099929.728    98685275.43847  24099928.068
 109977950.11849  20928103.012    85697103.63649  20928102.871
 117197100.93648  22301851.156    91322449.92248  22301850.405
 114169455.43948  21725707.502    88963252.06649  21725707.659
 122399527.01647  23291852.107    95376245.47648  23291851.218
 116110131.00848  22095020.603    90475426.96949  22095019.209
 105693529.05249  20112801.759    82358619.18749  20112801.469
 108099333.39949  20570612.870    84233267.17749  20570612.371
 04 12 12  3 31  0.0000000  0  8G 2G 6G10G17G18G21G26G29
 126740480.56646  24117896.084    98758844.52147  24117894.451
 110006899.32449  20933611.869    85719661.44449  20933611.741
 117275300.48548  22316732.036    91383384.63148  22316731.283
 114224959.30148  21736269.542    89006501.81048  21736269.711
 122323952.42947  23277470.730    95317356.22748  23277469.786
 116030340.20048  22079836.917    90413252.31049  22079835.522
 105659116.28849  20106253.222    82331804.05649  20106252.917
 108098027.58949  20570364.377    84232249.67249  20570363.879
 04 12 12  3 31 30.0000000  0  8G 2G 6G10G17G18G21G26G29
 126835206.72246  24135921.913    98832657.03347  24135920.281
 110036558.64149  20939255.855    85742772.58549  20939255.740
 117353761.07847  22331662.590    91444522.74748  22331661.850
 114280938.27047  21746921.991    89050121.75648  21746922.186
 122248713.24947  23263153.184    95258728.32048  23263152.206
 115950841.32948  22064708.767    90351305.15849  22064707.357
 105625534.67549  20099862.841    82305636.58049  20099862.522
 108097467.43649  20570257.777    84231813.19749  20570257.280
 04 12 12  3 32  0.0000000  0  8G 2G 6G10G17G18G21G26G29
 126929929.36246  24153947.039    98906466.89447  24153945.403
 110066612.01249  20944974.821    85766190.78949  20944974.713
 117432165.94347  22346582.534    91505617.44748  22346581.800
 114337077.45047  21757604.940    89093866.54249  21757605.147
 122173494.72447  23248839.557    95200116.52548  23248838.546
 115871320.46348  22049576.449    90289340.85349  22049575.025
 105592469.82149  20093570.809    82279871.76249  20093570.475
 108097337.37149  20570233.015    84231711.85949  20570232.524
 04 12 12  3 32 30.0000000  0  8G 2G 6G10G17G18G21G26G29
 127025103.49746  24172058.140    98980628.43647  24172056.570
 110097513.98549  20950855.283    85790270.23149  20950855.189
 117510969.59348  22361578.370    91567022.88848  22361577.621
 114393832.38547  21768405.057    89138091.15749  21768405.258
 122098753.16147  23234616.692    95141876.36747  23234615.682
 115792235.36448  22034527.055    90227716.10449  22034525.625
 105560378.57049  20087464.035    82254865.61249  20087463.687
 108098092.61449  20570376.727    84232300.36649  20570376.236
 04 12 12  3 33  0.0000000  0  8G 2G 6G10G17G18G21G26G29
 127120107.30746  24190136.823    99054657.32947  24190135.227
 110128642.54949  20956778.852    85814526.24549  20956778.763
 117589549.83147  22376531.692    91628254.23448  22376530.949
 114450582.30248  21779204.230    89182311.85349  21779204.426
 122023867.67147  23220366.440    95083524.06248  23220365.400
 115712966.65348  22019442.703    90165948.30049  22019441.273
 105528641.08249  20081424.592    82230135.11049  20081424.223
 108099111.74149  20570570.660    84233094.49449  20570570.170
 04 12 12  3 33 30.0000000  0  8G 2G 6G10G17G18G21G26G29
 127215244.70146  24208240.927    99128790.33247  24208239.302
 110160301.44349  20962803.345    85839195.49649  20962803.269
 117668210.33748  22391500.283    91689548.14348  22391499.524
 114507631.84448  21790060.409    89226766.03048  21790060.590
 121949143.21846  23206146.855    95025297.23547  23206145.760
 115633820.65048  22004381.720    90104276.09849  22004380.284
 105497562.73049  20075510.572    82205918.22149  20075510.189
 108100698.87549  20570872.682    84234331.23249  20570872.179
 04 12 12  3 34  0.0000000  0  8G 2G 6G10G17G18G21G26G29
 127310666.23246  24226399.064    99203144.72446  24226397.411
 110192640.93349  20968957.363    85864395.07849  20968957.295
 117747101.39048  22406512.757    91751021.68348  22406512.006
 114565132.74348  21801002.490    89271571.90249  21801002.672
 121874731.78746  23191986.836    94967314.32147  23191985.702
 115554950.49648  21989373.222    90042818.84249  21989371.779
 105467296.25449  20069751.041    82182333.97149  20069750.651
 108103005.49249  20571311.611    84236128.60949  20571311.094
 04 12 12  3 34 30.0000000  0  8G 2G 6G10G17G18G21G26G29
 127406216.42845  24244581.668    99277599.41347  24244579.961
 110225505.04649  20975211.196    85890003.46949  20975211.141
 117826066.63748  22421539.338    91812553.05848  22421538.581
 114622930.02448  21812000.965    89316608.74149  21812001.136
 121800478.31447  23177856.853    94909454.52347  23177855.672
 115476202.94848  21974388.032    89981457.14149  21974386.602
 105437687.51049  20064116.673    82159262.24149  20064116.268
 108105875.66449  20571857.792    84238365.11449  20571857.264
 04 12 12  3 35  0.0000000  0  8G 2G 6G10G17G18G21G26G29
 127502048.29145  24262817.960    99352273.48647  24262816.277
 110259046.64849  20981593.963    85916139.76849  20981593.907
 117905258.91948  22436609.140    91874261.31648  22436608.406
 114681177.72948  21823085.153    89361996.55749  21823085.319
 121726537.62747  23163786.390    94851838.45148  23163785.178
 115397734.01648  21959455.891    89920312.51649  21959454.460
 105408891.48349  20058636.959    82136823.79649  20058636.548
 108109463.00549  20572540.440    84241160.45249  20572539.906
 04 12 12  3 35 30.0000000  0  8G 2G 6G10G17G18G21G26G29
 127598007.90746  24281078.521    99427047.18446  24281076.793
 110293111.52249  20988076.299    85942683.81249  20988076.256
 117984524.04547  22451692.792    91936026.35048  22451692.058
 114739722.69848  21834225.902    89407616.00448  21834226.077
 121652756.47046  23149746.290    94794346.64848  23149745.085
 115319392.21348  21944547.930    89859266.97249  21944546.499
 105380755.62749  20053282.878    82114899.76149  20053282.467
 108113613.93949  20573330.319    84244394.96849  20573329.785
 04 12 12  3 36  0.0000000  0  8G 2G 6G10G17G18G21G26G29
 127693788.29544  24299304.911    99501681.24346  24299303.170
 110327392.21649  20994599.698    85969396.03849  20994599.663
 118063554.59247  22466731.805    91997608.60448  22466731.058
 114798258.85248  21845364.973    89453228.58048  21845365.157
 121578829.08146  23135678.317    94736740.92848  23135677.134
 115240873.19748  21929606.258    89798083.33349  21929604.815
 105352974.94649  20047996.378    82093252.48949  20047995.967
 108118021.53349  20574169.062    84247829.45849  20574168.530
 04 12 12  3 36 30.0000000  0  8G 2G 6G10G17G18G21G26G29
 127790007.19445  24317614.777    99576656.95547  24317613.035
 110362506.23349  21001281.691    85996757.58649  21001281.655
 118142967.98448  22481843.695    92059489.14848  22481842.957
 114857404.90147  21856620.104    89499316.39248  21856620.309
 121505374.12346  23121700.255    94679503.34347  23121699.062
 115162797.10848  21914748.860    89737244.83749  21914747.425
 105326168.51849  20042895.272    82072364.37549  20042894.868
 108123303.81249  20575174.241    84251945.53249  20575173.702
 04 12 12  3 37  0.0000000  0  8G 2G 6G10G17G18G21G26G29
 127886205.00446  24335920.665    99651616.24447  24335918.928
 110397993.32449  21008034.666    86024409.85149  21008034.636
 118222304.24847  22496940.866    92121309.62648  22496940.119
 114916701.63147  21867903.903    89545521.61548  21867904.112
 121431933.12046  23107724.873    94622276.61248  23107723.688
 115084706.61648  21899888.728    89676395.11349  21899887.278
 105299878.14449  20037892.363    82051878.38849  20037891.958
 108129001.21949  20576258.421    84256385.07849  20576257.869
 04 12 12  3 37 30.0000000  0  8G 2G 6G10G17G18G21G26G29
 127982692.53145  24354281.649    99726801.31846  24354279.891
 110434164.11748  21014917.745    86052594.87449  21014917.722
 118301874.20547  22512082.525    92183312.17848  22512081.783
 114976461.12447  21879275.756    89592087.44548  21879275.971
 121358818.27446  23093811.569    94565304.03248  23093810.371
 115006915.55548  21885085.569    89615778.71049  21885084.126
 105274416.57949  20033047.176    82032038.21949  20033046.771
 108135425.10149  20577480.845    84261390.70849  20577480.280
 04 12 12  3 38  0.0000000  0  8G 2G 6G10G17G18G21G26G29
 128079319.87045  24372669.321    99802095.23647  24372667.602
 110470868.11048  21021902.306    86081195.36349  21021902.283
 118381527.47847  22527240.021    92245379.66148  22527239.288
 115036534.04047  21890707.258    89638897.49348  21890707.470
 121285880.70247  23079931.993    94508469.58347  23079930.780
 114929276.38948  21870311.321    89555280.66649  21870309.878
 105249635.27549  20028331.445    82012728.11549  20028331.054
 108142425.41649  20578812.961    84266845.50349  20578812.389
 04 12 12  3 38 30.0000000  0  8G 2G 6G10G17G18G21G26G29
 128176092.04045  24391084.512    99877502.05947  24391082.841
 110508109.85449  21028989.174    86110214.90749  21028989.145
 118461268.57347  22542414.241    92307515.58348  22542413.500
 115096926.19748  21902199.509    89685956.30148  21902199.720
 121213126.31547  23066087.269    94451777.89148  23066086.036
 114851796.88148  21855567.443    89494907.03649  21855566.013
 105225540.63449  20023746.363    81993953.09049  20023745.971
 108150007.33949  20580255.747    84272753.51049  20580255.170
 04 12 12  3 39  0.0000000  0  8G 2G 6G10G17G18G21G26G29
 128272860.25345  24409498.926    99952905.81047  24409497.276
 110545740.17949  21036150.017    86139537.20449  21036149.995
 118540948.46047  22557576.820    92369603.80548  22557576.055
 115157489.63947  21913724.373    89733148.56748  21913724.568
 121140407.32946  23052249.277    94395113.78147  23052248.028
 114774330.61848  21840826.098    89434543.72249  21840824.668
 105201985.55049  20019263.974    81975598.49149  20019263.575
 108158022.16349  20581780.917    84278998.82849  20581780.340
 04 12 12  3 39 30.0000000  0  8G 2G 6G10G17G18G21G26G29
 128369938.28545  24427972.262   100028551.05847  24427970.557
 110584072.39149  21043444.400    86169406.45049  21043444.393
 118620880.93347  22572787.458    92431888.86248  22572786.672
 115218539.14447  21925341.719    89780719.60548  21925341.894
 121068038.90547  23038477.988    94338722.82448  23038476.758
 114697194.36348  21826147.538    89374437.56349  21826146.114
 105179284.97549  20014944.186    81957909.74749  20014943.788
 108166783.93149  20583448.220    84285826.19449  20583447.637
 04 12 12  3 40  0.0000000  0  8G 2G 6G10G17G18G21G26G29
 128467023.57545  24446447.061   100104201.83847  24446445.357
 110622803.65148  21050814.726    86199586.64449  21050814.720
 118700762.93647  22587988.515    92494134.54548  22587987.749
 115279772.81348  21936994.117    89828434.13948  21936994.278
 120995719.61147  23024716.078    94282370.14448  23024714.850
 114620088.11848  21811474.714    89314354.77449  21811473.284
 105157138.06449  20010729.763    81940652.42549  20010729.366
 108175990.10949  20585200.097    84292999.83949  20585199.522
 04 12 12  3 40 30.0000000  0  8G 2G 6G10G17G18G21G26G29
 128564275.10845  24464953.508   100179982.13547  24464951.847
 110662092.18348  21058291.108    86230201.06049  21058291.111
 118780753.32947  22603210.169    92556464.73748  22603209.411
 115341350.35547  21948711.945    89876416.62148  21948712.090
 120923609.48347  23010993.965    94226180.45048  23010992.738
 114543173.48048  21796838.339    89254421.29549  21796836.908
 105135705.14649  20006651.209    81923951.45749  20006650.827
 108185799.81349  20587066.810    84300643.77949  20587066.235
 04 12 12  3 41  0.0000000  0  8G 2G 6G10G17G18G21G26G29
 128661696.63146  24483492.249   100255894.97747  24483490.554
 110701941.34949  21065874.165    86261252.34949  21065874.168
 118860855.74947  22618453.159    92618882.20148  22618452.416
 115403276.47047  21960496.105    89924670.71048  21960496.262
 120851713.62247  22997312.596    94170157.74648  22997311.376
 114466456.76548  21782239.634    89194642.05049  21782238.191
 105114991.40449  20002709.503    81907810.89549  20002709.129
 108196216.76149  20589049.078    84308760.89149  20589048.502
 04 12 12  3 41 30.0000000  0  8G 2G 6G10G17G18G21G26G29
 128759291.06445  24502063.852   100331942.59446  24502062.105
 110742353.55248  21073564.375    86292742.34449  21073564.393
 118941072.77347  22633717.957    92681388.96648  22633717.214
 115465554.84748  21972347.304    89973199.28648  21972347.467
 120780035.90147  22983672.779    94114304.98148  22983671.575
 114389943.92448  21767679.736    89135021.65349  21767678.289
 105095000.97449  19998905.444    81892233.94149  19998905.085
 108207244.09349  20591147.509    84317353.61149  20591146.939
 04 12 12  3 42  0.0000000  0  8G 2G 6G10G17G18G21G26G29
 128856906.66845  24520639.519   100408006.61746  24520637.808
 110783176.19549  21081332.683    86324552.17849  21081332.694
 119021252.27447  22648975.644    92743866.47648  22648974.913
 115528034.39847  21984236.767    90021884.61848  21984236.983
 120708425.30646  22970045.694    94058504.56848  22970044.476
 114313485.56548  21753130.194    89075443.71649  21753128.740
 105075583.06749  19995210.339    81877103.11349  19995209.982
 108218729.66249  20593333.134    84326303.40849  20593332.571
 04 12 12  3 42 30.0000000  0  8G 2G 6G10G17G18G21G26G29
 128954851.95046  24539277.929   100484327.55547  24539276.267
 110824717.50449  21089237.744    86356922.00949  21089237.760
 119101702.81247  22664284.890    92806555.19848  22664284.155
 115591024.49847  21996223.408    90070967.77948  21996223.623
 120637191.76847  22956490.391    94002997.92748  22956489.164
 114237393.07048  21738650.274    89016150.85849  21738648.819
 105057047.98449  19991683.225    81862660.20449  19991682.861
 108230982.35849  20595664.733    84335850.96949  20595664.168
 04 12 12  3 43  0.0000000  0  8G 2G 6G10G17G18G21G26G29
 129052663.59346  24557890.895   100560544.39547  24557889.236
 110866513.47949  21097191.277    86389490.26549  21097191.299
 119181960.97247  22679557.504    92869094.02748  22679556.791
 115654062.72847  22008219.185    90120088.46348  22008219.426
 120565873.04547  22942918.859    93947424.92148  22942917.646
 114161205.80348  21724152.307    88956784.16949  21724150.859
 105038933.58449  19988236.169    81848545.09249  19988235.807
 108243538.81049  20598054.140    84345635.22549  20598053.568
 04 12 12  3 43 30.0000000  0  8G 2G 6G10G17G18G21G26G29
 129150955.07645  24576595.130   100637135.13746  24576593.462
 110909176.97448  21105309.888    86422734.53049  21105309.903
 119262639.79947  22694910.181    92931960.62848  22694909.487
 115717763.11748  22020340.983    90169725.10648  22020341.232
 120495083.59747  22929448.045    93892264.34448  22929446.847
 114085539.91848  21709753.574    88897823.74349  21709752.121
 105021854.31349  19984986.092    81835236.57649  19984985.724
 108257012.38549  20600618.070    84356134.11449  20600617.496
 04 12 12  3 44  0.0000000  0  8G 2G 6G10G17G18G21G26G29
 129248951.45645  24595243.257   100713495.86946  24595241.548
 110951932.30448  21113445.969    86456050.35849  21113445.977
 119342964.28847  22710195.435    92994551.14148  22710194.730
 115781351.48848  22032441.478    90219274.44748  22032441.740
 120424049.26647  22915930.638    93836912.93248  22915929.474
 114009623.18848  21695307.094    88838667.85449  21695305.641
 105005036.43249  19981785.755    81822131.74349  19981785.382
 108270627.79249  20603208.996    84366743.52149  20603208.422
 04 12 12  3 44 30.0000000  0  8G 2G 6G10G17G18G21G26G29
 129347262.25045  24613951.256   100790101.59947  24613949.564
 110995388.38948  21121715.404    86489912.22749  21121715.399
 119423544.05347  22725529.284    93057340.55748  22725528.570
 115845438.15147  22044636.770    90269212.09748  22044637.009
 120353380.93847  22902482.872    93781846.74448  22902481.718
 113934068.15148  21680929.443    88779793.80749  21680927.990
 104989090.89349  19978751.426    81809706.65349  19978751.040
 108284994.71449  20605942.931    84377938.52549  20605942.348
 04 12 12  3 45  0.0000000  0  8G 2G 6G10G17G18G21G26G29
 129445725.69645  24632688.251   100866826.34547  24632686.577
 111039382.86949  21130087.299    86524193.60649  21130087.292
 119504216.90847  22740880.829    93120202.51548  22740880.109
 115909862.07748  22056896.271    90319412.52548  22056896.497
 120282918.10147  22889074.193    93726940.66948  22889073.063
 113858715.46048  21666590.308    88721077.42249  21666588.841
 104973856.74149  19975852.463    81797835.88749  19975852.086
 108299951.31849  20608789.084    84389593.02349  20608788.496
 04 12 12  3 45 30.0000000  0  8G 2G 6G10G17G18G21G26G29
 129544487.15244  24651481.997   100943783.17046  24651480.418
 111084060.25748  21138589.142    86559007.13449  21138589.134
 119585128.03747  22756277.694    93183250.16348  22756276.958
 115974769.25547  22069247.703    90369989.53848  22069247.920
 120212807.10846  22875732.491    93672308.73648  22875731.387
 113783713.32748  21652317.871    88662634.20449  21652316.403
 104959480.50149  19973116.762    81786633.62849  19973116.380
 108315642.69349  20611775.053    84401820.07149  20611774.458
 04 12 12  3 46  0.0000000  0  8G 2G 6G10G17G18G21G26G29
 129643075.05945  24670242.652   101020604.91846  24670241.028
 111128948.70948  21147131.142    86593985.12549  21147131.147
 119665806.19547  22771630.237    93246116.23948  22771629.511
 116039689.31847  22081601.604    90420576.57548  22081601.807
 120142577.95147  22862368.279    93617584.76648  22862367.181
 113708593.48648  21638023.047    88604099.26649  21638021.566
 104945492.04849  19970454.854    81775733.54149  19970454.467
 108331597.41849  20614811.142    84414252.32349  20614810.541
 04 12 12  3 46 30.0000000  0  8G 2G 6G10G17G18G21G26G29
 129741942.50745  24689056.525   101097644.46147  24689054.886
 111174500.48948  21155799.375    86629479.99149  21155799.386
 119746704.37547  22787024.625    93309153.78448  22787023.908
 116105075.78647  22094044.241    90471527.05348  22094044.441
 120072684.65747  22849068.004    93563122.47748  22849066.919
 113633811.31548  21623792.473    88545827.44749  21623790.985
 104932345.25949  19967953.109    81765489.29049  19967952.724
 108348268.43849  20617983.532    84427242.73649  20617982.925
 04 12 12  3 47  0.0000000  0  7G 6G10G17G18G21G26G29
 111220552.41148  21164562.783    86665364.57749  21164562.799
 119827660.00847  22802429.975    93372236.08448  22802429.273
 116170767.17547  22106544.908    90522715.11648  22106545.127
 120002965.66547  22835800.891    93508796.01848  22835799.820
 113559207.58548  21609595.855    88487694.67549  21609594.361
 104919878.84549  19965580.835    81755775.20649  19965580.438
 108365493.13749  20621261.289    84440664.57449  20621260.667
 04 12 12  3 47 30.0000000  0  7G 6G10G17G18G21G26G29
 111267250.78449  21173449.217    86701752.88049  21173449.240
 119908819.93547  22817874.202    93435477.57248  22817873.506
 116236911.30347  22119131.735    90574255.95848  22119132.004
 119933569.45247  22822595.183    93454721.08648  22822594.139
 113484931.92248  21595461.666    88429817.53649  21595460.164
 104908241.20149  19963366.265    81746706.92149  19963365.855
 108383418.46449  20624672.365    84454632.36749  20624671.730
 04 12 12  3 48  0.0000000  0  7G 6G10G17G18G21G26G29
 111314281.49649  21182398.882    86738400.16049  21182398.911
 119989871.11147  22833297.734    93498634.31848  22833297.074
 116303195.44947  22131745.207    90625905.91348  22131745.488
 119864183.85147  22809391.542    93400654.38248  22809390.528
 113410673.88548  21581330.820    88371954.15049  21581329.312
 104897119.34649  19961249.852    81738040.54549  19961249.437
 108401730.62349  20628157.053    84468901.57949  20628156.409
 04 12 12  3 48 30.0000000  0  7G 6G10G17G18G21G26G29
 111361948.13149  21191469.565    86775542.97149  21191469.588
 120071117.40747  22848758.396    93561943.10748  22848757.727
 116369924.48347  22144443.337    90677902.53748  22144443.656
 119795113.69147  22796247.898    93346833.50548  22796246.905
 113336740.67548  21567261.809    88314343.84149  21567260.301
 104886818.82649  19959289.735    81730014.16849  19959289.306
 108420733.89149  20631773.261    84483709.32049  20631772.611
 04 12 12  3 49  0.0000000  0  7G 6G10G17G18G21G26G29
 111409939.64349  21200602.081    86812938.91749  21200602.106
 120152248.77746  22864197.188    93625162.34348  22864196.564
 116436788.96847  22157167.244    90730004.71748  22157167.548
 119726050.55647  22783105.591    93293018.10048  22783104.625
 113262825.01348  21553196.121    88256747.22649  21553194.612
 104877030.46049  19957427.070    81722386.87349  19957426.643
 108440117.97949  20635461.930    84498813.79849  20635461.279
 04 12 12  3 49 30.0000000  0  7G 6G10G17G18G21G26G29
 111458562.21948  21209854.656    86850826.62249  21209854.685
 120233572.33947  22879672.547    93688531.36048  22879671.894
 116504096.77847  22169975.536    90782452.31848  22169975.857
 119657302.21747  22770023.193    93239447.98148  22770022.240
 113189236.48748  21539192.678    88199405.52949  21539191.176
 104868061.94549  19955720.425    81715398.41749  19955719.998
 108460189.26949  20639281.376    84514453.76549  20639280.711
 04 12 12  3 50  0.0000000  0  7G 6G10G17G18G21G26G29
 111507660.90849  21219197.855    86889085.30249  21219197.891
 120314933.79846  22895155.154    93751929.86048  22895154.516
 116571694.27747  22182838.918    90835125.69148  22182839.225
 119588715.46947  22756971.539    93186003.79948  22756970.579
 113115823.76648  21525222.720    88142200.79649  21525221.211
 104859759.96749  19954140.617    81708929.34949  19954140.178
 108480793.43749  20643202.224    84530508.96049  20643201.546
 04 12 12  3 50 30.0000000  0  7G 6G10G17G18G21G26G29
 111557235.25649  21228631.558    86927714.64649  21228631.587
 120396333.49047  22910644.976    93815358.21848  22910644.300
 116639582.61747  22195757.675    90888025.65748  22195758.005
 119520292.02547  22743950.955    93132686.85948  22743949.992
 113042590.45148  21511286.889    88085135.86749  21511285.388
 104852125.87549  19952687.903    81702980.70549  19952687.459
 108501930.74049  20647224.519    84546979.59049  20647223.834
 04 12 12  3 51  0.0000000  0  7G 6G10G17G18G21G26G29
 111607285.32649  21238155.788    86966714.67349  21238155.830
 120477772.36947  22926142.310    93878817.06448  22926141.637
 116707763.43847  22208732.084    90941153.53148  22208732.436
 119452034.00147  22730961.873    93079498.80348  22730960.910
 112969540.34948  21497385.905    88028213.72649  21497384.412
 104845161.21649  19951362.573    81697553.70549  19951362.114
 108523601.72149  20651348.370    84563866.07349  20651347.678
 04 12 12  3 51 30.0000000  0  7G 6G10G17G18G21G26G29
 111657811.88348  21247770.690    87006086.00149  21247770.733
 120559252.42247  22941647.442    93942308.03548  22941646.720
 116776239.02547  22221762.543    90994511.12848  22221762.883
 119383944.00447  22718004.747    93026441.69648  22718003.792
 112896677.93648  21483520.649    87971437.81749  21483519.171
 104838868.44249  19950165.098    81692650.24749  19950164.640
 108545807.52949  20655574.001    84581169.29749  20655573.294
 04 12 12  3 52  0.0000000  0  7G 6G10G17G18G21G26G29
 111708816.59649  21257476.588    87045829.90049  21257476.638
 120640775.98547  22957160.872    94005832.88848  22957160.153
 116845012.54547  22234849.715    91048100.85448  22234850.103
 119316025.74047  22705080.308    92973518.39448  22705079.381
 112824008.63048  21469692.134    87914812.38649  21469690.670
 104833251.09949  19949096.147    81688273.10149  19949095.689
 108568550.63149  20659901.863    84598891.20049  20659901.149
 04 12 12  3 52 30.0000000  0  7G 6G10G17G18G21G26G29
 111760301.86049  21267273.937    87085948.25349  21267273.995
 120722346.47047  22972683.213    94069394.30748  22972682.478
 116914088.04847  22247994.370    91101925.89048  22247994.734
 119248283.71947  22692189.418    92920732.41648  22692188.507
 112751538.66148  21455901.551    87858342.28249  21455900.094
 104828312.88249  19948156.435    81684425.14249  19948155.978
 108591833.86149  20664332.515    84617033.97549  20664331.785
 04 12 12  3 53  0.0000000  0  7G 6G10G17G18G21G26G29
 111812425.51448  21277192.763    87126564.05649  21277192.827
 120804122.65046  22988244.721    94133115.97048  22988244.027
 116983624.78547  22261226.783    91156110.32848  22261227.188
 119180877.48347  22679362.420    92868208.09448  22679361.523
 112679429.36848  21442179.603    87802153.22449  21442178.144
 104824213.23749  19947376.299    81681230.60649  19947375.847
 108615815.50949  20668896.076    84635720.96649  20668895.339
 04 12 12  3 53 30.0000000  0  7G 6G10G17G18G21G26G29
 111864883.74549  21287175.244    87167440.58349  21287175.308
 120885801.50647  23003787.702    94196761.82648  23003787.018
 117053320.56947  22274489.443    91210418.73048  22274489.824
 119113505.51247  22666541.930    92815710.48848  22666541.041
 112607381.17648  21428469.288    87746011.77249  21428467.828
 104820650.03949  19946698.239    81678454.09649  19946697.780
 108640192.40149  20673534.839    84654715.95349  20673534.093
 04 12 12  3 54  0.0000000  0  7G 6G10G17G18G21G26G29
 111917989.42648  21297280.937    87208821.60349  21297281.014
 120967696.99947  23019371.890    94260576.48948  23019371.234
 117123489.75547  22287842.225    91265095.98048  22287842.651
 119046482.39947  22653787.826    92763484.72348  22653786.922
 112535710.79748  21414830.868    87690164.71549  21414829.422
 104817937.58749  19946182.082    81676340.49349  19946181.616
 108665277.66349  20678308.411    84674262.91049  20678307.660
 04 12 12  3 54 30.0000000  0  7G 6G10G17G18G21G26G29
 111971439.13148  21307452.089    87250470.70549  21307452.165
 121049506.92847  23034939.838    94324324.45448  23034939.191
 117193830.93947  22301227.725    91319907.28348  22301228.131
 118979507.52148  22641042.907    92711296.53948  22641041.981
 112464118.90448  21401207.378    87634378.82549  21401205.938
 104815774.29149  19945770.409    81674654.81849  19945769.934
 108690769.01549  20683159.266    84694126.29449  20683158.509
 04 12 12  3 55  0.0000000  0  7G 6G10G17G18G21G26G29
 112025392.82648  21317719.160    87292512.52549  21317719.230
 121131392.36847  23050522.119    94388131.30148  23050521.460
 117264505.35547  22314676.649    91374978.21648  22314677.091
 118912742.58848  22628337.951    92659271.93248  22628337.010
 112392769.08949  21387629.954    87578781.57249  21387628.520
 104814321.53149  19945493.964    81673522.79349  19945493.482
 108716826.51749  20688117.850    84714430.84449  20688117.072
 04 12 12  3 55 30.0000000  0  7G 6G10G17G18G21G26G29
 112079702.26048  21328053.920    87334831.54349  21328053.997
 121213205.97246  23066090.736    94451882.15748  23066090.093
 117335366.41146  22328161.072    91430194.57848  22328161.590
 118846041.27148  22615645.094    92607296.91148  22615644.126
 112321517.35349  21374071.205    87523260.72949  21374069.787
 104813432.54849  19945324.790    81672830.07649  19945324.314
 108743302.74549  20693156.109    84735061.67349  20693155.331
 04 12 12  3 56  0.0000000  0  7G 6G10G17G18G21G26G29
 112134681.41748  21338516.123    87377672.41949  21338516.207
 121295263.00647  23081705.683    94515822.70248  23081705.004
 117406729.64347  22341741.037    91485802.28548  22341741.537
 118779719.60048  22603024.494    92555617.71048  22603023.499
 112250681.29149  21360591.545    87468063.80549  21360590.134
 104813422.64449  19945322.900    81672822.35949  19945322.421
 108770511.83149  20698333.832    84756263.55549  20698333.047
 04 12 12  3 56 30.0000000  0  7G 6G10G17G18G21G26G29
 112190027.07948  21349048.082    87420798.88249  21349048.160
 121377261.58147  23097309.493    94579717.70448  23097308.778
 117478293.52547  22355359.209    91541566.30948  22355359.765
 118713476.76848  22590418.896    92503999.93548  22590417.888
 112179961.79349  21347134.084    87412957.69749  21347132.675
 104813990.38749  19945430.932    81673264.75949  19945430.452
 108798151.40649  20703593.468    84777800.89049  20703592.677
 04 12 12  3 57  0.0000000  0  7G 6G10G17G18G21G26G29
 112245896.75948  21359679.740    87464333.68649  21359679.819
 121459360.40446  23112932.403    94643690.80048  23112931.707
 117550217.33147  22369045.860    91597610.82348  22369046.393
 118647472.60347  22577858.709    92452568.14648  22577857.697
 112109520.79249  21333729.607    87358068.60949  21333728.191
 104815294.88149  19945679.168    81674281.25049  19945678.682
 108826379.36349  20708965.069    84799796.69649  20708964.292
 04 12 12  3 57 30.0000000  0  7G 6G10G17G18G21G26G29
 112302292.21448  21370411.457    87508278.16349  21370411.562
 121541562.35246  23128574.908    94707744.26848  23128574.188
 117622504.38247  22382801.652    91653938.36548  22382802.207
 118581710.76048  22565344.629    92401325.17348  22565343.609
 112039363.85749  21320379.186    87303400.86849  21320377.771
 104817338.97349  19946068.140    81675874.05249  19946067.646
 108855198.23449  20714449.124    84822252.95349  20714448.347
 04 12 12  3 58  0.0000000  0  7G 6G10G17G18G21G26G29
 112359059.14448  21381213.862    87552512.11149  21381213.982
 121623714.34747  23144207.948    94771758.77448  23144207.245
 117695001.96747  22396597.478    91710429.99248  22396598.032
 118516038.98947  22552847.700    92350152.38448  22552846.661
 111969340.54749  21307054.205    87248837.24649  21307052.792
 104819970.12049  19946568.831    81677924.29349  19946568.335
 108884453.89749  20720016.292    84845049.57449  20720015.515
 04 12 12  3 58 30.0000000  0  7G 6G10G17G18G21G26G29
 112416349.20648  21392115.816    87597153.68949  21392115.957
 121705969.17547  23159860.516    94835853.47048  23159859.756
 117767863.43947  22410462.591    91767205.11348  22410463.165
 118450611.25848  22540397.199    92299169.76448  22540396.139
 111899606.88649  21293784.325    87194499.33949  21293782.905
 104823341.23849  19947210.339    81680551.13949  19947209.830
 108914298.80249  20725695.594    84868305.34449  20725694.819
 04 12 12  3 59  0.0000000  0  7G 6G10G17G18G21G26G29
 112474004.33348  21403087.234    87642079.73949  21403087.388
 121788169.99847  23175502.842    94899906.02648  23175502.097
 117840932.24947  22424367.135    91824141.83448  22424367.701
 118385271.92648  22527963.526    92248256.01648  22527962.436
 111830008.87049  21280540.269    87140267.11649  21280538.842
 104827295.67749  19947962.838    81683632.52249  19947962.328
 108944575.21949  20731457.011    84891897.35449  20731456.237
 04 12 12  3 59 30.0000000  0  7G 6G10G17G18G21G26G29
 112532172.43548  21414156.274    87687405.51349  21414156.421
 121870466.29147  23191163.282    94964033.03948  23191162.508
 117914358.14947  22438339.631    91881356.80048  22438340.181
 118320170.77048  22515575.182    92197527.86548  22515574.065
 111760698.60849  21267350.970    87086259.11649  21267349.522
 104831983.00049  19948854.806    81687284.98849  19948854.290
 108975431.79349  20737328.828    84915941.43749  20737328.047
                            4  1
RINEX FILE SPLICE; other post-header comments skipped       COMMENT
 04 12 12  4  0  0.0000000  0  7G 6G10G17G18G21G26G29
 112590845.66448  21425321.436    87733124.89049  21425321.590
 121952851.44546  23206840.697    95028229.21648  23206839.961
 117988134.87546  22452378.899    91938845.11448  22452379.498
 118255302.44548  22503231.144    92146981.14048  22503230.000
 111691672.32049  21254215.704    87032472.39749  21254214.240
 104837396.52549  19949884.977    81691503.31049  19949884.462
 109006860.96849  20743309.612    84940431.70149  20743308.828
 04 12 12  4  0 30.0000000  0  7G 6G10G17G18G21G26G29
 112650014.97448  21436580.993    87779230.82649  21436581.161
 122035317.58047  23222533.475    95092488.56348  23222532.720
 118062255.22947  22466483.528    91996601.22448  22466484.092
 118190660.06248  22490930.102    92096610.48148  22490928.933
 111622924.90849  21241133.513    86978902.98649  21241132.035
 104843528.57749  19951051.868    81696281.53649  19951051.346
 109038854.24949  20749397.737    84965361.52749  20749396.953
 04 12 12  4  1  0.0000000  0  7G 6G10G17G18G21G26G29
 112709361.66148  21447874.304    87825474.98049  21447874.479
 122117547.26747  23238181.276    95156563.64048  23238180.531
 118136401.97947  22480593.215    92054377.85148  22480593.864
 118125927.04848  22478611.807    92046169.19048  22478610.631
 111554141.99548  21228044.565    86925305.91649  21228043.083
 104850062.12049  19952295.160    81701372.61049  19952294.631
 109071093.47949  20755532.659    84990483.01149  20755531.876
 04 12 12  4  1 30.0000000  0  7G 6G10G17G18G21G26G29
 112769336.11848  21459287.081    87872208.29549  21459287.269
 122199992.63247  23253870.119    95220806.75848  23253869.395
 118211027.35547  22494793.969    92112527.48548  22494794.606
 118061556.35348  22466362.465    91996010.22048  22466361.276
 111485778.36848  21215035.394    86872035.56649  21215033.912
 104857448.62149  19953700.764    81707128.32649  19953700.228
 109104029.69649  20761800.219    85016147.59149  20761799.444
 04 12 12  4  2  0.0000000  0  7G 6G10G17G18G21G26G29
 112829926.41948  21470817.050    87919421.48949  21470817.244
 122282643.12046  23269597.960    95285209.75348  23269597.233
 118286121.14746  22509083.861    92171042.09548  22509084.517
 117997538.33248  22454180.229    91946126.07048  22454179.011
 111417826.93749  21202104.666    86819086.39849  21202103.185
 104865677.76749  19955266.719    81713540.65449  19955266.169
 109137651.50749  20768198.242    85042346.40349  20768197.477
