     2.10           OBSERVATION DATA    G (GPS)             RINEX VERSION / TYPE
teqc  2007Feb5      UNAVCO Archive Ops  20070321 07:51:20UTCPGM / RUN BY / DATE
Solaris 5.10|UltraSparc IIIi|cc -xarch=v9 SC5.8|=+-|*Sparc  COMMENT
BIT 2 OF LLI FLAGS DATA COLLECTED UNDER A/S CONDITION       COMMENT
GARL                                                        MARKER NAME
49721S001                                                   MARKER NUMBER
Davis, Jim          Harvard-Smithsonian CfA                 OBSERVER / AGENCY
3609A14796          TRIMBLE 4000SSI     7.19B               REC # / TYPE / VERS
0220062100          TRM29659.00     SCIS                    ANT # / TYPE
 -2384509.0615 -4239524.8940  4114370.6286                  APPROX POSITION XYZ
        0.0884        0.0000        0.0000                  ANTENNA: DELTA H/E/N
     1     1                                                WAVELENGTH FACT L1/2
     7    L1    L2    C1    P2    P1    S1    S2            # / TYPES OF OBSERV
    30.0000                                                 INTERVAL
RINEX file created by UNAVCO GPS Archive.                   COMMENT
For more information contact archive@unavco.org             COMMENT
Monument ID: 11764                                          COMMENT
UNAVCO 4-char name:   GARL                                  COMMENT
4-char name from Log or data file: GARL                     COMMENT
Monument location: 40.416527 -119.355457 1640.2266          COMMENT
Visit ID: 59421                                             COMMENT
                                                            COMMENT
GARL-BRGN-NV1996                                            COMMENT
                                                            COMMENT
End of DB comments                                          COMMENT
 SNR is mapped to RINEX snr flag value [1-9]                COMMENT
  L1: 3 -> 1; 8 -> 5; 40 -> 9                               COMMENT
  L2: 1 -> 1; 5 -> 5; 60 -> 9                               COMMENT
  2003    10    31     0     0   30.0000000     GPS         TIME OF FIRST OBS
                                                            END OF HEADER
 03 10 31  0  0 30.0000000  0  8G 9G11G 8G28G 7G 4G26G29
  -8785663.19256  -5517352.25856  22262872.4534   22262891.4064
        13.0004         13.0004
     86944.70952                  25052346.2584
         4.2504
  18436939.49055  17030862.82055  23825132.3594   23825170.8324
        10.0004          9.7504
   4721624.03356   4193674.68556  21907721.9224   21907732.0864
        18.0004         16.5004
  -6113705.33657  -5017271.64656  20725255.9304   20725270.6294
        21.5004         24.2504
  -5744712.93855  -4248178.33555  23055615.1804   23055645.9384
         9.5004          9.2504
   6775001.80755   6182822.69855  23440054.6804   23440067.5274
         9.0004          8.7504
   8690081.45453  12596177.39655  23863258.3444   23863283.1604
         5.7504          6.5004
 03 10 31  0  1  0.0000000  0  8G 9G11G 8G28G 7G 4G26G29
  -8829757.52346  -5551711.06246  22254481.0634   22254500.8954
        14.0004         13.7504
    200605.96842                  25073973.8674
         4.2504
  18581930.48545  17143842.53545  23852723.5704   23852761.5984
        10.0004         10.2504
   4804165.23546   4257992.97946  21923428.4224   21923439.0554
        18.0004         16.5004
  -6056964.01647  -4973057.16546  20736052.8834   20736066.9264
        21.2504         24.2504
  -5809919.06245  -4298986.83745  23043206.2114   23043236.3834
        10.7504          9.5004
   6884526.79245   6268166.65245  23460897.2664   23460908.6844
         9.0004          8.0004
   8808454.16643  12688415.09445  23885785.4304   23885806.0864
         6.0004          5.7504
 03 10 31  0  1 30.0000000  0  8G 9G11G 8G28G 7G 4G26G29
  -8873514.94246  -5585807.27446  22246154.0784   22246173.7344
        13.5004         13.7504
    314545.02042                  25095655.3984
         4.2504
  18727043.63645  17256917.44045  23880337.2504   23880376.7074
         8.7504          8.7504
   4886864.87046   4322434.77846  21939165.0784   21939174.9844
        18.0004         16.5004
  -5999915.73647  -4928603.60146  20746908.4844   20746923.0904
        21.2504         24.2504
  -5874941.79645  -4349652.49945  23030831.5164   23030862.0634
        11.5004          9.7504
   6994298.03345   6353702.49445  23481784.4304   23481796.7034
         8.2504          8.5004
   8926946.82943  12780746.31845  23908334.7114   23908360.6764
         6.0004          6.0004
 03 10 31  0  2  0.0000000  0  8G 9G11G 8G28G 7G 4G26G29
  -8916939.03846  -5619643.69746  22237890.4454   22237909.2344
        13.2504         12.7504
    428754.39942                  25117388.0864
         4.2504
  18872270.79643  17370081.13745  23907974.0634   23908010.8834
         6.2504          7.2504
   4969716.63546   4386995.16646  21954930.9614   21954941.2424
        17.7504         16.5004
  -5942567.76347  -4883916.46946  20757821.0634   20757835.5274
        21.2504         24.5004
  -5939783.93145  -4400177.47645  23018491.5704   23018521.2734
        11.7504         10.5004
   7104306.81045   6439423.44845  23502719.9694   23502731.2584
         9.0004          7.7504
   9045550.38343  12873163.86345  23930905.9694   23930929.0744
         6.2504          5.2504
 03 10 31  0  2 30.0000000  0  8G 9G11G 8G28G 7G 4G26G29
 -10535441.35346  -6880813.81846  21929899.1414   21929917.5784
        13.2504         12.7504
  -1032177.54942                  24839382.1254
         4.0004
  17442202.26643  16255741.72845  23635841.0864   23635880.2854
         5.0004          5.7504
   3477310.69946   3224081.85846  21670935.5944   21670945.2894
        17.7504         16.2504
  -7460332.26247  -6066589.73946  20469000.0004   20469014.1844
        21.2504         24.5004
  -7579856.64646  -5678154.93945  22706395.7504   22706423.4964
        12.5004         10.7504
   5639141.05145   5297735.68945  23223906.6804   23223917.5004
         8.2504          8.7504
   7588853.28443  11738074.48045  23653705.3134   23653727.0944
         6.2504          6.5004
 03 10 31  0  3  0.0000000  0  8G 9G11G 8G28G 7G 4G26G29
 -10578182.07346  -6914117.67746  21921765.3054   21921783.4024
        13.5004         13.0004
   -917426.26542                  24861218.0394
         4.2504
  17587660.70341  16369085.50044  23663517.2194   23663549.1724
         2.7504          4.2504
   3560475.95446   3288886.37346  21686761.1094   21686770.9104
        17.5004         15.7504
  -7402379.99647  -6021431.77546  20480027.5864   20480041.8874
        21.2504         24.2504
  -7644318.54745  -5728383.71245  22694127.3754   22694155.7074
        10.5004          9.7504
   5749624.76445   5383826.75345  23244933.4384   23244946.4144
         9.2504          8.5004
   7707678.93043  11830665.15345  23676317.1024   23676341.2624
         6.0004          6.2504
 03 10 31  0  3 30.0000000  0  8G 9G11G 8G28G 7G 4G26G29
 -10620582.81446  -6947156.53546  21913696.3914   21913714.6884
        13.7504         13.5004
   -802413.15342  -1182768.29853  24883104.9534   24883107.2974
         4.2504          3.2504
  -1522039.70851                  23691221.0554
         3.7504
   3643792.64246   3353808.83546  21702615.3134   21702624.8914
        17.7504         16.0004
  -7344133.10347  -5976044.27046  20491111.3914   20491125.7384
        21.2504         24.5004
  -7708590.91245  -5778464.83745  22681895.8284   22681924.1954
        10.0004          9.5004
   5860336.07645   5470095.18145  23265999.9224   23266013.1564
         8.2504          8.7504
   7826605.36643  11923334.38645  23698949.4064   23698974.0004
         6.2504          7.2504
 03 10 31  0  4  0.0000000  0  8G 9G11G 8G28G 7G 4G26G29
 -10662639.56346  -6979927.42046  21905692.4774   21905710.2344
        13.2504         12.7504
   -687137.43542                  24905042.0004
         4.2504
  -1376367.60143                  23718942.1174
         6.0004
   3727262.39846   3418850.50446  21718498.7344   21718508.3134
        17.5004         16.0004
  -7285590.99847  -5930426.68946  20502251.2814   20502265.3134
        21.2504         24.5004
  -7772668.80445  -5828394.38245  22669701.1484   22669729.5984
         9.5004          9.5004
   5971273.66745   5556539.92845  23287112.5944   23287124.7154
         8.7504          8.7504
   7945631.57043  12016081.29545  23721599.5394   23721624.7544
         6.2504          6.5004
 03 10 31  0  4 30.0000000  0  8G 9G11G 8G28G 7G 4G26G29
 -10704350.58446  -7012428.90746  21897754.6414   21897773.7234
        13.5004         13.5004
   -571603.20342                  24927027.3204
         4.0004
  -1230592.15445                  23746682.6954
         8.2504
   3810883.98846   3484010.39446  21734411.2734   21734420.5474
        17.5004         16.2504
  -7226756.38847  -5884581.19346  20513446.8674   20513460.6884
        21.2504         24.2504
  -7836550.22045  -5878170.91245  22657543.8204   22657572.5394
         9.5004         10.2504
   6082433.52245   5643157.93145  23308265.3054   23308278.0594
         8.5004          9.0004
   8064753.29643  12108902.56745  23744269.6644   23744295.9574
         6.2504          6.5004
 03 10 31  0  5  0.0000000  0  8G 9G11G 8G28G 7G 4G26G29
 -10745708.21546  -7044654.93646  21889884.1724   21889902.4344
        13.7504         13.5004
   -455807.98542                  24949062.4224
         4.0004
  -1084709.81844                  23774442.4064
         7.0004
   3894663.11146   3549293.02146  21750353.9694   21750363.3484
        17.5004         16.0004
  -7167625.21147  -5838504.59746  20524699.1174   20524712.8914
        21.2504         24.2504
  -7900226.42545  -5927787.56245  22645426.1254   22645455.8984
         9.2504          9.2504
   6193817.65445   5729950.63645  23329460.5864   23329472.5784
         8.2504          8.5004
   8183972.27043  12201799.61145  23766956.7194   23766981.0084
         6.7504          6.2504
 03 10 31  0  5 30.0000000  0  8G 9G11G 8G28G 7G 4G26G29
 -10786712.49146  -7076605.70346  21882080.9774   21882098.3714
        13.5004         12.7504
   -339755.53441                  24971146.7894
         3.7504
   -938725.58244  -1189677.32555  23802222.5554   23802264.4384
         7.0004          7.2504
   3978597.13646   3614696.41146  21766325.4614   21766335.0744
        17.5004         15.7504
  -7108201.59047  -5792200.17346  20536006.7894   20536020.5044
        21.2504         24.5004
  -7963696.97345  -5977243.95145  22633346.5474   22633373.0514
         9.2504          8.7504
   6305420.53945   5816913.80945  23350698.3594   23350710.3874
         8.5004          8.0004
   8303283.51843  12294768.58945  23789660.4144   23789683.6134
         6.0004          6.7504
 03 10 31  0  6  0.0000000  0  8G 9G11G 8G28G 7G 4G26G29
 -10827364.33746  -7108281.91346  21874344.4614   21874362.2304
        13.2504         13.0004
   -223451.13041                  24993277.3984
         3.7504
   -792644.60343  -1075848.20945  23830021.1804   23830061.1644
         6.7504          7.2504
   4062682.70346   3680217.90146  21782326.6094   21782336.0594
        17.0004         15.5004
  -7048490.05147  -5745671.34946  20547369.4304   20547382.9574
        21.5004         24.2504
  -8026962.00045  -6026540.30245  22621307.8054   22621335.9844
        10.7504          9.5004
   6417235.85045   5904042.51445  23371975.4454   23371987.1094
         8.2504          8.7504
   8422680.38743  12387804.24045  23812381.2814   23812406.0044
         6.0004          5.2504
 03 10 31  0  6 30.0000000  0  8G 9G11G 8G28G 7G 4G26G29
 -10867658.67846  -7139679.54346  21866676.6254   21866694.5004
        14.2504         13.2504
   -106896.15141                  25015458.8204
         3.7504
   -646466.60343   -961943.55345  23857837.7894   23857879.2854
         6.7504          7.5004
   4146922.36146   3745859.44846  21798356.6094   21798365.8134
        17.7504         15.5004
  -6988489.58247  -5698917.39646  20558786.5474   20558799.9694
        21.5004         24.2504
  -8090015.67345  -6075671.98545  22609307.2194   22609336.0554
        10.5004          9.2504
   6529263.11745   5991336.31545  23393293.5554   23393303.5084
         8.7504          8.7504
   8542162.03043  12480905.82745  23835122.1024   23835143.4614
         6.5004          6.5004
 03 10 31  0  7  0.0000000  0  8G 9G11G 8G28G 7G 4G26G29
 -10907597.65446  -7170800.35246  21859076.0394   21859093.6454
        14.7504         13.7504
      9903.05241                  25037682.3134
         3.5004
   -500198.34742   -847968.51145  23885672.5634   23885714.7034
         4.7504          5.7504
   4231311.21746   3811617.18146  21814414.9224   21814424.7344
        17.0004         15.5004
  -6928206.24547  -5651943.00446  20570258.0234   20570271.4454
        21.2504         24.2504
  -8152859.62845  -6124640.31945  22597347.7734   22597375.0514
        10.7504         10.0004
   6641494.34045   6078789.06145  23414651.5474   23414663.6334
         8.7504          8.0004
   8661721.19243  12574067.88945  23857873.5864   23857903.2304
         6.2504          5.0004
 03 10 31  0  7 30.0000000  0  8G 9G11G 8G28G 7G 4G26G29
 -10947173.50646  -7201638.23646  21851544.6484   21851562.8754
        14.0004         13.5004
    126949.86941                  25059957.1174
         3.5004
   -353836.28941   -733920.45244  23913523.7114   23913563.9534
         3.5004          4.7504
   4315855.32946   3877496.05746  21830502.8204   21830511.9184
        17.0004         15.2504
  -6867635.93047  -5604745.02046  20581783.6954   20581797.2464
        21.2504         24.2504
  -8215484.99745  -6173438.25845  22585430.4844   22585458.1374
        11.0004         10.5004
   6753932.26245   6166402.85945  23436046.1954   23436057.8244
         8.0004          8.0004
   8781360.10643  12667291.97245  23880640.7734   23880668.9654
         6.0004          5.5004
 03 10 31  0  8  0.0000000  0  8G 9G11G 8G28G 7G 4G26G29
 -10986401.91746  -7232205.33146  21844078.9694   21844097.0204
        14.0004         13.5004
    244222.94441                  25082271.3914
         3.2504
   -207401.10543   -619815.37545  23941390.5944   23941431.6564
         6.2504          7.2504
   4400535.57746   3943480.73546  21846617.0634   21846626.1374
        17.0004         15.5004
  -6806798.46747  -5557338.82446  20593360.2424   20593373.6054
        21.5004         24.0004
  -8277907.07645  -6222077.84645  22573550.8834   22573579.3914
        10.7504          9.7504
   6866555.42145   6254160.98445  23457478.5164   23457491.0824
         8.2504          8.7504
   8901057.16543  12760561.34245  23903418.1254   23903441.1484
         5.0004          6.5004
 03 10 31  0  8 30.0000000  0  8G 9G11G 8G28G 7G 4G26G29
 -11025278.38146  -7262498.25146  21836681.0944   21836697.9144
        15.0004         14.2504
    361721.74541                  25104630.5394
         3.0004
    -60892.93843   -505653.39745  23969270.0704   23969308.7774
         6.5004          6.2504
   4485354.63946   4009573.65046  21862757.3524   21862766.8484
        16.7504         15.2504
  -6745693.28747  -5509724.05246  20604988.0234   20605001.3524
        21.5004         24.2504
  -8340120.68145  -6270555.02545  22561710.7734   22561737.2304
        10.5004         10.5004
   6979362.78645   6342062.70345  23478944.0944   23478957.2934
         8.0004          8.0004
   9020811.79542  12853875.62944  23926205.5084   23926234.7774
         4.5004          4.5004
 03 10 31  0  9  0.0000000  0  8G 9G11G 8G28G 7G 4G26G29
 -11063794.45146  -7292510.43446  21829351.3134   21829368.0044
        15.5004         14.7504
    479449.96141                  25127035.5004
         3.0004
     85692.32043   -391431.41745  23997163.8204   23997202.3634
         5.7504          5.0004
   4570318.40946   4075779.30446  21878925.2344   21878934.3204
        16.5004         15.2504
  -6684315.56547  -5461896.88546  20616667.5084   20616680.7424
        21.5004         24.0004
  -8402116.70045  -6318862.69545  22549913.3054   22549938.5084
        11.2504         10.5004
   7092357.46444   6430110.32245  23500447.2734   23500459.8164
         7.7504          8.2504
   9140626.75142  12947236.73845  23949004.6174   23949032.5744
         4.5004          6.0004
 03 10 31  0  9 30.0000000  0  8G 9G11G 8G28G 7G 4G26G29
 -11101947.75046  -7322239.92246  21822091.0474   21822107.5164
        15.0004         14.2504
    597406.42641                  25149479.9924
         3.0004
    232352.28042   -277150.89843  24025073.2274   24025110.6684
         4.7504          3.2504
   4655426.91446   4142097.84946  21895120.7734   21895130.5274
        16.5004         15.5004
  -6622667.20947  -5413858.87446  20628398.7034   20628411.6804
        21.2504         24.2504
  -8463891.96645  -6366998.34745  22538157.0634   22538182.5474
        11.2504         11.2504
   7205535.90244   6518301.11745  23521984.4064   23521996.5394
         7.7504          7.7504
   9260498.72442  13040642.39845  23971819.2194   23971849.3674
         4.5004          5.2504
 03 10 31  0 10  0.0000000  0  8G 9G11G 8G28G 7G 4G26G29
 -11139738.60946  -7351687.00046  21814898.9844   21814915.4184
        14.5004         13.7504
    715585.45841                  25171967.5554
         2.7504
    379082.28843   -162816.18445  24052994.0314   24053034.0864
         6.2504          6.5004
   4740677.17246   4208526.73246  21911343.1564   21911352.5704
        16.2504         15.5004
  -6560752.03647  -5365612.96746  20640180.2894   20640193.2894
        21.2504         24.2504
  -8525445.65945  -6414961.34145  22526442.8364   22526468.2034
        11.7504         11.5004
   7318892.58744   6606630.84845  23543555.2814   23543567.7074
         7.7504          8.0004
   9380421.92843  13134087.92045  23994638.6564   23994665.2194
         5.0004          5.0004
 03 10 31  0 10 30.0000000  0  8G 9G11G 8G28G 7G 4G26G29
 -11177156.04346  -7380843.07146  21807778.7974   21807795.3594
        15.2504         14.7504
                                  25194501.2274
         2.5004
    525888.54444    -48422.00045  24080931.5864   24080969.6954
         7.0004          7.2504
   4826078.07646   4275073.23246  21927594.2584   21927603.2154
        16.2504         15.0004
  -6498563.28947  -5317153.91546  20652014.3754   20652027.2814
        21.5004         24.0004
  -8586766.74445  -6462743.14945  22514773.1254   22514798.8794
        11.2504         11.2504
   7432432.91344   6695103.65045  23565160.7734   23565173.1414
         7.7504          8.2504
   9500402.15743  13227577.82445  24017474.8594   24017503.8484
         5.5004          6.0004
 03 10 31  0 11  0.0000000  0  8G 9G11G 8G28G 7G 4G26G29
 -11214209.08846  -7409715.22046  21800727.5554   21800744.4104
        15.7504         15.0004
  -1484461.22151                  25217072.8524
         2.5004
    672757.82243     66021.40945  24108880.1644   24108918.2734
         5.5004          5.2504
   4911618.09746   4341728.07646  21943871.9774   21943881.2624
        16.0004         15.0004
  -6436113.48747  -5268491.40846  20663897.8834   20663910.7544
        21.2504         24.0004
  -8647862.93745  -6510349.67845  22503146.8284   22503171.8444
        11.7504         11.0004
   7546142.44845   6783708.29745  23586801.2894   23586814.7234
         8.0004          8.5004
   9620424.94943  13321100.94245  24040313.8524   24040341.1294
         5.2504          6.0004
 03 10 31  0 11 30.0000000  0  8G 9G11G 8G28G 7G 4G26G29
 -11250894.58346  -7438300.97746  21793746.4064   21793762.8054
        15.2504         14.7504
  -1555604.68251                  25239686.7664
         2.5004
    819688.48541    180512.63644  24136841.6564   24136876.4734
         3.5004          4.0004
   4997297.79246   4408491.69946  21960175.8674   21960184.6374
        16.0004         15.0004
  -6373403.59547  -5219626.23546  20675831.0784   20675843.5514
        21.2504         24.0004
  -8708730.52045  -6557778.07845  22491563.6804   22491588.7664
        11.7504         11.0004
   7660018.81344   6872442.95345  23608468.7274   23608485.6994
         7.5004          8.0004
   9740487.22943  13414654.71745  24063158.9224   24063183.4224
         5.0004          5.7504
 03 10 31  0 12  0.0000000  0  8G 9G11G 8G28G 7G 4G26G29
 -11287218.79546  -7466605.29946  21786833.6334   21786849.5274
        14.7504         14.2504
  -1531753.70951                  25262338.1094
         2.2504
    966669.81342                  24164809.8914
         4.0004
   5083108.66046   4475357.49746  21976505.0554   21976514.1524
        15.7504         14.7504
  -6310443.30147  -5170565.91546  20687811.5084   20687824.0864
        21.5004         24.0004
  -8769374.91745  -6605032.57645  22480022.5164   22480047.5434
        11.5004         11.2504
   7774050.31344   6961298.43345  23630170.0864   23630182.2304
         7.5004          8.5004
   9860578.21443  13508230.82545  24086014.0004   24086040.5044
         5.5004          6.2504
 03 10 31  0 12 30.0000000  0  8G 9G11G 8G28G 7G 4G26G29
 -11323174.02946  -7494622.16646  21779991.5704   21780007.5124
        15.2504         14.7504
                                  25285030.5704
         2.5004
   1113705.02643                  24192790.4304
         5.0004
   5169056.00346   4542329.67946  21992859.9224   21992868.9614
        15.7504         14.2504
  -6247229.05647  -5121307.66446  20699840.3444   20699852.7344
        21.2504         23.7504
  -8829787.92245  -6652106.80545  22468525.6414   22468551.1024
        11.7504         11.0004
   7888239.13744   7050276.47345  23651900.6804   23651914.7344
         7.7504          7.2504
   9980699.77443  13601830.71745  24108873.8834   24108904.9694
         5.0004          5.7504
 03 10 31  0 13  0.0000000  0  8G 9G11G 8G28G 7G 4G26G29
 -11358757.09446  -7522348.99446  21773220.1884   21773236.0234
        15.7504         15.5004
                                  25307757.0634
         2.0004
   1260792.81643  -1212320.31155  24220779.9534   24220817.6524
         5.5004          5.0004
   5255140.34746   4609408.58146  22009241.5164   22009250.2504
        16.0004         14.7504
  -6183761.74747  -5071852.27446  20711917.8914   20711930.1884
        21.2504         23.7504
  -8889965.50145  -6698997.55945  22457072.9844   22457097.8594
        11.2504         10.5004
   8002582.86144   7139375.18245  23673658.9844   23673671.0474
         7.5004          7.5004
  10100849.60342  13695452.62344  24131737.6334   24131768.9534
         4.5004          4.7504
 03 10 31  0 13 30.0000000  0  8G 9G11G 8G28G 7G 4G26G29
 -11393965.57546  -7549783.96046  21766520.0004   21766536.7274
        15.2504         15.7504
                                  25330526.2034
         2.2504
   1407930.78843  -1097667.62745  24248779.7584   24248820.3164
         5.0004          6.0004
   5341361.95646   4676594.43946  22025648.4454   22025657.4264
        15.7504         14.7504
  -6120042.62847  -5022200.75346  20724042.6564   20724055.0594
        21.0004         23.5004
  -8949904.36346  -6745702.31845  22445666.9224   22445691.5984
        12.0004         11.2504
   8117078.58044   7228592.43045  23695447.5474   23695460.6764
         7.7504          7.0004
  10221024.64142  13789094.32243  24154605.8134   24154631.9884
         4.5004          3.7504
 03 10 31  0 14  0.0000000  0  8G 9G11G 8G28G 7G 4G26G29
 -11428805.12146  -7576931.34446  21759890.1644   21759906.9614
        14.7504         15.0004
                                  25353331.0084
         2.0004
   1555108.90043   -982983.60645  24276786.3444   24276826.5274
         5.2504          5.7504
   5427712.71546   4743880.95146  22042080.3524   22042089.1684
        15.7504         14.5004
  -6056081.17547  -4972360.31046  20736214.0314   20736226.3874
        21.2504         24.0004
  -9009609.78846  -6792225.14345  22434305.0784   22434329.3794
        12.5004         11.7504
   8231715.05544   7317919.37845  23717261.0474   23717273.2274
         7.5004          7.5004
  10341213.94742  13882747.08545  24177480.0634   24177514.5394
         4.7504          5.5004
 03 10 31  0 14 30.0000000  0  8G 9G11G 8G28G 7G 4G26G29
 -11463267.62846  -7603784.86846  21753331.5084   21753347.5434
        15.0004         14.5004
                                  25376171.1094
         1.7504
   1702330.42343   -868265.77345  24304802.5474   24304845.4964
         6.0004          5.7504
   5514198.20946   4811272.43546  22058537.8984   22058547.1724
        15.7504         14.7504
  -5991873.32447  -4922327.82646  20748432.1804   20748444.6524
        21.0004         24.0004
  -9069072.94646  -6838559.25045  22422988.6954   22423012.7624
        13.0004         11.7504
   8346494.85844   7407357.96745  23739102.6174   23739119.5204
         7.2504          6.7504
  10461420.00942  13976412.86044  24200357.3914   24200389.2854
         4.2504          4.5004
 03 10 31  0 15  0.0000000  0  7G 9G 8G28G 7G 4G26G29
 -11497354.51646  -7630345.73146  21746845.0784   21746861.1254
        15.5004         14.5004
   1849589.79043   -753518.24445  24332825.2734   24332861.9654
         6.7504          5.5004
   5600815.01746   4878766.37446  22075020.1724   22075028.2504
        15.7504         14.2504
  -5927424.09147  -4872107.24846  20760696.1644   20760708.2734
        21.0004         23.5004
  -9128293.93646  -6884704.57245  22411718.4304   22411742.4264
        12.7504         11.7504
   8461411.12544   7496902.97045  23760972.6024   23760985.2034
         7.5004          7.2504
                                  24223231.8914
         4.0004
 03 10 31  0 15 30.0000000  0  7G 9G 8G28G 7G 4G26G29
 -11531055.70146  -7656605.92146  21740431.4144   21740447.6604
        15.7504         15.5004
   1996892.46443   -638737.16945  24360855.4614   24360888.7154
         6.5004          5.0004
   5687570.46846   4946368.31546  22091528.9224   22091536.9654
        15.5004         14.2504
  -5862727.36647  -4821693.86946  20773007.3444   20773019.4534
        21.0004         23.7504
  -9187262.50546  -6930653.19345  22400496.4454   22400521.1334
        12.2504         11.2504
   8576468.71444   7586558.05445  23782867.4534   23782880.3954
         7.5004          7.2504
  -1459200.99342                  24246113.7504
         4.5004
 03 10 31  0 16  0.0000000  0  7G 9G 8G28G 7G 4G26G29
 -11564377.29846  -7682570.36446  21734090.2114   21734106.3984
        15.7504         15.7504
   2144228.15143   -523930.20144  24388893.2274   24388932.3444
         5.7504          4.0004
   5774456.49246   5014071.98146  22108062.5234   22108070.7194
        15.7504         14.2504
  -5797792.91047  -4771095.25146  20785363.4454   20785375.4964
        21.2504         23.2504
  -9245983.62446  -6976409.05746  22389322.0784   22389345.8874
        12.7504         12.2504
   8691655.96043   7676314.13745  23804784.8914   23804798.5594
         6.7504          7.0004
  -1338966.65642                  24268994.8204
         4.5004
 03 10 31  0 16 30.0000000  0  7G 9G 8G28G 7G 4G26G29
 -11597315.62446  -7708236.19046  21727822.1094   21727838.7544
        15.7504         16.0004
   2291596.05742   -409098.14545  24416936.4144   24416971.7464
         4.7504          5.0004
   5861474.41546   5081878.45646  22124621.2344   22124629.7114
        15.2504         14.0004
  -5732620.52347  -4720311.18646  20797765.2504   20797777.3594
        21.0004         23.5004
  -9304452.82345  -7021968.57045  22378193.5234   22378217.3674
        11.7504         11.5004
   8806971.31844   7766170.05445  23826730.6254   23826742.9454
         7.2504          7.5004
  -1218730.63542  -1190127.33955  24291874.8364   24291910.1454
         4.2504          5.5004
 03 10 31  0 17  0.0000000  0  8G 9G 8G28G 7G 4G26G 5G29
 -11629866.02646  -7733599.71246  21721627.3284   21721642.9654
        15.7504         15.5004
   2438996.21342   -294240.93844  24444986.2424   24445023.5904
         4.2504          4.7504
   5948626.38046   5149789.38246  22141205.6024   22141213.6094
        15.2504         14.0004
  -5667209.69647  -4669341.30046  20810212.2974   20810224.1844
        21.0004         23.5004
  -9362664.87746  -7067327.81246  22367116.8914   22367139.9024
        13.0004         12.2504
   8922413.93843   7856125.17045  23848699.0704   23848712.0354
         6.7504          7.2504
  -1585545.10051                  25273406.8284
         3.2504
  -1098493.89842  -1096437.73545  24314755.8054   24314789.2814
         4.7504          6.2504
 03 10 31  0 17 30.0000000  0  8G 9G 8G28G 7G 4G26G 5G29
 -11662029.60046  -7758661.77046  21715506.5004   21715522.3714
        15.7504         15.5004
   2586422.98542   -179363.18443  24473040.2344   24473078.0394
         4.0004          3.5004
   6035908.49246   5217801.47946  22157814.8754   22157822.9184
        15.2504         14.2504
  -5601565.78647  -4618189.92946  20822703.7584   20822715.2704
        21.0004         23.2504
  -9420619.84846  -7112486.63446  22356087.5234   22356110.3484
        13.0004         12.2504
   9037977.16743   7946174.27845  23870687.7344   23870697.3714
         6.7504          7.2504
  -1646357.82441                  25261837.7504
         2.7504
   -978262.35442  -1002752.00045  24337635.6024   24337670.6994
         4.5004          5.7504
 03 10 31  0 18  0.0000000  0  8G 9G 8G28G 7G 4G26G 5G29
 -11693801.47146  -7783418.52746  21709460.1884   21709475.8134
        16.0004         16.0004
   2733876.89542    -64463.99444  24501100.7344   24501139.1484
         4.0004          4.2504
   6123323.96846   5285917.52646  22174449.6334   22174457.2774
        15.7504         13.7504
  -5535687.14947  -4566855.66146  20835239.5394   20835251.2384
        21.0004         23.2504
  -9478312.41246  -7157441.02746  22345108.6644   22345131.2194
        13.2504         12.2504
   9153660.57743   8036317.03145  23892702.0864   23892717.3594
         6.2504          6.7504
                                  25250243.2034
         2.7504
   -858036.74343   -909070.99045  24360517.6334   24360549.6334
         5.5004          5.2504
 03 10 31  0 18 30.0000000  0  8G 9G 8G28G 7G 4G26G 5G29
 -11725179.97946  -7807868.81546  21703488.7274   21703503.9774
        16.5004         16.5004
   2881355.63042     50454.46545  24529164.1724   24529205.2584
         4.0004          5.5004
   6210872.40246   5354137.22546  22191109.4064   22191117.8134
        15.2504         14.0004
  -5469575.71147  -4515339.99446  20847819.7894   20847831.2774
        21.0004         23.5004
  -9535739.69446  -7202188.75446  22334179.6564   22334201.5434
        13.0004         12.5004
   9269460.62144   8126550.53645  23914740.0164   23914751.1764
         7.0004          6.2504
                                  25238637.6484
         2.7504
   -737820.53542   -815397.20745  24383391.2814   24383424.1134
         4.0004          5.7504
 03 10 31  0 19  0.0000000  0  8G 9G 8G28G 7G 4G26G 5G29
 -11756164.77546  -7832012.42346  21697592.4384   21697607.8524
        16.2504         16.2504
   3028854.64242    165388.72745  24557231.7584   24557270.9924
         4.5004          5.0004
   6298552.03346   5422459.18346  22207793.4064   22207801.6024
        15.0004         13.7504
  -5403234.89647  -4463645.59346  20860444.2584   20860455.7464
        21.0004         23.2504
  -9592900.79646  -7246728.98646  22323300.6174   22323323.0904
        12.7504         12.2504
   9385372.19143   8216871.01445  23936795.6724   23936808.8484
         6.5004          7.0004
  -1622256.84551                  25227014.0864
         3.7504
   -617618.96743   -721734.98445  24406267.1334   24406294.5044
         5.0004          5.0004
 03 10 31  0 19 30.0000000  0  8G 9G 8G28G 7G 4G26G 5G29
 -11786746.95046  -7855842.25846  21691772.1334   21691787.7344
        16.2504         16.2504
   3176378.30643    280342.23645  24585305.4774   24585344.6524
         5.0004          5.7504
   6386368.95246   5490888.18046  22224505.0784   22224512.9104
        15.2504         13.5004
  -5336659.67447  -4411768.46446  20873112.6334   20873123.9804
        21.0004         23.2504
  -9649785.87346  -7291054.15746  22312475.6724   22312497.6764
        13.0004         12.5004
   9501398.69143   8307280.98045  23958876.3914   23958892.9414
         6.7504          7.2504
  -1683424.19642                  25215375.5314
         4.2504
   -497428.15442   -628081.04945  24429140.1414   24429172.6334
         4.5004          5.2504
 03 10 31  0 20  0.0000000  0  8G 9G 8G28G 7G 4G26G 5G29
 -11816921.84046  -7879354.67046  21686029.8524   21686045.2194
        16.7504         16.2504
   3323927.21043    395315.39345  24613383.0474   24613423.6884
         5.7504          6.2504
   6474325.46646   5559425.78646  22241242.3054   22241249.5274
        15.0004         13.7504
  -5269849.04947  -4359707.86346  20885826.2664   20885837.3794
        21.0004         23.0004
  -9706389.83946  -7335160.35846  22301704.3674   22301726.8524
        13.5004         13.0004
   9617539.45843   8397779.94645  23980977.3054   23980988.5944
         6.5004          6.7504
  -1744672.95242                  25203719.4774
         4.7504
   -377248.83842   -534436.40745  24452011.0634   24452044.5044
         4.7504          5.5004
 03 10 31  0 20 30.0000000  0  8G 9G 8G28G 7G 4G26G 5G29
 -11846692.39346  -7902552.09946  21680364.2894   21680378.7074
        16.7504         16.2504
   3471493.76543    510302.36745  24641463.2584   24641506.6054
         6.0004          5.7504
   6562416.84546   5628068.60546  22258005.2344   22258012.9614
        14.7504         13.0004
  -5202810.05147  -4307469.40246  20898582.6804   20898593.9924
        21.0004         23.2504
  -9762714.63846  -7379049.02946  22290985.0944   22291006.7234
        13.2504         12.2504
   9733786.43844   8488361.70945  24003099.6334   24003114.0164
         7.2504          7.2504
  -1806007.03543                  25192049.5704
         5.2504
   -257089.27742   -440806.97244  24474876.1884   24474911.9414
         4.0004          4.7504
 03 10 31  0 21  0.0000000  0  8G 9G 8G28G 7G 4G26G 5G29
 -11876048.01746  -7925426.29446  21674778.2194   21674793.0594
        16.7504         16.2504
   3619084.15743    625307.96445  24669548.4144   24669591.4224
         5.7504          5.5004
   6650651.31646   5696822.97546  22274795.6954   22274803.7384
        14.5004         13.7504
  -5135535.24047  -4255047.13846  20911384.5944   20911396.1414
        20.7504         23.0004
  -9818748.66546  -7422711.09346  22280321.3054   22280342.3594
        13.2504         12.5004
   9850144.76743   8579030.31945  24025240.3134   24025255.0704
         6.5004          6.5004
  -1867417.82743  -1272263.05755  25180363.7974   25180367.2774
         5.7504          5.7504
   -136943.89442   -347188.66844  24497738.3204   24497768.3984
         4.0004          4.7504
 03 10 31  0 21 30.0000000  0  8G 9G 8G28G 7G 4G26G 5G29
 -11904985.08446  -7947974.25046  21669271.2664   21669285.8364
        17.0004         16.5004
   3766697.61443    740331.39645  24697638.8444   24697675.1604
         5.5004          6.0004
   6739030.05746   5765689.73646  22291613.6954   22291621.4694
        14.5004         13.2504
  -5068025.00547  -4202441.32146  20924231.2974   20924242.2584
        21.0004         23.2504
  -9874487.84846  -7466143.46146  22269714.1254   22269735.3094
        13.2504         13.0004
   9966612.79044   8669784.31945  24047405.2664   24047420.4344
         7.2504          7.5004
  -1928903.25843  -1320173.78045  25168662.6484   25168667.2894
         5.5004          6.5004
    -16814.30941   -253582.70144  24520601.8284   24520630.8874
         3.7504          4.0004
 03 10 31  0 22  0.0000000  0  8G 9G 8G28G 7G 4G26G 5G29
 -11933497.61546  -7970191.48046  21663845.2894   21663859.7544
        17.0004         16.7504
   3914335.83243    855374.13045  24725735.0164   24725775.8914
         5.0004          5.2504
   6827556.80846   5834671.80346  22308459.6254   22308467.0824
        14.2504         12.7504
  -5000276.89947  -4149650.15946  20937122.5474   20937133.6484
        21.0004         23.2504
  -9929925.07346  -7509340.47646  22259164.6334   22259185.6294
        14.2504         13.0004
  10083191.08343   8760624.26445  24069588.0784   24069603.5044
         6.2504          7.2504
  -1990459.23643  -1368139.47345  25156950.3984   25156958.9454
         5.0004          6.0004
    103300.21241   -159988.42644  24543457.4304   24543495.8324
         3.0004          4.2504
 03 10 31  0 22 30.0000000  0  8G 9G 8G28G 7G 4G26G 5G29
 -11961585.89746  -7992078.16246  21658499.8914   21658514.4964
        17.2504         17.2504
   4061994.48542    970432.79844  24753831.9304   24753874.7384
         4.2504          4.0004
   6916229.19146   5903767.36546  22325333.0164   22325341.5744
        14.2504         13.0004
  -4932295.04247  -4096676.91346  20950059.1564   20950069.9064
        21.2504         23.0004
  -9985059.76146  -7552301.81546  22248671.7814   22248692.7304
        13.5004         12.5004
  10199874.33344   8851546.02445  24091795.5634   24091811.0944
         7.2504          7.0004
  -2052087.22142  -1416161.19745  25145223.4694   25145230.1844
         4.7504          5.7504
    223394.34842    -66410.06443  24566317.7504   24566364.5314
         4.2504          3.5004
 03 10 31  0 23  0.0000000  0  8G 9G 8G28G 7G 4G26G 5G29
 -11989245.95246  -8013631.12046  21653236.2424   21653250.3794
        17.2504         17.0004
   4209672.87541   1085506.81142  24781934.3204   24781975.0554
         3.7504          2.7504
   7005048.87446   5972977.65046  22342234.8204   22342242.3594
        14.0004         12.5004
  -4864079.17447  -4043521.29346  20963039.7114   20963050.1914
        21.0004         23.0004
 -10039887.45946  -7595023.94146  22238237.8284   22238259.0234
        13.5004         12.7504
  10316661.08943   8942548.43445  24114015.1954   24114030.2934
         6.2504          6.7504
  -2113784.92442  -1464237.33243  25133482.5864   25133490.8874
         4.2504          3.7504
    343466.77442     27151.54245  24589165.0474   24589201.0704
         4.2504          5.0004
 03 10 31  0 23 30.0000000  0  8G 9G 8G28G 7G 4G26G 5G29
 -12016465.26746  -8034840.61746  21648056.1414   21648070.1134
        16.7504         16.7504
   4357379.31541   1200602.73944  24810042.7344   24810086.5044
         3.2504          4.0004
   7094026.67146   6042311.21946  22359166.7344   22359174.3794
        14.0004         12.5004
  -4795620.26347  -3990176.25646  20976066.9224   20976077.6024
        21.0004         23.0004
 -10094394.15846  -7637495.90646  22227864.6174   22227886.0944
        13.5004         13.0004
  10433558.75843   9033637.27545  24136261.5314   24136275.2464
         6.5004          7.0004
  -2175541.61641  -1512359.27443  25121727.8914   25121736.0864
         3.2504          3.7504
    463524.97642    120701.97143  24612010.7584   24612042.8754
         4.0004          3.0004
 03 10 31  0 24  0.0000000  0  8G 9G 8G28G 7G 4G26G 5G29
 -12043240.93146  -8055704.57046  21642960.7664   21642975.2544
        17.0004         17.0004
   4505112.77441                  24838152.6174
         2.5004
   7183163.61546   6111768.94346  22376128.7114   22376136.2734
        14.0004         12.7504
  -4726918.76547  -3936642.20646  20989139.9614   20989150.7114
        20.7504         23.0004
 -10148576.46746  -7679715.08246  22217553.6024   22217574.5634
        13.5004         13.0004
  10550565.03044   9124810.69045  24158529.1804   24158542.5554
         7.0004          7.0004
  -1585725.29851  -1560525.86143  25109965.6564   25109968.0474
         3.0004          3.0004
    583566.86142    214239.40845  24634855.8674   24634890.9774
         4.0004          5.5004
 03 10 31  0 24 30.0000000  0  8G 9G 8G28G 7G 4G26G 5G29
 -12069576.62146  -8076225.69346  21637949.3204   21637964.0204
        17.5004         17.5004
  -1550797.96751                  24866271.0554
         2.0004
   7272453.29946   6181345.73946  22393119.4924   22393127.7704
        14.0004         12.7504
  -4657982.35347  -3882925.11046  21002257.9064   21002268.4804
        21.2504         22.7504
 -10202437.39246  -7721683.77846  22207303.8134   22207324.1724
        14.2504         13.2504
  10667670.75443   9216061.53845  24180811.4844   24180826.3134
         6.5004          6.0004
  -1647601.74441                  25098190.2424
         2.5004
    703583.59441    307757.38044  24657694.3834   24657733.9694
         3.2504          4.2504
 03 10 31  0 25  0.0000000  0  8G 9G 8G28G 7G 4G26G 5G29
 -12095463.41946  -8096396.96346  21633022.7114   21633037.0474
        17.5004         17.2504
                                  24894389.0784
         1.2504
   7361902.16146   6251046.49146  22410140.2034   22410146.8364
        13.5004         12.7504
  -4588805.69247  -3829020.70246  21015420.9614   21015430.9384
        21.0004         22.7504
 -10255967.35646  -7763394.70346  22197117.3284   22197136.6804
        15.2504         13.7504
  10784879.61143   9307392.86745  24203115.6644   24203129.8134
         6.7504          6.7504
                                  25086411.3834
         2.0004
    823578.86842    401258.77444  24680531.4534   24680564.8244
         4.0004          4.5004
 03 10 31  0 25 30.0000000  0  6G 9G28G 7G 4G26G29
 -12120893.94646  -8116212.62546  21628183.1094   21628197.1764
        17.0004         17.2504
   7451514.90646   6320874.68846  22427192.9304   22427200.0704
        13.5004         12.7504
  -4519385.27547  -3774926.41246  21028631.1804   21028641.2034
        20.7504         22.5004
 -10309157.95946  -7804841.24646  22186994.6094   22187014.3134
        14.7504         13.5004
  10902193.79543   9398806.18045  24225440.8054   24225455.4104
         6.5004          7.5004
    943554.26642    494744.43045  24703363.5004   24703398.4694
         4.5004          5.2504
 03 10 31  0 26  0.0000000  0  6G 9G28G 7G 4G26G29
 -12145873.10446  -8135676.59046  21623429.8524   21623443.3554
        17.5004         17.2504
   7541285.29846   6390825.71246  22444276.3914   22444284.1174
        14.0004         13.0004
  -4449729.76047  -3720649.11646  21041885.9304   21041896.1764
        21.0004         22.2504
 -10362013.28646  -7846026.47846  22176935.2114   22176954.8674
        14.0004         13.5004
  11019603.22943   9490293.74145  24247783.2894   24247797.3444
         6.2504          7.0004
   1063500.63842    588207.44944  24726189.2584   24726226.3484
         4.2504          4.2504
 03 10 31  0 26 30.0000000  0  7G 9G28G 7G 4G26G 5G29
 -12170393.86246  -8154783.60746  21618763.6094   21618777.3364
        18.0004         17.2504
   7631218.96646   6460904.19546  22461389.8914   22461397.6054
        14.2504         12.7504
  -4379834.83447  -3666185.10146  21055186.3444   21055196.6024
        21.0004         22.5004
 -10414525.01246  -7886943.91846  22166943.0634   22166962.5664
        15.2504         13.2504
  11137109.87143   9581856.91345  24270145.6024   24270160.2424
         6.0004          6.7504
  -1598189.18052                  25050993.2584
         4.0004
   1183420.21342    681649.68244  24749011.7034   24749053.8794
         4.0004          4.5004
 03 10 31  0 27  0.0000000  0  7G 9G28G 7G 4G26G 5G29
 -12194452.17246  -8173530.14546  21614185.5234   21614199.4734
        18.0004         17.7504
   7721316.85646   6531110.73146  22478534.4304   22478541.3714
        13.5004         12.2504
  -4309700.51847  -3611534.37946  21068531.7274   21068541.5744
        21.0004         22.5004
 -10466689.00546  -7927590.43846  22157015.9774   22157035.3284
        15.2504         13.5004
  11254712.08543   9673494.62645  24292525.3054   24292539.9804
         6.2504          6.2504
  -1660324.50343                  25039168.3984
         5.5004
   1303310.94942    775069.28845  24771827.7664   24771862.1724
         4.5004          5.0004
 03 10 31  0 27 30.0000000  0  7G 9G28G 7G 4G26G 5G29
 -12218041.68446  -8191911.33246  21609696.1954   21609710.4844
        17.5004         17.5004
   7811582.87146   6601448.03646  22495711.7974   22495719.5234
        13.7504         13.0004
  -4239324.10247  -3556694.94846  21081923.4614   21081933.1564
        21.2504         22.2504
 -10518498.13646  -7967960.54846  22147156.0474   22147175.1644
        14.5004         13.0004
  11372411.50343   9765207.99945  24314921.5474   24314941.8134
         6.0004          5.7504
  -1722502.08343                  25027337.9534
         6.2504
   1423174.98342    868468.22444  24794637.4614   24794675.0314
         4.0004          4.2504
 03 10 31  0 28  0.0000000  0  7G 9G28G 7G 4G26G 5G29
 -13816582.04846  -9437526.93946  21305503.5554   21305517.7034
        18.0004         17.7504
   6326599.26246   5444317.92746  22213128.5474   22213135.5354
        13.7504         12.7504
  -5744125.95347  -4729267.37046  20795568.9844   20795578.5044
        21.2504         22.5004
 -12145371.94246  -9235653.87546  21837571.6954   21837591.0474
        14.2504         12.7504
   9914788.02143   8629397.11445  24037546.3054   24037563.1374
         6.2504          6.0004
  -3360145.08643                  24715704.0314
         6.7504
    -32407.65241   -265753.83543  24517648.4774   24517692.6564
         3.0004          3.2504
 03 10 31  0 28 30.0000000  0  7G 9G28G 7G 4G26G 5G29
 -13839232.26846  -9455176.27046  21301193.4454   21301207.1134
        18.0004         18.0004
   6417197.96646   5514914.34546  22230368.4844   22230375.5084
        13.5004         12.7504
  -5673274.58947  -4674058.21846  20809051.4224   20809061.1764
        21.0004         22.2504
 -12196465.81146  -9275466.54146  21827848.2344   21827866.9184
        14.5004         13.2504
  10032668.29743   8721251.53245  24059976.6174   24059992.1604
         6.0004          6.0004
  -3422410.79144  -2476228.43455  24703854.8984   24703861.2154
         7.2504          6.5004
     87389.41041   -172407.19945  24540447.9454   24540489.8524
         3.5004          5.0004
 03 10 31  0 29  0.0000000  0  7G 9G28G 7G 4G26G 5G29
 -13861413.42646  -9472460.18046  21296972.5554   21296986.0824
        18.2504         18.0004
   6507960.43446   5585638.76346  22247639.8594   22247647.7384
        13.5004         12.5004
  -5602190.90647  -4618667.87646  20822577.6954   20822587.2034
        20.7504         22.2504
 -12247201.41846  -9315000.10546  21818193.7664   21818211.5944
        15.0004         13.2504
  10150630.98643   8813170.10645  24082424.4454   24082441.7464
         5.5004          5.2504
  -3484722.62543  -2524783.15145  24691996.2734   24692002.6134
         6.7504          6.5004
    207145.23141    -79092.93744  24563240.6174   24563277.3914
         3.2504          4.0004
 03 10 31  0 29 30.0000000  0  8G 9G24G28G 7G 4G26G 5G29
 -13883120.81246  -9489374.97646  21292841.6954   21292855.4344
        18.2504         18.0004
  -3164281.29851                  24383309.3364
         3.0004
   6598889.00146   5656492.70146  22264942.9144   22264949.1844
        13.5004         12.0004
  -5530873.40247  -4563095.18946  20836148.6174   20836158.6174
        21.0004         22.2504
 -12297573.17246  -9354250.22046  21808607.1484   21808626.2074
        14.2504         13.7504
  10268675.66843   8905152.47145  24104890.1484   24104905.3284
         6.0004          6.2504
  -3547077.11443  -2573371.20345  24680131.6174   24680139.0164
         6.0004          6.7504
    326859.50241     14189.02744  24586022.9304   24586061.9064
         3.5004          4.5004
 03 10 31  0 30  0.0000000  0  8G 9G24G28G 7G 4G26G 5G29
 -13904345.47946  -9505913.54946  21288802.9384   21288816.8164
        18.2504         17.7504
  -3244951.40042                  24367957.9924
         4.0004
   6689989.13846   5727480.14046  22282278.3364   22282283.9844
        13.5004         12.2504
  -5459317.67847  -4507336.81546  20849764.5084   20849773.3014
        20.5004         21.7504
 -12347571.70746  -9393209.50546  21799092.1414   21799109.6294
        14.5004         13.2504
  10386805.71243   8997201.45545  24127368.8204   24127383.0394
         6.0004          6.5004
  -3609467.69942  -2621987.42945  24668259.4454   24668266.7624
         4.7504          6.0004
    446535.92741    107441.46244  24608796.4844   24608841.0864
         3.0004          4.0004
 03 10 31  0 30 30.0000000  0  8G 9G24G28G 7G 4G26G 5G29
 -13925086.62246  -9522075.21946  21284855.5944   21284868.9924
        18.5004         18.2504
  -3325641.80942                  24352600.2194
         4.7504
   6781259.80146   5798600.37546  22299646.0944   22299651.7304
        13.2504         12.0004
  -5387526.89847  -4451395.56446  20863425.9304   20863435.1094
        20.5004         22.0004
 -12397195.23346  -9431876.52546  21789649.3594   21789667.1764
        15.7504         13.7504
  10505016.78443   9089313.47245  24149866.9384   24149883.8524
         6.5004          6.0004
  -3671894.66342  -2670631.89944  24656379.9144   24656388.4144
         4.0004          4.7504
    566170.19441    200660.88142  24631563.2974   24631602.6844
         3.7504          2.5004
 03 10 31  0 31  0.0000000  0  8G 9G24G28G 7G 4G26G 5G29
 -13945342.30146  -9537858.69646  21281001.1884   21281014.5984
        18.5004         18.2504
  -3406349.28043                  24337240.8674
         5.2504
   6872702.16146   5869854.70146  22317046.9144   22317053.5704
        13.5004         12.2504
  -5315501.42147  -4395271.36846  20877131.1564   20877140.2424
        20.5004         21.7504
 -12446440.60946  -9470248.96746  21780277.7344   21780295.4694
        16.2504         13.7504
  10623306.41743   9181486.83245  24172373.8594   24172389.5314
         6.0004          5.0004
  -3734356.68241  -2719303.75845  24644493.7034   24644502.8244
         3.2504          5.7504
  -3083082.53252                  24654322.5474
         4.0004
 03 10 31  0 31 30.0000000  0  8G 9G24G28G 7G 4G26G 5G29
 -13965115.26246  -9553265.98746  21277238.1254   21277251.6294
        18.7504         18.2504
  -3487075.60443                  24321877.1724
         5.5004
   6964310.12146   5941237.59346  22334479.2424   22334485.8164
        13.2504         12.2504
  -5243247.75647  -4338969.32346  20890880.1884   20890889.1564
        20.5004         21.7504
 -12495309.85146  -9508328.34146  21770977.4304   21770995.0594
        15.0004         14.0004
  10741666.60443   9273715.00645  24194897.1024   24194912.4344
         5.7504          6.7504
  -3796858.39041  -2768006.60445  24632599.1954   24632606.9924
         2.2504          5.7504
  -2963544.50742                  24677070.6334
         4.0004
 03 10 31  0 32  0.0000000  0  8G 9G24G28G 7G 4G26G 5G29
 -13984398.78446  -9568291.77346  21273568.4144   21273581.7544
        18.5004         18.2504
  -3567813.87343  -2516011.95355  24306510.8754   24306559.4774
         6.2504          6.0004
   7056088.75746   6012753.56746  22351943.5704   22351950.4304
        13.0004         12.0004
  -5170763.19947  -4282487.47446  20904673.2034   20904682.0904
        20.5004         21.7504
 -12543795.67246  -9546108.91746  21761750.4384   21761767.5514
        15.2504         14.2504
  10860098.59243   9365999.15745  24217433.0784   24217448.0354
         5.5004          5.7504
                                  24620699.8054
         1.5004
  -2844057.01641                  24699805.7894
         2.7504
 03 10 31  0 32 30.0000000  0  7G 9G24G28G 7G 4G26G29
 -14003184.02946  -9582929.18046  21269993.0474   21270006.5274
        18.2504         18.2504
  -3648554.60943  -2578924.26145  24291144.6334   24291191.8364
         6.0004          5.2504
   7148045.03146   6084407.90946  22369442.4304   22369449.1094
        13.0004         12.2504
  -5098042.10947  -4225821.31746  20918511.6254   20918520.2424
        20.2504         21.7504
 -12591888.35146  -9583583.12046  21752598.6024   21752615.1644
        16.0004         14.5004
  10978606.52343   9458342.53045  24239986.6954   24240002.0744
         5.7504          5.0004
  -2724616.20541                  24722541.2504
         3.2504
 03 10 31  0 33  0.0000000  0  8G 9G24G28G 7G 4G26G 5G29
 -14021477.60546  -9597183.52546  21266511.4924   21266525.1254
        18.5004         18.5004
  -3729302.90043  -2641842.35145  24275776.4064   24275822.0044
         5.0004          5.0004
   7240170.87246   6156194.46245  22386973.4844   22386980.2934
        12.7504         11.7504
  -5025093.98447  -4168978.31546  20932392.7664   20932401.4654
        20.5004         21.7504
 -12639593.02946  -9620754.94446  21743520.0084   21743536.8634
        15.7504         14.2504
  11097179.14043   9550736.31745  24262550.7114   24262566.9574
         5.7504          6.0004
  -3173794.52252                  24596883.6644
         4.2504
  -2605232.99541                  24745259.3134
         3.2504
 03 10 31  0 33 30.0000000  0  8G 9G24G28G 7G 4G26G 5G29
 -14039276.59846  -9611052.58246  21263124.3754   21263137.6334
        18.7504         18.5004
  -3810055.03842  -2704763.60945  24260408.3364   24260451.6954
         4.2504          5.2504
   7332467.13746   6228113.79045  22404536.2894   22404542.0784
        12.2504         11.2504
  -4951919.00747  -4111958.45746  20946317.3284   20946326.1094
        20.5004         21.5004
 -12686906.00746  -9657621.60546  21734515.8524   21734532.4614
        15.0004         14.2504
  11215814.51543   9643178.94445  24285126.6024   24285140.9384
         5.7504          5.7504
  -3236422.58543                  24584966.0474
         5.2504
  -2485909.04141                  24767967.3834
         3.5004
 03 10 31  0 34  0.0000000  0  8G 9G24G28G 7G 4G26G 5G29
 -14056575.38346  -9624531.79946  21259832.1094   21259845.0514
        18.2504         18.2504
  -3890804.90741  -2767683.08143  24245040.4534   24245086.4264
         3.5004          3.2504
   7424936.96246   6300168.24245  22422132.9614   22422138.7854
        12.7504         11.0004
  -4878515.57247  -4054760.67746  20960285.1564   20960293.5164
        20.5004         21.2504
 -12733821.17846  -9694178.38346  21725588.2114   21725605.3364
        15.7504         14.5004
  11334512.84543   9735670.61445  24307712.7894   24307730.8874
         5.5004          5.5004
  -3299078.73943  -2456827.18454  24573043.5784   24573047.1764
         6.2504          4.5004
  -2366643.81441                  24790665.2584
         3.2504
 03 10 31  0 34 30.0000000  0  8G 9G24G28G 7G 4G26G 5G29
 -14073370.75346  -9637618.65146  21256635.6724   21256648.6954
        18.5004         18.5004
  -3971548.12541                  24229672.7814
         3.0004
   7517582.24546   6372359.42745  22439762.8594   22439770.2704
        12.5004         11.7504
  -4804883.42047  -3997384.56646  20974296.7814   20974305.2934
        20.5004         21.5004
 -12780334.20046  -9730421.82046  21716736.8364   21716753.5514
        16.5004         14.5004
  11453272.62643   9828209.98445  24330315.1484   24330332.4844
         5.5004          5.7504
  -3361760.43243  -2505670.57943  24561115.7974   24561128.8554
         6.2504          3.7504
  -2247438.85041                  24813347.2114
         2.7504
 03 10 31  0 35  0.0000000  0  8G 9G24G28G 7G 4G26G 5G29
 -14089663.34746  -9650313.79846  21253535.4384   21253547.9224
        19.0004         18.7504
  -4052284.10641                  24214306.4454
         3.7504
   7610400.54846   6444685.47345  22457424.8524   22457431.5664
        12.0004         11.2504
  -4731026.16547  -3939832.98546  20988350.8284   20988359.1414
        20.5004         21.5004
 -12826444.33146  -9766351.30746  21707961.9224   21707979.0124
        16.2504         15.0004
  11572088.74943   9920793.30445  24352925.7274   24352941.8204
         5.5004          5.5004
  -3424469.36143  -2554535.19145  24549184.1024   24549188.6954
         5.7504          5.0004
  -2128299.10841                  24836020.7274
         3.2504
 03 10 31  0 35 30.0000000  0  8G 9G24G28G 7G 4G26G 5G29
 -14105449.92946  -9662614.84646  21250531.0864   21250544.0044
        19.2504         18.7504
  -4133008.93643                  24198944.0634
         5.2504
   7703393.11246   6517147.36845  22475121.4454   22475126.6024
        12.2504         10.7504
  -4656944.16047  -3882106.27246  21002447.9304   21002455.7854
        20.5004         21.2504
 -12872147.63846  -9801963.72146  21699264.6724   21699281.0474
        16.5004         15.0004
  11690959.28543  10013419.04845  24375544.1334   24375564.6334
         5.2504          5.0004
  -3487203.74242  -2603419.72444  24537246.1024   24537249.6294
         4.7504          4.7504
  -2009225.83441                  24858682.7814
         2.7504
 03 10 31  0 36  0.0000000  0  8G 9G24G28G 7G 4G26G 5G29
 -14120729.50046  -9674520.89046  21247623.0554   21247635.9024
        18.7504         18.5004
  -4213720.51043                  24183583.9924
         6.2504
   7796559.29446   6589744.62045  22492849.7584   22492856.2384
        12.0004         11.0004
  -4582639.43847  -3824205.85946  21016587.2504   21016595.0234
        20.5004         21.2504
 -12917442.15446  -9837257.59846  21690644.6954   21690660.5084
        16.7504         15.0004
  11809880.43443  10106084.03345  24398175.9844   24398190.4614
         5.5004          5.5004
  -3549963.31242  -2652323.74445  24525302.1094   24525310.9614
         4.2504          5.0004
  -1890223.00841                  24881328.1484
         2.2504
 03 10 31  0 36 30.0000000  0  7G 9G24G28G 7G 4G26G 5
 -14135497.20846  -9686027.88546  21244813.0554   21244826.2894
        18.7504         18.7504
  -4294413.59543  -2474059.80055  24168227.6644   24168269.4304
         6.5004          5.0004
   7889901.51345   6662479.18545  22510612.1484   22510618.4414
        11.5004         11.0004
  -4508111.17347  -3766131.35346  21030768.8204   21030776.5354
        20.5004         21.2504
 -12962322.72246  -9872228.92946  21682103.7344   21682119.5594
        17.0004         15.2504
  -3083421.14953                  24420815.2504
         5.2504
  -3612744.03242  -2701244.07044  24513356.7584   24513362.4774
         4.0004          4.7504
 03 10 31  0 37  0.0000000  0  8G 9G24G28G 7G 4G26G 5G29
 -14149760.99346  -9697142.06246  21242098.3524   21242111.2464
        19.2504         19.0004
  -4375094.93243  -2536926.25845  24152871.7894   24152913.2624
         6.2504          6.2504
   7983409.96545   6735343.30445  22528405.8914   22528412.7234
        11.7504         10.5004
  -4433370.59647  -3707891.47846  21044991.3674   21044999.0594
        20.2504         21.0004
 -13006796.30846  -9906883.14146  21673640.6954   21673656.7074
        16.7504         15.2504
  -2964412.04943                  24443461.9304
         5.0004
  -3675555.58342  -2750188.40045  24501404.6254   24501410.3444
         4.2504          5.2504
  -3131042.47451                  24926581.4694
         3.7504
 03 10 31  0 37 30.0000000  0  8G 9G24G28G 7G 4G26G 5G29
 -14163519.63046  -9707862.65146  21239479.8674   21239492.1884
        19.2504         19.0004
  -4455761.90843  -2599781.40445  24137520.5004   24137561.0004
         6.5004          6.2504
   8077084.44145   6808336.79645  22546231.3364   22546237.5944
        11.2504         10.5004
  -4358419.00147  -3649487.19046  21059253.8754   21059261.4844
        20.2504         20.7504
 -13050859.81946  -9941217.68546  21665255.3754   21665272.0314
        17.0004         15.0004
  -2845368.25443  -2455203.52755  24466115.6564   24466132.7934
         5.2504          5.5004
  -3738396.84342  -2799155.93245  24489447.1414   24489453.4454
         4.5004          5.0004
  -3012278.98542                  24949182.9534
         4.2504
 03 10 31  0 38  0.0000000  0  8G 9G24G28G 7G 4G26G 5G29
 -14176763.71646  -9718182.35046  21236958.9064   21236971.5084
        18.7504         19.0004
  -4536403.95143  -2662617.14745  24122173.1724   24122211.4224
         5.0004          6.0004
   8170932.62245   6881465.61845  22564089.5394   22564095.4804
        11.5004         10.5004
  -4283250.40147  -3590913.82446  21073557.7034   21073565.1724
        20.2504         21.0004
 -13094503.33146  -9975225.05546  21656949.5944   21656964.9614
        17.0004         15.5004
  -2726285.42243  -2362412.54945  24488778.9614   24488792.6994
         5.7504          5.5004
  -3801259.37843  -2848140.07545  24477483.2894   24477486.3714
         5.0004          5.0004
  -2893596.85441                  24971768.9384
         3.7504
 03 10 31  0 38 30.0000000  0  8G 9G24G28G 7G 4G26G 5G29
 -14189491.19646  -9728099.54246  21234537.1564   21234549.6054
        18.7504         19.0004
  -4617018.19942  -2725431.30344  24106830.8134   24106872.5904
         4.2504          4.7504
   8264954.51645   6954729.83545  22581981.4224   22581987.7154
        11.7504         10.7504
  -4207865.89747  -3532172.26746  21087902.5004   21087909.6294
        20.5004         20.5004
 -13137724.34646 -10008903.24646  21648724.5234   21648739.7154
        16.7504         15.0004
  -2607166.30543  -2269593.31745  24511447.5084   24511468.6564
         5.7504          6.0004
  -3864142.71943  -2897140.48445  24465518.9534   24465523.8054
         6.0004          5.5004
  -2774998.22641                  24994338.1484
         3.5004
 03 10 31  0 39  0.0000000  0  8G 9G24G28G 7G 4G26G 5G29
 -14201706.72446  -9737617.84546  21232212.1954   21232224.4694
        19.0004         19.2504
  -4697608.15242  -2788226.36544  24091494.2974   24091533.9534
         4.0004          4.0004
   8359143.52945   7028124.20345  22599904.0474   22599911.0234
        11.2504         10.0004
  -4132273.34347  -3473268.53346  21102286.9384   21102294.1724
        20.2504         20.7504
 -13180526.31746 -10042254.89046  21640578.5554   21640594.7304
        16.5004         15.2504
  -2488020.12543  -2176752.95345  24534120.4774   24534137.4144
         5.7504          5.0004
  -3927051.78643  -2946160.78944  24453547.1414   24453554.8444
         6.2504          4.2504
  -2656492.08641                  25016889.3594
         3.5004
 03 10 31  0 39 30.0000000  0  8G 9G24G28G 7G 4G26G 5G29
 -14213413.46246  -9746739.71646  21229984.3914   21229996.8874
        19.2504         19.0004
  -4778176.04642  -2851004.43945  24076159.7974   24076202.4534
         4.5004          5.5004
   8453494.81145   7101644.96845  22617858.3524   22617864.6684
        11.5004         11.0004
  -4056479.06447  -3414207.63046  21116709.5474   21116716.6054
        20.2504         20.7504
 -13222911.32346 -10075281.59946  21632513.2344   21632528.9534
        17.0004         15.5004
  -2368854.81943  -2083897.68345  24556797.2344   24556816.2234
         5.2504          5.7504
  -3989990.99143  -2995204.56944  24441570.9694   24441578.5314
         6.0004          4.7504
  -2538086.83541                  25039423.0394
         3.2504
 03 10 31  0 40  0.0000000  0  8G 9G24G28G 7G 4G26G 5G29
 -14224611.01546  -9755464.81846  21227853.1804   21227865.8164
        19.0004         19.2504
  -4858720.28442  -2913764.01345  24060830.8914   24060872.2114
         4.7504          5.7504
   8548006.90645   7175291.05345  22635843.8364   22635849.4964
        11.5004         10.5004
  -3980486.07847  -3354991.98746  21131170.4144   21131177.4384
        20.2504         20.5004
 -13264878.00246 -10107982.26646  21624526.2734   21624541.3594
        16.2504         15.2504
  -2249674.78243  -1991030.85245  24579476.9304   24579496.1414
         5.2504          5.2504
  -4052960.57743  -3044272.07845  24429587.8054   24429597.4534
         6.0004          5.0004
  -2419786.31141                  25061935.3364
         2.7504
 03 10 31  0 40 30.0000000  0  8G 9G24G28G 7G 4G26G 5G29
 -14235301.81746  -9763795.03246  21225818.7734   21225831.0234
        19.2504         19.5004
  -4939241.93643  -2976505.95145  24045507.9774   24045546.8954
         5.5004          6.0004
   8642676.22945   7249059.83245  22653858.1334   22653863.5354
        11.2504         10.5004
  -3904299.37947  -3295625.38846  21145668.0164   21145675.0634
        20.2504         20.7504
 -13306427.90846 -10140358.20746  21616619.0234   21616634.7424
        16.0004         15.5004
  -2130486.79643  -1898158.01445  24602157.1024   24602177.4494
         5.0004          5.5004
  -4115964.12143  -3093365.96145  24417597.7424   24417611.9494
         5.0004          5.0004
  -2301596.66941                  25084428.9844
         3.0004
 03 10 31  0 41  0.0000000  0  8G 9G24G28G 7G 4G26G 5G29
 -14245482.74146  -9771727.94946  21223881.1414   21223893.4734
        19.0004         19.2504
  -5019736.76243  -3039226.95945  24030187.0394   24030225.0904
         5.5004          6.0004
   8737503.24546   7322951.17945  22671903.5234   22671909.5004
        12.0004         10.7504
  -3827919.14747  -3236107.95946  21160202.4924   21160209.2544
        20.2504         20.5004
 -13347556.95746 -10172406.21546  21608791.8984   21608807.4534
        16.5004         15.5004
  -2011292.52943  -1805280.09543  24624840.7584   24624861.9654
         5.0004          3.7504
  -4178999.00242  -3142484.29645  24405602.8984   24405610.1564
         4.5004          5.5004
  -3083948.82051                  25106899.0634
         3.2504
 03 10 31  0 41 30.0000000  0  8G 9G24G28G 7G 4G26G 5G29
 -14255162.53247  -9779270.42846  21222039.1884   21222051.2274
        20.0004         19.7504
  -5100212.40143  -3101933.14445  24014872.3834   24014908.6524
         6.7504          6.2504
   8832478.43545   7396958.15945  22689975.2814   22689980.6134
        11.5004         11.0004
  -3751357.16447  -3176448.98146  21174771.6414   21174778.2034
        20.2504         20.5004
 -13388273.02946 -10204132.47046  21601044.1334   21601059.3014
        17.5004         15.5004
  -1892105.22842  -1712407.86243  24647522.7274   24647547.8834
         4.7504          3.2504
  -4242075.07642  -3191634.93845  24393600.7664   24393609.6174
         4.0004          5.5004
  -2965997.91742                  25129346.5704
         4.2504
 03 10 31  0 42  0.0000000  0  8G 9G24G28G 7G 4G26G 5G29
 -14264342.21446  -9786423.22146  21220292.0234   21220303.6764
        19.7504         19.5004
  -5180668.65843  -3164624.11845  23999559.6644   23999596.2734
         6.2504          6.0004
   8927598.58545   7471078.09045  22708076.4064   22708081.2704
        11.5004         10.7504
  -3674617.45447  -3116651.44346  21189374.3134   21189381.0984
        20.0004         20.2504
 -13428576.27446 -10235537.06146  21593373.9534   21593388.8874
        17.7504         16.0004
  -1772930.61242  -1619545.32745  24670200.2344   24670220.1374
         4.7504          5.2504
  -4305193.48942  -3240818.50445  24381591.3284   24381599.6994
         4.0004          5.7504
  -2848178.04742                  25151768.3444
         4.2504
 03 10 31  0 42 30.0000000  0  8G 9G24G28G 7G 4G26G 5G29
 -14273026.05846  -9793189.61446  21218639.2344   21218651.3794
        19.5004         19.5004
  -5261108.75343  -3227302.55245  23984251.0554   23984285.0944
         6.7504          5.7504
   9022857.76545   7545306.29445  22726203.4304   22726208.6094
        11.5004         10.7504
  -3597707.33146  -3056721.13546  21204009.6334   21204016.3954
        19.7504         20.2504
 -13468469.77746 -10266622.39746  21585781.9144   21585796.4964
        17.5004         16.0004
  -1653777.61642  -1526699.79545  24692874.8364   24692895.1374
         4.5004          5.2504
  -4368359.77142  -3290039.27845  24369571.2194   24369575.8714
         4.2504          5.5004
  -2730497.87143                  25174163.3914
         5.5004
 03 10 31  0 43  0.0000000  0  8G 9G24G28G 7G 4G26G 5G29
 -14281216.65546  -9799571.71946  21217080.4774   21217092.4454
        19.5004         19.7504
  -5341533.70443  -3289969.21145  23968944.9694   23968979.8554
         6.7504          6.0004
   9118251.96345   7619639.78145  22744356.1254   22744360.9304
        11.2504         11.2504
  -3520632.21446  -2996662.25946  21218676.1334   21218682.6374
        19.7504         19.7504
 -13507955.20946 -10297389.78246  21578268.2734   21578282.5984
        18.2504         16.2504
  -1534653.05342  -1433876.38045  24715545.8444   24715565.5944
         4.7504          5.2504
  -4431577.12442  -3339300.08944  24357539.9924   24357551.0824
         4.5004          4.5004
  -2612964.40543                  25196531.1804
         5.2504
 03 10 31  0 43 30.0000000  0  8G 9G24G28G 7G 4G26G 5G29
 -14288914.00247  -9805569.47246  21215615.6094   21215627.2154
        20.0004         19.7504
  -5421942.31843  -3352623.10945  23953642.3984   23953677.7544
         6.2504          7.0004
   9213779.54445   7694077.21245  22762534.4144   22762539.7114
        11.5004         10.7504
  -3443394.89546  -2936476.79446  21233373.9064   21233380.5744
        19.7504         20.0004
 -13547031.59646 -10327838.41346  21570831.3284   21570846.6604
        17.5004         15.7504
  -1415561.43942  -1341078.69044  24738206.9844   24738230.7814
         4.5004          4.7504
  -4494846.32943  -3388601.25845  24345502.8674   24345511.0274
         5.0004          5.7504
  -2495581.81642                  25218867.5474
         4.0004
 03 10 31  0 44  0.0000000  0  8G 9G24G28G 7G 4G26G 5G29
 -14296118.25146  -9811183.02146  21214244.6644   21214256.2814
        19.7504         20.0004
  -5502333.58443  -3415263.55545  23938342.4844   23938375.9494
         5.5004          6.5004
   9309438.20445   7768616.59545  22780736.9694   22780742.5594
        10.7504         11.0004
  -3365999.33746  -2876168.33146  21248101.2584   21248107.2934
        19.7504         20.0004
 -13585698.17246 -10357967.70646  21563473.6414   21563488.1174
        18.2504         16.7504
  -1296507.61942  -1248310.38045  24760863.3284   24760885.3324
         4.2504          6.0004
  -4558167.56043  -3437942.95745  24333453.2344   24333463.5744
         5.5004          6.7504
  -2378354.53341                  25241176.4924
         3.2504
 03 10 31  0 44 30.0000000  0  7G 9G24G28G 7G 4G26G 5
 -14302828.54646  -9816411.66846  21212967.5944   21212979.5394
        19.5004         19.5004
  -5582705.55542  -3477888.99545  23923047.2814   23923080.6524
         4.7504          6.5004
   9405227.64845   7843257.88545  22798965.1724   22798971.1724
        10.7504         10.5004
  -3288447.08946  -2815737.77446  21262858.6334   21262865.2544
        19.7504         20.0004
 -13623953.09546 -10387776.20446  21556193.0164   21556207.6804
        17.7504         16.5004
  -1177494.98842  -1155574.24845  24783512.4304   24783533.6254
         4.7504          6.2504
  -4621541.23543  -3487325.49645  24321393.6484   24321400.0124
         5.7504          6.7504
 03 10 31  0 45  0.0000000  0  7G 9G24G28G 7G 4G26G 5
 -14309047.27046  -9821257.27646  21211784.0234   21211795.9104
        19.7504         19.7504
  -5663059.70142  -3540500.50945  23907753.7974   23907791.1094
         4.5004          5.7504
   9501143.72745   7917998.03445  22817217.5004   22817222.0824
        10.7504         10.5004
  -3210743.36346  -2755189.06746  21277645.1484   21277651.4534
        19.7504         19.7504
 -13661797.83246 -10417265.14246  21548991.2274   21549004.9774
        18.2504         16.7504
  -1058530.57042  -1062875.58345  24806150.4614   24806176.1214
         4.7504          5.2504
  -4684969.50443  -3536750.17045  24309322.8054   24309337.9614
         5.7504          5.2504
 03 10 31  0 45 30.0000000  0  7G 9G24G28G 7G 4G26G 5
 -14314775.11447  -9825720.37846  21210694.0634   21210705.7034
        20.0004         20.2504
  -5743394.51843  -3603097.07345  23892466.1644   23892498.9494
         6.0004          6.5004
   9597184.25545   7992834.97345  22835492.9694   22835497.5274
        11.0004         10.5004
  -3132891.66547  -2694525.07346  21292459.6724   21292465.8244
        20.0004         19.7504
 -13699231.81146 -10446433.91746  21541867.0394   21541881.1054
        18.2504         17.0004
   -939619.18043   -970218.31545  24828780.7734   24828807.4884
         5.0004          5.5004
  -4748453.91143  -3586218.33745  24297242.6334   24297251.1914
         5.5004          6.2504
 03 10 31  0 46  0.0000000  0  7G 9G24G28G 7G 4G26G 5
 -14320014.45346  -9829802.86646  21209696.6884   21209708.9614
        19.7504         20.2504
  -5823711.13644  -3665679.50445  23877181.1484   23877212.8094
         7.2504          6.7504
   9693345.39145   8067765.88545  22853791.7274   22853796.7544
        10.7504         10.0004
  -3054896.95446  -2633749.56146  21307301.2894   21307306.9844
        19.7504         19.2504
 -13736256.60146 -10475283.91746  21534821.2814   21534835.2424
        18.7504         17.5004
   -820767.60242   -877607.68645  24851396.5394   24851414.3324
         4.5004          5.2504
  -4811998.45343  -3635733.89944  24285150.6334   24285161.1134
         5.5004          4.7504
 03 10 31  0 46 30.0000000  0  7G 9G24G28G 7G 4G26G 5
 -14324763.91646  -9833503.59846  21208793.0394   21208805.0204
        19.7504         20.0004
  -5904007.04244  -3728245.90445  23861899.7194   23861928.3794
         7.7504          5.5004
   9789626.96345   8142790.67745  22872113.3914   22872118.1024
        10.2504         10.5004
  -2976761.15846  -2572864.16046  21322169.3754   21322175.3634
        19.5004         19.2504
 -13772869.85046 -10503813.20546  21527853.6954   21527867.4574
        19.5004         17.5004
   -701979.32843   -785046.58745  24874002.5864   24874024.1564
         5.0004          5.5004
  -4875601.87143  -3685295.54545  24273047.5554   24273058.9264
         5.7504          5.2504
 03 10 31  0 47  0.0000000  0  7G 9G24G28G 7G 4G26G 5
 -14329029.95147  -9836827.56546  21207981.2424   21207993.2584
        20.0004         20.0004
  -5984287.01044  -3790800.05745  23846621.4144   23846653.2854
         7.2504          5.7504
   9886021.14545   8217903.37645  22890455.5234   22890459.4384
        10.0004         10.0004
  -2898493.10946  -2511875.54446  21337062.9454   21337069.5554
        19.5004         19.2504
 -13809076.93646 -10532025.95646  21520963.1884   21520976.7154
        18.5004         17.7504
   -583264.71342   -692542.80745  24896594.5004   24896620.3244
         4.5004          5.5004
  -4939270.82943  -3734908.63744  24260933.4924   24260943.3754
         5.7504          4.0004
 03 10 31  0 47 30.0000000  0  7G 9G24G28G 7G 4G26G 5
 -14332812.99847  -9839775.14146  21207261.0394   21207272.5044
        20.2504         20.0004
  -6064550.29943  -3853341.16145  23831347.0704   23831378.4964
         6.5004          6.2504
   9982525.85545   8293102.11845  22908820.7734   22908825.1454
        10.0004          9.5004
  -2820096.29546  -2450786.54646  21351981.0864   21351986.0664
        19.5004         19.5004
 -13844877.31046 -10559921.83746  21514150.4614   21514163.9774
        19.2504         17.7504
   -464628.19942   -600099.88144  24919172.3984   24919192.1024
         4.7504          4.5004
  -5003005.32743  -3784572.25545  24248804.8054   24248815.6844
         6.2504          5.7504
 03 10 31  0 48  0.0000000  0  7G 9G24G28G 7G 4G26G 5
 -14336110.16146  -9842344.10646  21206633.3754   21206645.2504
        19.7504         20.0004
  -6144792.16543  -3915865.66545  23816075.1724   23816102.6484
         6.0004          6.0004
  10079142.34345   8368388.00445  22927205.3834   22927208.8404
        10.2504         10.0004
  -2741571.05746  -2389597.76746  21366923.6804   21366929.4104
        19.5004         19.0004
 -13880267.40746 -10587498.03746  21507415.5084   21507428.6604
        19.2504         17.7504
   -346071.40942   -507718.95245  24941732.6564   24941754.9654
         4.2504          5.2504
  -5066803.53443  -3834285.35545  24236664.4614   24236669.3594
         6.5004          6.2504
 03 10 31  0 48 30.0000000  0  7G 9G24G28G 7G 4G26G 5
 -14338924.42146  -9844536.78246  21206097.3834   21206108.8134
        19.7504         20.0004
  -6225014.16143  -3978374.63145  23800809.3204   23800837.6994
         6.5004          6.7504
  10175866.17645   8443757.39245  22945611.5474   22945615.1334
        10.2504          9.5004
  -2662922.63246  -2328313.01446  21381889.7664   21381895.4144
        19.5004         19.5004
 -13915248.72146 -10614755.68446  21500757.9144   21500771.2074
        18.5004         17.5004
   -227601.70442   -415406.10044  24964277.2344   24964299.8594
         4.2504          4.7504
  -5130669.46544  -3884051.58045  24224512.4614   24224520.4344
         7.0004          6.7504
 03 10 31  0 49  0.0000000  0  7G 9G24G28G 7G 4G26G 5
 -14341256.08547  -9846353.43746  21205653.8204   21205665.3914
        20.5004         20.5004
  -6305215.40743  -4040867.57645  23785546.2814   23785574.4964
         6.5004          7.0004
  10272696.00045   8519209.39945  22964037.0784   22964041.1094
        11.0004          9.7504
  -2584153.75846  -2266934.31146  21396878.8674   21396884.4104
        19.5004         19.0004
 -13949820.48646 -10641694.18046  21494179.4454   21494192.8674
        18.7504         17.7504
   -109223.52341                  24986803.2274
         3.7504
  -5194602.67244  -3933870.01745  24212346.0554   24212357.4494
         7.2504          5.7504
 03 10 31  0 49 30.0000000  0  7G 9G24G28G 7G 4G26G 5
 -14343104.13547  -9847793.29246  21205302.1954   21205313.5664
        20.2504         20.5004
  -6385393.63843  -4103342.63445  23770287.0234   23770315.5904
         6.2504          6.5004
  10369630.77345   8594743.23145  22982483.0704   22982488.0274
        10.7504          9.5004
  -2505266.38446  -2205463.28346  21411890.1094   21411895.8524
        19.5004         18.7504
 -13983981.13046 -10668312.29546  21487678.0634   21487691.3444
        19.0004         18.0004
      9059.64242                  25009313.7194
         4.0004
  -5258603.05243  -3983740.67445  24200167.5164   24200175.8874
         6.5004          7.5004
 03 10 31  0 50  0.0000000  0  7G 9G24G28G 7G 4G26G 5
 -14344464.51947  -9848853.09546  21205042.7194   21205054.3714
        20.0004         20.2504
  -6465542.83243  -4165795.17845  23755033.0084   23755062.4534
         5.5004          7.0004
  10466673.56745   8670361.21545  23000950.0164   23000955.3244
        11.2504          9.7504
  -2426259.01946  -2143898.57646  21426924.6564   21426929.8484
        19.7504         19.2504
 -14017725.44246 -10694606.00546  21481256.2814   21481269.1524
        19.0004         17.7504
    127247.74241                  25031803.3754
         3.7504
  -5322667.38343  -4033661.37745  24187977.2974   24187988.3634
         6.5004          6.5004
 03 10 31  0 50 30.0000000  0  7G 9G24G28G 7G 4G26G 5
 -14345343.20547  -9849537.47246  21204875.4224   21204887.0864
        20.0004         20.2504
  -6545667.74242  -4228228.90745  23739785.6254   23739816.4654
         4.7504          5.5004
  10563816.47945   8746057.21445  23019435.4694   23019438.9384
        10.7504          9.5004
  -2347140.74046  -2082247.56246  21441980.1174   21441985.2734
        19.5004         19.5004
 -14051058.61546 -10720579.40046  21474912.8754   21474925.2544
        19.5004         17.7504
    245330.76641                  25054277.4224
         3.7504
  -5386801.90843  -4083637.20945  24175772.8834   24175786.2584
         6.0004          7.5004
 03 10 31  0 51  0.0000000  0  7G 9G24G28G 7G 4G26G 5
 -14345744.79447  -9849850.02446  21204798.7894   21204809.9734
        20.5004         20.7504
  -6625771.37743  -4290645.90044  23724541.0084   23724570.1484
         5.0004          4.7504
  10661053.77845   8821826.75445  23037938.6954   23037942.3404
        10.7504          9.5004
  -2267918.75746  -2020515.85646  21457055.3594   21457060.2234
        19.5004         19.2504
 -14083984.18146 -10746235.19646  21468647.2424   21468659.5864
        19.5004         18.0004
    363299.94842                  25076728.0784
         4.7504
  -5451010.85043  -4133670.75245  24163554.6484   24163568.2934
         5.2504          6.2504
 03 10 31  0 51 30.0000000  0  7G 9G24G28G 7G 4G26G 5
 -14345660.82347  -9849784.34546  21204814.4304   21204825.4264
        20.2504         20.5004
  -6705843.01244  -4353038.15545  23709303.2504   23709328.1724
         7.0004          7.7504
  10758392.43445   8897675.16045  23056461.5944   23056465.6024
        10.5004          9.7504
  -2188586.82246  -1958698.49846  21472151.3054   21472156.2974
        19.5004         19.2504
 -14116492.42046 -10771565.78746  21462460.0784   21462472.5514
        19.0004         17.7504
    481159.98842                  25099153.5634
         4.0004
  -5515285.47243  -4183755.22645  24151323.5784   24151332.3714
         5.2504          5.7504
 03 10 31  0 52  0.0000000  0  7G 9G24G28G 7G 4G26G 5
 -14345092.47747  -9849341.28046  21204922.5234   21204933.4844
        20.2504         20.5004
  -6785882.08345  -4415405.02845  23694072.0004   23694100.1094
         8.7504          9.2504
  10855830.51545   8973601.09745  23075003.7814   23075006.3134
        10.2504          8.5004
  -2109148.29446  -1896798.08546  21487267.7344   21487272.5274
        19.2504         19.2504
 -14148583.26246 -10796571.09846  21456353.3754   21456365.5904
        19.2504         18.0004
    598905.88642  -2390989.43654  25121564.8834   25121590.2274
         4.2504          4.5004
  -5579627.42443  -4233892.15845  24139080.7734   24139087.9264
         5.5004          6.0004
 03 10 31  0 52 30.0000000  0  7G 9G24G28G 7G 4G26G 5
 -14344044.88447  -9848524.78146  21205121.6954   21205132.5984
        20.2504         20.5004
  -6865892.66145  -4477749.77045  23678845.3444   23678871.6024
         8.2504          8.5004
  10953361.36845   9049599.35945  23093562.9454   23093567.0124
        10.5004          9.7504
  -2029611.37846  -1834820.99146  21502403.0084   21502407.7664
        19.2504         19.0004
 -14180261.13246 -10821254.63046  21450324.7584   21450337.1844
        19.5004         17.7504
    716527.99942  -2299337.41944  25143947.9534   25143977.3284
         4.5004          4.7504
  -5644042.99343  -4284086.69245  24126822.3674   24126829.7074
         6.0004          5.5004
 03 10 31  0 53  0.0000000  0  7G 9G24G28G 7G 4G26G 5
 -14342521.56947  -9847337.61746  21205411.8284   21205422.9774
        20.2504         20.2504
  -6945876.33843  -4540073.53445  23663623.3834   23663651.4344
         6.7504          7.5004
  11050979.88645   9125665.85345  23112139.0314   23112144.0124
        10.0004          9.5004
  -1949981.74546  -1772771.68346  21517555.6414   21517560.5044
        19.2504         19.0004
 -14211528.38946 -10845618.21946  21444374.6094   21444387.1764
        19.2504         18.0004
    834019.06142  -2207787.45244  25166306.8914   25166326.7704
         4.7504          4.2504
  -5708535.19443  -4334340.87145  24114551.1094   24114563.9454
         6.5004          6.5004
 03 10 31  0 53 30.0000000  0  7G 9G24G28G 7G 4G26G 5
 -14340515.17847  -9845774.01546  21205793.4694   21205804.3244
        20.2504         20.7504
  -7025824.40143  -4602369.58845  23648409.7584   23648435.9574
         6.0004          6.2504
  11148692.28845   9201805.52645  23130732.3834   23130736.9304
         9.5004          9.0004
  -1870254.76846  -1710646.54446  21532727.0554   21532731.7544
        19.0004         19.0004
 -14242376.75246 -10869655.34646  21438503.7034   21438516.0594
        19.0004         18.0004
    951382.48542  -2116337.02744  25188641.8284   25188665.2154
         4.5004          4.0004
  -5773096.55043  -4384649.01345  24102266.0394   24102274.0474
         6.5004          7.0004
 03 10 31  0 54  0.0000000  0  7G 9G24G28G 7G 4G26G 5
 -14338028.50947  -9843836.24846  21206266.4224   21206277.2074
        20.5004         20.7504
  -7105737.21843  -4664638.28945  23633202.4144   23633228.1094
         6.5004          6.5004
  11246494.85745   9278015.52445  23149343.6564   23149348.3094
         9.7504          9.2504
  -1790435.39746  -1648449.41046  21547916.1484   21547920.5084
        18.7504         18.5004
 -14272807.54746 -10893367.09346  21432712.6724   21432724.7234
        19.2504         18.2504
   1068611.51742  -2024991.25244  25210951.4224   25210980.2114
         4.7504          4.7504
  -5837729.70143  -4435012.84345  24089966.2344   24089978.2974
         6.7504          7.7504
 03 10 31  0 54 30.0000000  0  7G 9G24G28G 7G 4G26G 5
 -14335063.37647  -9841525.67446  21206830.4534   21206841.1454
        20.2504         20.5004
  -7185614.80144  -4726879.51745  23618000.7194   23618022.7464
         7.2504          6.5004
  11344384.33745   9354293.20945  23167971.3284   23167973.4384
         9.2504          9.2504
  -1710527.93246  -1586183.62446  21563121.8364   21563126.7704
        18.7504         18.5004
 -14302821.89046 -10916754.31946  21427000.5864   21427012.4614
        19.2504         18.5004
   1185700.57143  -1933754.77744  25233234.5634   25233257.7034
         5.0004          4.0004
  -5902437.43444  -4485435.04045  24077654.1644   24077662.9344
         7.0004          8.0004
 03 10 31  0 55  0.0000000  0  7G 9G24G28G 7G 4G26G 5
 -14331615.50747  -9838838.87646  21207486.4384   21207497.3164
        20.5004         20.5004
  -7265451.36644  -4789088.87745  23602807.3204   23602833.0164
         7.0004          6.7504
  11442363.50645   9430640.83145  23186615.7344   23186620.4344
         8.5004          8.5004
  -1630530.44146  -1523847.61346  21578344.5394   21578349.2504
        18.7504         18.5004
 -14332414.49846 -10939812.96846  21421369.0634   21421380.7034
        19.5004         18.7504
   1302649.82342  -1842627.17645  25255489.3054   25255515.0474
         4.7504          5.2504
  -5967214.88343  -4535911.58045  24065327.4224   24065338.6054
         6.7504          8.0004
 03 10 31  0 55 30.0000000  0  7G 9G24G28G 7G 4G26G 5
 -14327687.29447  -9835777.81046  21208233.8524   21208244.6374
        21.0004         21.2504
  -7345247.75843  -4851266.92445  23587622.3984   23587648.9614
         6.0004          7.2504
  11540428.87145   9507055.39045  23205277.5394   23205282.4144
         8.7504          8.7504
  -1550447.80346  -1461445.33846  21593583.5704   21593588.0004
        18.5004         18.2504
 -14361586.45646 -10962543.80346  21415817.4064   21415828.7304
        19.7504         18.5004
   1419453.05942  -1751613.33044  25277717.5084   25277737.9144
         4.0004          4.0004
  -6032064.97444  -4586444.90645  24052987.7424   24052997.3094
         7.0004          7.7504
 03 10 31  0 56  0.0000000  0  7G 9G24G28G 7G 4G26G 5
 -15898691.76347 -11059937.04946  20909281.4844   20909292.7154
        20.2504         20.7504
  -9000417.72343  -6141008.78445  23272652.4774   23272677.5514
         6.2504          6.7504
  10063169.49445   8355944.31145  22924164.2114   22924169.0864
         8.2504          9.0004
  -3045692.95246  -2626571.26546  21309047.6564   21309052.0394
        18.7504         18.2504
 -15965751.26846 -12212541.82146  21110554.7974   21110566.0164
        19.7504         18.7504
    -39302.54741                  25000127.0164
         3.0004
  -7672402.11044  -5864630.45545  23740842.0314   23740853.1684
         7.5004          8.2504
 03 10 31  0 56 30.0000000  0  7G 9G24G28G 7G 4G26G 5
 -15893797.69647 -11056123.42146  20910212.6644   20910223.5084
        20.2504         20.7504
  -9080122.70644  -6203115.61945  23257485.3984   23257512.0904
         7.2504          8.5004
  10161409.52345   8432495.21345  22942858.2424   22942862.9184
         8.5004          9.0004
  -2965441.80046  -2564037.72646  21324319.0704   21324323.2894
        18.5004         18.5004
 -15994074.16046 -12234611.10946  21105164.5164   21105175.9924
        19.7504         18.7504
     77202.61941                  25022298.8914
         3.5004
  -7737390.30544  -5915271.22645  23728476.8364   23728486.8954
         7.5004          7.7504
 03 10 31  0 57  0.0000000  0  7G 9G24G28G 7G 4G26G 5
 -15888420.46747 -11051933.28946  20911236.0474   20911246.6214
        21.0004         21.0004
  -9159779.12044  -6265184.66145  23242326.4064   23242353.9064
         7.7504          7.5004
  10259734.63745   8509112.31245  22961568.9144   22961572.3594
         8.2504          8.5004
  -2885109.91346  -2501441.38846  21339605.5394   21339609.8984
        18.5004         18.2504
 -16021970.62047 -12256348.06946  21099855.5234   21099866.5314
        20.0004         18.7504
    193553.04742                  25044440.8444
         4.0004
  -7802447.89644  -5965966.12445  23716097.1174   23716111.1254
         7.7504          7.2504
 03 10 31  0 57 30.0000000  0  7G 9G24G28G 7G 4G26G 5
 -15882561.43347 -11047367.70146  20912350.9384   20912361.4884
        20.5004         21.0004
  -9239386.51045  -6327215.52645  23227177.1884   23227202.0044
         8.2504          8.5004
  10358142.68445   8585794.06345  22980295.1174   22980299.9804
         8.2504          8.5004
  -2804700.69346  -2438784.61346  21354907.0314   21354911.0634
        18.5004         18.0004
 -16049441.31146 -12277753.22446  21094627.5784   21094638.3524
        19.7504         18.5004
    309743.57541                  25066548.7894
         3.0004
  -7867576.57544  -6016716.86145  23703704.3594   23703715.8714
         7.5004          7.0004
 03 10 31  0 58  0.0000000  0  7G 9G24G28G 7G 4G26G 5
 -15876216.24747 -11042423.32746  20913558.2424   20913568.9104
        20.5004         20.7504
  -9318938.23345  -6389202.96245  23212038.7504   23212062.8054
         8.7504          8.5004
  10456636.72245   8662542.68045  22999037.6564   22999040.9264
         8.5004          8.0004
  -2724212.03646  -2376066.10046  21370222.8594   21370226.4344
        18.5004         18.0004
 -16076480.49547 -12298822.18046  21089482.1644   21089492.9384
        20.5004         19.2504
    425775.45541                  25088634.5394
         3.0004
  -7932770.31744  -6067517.95945  23691298.2734   23691308.4964
         7.2504          6.5004
 03 10 31  0 58 30.0000000  0  7G 9G24G28G 7G 4G26G 5
 -15869385.72847 -11037100.74846  20914858.1644   20914868.8794
        21.0004         21.0004
  -9398433.64745  -6451146.50245  23196910.1564   23196936.9304
         8.7504          8.5004
  10555214.98945   8739356.94545  23017797.0554   23017801.3324
         8.2504          8.7504
  -2643647.02146  -2313288.08946  21385554.3054   21385558.6294
        18.7504         18.2504
 -16103088.08347 -12319554.78946  21084418.2274   21084428.8364
        20.5004         19.2504
    541643.59842                  25110684.5944
         4.0004
  -7998031.20743  -6118371.64545  23678880.7114   23678892.9144
         6.7504          6.5004
 03 10 31  0 59  0.0000000  0  7G 9G24G28G 7G 4G26G 5
 -15862071.86047 -11031401.49846  20916249.6334   20916260.3244
        20.7504         20.7504
  -9477872.39645  -6513045.92745  23181793.2664   23181818.0704
         9.2504          9.2504
  10653874.64245   8816234.73645  23036570.1484   23036572.4574
         8.0004          7.5004
  -2563009.55046  -2250453.54346  21400899.0314   21400903.2154
        18.5004         18.0004
 -16129264.93446 -12339951.78346  21079436.1724   21079446.6524
        19.7504         19.0004
    657342.57642                  25132703.7274
         4.0004
  -8063360.72343  -6169278.79645  23666448.9144   23666464.0824
         6.2504          6.7504
 03 10 31  0 59 30.0000000  0  7G 9G24G28G 7G 4G26G 5
 -15854271.37747 -11025323.09046  20917733.8674   20917744.2304
        20.5004         21.0004
  -9557249.16144  -6574897.04145  23166686.3834   23166711.5634
         7.5004          8.2504
  10752617.58145   8893177.25645  23055361.2344   23055364.7974
         9.0004          9.2504
  -2482298.37746  -2187561.56246  21416257.5394   21416261.7814
        18.5004         18.2504
 -16155006.57347 -12360009.63946  21074537.2814   21074548.0784
        20.0004         19.2504
    772872.12941  -3682803.14253  25154687.7664   25154709.3244
         3.2504          3.5004
  -8128754.86443  -6220236.39145  23654004.6174   23654017.7234
         6.5004          7.0004
 03 10 31  1  0  0.0000000  0  7G 9G24G28G 7G 4G26G 5
 -15845986.69747 -11018867.40146  20919310.8054   20919321.3674
        20.5004         21.0004
  -9636564.70845  -6636700.41945  23151593.3594   23151617.4264
         8.2504          8.2504
  10851440.53045   8970182.23645  23074166.1024   23074170.9064
         8.5004          7.7504
  -2401518.48446  -2124616.02446  21431629.3674   21431633.2814
        18.2504         18.0004
 -16180314.55747 -12379729.50846  21069721.3364   21069731.7234
        20.5004         19.5004
    888226.35541  -3592918.76743  25176640.0554   25176673.3094
         3.7504          3.2504
  -8194215.88444  -6271246.19845  23641549.5234   23641560.3554
         7.0004          7.2504
 03 10 31  1  0 30.0000000  0  7G 9G24G28G 7G 4G26G 5
 -15837213.50747 -11012031.09746  20920979.8594   20920989.9414
        20.7504         21.0004
  -9715812.39845  -6698450.94545  23136512.5864   23136535.4574
         9.0004          9.2504
  10950346.52045   9047251.86245  23092987.7814   23092990.9104
         9.7504          9.2504
  -2320667.42546  -2061615.04546  21447014.5394   21447018.4884
        18.2504         17.7504
 -16205183.34947 -12399107.14746  21064987.9924   21064997.8984
        20.7504         19.7504
   1003405.98742  -3503170.26943  25198561.5234   25198594.0164
         4.7504          3.7504
  -8259738.24044  -6322303.17545  23629082.5554   23629096.2114
         7.2504          7.0004
 03 10 31  1  1  0.0000000  0  7G 9G24G28G 7G 4G26G 5
 -15827953.18947 -11004815.13046  20922742.4694   20922752.9024
        21.0004         21.2504
  -9794991.55845  -6760147.98645  23121444.5554   23121468.0234
         8.2504          8.7504
  11049333.57145   9124384.60145  23111823.6954   23111826.3914
         9.2504          8.7504
  -2239748.56946  -1998561.25446  21462412.5474   21462416.7074
        18.0004         18.0004
 -16229613.42147 -12418143.02846  21060339.0084   21060349.1134
        20.5004         19.5004
   1118406.03442  -3413561.60544  25220445.5474   25220476.8554
         4.7504          4.7504
  -8325323.34044  -6373409.11445  23616602.7894   23616617.2194
         7.7504          7.0004
 03 10 31  1  1 30.0000000  0  7G 9G24G28G 7G 4G26G 5
 -15818207.40247 -10997220.87646  20924596.7274   20924606.9844
        20.5004         21.0004
  -9874101.90543  -6821791.49245  23106388.0234   23106412.2194
         6.7504          7.5004
  11148399.06445   9201578.55045  23130675.6724   23130679.0594
         9.5004          8.5004
  -2158765.69546  -1935457.59346  21477823.4844   21477827.4224
        18.2504         17.7504
 -16253605.13347 -12436837.32746  21055773.2274   21055783.2034
        21.2504         19.7504
   1233221.66642  -3324096.67144  25242296.3984   25242329.0084
         4.0004          4.7504
  -8390972.40244  -6424564.62345  23604110.1724   23604122.6094
         7.2504          6.7504
 03 10 31  1  2  0.0000000  0  7G 9G24G28G 7G 4G26G 5
 -15807979.85847 -10989251.24546  20926542.5554   20926553.3164
        20.5004         20.5004
  -9953145.37244  -6883382.87445  23091346.2194   23091365.8634
         7.2504          7.0004
  11247538.18645   9278829.77545  23149541.5944   23149545.5904
         9.2504          8.2504
  -2077724.37346  -1872308.38246  21493244.9694   21493249.0704
        18.0004         17.7504
 -16277161.33247 -12455192.26546  21051290.1884   21051300.0234
        20.7504         19.7504
   1347845.69841  -3234781.11044  25264108.4224   25264143.2384
         2.7504          4.0004
  -8456688.93943  -6475772.50945  23591604.4224   23591616.9184
         6.7504          6.7504
 03 10 31  1  2 30.0000000  0  7G 9G24G28G 7G 4G26G 5
 -15797267.76947 -10980904.02946  20928580.8754   20928591.2274
        20.5004         20.7504
 -10032116.96845  -6944918.25245  23076318.5084   23076339.1414
         8.0004          7.7504
  11346752.64645   9356139.73045  23168421.0944   23168423.9884
         8.7504          8.5004
  -1996623.95346  -1809113.18946  21508677.9304   21508681.8554
        18.0004         17.7504
 -16300277.96647 -12473204.66146  21046890.5864   21046900.1994
        21.0004         19.7504
   1462277.37941  -3145615.34843  25285886.3754   25285928.4224
         3.2504          3.5004
  -8522470.34543  -6527031.14145  23579086.0314   23579099.1374
         6.7504          7.2504
 03 10 31  1  3  0.0000000  0  7G 9G24G28G 7G 4G26G 5
 -15786057.68247 -10972168.76246  20930714.0704   20930724.3754
        20.7504         21.2504
 -10111000.66345  -7006385.15545  23061306.3444   23061329.5204
         8.0004          8.2504
  11446054.90945   9433518.07745  23187318.3754   23187322.1374
         9.0004          8.7504
  -1915452.96446  -1745862.99146  21524124.2584   21524128.2074
        18.0004         17.7504
 -16322940.91547 -12490863.58346  21042577.8754   21042587.1604
        21.2504         20.0004
   1576526.32142                  25307629.5314
         4.7504
  -8588302.97444  -6578329.99745  23566560.0394   23566574.3524
         7.0004          8.0004
 03 10 31  1  3 30.0000000  0  7G 9G24G28G 7G 4G26G 5
 -15774361.14847 -10963054.43546  20932939.8914   20932950.3364
        21.0004         21.5004
 -10189806.08545  -7067791.14245  23046310.1804   23046331.7034
         8.2504          8.5004
  11545432.76745   9510955.29645  23206228.8284   23206232.8954
         8.2504          8.5004
  -1834224.49046  -1682567.93346  21539581.4384   21539585.6094
        18.0004         17.7504
 -16345160.28947 -12508176.88746  21038349.3134   21038358.6454
        21.0004         20.0004
   1690577.95841                  25329332.9534
         3.5004
  -8654196.33644  -6629675.80645  23554021.3364   23554036.5044
         7.2504          7.7504
 03 10 31  1  4  0.0000000  0  7G 9G24G28G 7G 4G26G 5
 -15762176.44247 -10953559.76246  20935258.2504   20935268.6374
        21.0004         21.0004
 -10268529.29645  -7129133.01545  23031328.5634   23031351.3984
         8.5004          8.2504
  11644887.33345   9588452.41945  23225154.5084   23225158.8204
         8.2504          8.0004
  -1752938.96446  -1619228.52646  21555049.3444   21555053.0824
        17.7504         17.5004
 -16366933.12747 -12525142.18546  21034205.6804   21034214.6134
        21.5004         20.0004
                                  25350998.5394
         2.5004
  -8720148.90945  -6681067.86645  23541471.3444   23541486.2894
         8.0004          8.5004
 03 10 31  1  4 30.0000000  0  7G 9G24G28G 7G 4G26G 5
 -15749498.17947 -10943680.46546  20937670.6334   20937680.5514
        20.7504         21.0004
 -10347162.99445  -7190405.25645  23016364.6334   23016387.1644
         9.5004          9.0004
  11744422.61145   9666012.41545  23244095.4534   23244100.9734
         8.0004          8.0004
  -1671592.78946  -1555841.77146  21570528.8834   21570532.6684
        17.5004         17.2504
 -16388253.34747 -12541754.83046  21030147.8364   21030157.2384
        21.0004         20.0004
  -4639145.61751                  25372626.9774
         3.0004
  -8786155.00245  -6732501.55545  23528911.1954   23528924.9454
         8.2504          8.7504
 03 10 31  1  5  0.0000000  0  7G 9G24G28G 7G 4G26G 5
 -15736332.88147 -10933421.63846  20940175.8984   20940186.1804
        21.0004         21.2504
 -10425711.23045  -7251610.92445  23001417.4304   23001438.9414
        10.2504          9.2504
  11844031.47944   9743629.60645  23263050.2034   23263054.1054
         7.0004          6.2504
  -1590194.48246  -1492414.44446  21586018.4304   21586022.6374
        17.5004         16.7504
 -16409126.21547 -12558018.90246  21026175.6254   21026184.7584
        21.2504         20.0004
  -4525695.85142                  25394219.6254
         4.2504
  -8852220.02145  -6783981.07645  23516340.0314   23516354.3554
         8.7504          8.5004
 03 10 31  1  5 30.0000000  0  7G 9G24G28G 7G 4G26G 5
 -15722688.21847 -10922789.31546  20942772.7034   20942782.8204
        21.0004         21.2504
 -10504179.26445  -7312754.12145  22986484.2974   22986505.8094
         9.0004          9.2504
  11943705.53844   9821297.74045  23282016.7664   23282020.5044
         7.5004          8.5004
  -1508752.99746  -1428953.43446  21601515.8204   21601519.6414
        17.2504         17.2504
 -16429558.14547 -12573939.35846  21022287.0634   21022295.9614
        20.7504         19.7504
  -4412463.29042                  25415770.7974
         4.0004
  -8918351.25345  -6835512.25945  23503755.6954   23503771.2504
         8.0004          8.2504
 03 10 31  1  6  0.0000000  0  7G 9G24G28G 7G 4G26G 5
 -15708553.55447 -10911775.17046  20945462.1024   20945472.2544
        20.7504         21.2504
 -10582554.52544  -7373825.01045  22971568.5474   22971590.5744
         7.7504          9.2504
  12043454.67443   9899024.37045  23300999.3754   23301006.1604
         6.7504          7.0004
  -1427259.77046  -1365452.12246  21617023.5474   21617026.9574
        17.5004         17.0004
 -16449537.59847 -12589507.24446  21018485.0004   21018493.5594
        21.5004         20.5004
  -4299440.78841                  25437273.0784
         2.5004
  -8984537.37744  -6887086.28245  23491160.2194   23491174.3914
         7.5004          7.5004
 03 10 31  1  6 30.0000000  0  7G 9G24G28G 7G 4G26G 5
 -15693926.82247 -10900377.57446  20948245.3054   20948255.7624
        20.7504         21.2504
 -10660832.63345  -7434820.22245  22956672.2274   22956694.2424
         8.0004          9.0004
  12143279.57244   9976809.93445  23319995.7974   23319999.1724
         7.5004          8.0004
  -1345714.82646  -1301910.56346  21632541.2584   21632544.7854
        17.5004         17.0004
 -16469061.66047 -12604720.32946  21014769.0784   21014777.2734
        21.0004         20.2504
  -4186629.46441                  25458746.1254
         2.7504
  -9050775.74344  -6938700.95845  23478555.9774   23478571.2384
         7.7504          8.7504
 03 10 31  1  7  0.0000000  0  7G 9G24G28G 7G 4G26G 5
 -15678809.43847 -10888597.63846  20951121.6644   20951131.9924
        21.0004         21.7504
 -10739012.35845  -7495738.83545  22941795.8284   22941817.3634
         9.0004          9.5004
  12243178.36744  10054653.05545  23339005.6094   23339008.8794
         7.2504          7.0004
  -1264120.93546  -1238330.87946  21648068.0164   21648071.7774
        17.5004         16.7504
 -16488130.67247 -12619578.91946  21011140.0864   21011148.0594
        21.0004         20.0004
  -4074033.89041                  25480172.3754
         3.0004
  -9117067.20245  -6990356.91745  23465941.5554   23465954.8834
         8.2504          8.2504
 03 10 31  1  7 30.0000000  0  7G 9G24G28G 7G 4G26G 5
 -15663198.84147 -10876433.39246  20954092.3054   20954102.3874
        21.0004         21.5004
 -10817089.03045  -7556577.18045  22926938.2114   22926958.9734
         9.7504          9.5004
  12343153.02044  10132555.38345  23358030.0394   23358034.5634
         7.7504          8.7504
  -1182477.20046  -1174712.35146  21663604.3284   21663607.8204
        17.5004         17.2504
 -16506740.50747 -12634079.63446  21007598.3134   21007606.4614
        21.0004         19.7504
  -3961654.39641                  25501559.6804
         3.7504
  -9183407.58545  -7042050.89945  23453317.4614   23453332.7464
         8.2504          8.7504
 03 10 31  1  8  0.0000000  0  7G 9G24G28G 7G 4G26G 5
 -15647099.54847 -10863888.36846  20957155.9534   20957166.1054
        20.5004         20.7504
 -10895064.57345  -7617336.65745  22912098.6564   22912120.5204
         9.7504          9.7504
  12443198.60644  10210512.94545  23377068.3834   23377073.5634
         7.2504          8.0004
  -1100789.55246  -1111059.58646  21679149.0084   21679152.7464
        17.5004         17.0004
 -16524894.53947 -12648225.16046  21004143.7274   21004151.9344
        21.5004         20.2504
  -3849498.33541                  25522902.4844
         3.7504
  -9249801.08344  -7093786.30245  23440683.5704   23440698.3054
         7.7504          8.7504
 03 10 31  1  8 30.0000000  0  7G 9G24G28G 7G 4G26G 5
 -15630510.22147 -10850961.47246  20960312.4694   20960322.5514
        21.0004         21.5004
 -10972935.41845  -7678014.58845  22897279.0864   22897301.3714
         8.2504          9.7504
  12543315.12444  10288525.74045  23396119.8284   23396123.2274
         7.2504          7.5004
  -1019058.68746  -1047373.17146  21694701.3364   21694704.6884
        17.2504         16.7504
 -16542591.07647 -12662014.31946  21000775.6414   21000783.5084
        21.5004         20.2504
  -3737567.82941                  25544204.5004
         3.0004
  -9316245.26843  -7145561.00645  23428039.2584   23428051.9654
         6.7504          7.7504
 03 10 31  1  9  0.0000000  0  7G 9G24G28G 7G 4G26G 5
 -15613420.31047 -10837644.58546  20963564.7814   20963574.6884
        20.5004         21.0004
 -11050688.92145  -7738601.03845  22882482.8524   22882503.8364
         9.5004         10.0004
  12643512.64144  10366601.58445  23415187.1334   23415192.1484
         7.5004          8.2504
   -937275.52846   -983646.07846  21710264.6024   21710268.3054
        17.0004         16.7504
 -16559818.20247 -12675437.81746  20997497.4844   20997505.7624
        21.2504         20.2504
                                  25565461.1174
         1.2504
  -9382728.85943  -7197366.15445  23415388.2734   23415404.5664
         6.7504          7.5004
 03 10 31  1  9 30.0000000  0  7G 9G24G28G 7G 4G26G 5
 -15595838.06947 -10823944.03646  20966910.2194   20966919.6914
        20.5004         21.0004
 -11128330.54345  -7799100.41245  22867707.6954   22867727.6334
         9.7504          9.7504
  12743782.55543  10444733.94845  23434268.0634   23434272.3054
         6.7504          8.2504
   -855449.71746   -919885.72346  21725835.2274   21725839.1174
        17.0004         16.5004
 -16576582.43647 -12688500.42546  20994306.4304   20994314.4614
        20.7504         20.5004
  -4640814.67852                  25586680.9384
         4.0004
  -9449259.50044  -7249208.01445  23402727.3204   23402741.6214
         7.2504          8.2504
 03 10 31  1 10  0.0000000  0  7G 9G24G28G 7G 4G26G 5
 -15577765.92247 -10809861.81146  20970349.1094   20970359.3094
        20.5004         21.0004
 -11205860.21245  -7859512.53245  22852954.8834   22852975.8324
        10.0004          9.2504
  12844121.91944  10522920.43745  23453362.5084   23453368.0514
         7.5004          8.5004
   -773585.01446   -856095.07046  21741413.9304   21741417.5864
        16.7504         16.7504
 -16592885.36047 -12701203.55646  20991204.2894   20991212.3204
        21.2504         20.5004
  -4529565.36942                  25607849.8134
         4.5004
  -9515838.11644  -7301087.15145  23390057.2584   23390073.4224
         7.7504          8.2504
 03 10 31  1 10 30.0000000  0  6G 9G24G28G 7G 4G 5
 -15559207.35747 -10795400.45746  20973881.1334   20973891.0044
        21.0004         21.5004
 -11283279.41345  -7919838.63045  22838221.6334   22838241.1604
         9.5004          9.5004
  12944526.22745  10601157.54645  23472468.9694   23472473.3164
         8.0004          7.7504
   -691686.53246   -792277.98246  21756998.5554   21757002.7504
        17.0004         16.5004
 -16608729.73647 -12713549.31746  20988188.8134   20988196.6914
        21.0004         20.2504
  -9582467.25145  -7353005.55745  23377378.3674   23377393.9224
         8.0004          8.2504
 03 10 31  1 11  0.0000000  0  6G 9G24G28G 7G 4G 5
 -15540153.43147 -10780553.25946  20977506.7894   20977516.9414
        20.7504         21.5004
 -11360576.07945  -7980069.30245  22823511.0234   22823531.9144
         8.7504          9.5004
  13045004.16644  10679452.07745  23491587.7974   23491590.6214
         7.5004          8.0004
   -609746.71746   -728428.71946  21772591.0784   21772594.8754
        17.0004         17.0004
 -16624105.13247 -12725529.63046  20985262.2504   20985269.8014
        20.5004         20.5004
  -9649137.10645  -7404955.71245  23364691.4614   23364706.7234
         8.2504          7.7504
 03 10 31  1 11 30.0000000  0  6G 9G24G28G 7G 4G 5
 -15520608.03447 -10765323.00446  20981226.0554   20981235.8794
        20.5004         21.2504
 -11437751.89545  -8040205.74645  22808826.1804   22808844.4064
        10.5004         10.0004
  13145550.98645  10757800.29645  23510722.2194   23510725.4534
         9.0004          8.7504
   -527771.06346   -664551.48846  21788190.6254   21788194.3874
        16.7504         17.0004
 -16639014.44547 -12737146.73746  20982424.8984   20982432.5554
        21.2504         20.2504
  -9715851.42344  -7456940.62545  23351995.9144   23352010.8484
         7.7504          7.5004
 03 10 31  1 12  0.0000000  0  6G 9G24G28G 7G 4G 5
 -15500572.49247 -10749710.84046  20985038.6564   20985048.4694
        20.7504         21.5004
 -11514805.64745  -8100247.10545  22794162.0314   22794181.4884
         9.7504          9.5004
  13246164.74845  10836200.72545  23529868.0084   23529872.3094
         8.7504          6.7504
   -445762.11346   -600648.32046  21803795.8914   21803799.9574
        16.5004         16.5004
 -16653457.95347 -12748400.81746  20979675.8444   20979683.1724
        21.0004         20.5004
  -9782609.30845  -7508959.33845  23339291.8284   23339306.6564
         8.0004          8.0004
 03 10 31  1 12 30.0000000  0  6G 9G24G28G 7G 4G 5
 -15480043.80847 -10733714.36346  20988944.8134   20988954.9884
        20.5004         21.2504
 -11591731.96945  -8160189.14945  22779522.6954   22779543.0554
         8.7504          9.2504
  13346848.06044  10914655.29645  23549026.8674   23549032.5274
         7.5004          6.7504
   -363718.24546   -536717.93046  21819408.5944   21819412.2154
        16.5004         16.5004
 -16667431.54847 -12759288.75446  20977016.2894   20977023.4184
        20.5004         20.2504
  -9849406.68045  -7561008.60645  23326579.9614   23326594.8594
         8.7504          8.7504
 03 10 31  1 13  0.0000000  0  6G 9G24G28G 7G 4G 5
 -15459025.70747 -10717336.47746  20992944.6334   20992954.4924
        20.5004         21.5004
 -11668531.27645  -8220032.17545  22764909.2894   22764929.6724
        10.2504         10.2504
  13447596.51145  10993160.48045  23568198.9304   23568202.2584
         9.0004          8.0004
   -281644.33846   -472764.06546  21835026.5394   21835030.7344
        16.2504         16.0004
 -16680938.44847 -12769813.29646  20974445.6954   20974452.6134
        21.2504         20.2504
  -9916245.85645  -7613090.08645  23313860.9144   23313876.1994
         9.0004          9.0004
 03 10 31  1 13 30.0000000  0  6G 9G24G28G 7G 4G 5
 -15437523.57247 -10700581.47346  20997036.2424   20997046.2774
        21.2504         21.7504
 -11745206.73245  -8279778.72345  22750316.5084   22750337.1524
        10.7504         10.5004
  13548404.39844  11071711.99245  23587382.3984   23587386.8754
         7.5004          7.0004
   -199547.39046   -408792.33746  21850649.1644   21850652.7504
        16.2504         16.0004
 -16693982.35347 -12779977.18546  20971963.6804   20971971.0784
        20.5004         20.2504
  -9983131.46145  -7665207.46845  23301131.3444   23301145.2114
         9.2504          9.0004
 03 10 31  1 14  0.0000000  0  6G 9G24G28G 7G 4G 5
 -15415529.99947 -10683443.57646  21001221.5084   21001231.3914
        21.0004         21.7504
 -11821748.83746  -8339421.36545  22735752.6484   22735770.4064
        12.5004         10.7504
  13649278.82343  11150315.30045  23606577.9534   23606580.4734
         6.0004          5.7504
   -117421.35846   -344798.08246  21866277.3524   21866280.9964
        16.2504         16.0004
 -16706554.76547 -12789773.61146  20969570.6724   20969577.8594
        20.7504         20.5004
 -10050055.45845  -7717354.95945  23288395.2894   23288408.6884
         8.5004          9.0004
 03 10 31  1 14 30.0000000  0  6G 9G24G28G 7G 4G 5
 -15393051.43347 -10665927.72446  21005498.6174   21005508.3244
        21.0004         21.5004
 -11898161.22445  -8398963.03545  22721209.9384   22721228.6804
         9.5004         10.0004
  13750212.64444  11228965.02545  23625785.4144   23625787.2774
         7.5004          7.0004
    -35273.54946   -280786.75146  21881909.1724   21881912.9694
        16.2504         16.0004
 -16718660.80947 -12799206.51446  20967266.7734   20967273.8094
        21.5004         20.5004
 -10117022.49445  -7769535.79345  23275651.0864   23275664.0274
         8.2504          8.7504
 03 10 31  1 15  0.0000000  0  6G 9G24G28G 7G 4G 5
 -15370090.05847 -10648035.68446  21009868.2194   21009878.1254
        21.2504         21.5004
 -11974443.58445  -8458403.34645  22706694.7664   22706713.2854
        10.7504         10.0004
  13851203.17743  11307658.99145  23645003.4454   23645006.8914
         5.7504          6.0004
     46892.37346   -216761.29546  21897544.8054   21897548.2854
        16.0004         15.7504
 -16730302.11847 -12808277.38146  20965051.1804   20965058.3444
        21.2504         20.5004
 -10184033.86445  -7821751.30845  23262898.0474   23262912.2544
         8.7504          9.5004
 03 10 31  1 15 30.0000000  0  6G 9G24G28G 7G 4G 5
 -15346649.88747 -10629770.53746  21014328.6024   21014338.4384
        21.0004         21.5004
 -12050597.06445  -8517743.35145  22692202.2424   22692220.0124
        11.2504         10.2504
  13952246.09142  11386393.74544  23664229.0634   23664231.1134
         4.5004          4.5004
    129071.30746   -152725.67246  21913183.0394   21913186.8134
        16.0004         15.5004
 -16741481.24247 -12816988.02946  20962924.0084   20962931.4534
        21.0004         20.2504
 -10251092.68945  -7874003.96345  23250136.6254   23250149.6844
         9.0004         10.0004
 03 10 31  1 16  0.0000000  0  6G 9G24G28G 7G 4G 5
 -15322729.30447 -10611131.06046  21018880.4304   21018890.5354
        20.5004         21.0004
 -12126617.01045  -8576979.28445  22677735.5474   22677753.9494
        10.7504         10.5004
  14053342.83743  11465170.41844  23683469.0474   23683472.3524
         5.7504          4.2504
    211263.95346    -88679.34146  21928823.7504   21928827.3244
        16.2504         15.5004
 -16752195.12347 -12825336.04646  20960884.6254   20960891.4964
        21.0004         20.5004
 -10318195.64445  -7926290.94845  23237366.6804   23237378.9884
         9.2504          9.7504
 03 10 31  1 16 30.0000000  0  6G 9G24G28G 7G 4G 5
 -15298327.61747 -10592116.64346  21023524.0634   21023533.8874
        20.7504         21.0004
 -12202500.28045  -8636108.68445  22663295.1414   22663313.3324
        10.5004         10.5004
  14154493.37443  11543988.99445  23702716.6644   23702721.7034
         5.7504          5.7504
    293469.60146    -24622.90646  21944466.6414   21944469.8874
        16.0004         15.5004
 -16762442.81147 -12833320.92046  20958934.2424   20958941.1024
        21.0004         20.2504
 -10385339.42345  -7978609.40445  23224589.1024   23224603.3094
         9.0004          9.0004
 03 10 31  1 17  0.0000000  0  6G 9G24G28G 7G 4G 5
 -15273447.71747 -10572729.56946  21028258.2734   21028267.5594
        20.7504         21.2504
 -12278247.04745  -8695131.70145  22648880.5554   22648899.7194
        10.7504         10.5004
  14255694.65343  11622847.09745  23721974.5864   23721979.6254
         5.2504          6.0004
    375684.36446     39440.60546  21960111.8594   21960114.8014
        16.0004         15.0004
 -16772226.07247 -12840944.10546  20957072.4534   20957079.2274
        21.2504         20.7504
 -10452527.00045  -8030962.03745  23211802.1644   23211812.6094
         8.2504          9.2504
 03 10 31  1 17 30.0000000  0  6G 9G24G28G 7G 4G 5
 -15248089.67247 -10552969.96046  21033083.8134   21033093.3674
        21.0004         21.5004
 -12353854.58145  -8754046.25145  22634492.6724   22634510.1254
        11.2504         11.2504
  14356946.26443  11701744.46545  23741242.3524   23741249.0784
         6.2504          7.0004
    457907.26746    103510.47846  21975758.1174   21975761.8204
        16.0004         14.7504
 -16781543.47947 -12848204.33446  20955299.2504   20955305.8954
        21.2504         20.5004
 -10519757.26145  -8083348.15945  23199007.2734   23199017.5204
         8.0004          9.7504
 03 10 31  1 18  0.0000000  0  6G 9G24G28G 7G 4G 5
 -15222254.85647 -10532838.87246  21037999.9844   21038009.4224
        20.5004         21.2504
 -12429321.17045  -8812851.04445  22620131.3204   22620149.2664
        10.7504         10.2504
  14458246.63645  11780679.83345  23760519.8674   23760523.6644
         8.0004          7.5004
    540135.99846    167584.85746  21991405.7274   21991409.1024
        15.7504         15.2504
 -16790394.80447 -12855101.23346  20953614.7504   20953621.3594
        21.5004         20.5004
 -10587029.95045  -8135767.83745  23186205.8204   23186217.8014
         9.0004         10.2504
 03 10 31  1 18 30.0000000  0  6G 9G24G28G 7G 4G 5
 -15195942.43247 -10512335.61846  21043006.7664   21043016.2384
        20.7504         21.0004
 -12504643.37145  -8871543.28545  22605798.2034   22605817.2854
        11.5004         11.2504
  14559596.36144  11859653.65745  23779805.4924   23779808.6684
         7.5004          6.2504
    622370.35046    231663.69746  22007054.1254   22007057.2664
        15.2504         15.0004
 -16798778.36347 -12861633.53146  20952019.2034   20952025.9304
        21.7504         21.0004
 -10654342.31245  -8188218.35545  23173396.1644   23173408.6134
         9.5004         10.0004
 03 10 31  1 19  0.0000000  0  6G 9G24G28G 7G 4G 5
 -15169154.13247 -10491461.51246  21048104.7274   21048114.1884
        21.0004         21.5004
 -12579820.13646  -8930122.24145  22591492.6254   22591510.9454
        12.5004         11.7504
  14660993.26844  11938664.25645  23799100.6564   23799103.6684
         7.0004          7.7504
    704607.51746    295744.69346  22022703.2114   22022706.4804
        15.2504         15.0004
 -16806695.07247 -12867802.06346  20950512.7344   20950519.2504
        21.7504         20.7504
 -10721694.43745  -8240699.80645  23160578.3524   23160588.2704
         9.7504         10.5004
 03 10 31  1 19 30.0000000  0  6G 9G24G28G 7G 4G 5
 -15141892.78947 -10470218.85446  21053292.1954   21053301.7034
        20.5004         21.0004
 -12654851.22645  -8988587.66445  22577213.7974   22577232.0824
        11.2504         11.5004
  14762434.49644  12017709.35745  23818404.2274   23818409.1134
         7.5004          8.2504
    786844.27346    359825.42546  22038352.4144   22038356.3754
        15.7504         15.0004
 -16814146.19847 -12873607.75046  20949094.6564   20949100.7154
        22.0004         20.7504
 -10789086.53245  -8293212.01545  23147753.6884   23147764.1454
         9.5004         10.2504
 03 10 31  1 20  0.0000000  0  6G 9G24G28G 7G 4G 5
 -15114158.61147 -10448607.72446  21058569.8674   21058579.5634
        20.5004         21.2504
 -12729734.13245  -9046937.57245  22562963.4534   22562981.1294
        11.2504         10.2504
  14863919.43945  12096788.54845  23837716.8284   23837720.7074
         8.5004          9.5004
    869078.89846    423904.47146  22054001.2194   22054003.9264
        15.5004         14.7504
 -16821131.47447 -12879050.43446  20947764.8984   20947770.6054
        21.7504         20.5004
 -10856519.90145  -8345757.24345  23134921.6414   23134931.3014
         9.7504          9.5004
 03 10 31  1 20 30.0000000  0  6G 9G24G28G 7G 4G 5
 -15085950.10547 -10426626.95446  21063937.2894   21063947.0314
        20.5004         21.2504
 -12804464.50345  -9105168.58945  22548742.6094   22548760.2384
        11.5004         11.0004
  14965449.40444  12175902.79645  23857036.9064   23857040.0474
         7.5004          8.2504
    951312.21846    487982.47946  22069649.4304   22069652.5234
        15.2504         15.0004
 -16827648.01147 -12884127.91646  20946524.4774   20946530.2194
        22.2504         20.7504
 -10923988.72745  -8398329.62445  23122081.5784   23122093.8404
         9.7504          9.0004
 03 10 31  1 21  0.0000000  0  6G 9G24G28G 7G 4G 5
 -15057269.10147 -10404278.01446  21069395.2114   21069404.7774
        20.7504         21.2504
 -12879041.27245  -9163279.95445  22534550.9774   22534568.7584
        11.5004         11.2504
  15067022.56043  12255050.76245  23876364.9304   23876366.6294
         5.0004          6.0004
   1033541.59546    552057.35446  22085297.2274   22085299.9574
        15.2504         14.7504
 -16833696.65347 -12888840.84146  20945373.2424   20945378.8554
        22.0004         20.7504
 -10991494.43345  -8450930.91945  23109235.8524   23109246.3794
         9.0004          8.2504
 03 10 31  1 21 30.0000000  0  6G 9G24G28G 7G 4G 5
 -15028112.62647 -10381558.64946  21074943.3754   21074952.9774
        20.7504         21.2504
 -12953458.64545  -9221267.01945  22520389.1094   22520406.4454
        11.0004         11.2504
  15168641.65943  12334234.47645  23895703.4144   23895708.2304
         6.5004          6.7504
   1115769.46946    616131.12846  22100944.4304   22100947.7704
        15.0004         14.5004
 -16839273.17347 -12893185.94446  20944311.8914   20944317.6914
        22.0004         20.7504
 -11059032.22445  -8503557.26045  23096383.5784   23096393.1094
         9.2504          9.0004
 03 10 31  1 22  0.0000000  0  6G 9G24G28G 7G 4G 5
 -14998482.01947 -10358469.79046  21080581.9304   21080591.7304
        20.5004         21.2504
 -13027714.91046  -9279128.52545  22506258.7974   22506275.6294
        12.0004         11.7504
  15270305.09645  12413452.81945  23915048.6484   23915052.1884
         8.0004          8.5004
   1197993.63946    680202.01046  22116590.6564   22116594.3364
        14.7504         14.5004
 -16844377.40147 -12897162.85246  20943340.3524   20943345.9184
        22.0004         20.7504
 -11126601.50445  -8556208.46745  23083524.3364   23083535.4024
         8.0004          8.2504
 03 10 31  1 22 30.0000000  0  6G 9G24G28G 7G 4G 5
 -14968382.13847 -10335015.23546  21086309.8054   21086319.4884
        20.5004         21.0004
 -13101812.14546  -9336866.17745  22492158.3364   22492175.5664
        12.5004         11.7504
  15372007.58042  12492701.48445  23934402.9454   23934408.1604
         4.5004          6.5004
   1280208.26846    744265.51546  22132236.1644   22132239.6684
        14.7504         14.5004
 -16849013.64047 -12900774.95746  20942457.7894   20942463.4144
        22.0004         20.7504
 -11194204.98245  -8608885.79345  23070659.7504   23070670.5594
         8.7504         10.2504
 03 10 31  1 23  0.0000000  0  6G 9G24G28G 7G 4G 5
 -14937813.95647 -10311195.64046  21092126.4384   21092135.7814
        21.0004         21.5004
 -13175748.13945  -9394478.09945  22478088.1724   22478105.0864
        11.7504         11.2504
  -4688953.26851                  23953764.3284
         3.2504
   1362411.87346    808320.43046  22147878.6414   22147881.9574
        14.5004         14.7504
 -16853181.99047 -12904022.52446  20941663.8364   20941668.7934
        21.7504         21.0004
 -11261842.77945  -8661589.99545  23057788.7344   23057797.7034
         9.5004          9.5004
 03 10 31  1 23 30.0000000  0  6G 9G24G28G 7G 4G 5
 -14906775.77647 -10287009.92246  21098032.7274   21098042.0354
        21.2504         21.5004
 -13249518.11645  -9451960.61745  22464049.5084   22464066.1414
        11.7504         11.2504
  -4587172.44644                  23973131.6254
         7.7504
   1444605.39846    872367.45746  22163519.3594   22163522.7934
        14.5004         14.2504
 -16856879.44747 -12906903.27646  20940960.1954   20940965.3284
        22.2504         21.0004
 -11329510.81245  -8714317.87945  23044911.3754   23044923.2734
         9.5004          9.7504
 03 10 31  1 24  0.0000000  0  6G 9G24G28G 7G 4G 5
 -14875268.10447 -10262458.38846  21104028.3914   21104037.6994
        20.7504         21.7504
 -13323119.60146  -9509311.87146  22450043.8524   22450060.7664
        13.2504         12.0004
  -4485352.12543                  23992507.1724
         6.7504
   1526787.90446    936405.82846  22179157.9844   22179161.5824
        14.2504         14.5004
 -16860105.19147 -12909416.43646  20940346.2034   20940351.1954
        22.2504         21.5004
 -11397207.17045  -8767067.52645  23032028.7344   23032037.4104
        10.2504          9.7504
 03 10 31  1 24 30.0000000  0  6G 9G24G28G 7G 4G 5
 -14843287.81447 -10237538.57046  21110113.9924   21110123.0314
        20.2504         21.0004
 -13396546.43546  -9566527.01346  22436070.3524   22436086.4924
        12.7504         12.0004
  -4383489.22241  -3611365.60755  24011889.6024   24011894.3714
         2.2504          5.2504
   1608961.95346   1000437.61246  22194795.5944   22194798.8164
        14.2504         14.0004
 -16862854.92447 -12911558.58646  20939822.5234   20939827.8204
        22.0004         21.0004
 -11464927.33945  -8819835.90445  23019141.7664   23019150.3834
         9.7504          9.0004
 03 10 31  1 25  0.0000000  0  6G 9G24G28G 7G 4G 5
 -14810840.27747 -10212254.69946  21116288.3834   21116297.6564
        20.5004         20.7504
 -13469800.80346  -9623607.72346  22422129.9534   22422146.8444
        12.2504         12.5004
  -4281589.23743  -3531963.14045  24031282.0004   24031285.7034
         6.0004          6.2504
   1691121.48446   1064458.10846  22210429.9534   22210432.7774
        14.5004         14.2504
 -16865133.28147 -12913333.45646  20939388.3524   20939393.2974
        22.0004         21.5004
 -11532675.48145  -8872626.20845  23006249.0944   23006258.0044
         9.2504         10.5004
 03 10 31  1 25 30.0000000  0  6G 9G24G28G 7G 4G 5
 -14777925.72647 -10186606.88446  21122551.5944   21122560.8914
        20.2504         21.0004
 -13542880.40346  -9680552.32646  22408223.1484   22408239.4304
        13.2504         12.2504
  -4179652.66645  -3452531.81443  24050680.2734   24050675.7274
         8.5004          3.7504
   1773265.72146   1128466.70846  22226061.6564   22226064.9734
        14.2504         14.2504
 -16866939.36147 -12914740.29946  20939044.3914   20939049.2424
        22.0004         21.2504
 -11600448.51045  -8925435.68845  22993351.7274   22993361.5634
         9.0004         10.2504
 03 10 31  1 26  0.0000000  0  6G 9G24G28G 7G 4G 5
 -14744540.53147 -10160592.30946  21128904.4064   21128913.7384
        20.5004         21.2504
 -13615778.17046  -9737355.22346  22394350.3524   22394366.1174
        13.0004         12.2504
  -4077675.49944  -3373068.91545  24070084.8754   24070088.6254
         7.2504          5.5004
   1855397.81046   1192465.79146  22241690.4614   22241693.9184
        14.2504         13.7504
 -16868268.39647 -12915775.45046  20938790.9924   20938795.5514
        22.0004         21.2504
 -11668241.28745  -8978260.47845  22980451.0314   22980458.6884
         9.7504         10.2504
 03 10 31  1 26 30.0000000  0  6G 9G24G28G 7G 4G 5
 -14710688.47947 -10134213.91346  21135346.5554   21135355.5594
        20.5004         21.2504
 -13688494.68346  -9794016.85446  22380512.3054   22380529.1374
        12.5004         12.0004
  -3975661.30042  -3293577.31245  24089496.1334   24089497.8554
         4.2504          7.0004
   1937513.76346   1256452.28846  22257316.2584   22257319.8324
        14.0004         13.7504
 -16869122.83847 -12916440.73346  20938628.2664   20938632.7664
        22.0004         21.5004
 -11736055.64345  -9031102.05545  22967545.9064   22967554.6764
        10.5004         11.0004
 03 10 31  1 27  0.0000000  0  6G 9G24G28G 7G 4G 5
 -14676366.70447 -10107469.50646  21141877.7114   21141886.9264
        20.7504         21.0004
 -13761024.00746  -9850532.59746  22366710.2194   22366725.4454
        13.0004         13.2504
  -3873607.49143  -3214054.98145  24108917.8204   24108924.1724
         5.0004          6.5004
   2019615.72846   1320427.93246  22272939.8594   22272942.8014
        14.0004         14.5004
 -16869499.05647 -12916733.38346  20938556.2504   20938560.9144
        22.2504         21.7504
 -11803885.98446  -9083955.70846  22954637.8754   22954646.7854
        12.2504         12.0004
 03 10 31  1 27 30.0000000  0  6G 9G24G28G 7G 4G 5
 -14641579.55847 -10080362.45446  21148496.9534   21148505.9344
        20.2504         21.0004
 -13833367.53146  -9906903.55946  22352942.9534   22352958.5084
        12.7504         12.7504
  -3771518.60344  -3134505.23845  24128344.7734   24128348.5474
         7.2504          7.7504
   2101699.00346   1384388.98246  22288559.5394   22288562.4344
        14.0004         14.2504
 -16869400.22847 -12916655.95246  20938574.6484   20938579.0314
        22.2504         21.5004
 -11871735.61846  -9136824.66146  22941725.7504   22941733.8524
        12.5004         12.5004
 03 10 31  1 28  0.0000000  0  6G 9G24G28G 7G 4G 5
 -14606323.76347 -10052890.20946  21155206.0084   21155215.2934
        20.5004         21.0004
 -13905518.91146  -9963124.81346  22339212.5704   22339228.6884
        12.5004         12.2504
  -3669390.83444  -3054925.05145  24147778.9144   24147781.9964
         7.0004          6.2504
   2183766.57246   1448337.78346  22304176.7734   22304180.2894
        14.0004         13.7504
 -16868822.02647 -12916205.01446  20938684.5164   20938688.7584
        22.5004         22.0004
 -11939598.86845  -9189704.16345  22928811.0704   22928818.3634
        11.7504         11.7504
 03 10 31  1 28 30.0000000  0  6G 9G24G28G 7G 4G 5
 -14570599.59547 -10025052.99846  21162003.7274   21162012.6954
        20.5004         21.2504
 -13977475.03246 -10019193.91046  22325519.7504   22325536.3134
        13.0004         13.0004
  -3567224.26643  -2975314.75945  24167219.6484   24167219.6484
         5.2504          5.2504
   2265817.96546   1512273.96246  22319790.6804   22319793.5864
        14.0004         14.0004
 -16867763.54147 -12915379.83346  20938885.9384   20938890.0394
        22.5004         21.7504
 -12007473.84045  -9242592.98745  22915893.9694   22915902.2814
        11.0004         11.7504
 03 10 31  1 29  0.0000000  0  6G 9G24G28G 7G 4G 5
 -14534411.87747  -9996854.58846  21168890.0784   21168899.2934
        20.5004         21.5004
 -14049237.71246 -10075112.27246  22311863.4774   22311878.7274
        13.7504         13.2504
  -3465023.68741  -2895677.94544  24186668.7504   24186667.4614
         3.2504          4.7504
   2347847.85346   1576193.36646  22335400.4144   22335403.7074
        14.0004         13.7504
 -16866228.51247 -12914183.30246  20939177.3054   20939181.7814
        22.2504         22.0004
 -12075363.27345  -9295493.20945  22902974.8364   22902982.0234
        11.5004         11.7504
 03 10 31  1 29 30.0000000  0  6G 9G24G28G 7G 4G 5
 -14497757.05147  -9968292.20246  21175864.9304   21175874.1454
        20.2504         20.7504
 -14120800.25946 -10130874.70646  22298244.8444   22298260.3754
        13.2504         13.2504
  -3362785.55842  -2816012.00345  24206123.3914   24206127.1644
         4.0004          5.7504
   2429859.53346   1640098.64546  22351006.7344   22351009.7584
        14.0004         13.5004
 -16864212.49347 -12912611.98546  20939560.8984   20939564.9414
        22.7504         22.0004
 -12143261.02945  -9348399.91345  22890053.4924   22890061.2774
        11.5004         11.7504
 03 10 31  1 30  0.0000000  0  6G 9G24G28G 7G 4G 5
 -14460635.21047  -9939365.87246  21182929.1334   21182937.9734
        20.2504         21.0004
 -14192159.56746 -10186478.76146  22284664.5394   22284679.4264
        12.7504         13.0004
  -3260509.67843  -2736316.44745  24225585.3444   24225590.1374
         5.2504          6.2504
   2511852.51146   1703989.32246  22366609.4614   22366612.5314
        14.0004         13.2504
 -16861714.39847 -12910664.96246  20940035.5394   20940039.4414
        22.2504         22.0004
 -12211165.42645  -9401311.80045  22877131.3524   22877139.3244
        11.0004         11.0004
 03 10 31  1 30 30.0000000  0  6G 9G24G28G 7G 4G 5
 -14423047.81147  -9910076.77746  21190081.2274   21190090.0314
        20.5004         21.0004
 -14263313.52546 -10241922.81146  22271124.7814   22271139.7504
        13.0004         13.2504
  -3158197.42743  -2656592.59745  24245055.3364   24245057.4104
         6.0004          6.7504
   2593825.20446   1767864.15946  22382208.7584   22382212.1684
        14.0004         13.5004
 -16858734.72747 -12908342.70046  20940602.3914   20940606.3634
        22.2504         22.2504
 -12279075.39645  -9454228.11045  22864208.1724   22864215.5474
        11.2504         11.0004
 03 10 31  1 31  0.0000000  0  6G 9G24G28G 7G 4G 5
 -14384994.04847  -9880424.29246  21197322.9614   21197331.6954
        20.7504         21.0004
 -14334258.38246 -10297203.99946  22257623.8914   22257639.4104
        13.5004         13.2504
  -3055847.59043  -2576839.50744  24264532.7974   24264538.6684
         5.2504          4.5004
   2675778.55946   1831723.96946  22397803.6724   22397806.6844
        14.0004         12.7504
 -16855271.52847 -12905643.71746  20941261.2584   20941264.9144
        22.2504         22.2504
 -12346986.93145  -9507145.43645  22851284.0394   22851290.8134
        11.5004         10.5004
 03 10 31  1 31 30.0000000  0  6G 9G24G28G 7G 4G 5
 -14346478.25147  -9850411.81046  21204651.5634   21204660.2624
        20.5004         21.2504
 -14404994.61746 -10352322.65446  22244162.8204   22244177.4384
        13.5004         13.2504
  -2953463.64442  -2497059.67743  24284014.3834   24284008.9694
         4.2504          3.2504
   2757708.22946   1895565.28446  22413394.1804   22413396.9104
        13.7504         13.2504
 -16851327.70547 -12902570.27646  20942011.5004   20942015.1334
        22.5004         22.2504
 -12414902.39145  -9560066.01545  22838359.3524   22838366.0904
        11.7504         11.5004
 03 10 31  1 32  0.0000000  0  6G 9G24G28G 7G 4G 5
 -14307499.49947  -9820038.58346  21212069.2194   21212077.6484
        20.5004         21.0004
 -14475518.07946 -10407275.38446  22230741.9844   22230756.9774
        13.7504         13.7504
  -2851045.40942  -2417253.37343  24303505.0944   24303503.4414
         4.5004          3.5004
   2839614.77546   1959388.56446  22428980.4534   22428983.2894
        13.5004         13.0004
 -16846901.24147 -12899120.72146  20942853.4304   20942857.0744
        22.5004         22.5004
 -12482818.87245  -9612987.41545  22825435.3594   22825443.0274
        11.5004         11.0004
 03 10 31  1 32 30.0000000  0  6G 9G24G28G 7G 4G 5
 -14268054.84847  -9789302.23846  21219575.0234   21219583.8754
        21.0004         21.2504
 -14545823.23846 -10462058.06546  22217362.9064   22217377.6994
        13.5004         13.5004
  -2748589.45543  -2337417.77444  24323002.6174   24323010.0514
         6.0004          4.2504
   2921500.93346   2023196.00046  22444563.0234   22444565.7074
        13.2504         13.0004
 -16841988.63247 -12895292.36146  20943788.0634   20943791.7894
        22.5004         22.2504
 -12550730.82845  -9665905.14745  22812511.9384   22812519.5474
        11.7504         10.7504
 03 10 31  1 33  0.0000000  0  6G 9G24G28G 7G 4G 5
 -14228145.61147  -9758203.90046  21227169.3134   21227177.6134
        20.5004         21.0004
 -14615907.78846 -10516668.86146  22204026.3674   22204041.3834
        14.2504         14.2504
  -2646096.54644  -2257553.03945  24342506.0864   24342511.2544
         7.2504          6.0004
   3003365.36746   2086986.53046  22460140.7274   22460143.7154
        13.2504         12.5004
 -16836589.96847 -12891085.24546  20944815.0704   20944818.4104
        22.2504         22.0004
 -12618637.44745  -9718818.75745  22799588.8364   22799596.3524
        11.2504         10.7504
 03 10 31  1 33 30.0000000  0  6G 9G24G28G 7G 4G 5
 -14187771.04647  -9726743.00746  21234851.8284   21234860.1764
        20.2504         20.5004
 -14685767.91346 -10571104.78346  22190731.9614   22190746.2034
        14.5004         13.7504
  -2543565.64744  -2177658.83845  24362016.6174   24362020.3554
         7.5004          5.5004
   3085208.90346   2150760.79246  22475715.3364   22475717.9844
        13.0004         12.7504
 -16830703.62947 -12886498.21746  20945934.9924   20945938.5204
        22.2504         22.2504
 -12686535.17545  -9771725.26645  22786667.7584   22786672.9144
        11.5004         11.5004
 03 10 31  1 34  0.0000000  0  6G 9G24G28G 7G 4G 5
 -14146938.15947  -9694925.00046  21242621.9384   21242630.9064
        20.2504         20.7504
 -14755406.83446 -10625368.26146  22177479.0164   22177492.5204
        14.5004         13.7504
  -2441003.63443  -2097740.32945  24381533.3524   24381535.8244
         6.5004          5.0004
   3167024.49046   2214513.26446  22491284.2034   22491286.8754
        13.0004         13.0004
 -16824335.25547 -12881535.57546  20947146.7424   20947150.1884
        22.5004         22.5004
 -12754428.15745  -9824628.20245  22773747.6174   22773753.4654
        11.2504         10.7504
 03 10 31  1 34 30.0000000  0  6G 9G24G28G 7G 4G 5
 -15681060.62847 -10890344.91046  20950688.3054   20950696.8054
        20.2504         20.7504
 -16400238.62346 -11907054.71646  21864477.9534   21864491.2934
        14.5004         14.0004
  -3913821.54642  -3245390.65144  24101264.7974   24101264.7624
         4.7504          4.7504
   1673399.92846   1050649.99246  22207056.9304   22207059.9064
        13.0004         13.0004
 -18392898.59547 -14103792.45046  20648658.8054   20648662.1214
        22.7504         22.5004
 -14397731.67145 -11105123.82545  22461036.9064   22461044.0474
        11.0004         11.7504
 03 10 31  1 35  0.0000000  0  6G 9G24G28G 7G 4G 5
 -15639304.66447 -10857807.58346  20958633.9924   20958642.3634
        20.2504         20.7504
 -16469418.34746 -11960960.33446  21851312.9384   21851326.5594
        15.0004         14.5004
  -3811189.12742  -3165417.28143  24120793.8444   24120800.1724
         4.0004          3.7504
   1755166.56246   1114364.33646  22222616.2584   22222618.6954
        12.7504         13.0004
 -18385556.42647 -14098071.01446  20650055.8674   20650058.8554
        22.2504         22.2504
 -14465601.75345 -11158008.87845  22448121.1174   22448126.9654
        11.2504         11.2504
 03 10 31  1 35 30.0000000  0  6G 9G24G28G 7G 4G 5
 -15597084.17047 -10824908.36146  20966668.1954   20966676.3444
        20.0004         20.2504
 -16538360.14746 -12014680.53446  21838193.3834   21838206.9104
        14.7504         14.5004
  -3708517.84142                  24140333.3284
         4.5004
   1836911.81946   1178061.99246  22238171.4844   22238174.3914
        12.5004         13.0004
 -18377722.70847 -14091966.55846  20651546.1484   20651549.4184
        22.2504         22.2504
 -14533453.16445 -11210879.41845  22435209.0944   22435214.9654
        11.5004         11.7504
 03 10 31  1 36  0.0000000  0  6G 9G24G28G 7G 4G 5
 -15554401.19047 -10791648.73446  20974790.2894   20974798.8014
        20.2504         21.0004
 -16607063.38846 -12068214.90046  21825118.7814   21825131.9574
        14.5004         14.5004
  -3605809.79943                  24159878.6174
         5.5004
   1918633.57246   1241741.29246  22253723.2194   22253725.8914
        12.7504         12.7504
 -18369398.87247 -14085480.30146  20653130.4534   20653133.4654
        22.2504         22.0004
 -14601286.34746 -11263736.15746  22422300.2664   22422305.4454
        12.0004         12.2504
 03 10 31  1 36 30.0000000  0  6G 9G24G28G 7G 4G 5
 -15511255.06947 -10758028.20146  20983000.6564   20983009.1094
        20.0004         20.7504
 -16675523.90246 -12121560.12846  21812090.8914   21812104.2894
        14.7504         14.7504
  -3503063.81543  -4902395.85455  24179430.3524   24179432.1454
         5.7504          5.5004
   2000332.88146   1305403.10746  22269269.6644   22269273.0394
        12.7504         12.7504
 -18360582.89947 -14078610.52146  20654807.4924   20654810.6214
        22.2504         22.5004
 -14669096.85646 -11316574.97545  22409396.2344   22409400.9574
        12.2504         11.5004
 03 10 31  1 37  0.0000000  0  6G 9G24G28G 7G 4G 5
 -15467650.29747 -10724050.27946  20991298.1644   20991306.7114
        20.0004         20.5004
 -16743742.74546 -12174717.09446  21799109.2274   21799122.1684
        15.0004         14.5004
  -3400283.27143  -4822306.88745  24198988.9924   24198990.5394
         5.5004          5.5004
   2082005.31446   1369044.02546  22284811.8834   22284814.4264
        12.7504         12.5004
 -18351278.45147 -14071360.13646  20656577.9064   20656580.7544
        22.7504         22.2504
 -14736887.04145 -11369397.91245  22396495.5314   22396500.7114
        11.7504         11.5004
 03 10 31  1 37 30.0000000  0  6G 9G24G28G 7G 4G 5
 -15423587.41747 -10689715.39746  20999683.2194   20999691.3324
        20.0004         20.7504
 -16811716.66946 -12227683.12246  21786173.0234   21786186.1294
        14.5004         14.5004
  -3297468.70242  -4742191.56145  24218553.4304   24218554.9884
         4.2504          5.2504
   2163650.78146   1432663.94646  22300348.4144   22300351.0514
        12.7504         12.5004
 -18341484.66747 -14063728.38146  20658441.5634   20658444.5744
        22.2504         22.2504
 -14804654.13946 -11422202.90946  22383599.5234   22383605.1484
        12.2504         12.2504
 03 10 31  1 38  0.0000000  0  6G 9G24G28G 7G 4G 5
 -15379065.94447 -10655023.30346  21008155.1954   21008163.4384
        20.2504         20.5004
 -16879441.88646 -12280455.34746  21773285.0634   21773298.4734
        15.0004         14.7504
  -3194619.38441  -4662049.33143  24238124.4844   24238133.2074
         2.7504          3.2504
   2245270.04646   1496263.36046  22315879.6414   22315882.4654
        12.5004         12.7504
 -18331199.85947 -14055713.97846  20660398.6884   20660401.6054
        22.7504         22.5004
 -14872395.10746 -11474987.65246  22370708.8444   22370713.6134
        12.5004         12.2504
 03 10 31  1 38 30.0000000  0  6G 9G24G28G 7G 4G 5
 -15334084.39447 -10619972.56946  21016714.4144   21016722.4924
        20.2504         20.7504
 -16946913.70846 -12333030.10546  21760445.4304   21760457.8204
        15.2504         15.2504
                                  24257701.8754
         2.0004
   2326864.42946   1559843.39446  22331406.6334   22331410.4304
        12.7504         12.7504
 -18320422.29847 -14047315.67146  20662449.0944   20662451.8244
        22.5004         22.5004
 -14940105.42846 -11527748.24046  22357823.1954   22357828.2464
        12.0004         12.0004
 03 10 31  1 39  0.0000000  0  6G 9G24G28G 7G 4G 5
 -15288642.74646 -10584563.25546  21025361.8754   21025369.9304
        19.7504         20.7504
 -17014128.67946 -12385404.86646  21747654.4064   21747666.9964
        15.5004         14.7504
                                  24277289.3364
         2.7504
   2408434.40246   1623404.48246  22346928.6884   22346931.7464
        12.7504         12.7504
 -18309150.84347 -14038532.60846  20664594.2504   20664597.0744
        22.5004         22.5004
 -15007783.12046 -11580483.59445  22344944.3914   22344950.0744
        12.0004         11.7504
 03 10 31  1 39 30.0000000  0  6G 9G24G28G 7G 4G 5
 -15242743.52647 -10548797.48646  21034095.7504   21034103.8874
        20.0004         20.5004
 -17081085.55146 -12437578.54146  21734912.1254   21734924.8674
        14.5004         14.7504
  -6222746.07352                  24296880.5704
         4.2504
   2489978.28546   1686945.23246  22362446.5474   22362449.1374
        13.0004         12.7504
 -18297386.36747 -14029365.43646  20666832.7734   20666835.5744
        22.5004         22.5004
 -15075427.45446 -11633193.08846  22332071.6804   22332076.6024
        12.5004         12.2504
 03 10 31  1 40  0.0000000  0  6G 9G24G28G 7G 4G 5
 -15196390.42647 -10512678.15446  21042917.0704   21042924.8324
        20.0004         20.2504
 -17147784.13346 -12489550.91546  21722219.5394   21722232.1764
        15.2504         15.2504
  -6119754.09243                  24316479.6954
         5.0004
   2571492.53646   1750462.79146  22377957.9304   22377960.0744
        12.7504         12.5004
 -18285131.68747 -14019816.27246  20669164.5554   20669167.4144
        22.5004         22.5004
 -15143039.23046 -11685877.43346  22319205.4224   22319209.3714
        12.7504         12.7504
 03 10 31  1 40 30.0000000  0  6G 9G24G28G 7G 4G 5
 -15149579.47847 -10476202.02146  21051824.3984   21051832.6764
        20.0004         20.5004
 -17214217.20046 -12541316.46646  21709578.0314   21709589.9414
        16.0004         15.2504
  -6016725.51843  -4883639.30655  24336086.7584   24336090.4964
         5.7504          6.2504
   2652981.34346   1813960.59946  22393464.5084   22393467.4734
        12.2504         12.0004
 -18272382.01647 -14009881.36646  20671590.7424   20671593.5084
        22.2504         22.7504
 -15210611.68246 -11738531.20846  22306346.4924   22306350.8054
        13.2504         12.5004
 03 10 31  1 41  0.0000000  0  6G 9G24G28G 7G 4G 5
 -15102311.99947 -10439370.12946  21060819.1724   21060827.1914
        20.0004         20.5004
 -17280382.53446 -12592873.23046  21696985.4304   21696997.4924
        15.7504         15.2504
  -5913660.72443  -4803329.12845  24355698.5394   24355703.9884
         6.2504          6.0004
   2734444.07146   1877438.09446  22408966.3524   22408968.9304
        12.2504         12.2504
 -18259137.35947 -13999560.72446  20674110.8674   20674113.6454
        22.5004         22.7504
 -15278142.27546 -11791152.18846  22293496.1804   22293501.4654
        13.2504         13.2504
 03 10 31  1 41 30.0000000  0  6G 9G24G28G 7G 4G 5
 -15054585.72247 -10402180.67546  21069901.1484   21069909.1684
        20.0004         20.5004
 -17346274.81546 -12644217.29746  21684446.7974   21684458.5664
        16.0004         15.7504
  -5810556.87843  -4722988.57645  24375318.4144   24375320.5004
         6.2504          6.5004
   2815883.31946   1940897.28946  22424463.7034   22424466.3524
        12.0004         12.0004
 -18245394.68347 -13988851.99546  20676726.1724   20676728.7504
        22.7504         22.5004
 -15345625.67346 -11843736.29146  22280654.4304   22280658.6724
        13.5004         12.7504
 03 10 31  1 42  0.0000000  0  6G 9G24G28G 7G 4G 5
 -15006404.85947 -10364637.00046  21079069.3054   21079076.9384
        20.0004         20.5004
 -17411894.17446 -12695348.72646  21671959.1334   21671970.9264
        15.5004         15.5004
  -5707417.43443  -4642620.18845  24394947.0394   24394951.8794
         5.7504          6.0004
   2897295.44245   2004335.33945  22439956.1884   22439959.0354
        11.7504         11.5004
 -18231157.05447 -13977757.58246  20679435.5084   20679438.0164
        22.7504         22.7504
 -15413064.01746 -11896285.32946  22267820.8284   22267824.8244
        13.5004         12.7504
 03 10 31  1 42 30.0000000  0  6G 9G24G28G 7G 4G 5
 -14957771.06147 -10326740.42546  21088324.2504   21088331.8484
        20.2504         20.2504
 -17477238.87546 -12746266.15146  21659524.0084   21659535.8134
        15.2504         15.5004
  -5604242.81443  -4562224.10045  24414579.7894   24414585.6374
         5.7504          5.7504
   2978679.33145   2067751.34746  22455442.9924   22455444.6094
        11.7504         12.2504
 -18216424.99647 -13966277.96346  20682238.9774   20682241.4144
        22.5004         22.5004
 -15480455.78546 -11948798.19346  22254996.6334   22255001.0394
        13.0004         12.5004
 03 10 31  1 43  0.0000000  0  6G 9G24G28G 7G 4G 5
 -14908682.70946 -10288489.70246  21097665.1254   21097673.1094
        19.7504         20.2504
 -17542303.51246 -12796965.30546  21647142.3594   21647153.8134
        16.0004         16.0004
  -5501031.50143  -4481799.70245  24434219.8594   24434223.6684
         5.2504          5.0004
   3060037.19545   2131147.04446  22470924.5394   22470926.4844
        11.5004         12.0004
 -18201196.06447 -13954411.19646  20685136.5864   20685139.3054
        22.5004         22.7504
 -15547795.93046 -12001270.79646  22242182.0474   22242186.3014
        14.0004         13.5004
 03 10 31  1 43 30.0000000  0  6G 9G24G28G 7G 4G 5
 -14859142.47147 -10249886.84446  21107092.3754   21107100.4774
        20.0004         20.2504
 -17607087.52146 -12847445.86646  21634813.6484   21634825.0784
        15.5004         15.5004
  -5397785.66442  -4401348.19944  24453866.1024   24453870.4024
         4.5004          4.2504
   3141366.72645   2194520.70145  22486401.4064   22486404.4884
        11.5004         11.7504
 -18185472.04647 -13942158.61646  20688128.6174   20688131.2424
        22.2504         22.7504
 -15615084.21946 -12053703.06146  22229377.0394   22229381.2114
        13.7504         13.5004
 03 10 31  1 44  0.0000000  0  6G 9G24G28G 7G 4G 5
 -14809149.16946 -10210930.94446  21116606.1024   21116614.0744
        19.7504         20.2504
 -17671586.01446 -12897703.98546  21622540.4694   21622552.5084
        16.5004         16.0004
  -5294502.84242  -4320868.30443  24473520.2344   24473530.4924
         4.2504          3.7504
   3222670.08545   2257873.95045  22501872.4534   22501874.8204
        11.5004         11.0004
 -18169250.56247 -13929518.42046  20691215.4384   20691217.9224
        22.7504         22.5004
 -15682315.74146 -12106090.88646  22216582.6254   22216586.6684
        13.5004         13.5004
 03 10 31  1 44 30.0000000  0  6G 9G24G28G 7G 4G 5
 -14758705.18147 -10171623.85446  21126204.8674   21126212.9104
        20.0004         20.5004
 -17735797.91146 -12947738.74446  21610320.6024   21610331.6564
        16.0004         15.7504
  -5191185.05741                  24493180.8284
         3.5004
   3303945.82545   2321205.82745  22517339.2194   22517342.2074
        11.2504         11.5004
 -18152532.58047 -13916491.30246  20694396.7734   20694399.2814
        22.5004         22.5004
 -15749490.08446 -12158434.29646  22203800.1884   22203804.4064
        13.5004         13.5004
 03 10 31  1 45  0.0000000  0  7G 9G24G30G28G 7G 4G 5
 -14707810.25947 -10131965.41046  21135889.8674   21135897.5824
        20.0004         20.0004
 -17799719.06246 -12997547.02246  21598156.0004   21598166.6454
        16.5004         16.2504
  -6351892.55651                  24935522.0634
         2.7504
  -5087831.18241                  24512846.4144
         3.0004
   3385194.34145   2384516.37345  22532799.8364   22532801.7344
        11.0004         10.7504
 -18135317.41947 -13903076.81546  20697672.6804   20697675.0474
        22.7504         22.7504
 -15816604.04646 -12210730.72746  22191028.1024   22191032.3914
        13.0004         13.2504
 03 10 31  1 45 30.0000000  0  7G 9G24G30G28G 7G 4G 5
 -14656465.36647 -10091956.35246  21145660.5704   21145668.6484
        20.0004         20.2504
 -17863346.63346 -13047126.50446  21586048.1884   21586058.5634
        16.7504         16.5004
  -6440618.13541                  24918639.2114
         3.2504
  -4984441.20841                  24532523.6334
         2.5004
   3466415.57445   2447805.72445  22548255.5704   22548258.1954
        11.2504         11.2504
 -18117604.97747 -13889274.87446  20701042.9144   20701045.5634
        22.7504         22.5004
 -15883655.63746 -12262978.52746  22178268.9694   22178273.6334
        13.2504         12.7504
 03 10 31  1 46  0.0000000  0  7G 9G24G30G28G 7G 4G 5
 -14604669.81546 -10051596.11646  21155516.4844   21155524.3054
        19.5004         20.0004
 -17926676.43646 -13096473.95146  21573996.9924   21574007.7074
        17.0004         16.7504
  -6529484.04041                  24901729.6174
         3.7504
  -4881013.51741                  24552203.4384
         2.2504
   3547610.96845   2511074.86445  22563707.2584   22563710.0704
        11.2504         11.5004
 -18099393.39847 -13875083.99146  20704508.4304   20704510.9494
        22.5004         23.0004
 -15950640.40846 -12315174.35546  22165521.6564   22165526.0744
        13.2504         13.0004
 03 10 31  1 46 30.0000000  0  7G 9G24G30G28G 7G 4G 5
 -14552426.15047 -10010886.71746  21165458.3984   21165466.2074
        20.2504         20.0004
 -17989707.45046 -13145588.62346  21562001.9064   21562012.1994
        16.7504         16.5004
  -6618490.15542                  24884791.9534
         4.5004
                                  24571895.2814
         1.5004
   3628778.44945   2574322.22045  22579152.8444   22579154.7664
        11.2504         10.7504
 -18080684.46147 -13860505.55646  20708068.8984   20708071.4184
        22.7504         22.7504
 -16017557.73446 -12367317.58846  22152788.2114   22152792.1954
        14.0004         13.7504
 03 10 31  1 47  0.0000000  0  7G 9G24G30G28G 7G 4G 5
 -14499730.78747  -9969825.38346  21175485.5944   21175493.8244
        20.2504         20.2504
 -18052432.77946 -13194465.06346  21550065.3524   21550076.4184
        16.7504         16.7504
  -6707630.15542                  24867829.2424
         4.7504
                                  24591590.2584
         1.2504
   3709922.61645   2637551.46845  22594594.0944   22594597.2344
        11.2504         11.2504
 -18061473.57447 -13845535.98746  20711724.3524   20711726.8014
        22.5004         23.0004
 -16084400.63946 -12419402.86146  22140068.2894   22140071.6994
        14.7504         14.2504
 03 10 31  1 47 30.0000000  0  6G 9G24G30G 7G 4G 5
 -14446585.69047  -9928413.59246  21185599.1884   21185606.7504
        20.0004         19.7504
 -18114850.36346 -13243101.66346  21538187.1954   21538198.0044
        16.7504         16.7504
  -6796903.34743                  24850840.1644
         5.0004
   3791042.20845   2700761.55445  22610030.3594   22610033.4534
        11.0004         11.5004
 -18041761.63147 -13830175.98246  20715475.3524   20715477.8134
        22.5004         22.7504
 -16151167.83546 -12471429.14046  22127362.8914   22127366.3594
        14.5004         14.2504
 03 10 31  1 48  0.0000000  0  6G 9G24G30G 7G 4G 5
 -14392981.81747  -9886644.25446  21195799.3134   21195807.0514
        20.0004         20.0004
 -18176947.72446 -13291488.72746  21526369.9064   21526380.0474
        16.5004         16.2504
  -6886298.19043                  24833827.7114
         5.0004
   3872147.05745   2763960.17945  22625464.5474   22625468.0984
        11.2504         11.0004
 -18021538.86747 -13814417.93446  20719324.0944   20719326.6724
        22.5004         22.7504
 -16217847.20546 -12523386.96146  22114673.8674   22114678.2974
        14.5004         14.5004
 03 10 31  1 48 30.0000000  0  6G 9G24G30G 7G 4G 5
 -14338919.50947  -9844517.70346  21206087.1644   21206094.8554
        20.0004         20.0004
 -18238721.38746 -13339623.60146  21514614.7344   21514625.3444
        17.0004         16.7504
  -6975811.79142                  24816794.8204
         4.7504
   3953237.83745   2827147.80745  22640895.2034   22640898.5784
        11.0004         11.0004
 -18000804.46247 -13798261.19846  20723269.3834   20723271.7974
        22.5004         22.7504
 -16284435.38846 -12575273.72646  22102002.7974   22102006.8404
        14.2504         14.7504
 03 10 31  1 49  0.0000000  0  6G 9G24G30G 7G 4G 5
 -14284405.91247  -9802039.50046  21216460.5394   21216468.0664
        20.0004         19.7504
 -18300174.65346 -13387508.83946  21502920.1174   21502930.3284
        17.5004         16.7504
  -7065448.50842                  24799736.1644
         4.2504
   4034308.30545   2890319.61045  22656321.9924   22656323.4804
        11.0004         11.7504
 -17979564.69647 -13781710.67846  20727311.0164   20727313.3834
        22.7504         22.7504
 -16350936.25046 -12627092.45246  22089347.6334   22089351.1484
        14.2504         14.2504
 03 10 31  1 49 30.0000000  0  6G 9G24G30G 7G 4G 5
 -14229435.95646  -9759205.67746  21226921.0314   21226928.8054
        19.7504         20.0004
 -18361298.88146 -13435137.65746  21491288.4454   21491298.1414
        17.5004         17.0004
  -7155200.72341                  24782655.1724
         3.7504
   4115364.59145   2953480.36345  22671747.0944   22671749.6604
        11.0004         11.2504
 -17957813.28447 -13764761.48146  20731450.4144   20731452.9574
        22.5004         22.7504
 -16417340.92246 -12678836.09046  22076711.0704   22076714.5984
        14.5004         14.7504
 03 10 31  1 50  0.0000000  0  6G 9G24G30G 7G 4G 5
 -14174009.82846  -9716016.41746  21237467.8594   21237476.1254
        19.7504         19.7504
 -18422090.70146 -13482507.51846  21479719.7274   21479729.8094
        17.2504         17.0004
  -7245065.49841                  24765556.1804
         3.2504
   4196407.40345   3016630.61345  22687168.7734   22687172.1254
        10.7504         11.0004
 -17935549.48847 -13747413.01946  20735686.4924   20735688.7194
        22.2504         22.7504
 -16483646.61446 -12730502.71046  22064093.3984   22064097.0084
        15.0004         14.5004
 03 10 31  1 50 30.0000000  0  6G 9G24G30G 7G 4G 5
 -14118122.15946  -9672467.48646  21248103.1884   21248110.9614
        19.5004         19.5004
 -18482541.37346 -13529611.54746  21468216.3204   21468226.5204
        17.5004         17.0004
  -7335035.16141                  24748434.9224
         2.7504
   4277443.00845   3079775.21145  22702589.2734   22702591.8404
        10.7504         11.2504
 -17912767.09747 -13729660.45946  20740021.9924   20740024.4414
        22.5004         22.5004
 -16549844.55046 -12782085.48946  22051496.4144   22051500.1054
        15.5004         14.2504
 03 10 31  1 51  0.0000000  0  6G 9G24G30G 7G 4G 5
 -14061778.56146  -9628563.30346  21258825.0474   21258832.5634
        19.5004         19.7504
 -18542652.40746 -13576450.94446  21456777.3364   21456786.8324
        18.0004         17.2504
  -6370744.71351                  24731291.4454
         2.7504
   4358467.00645   3142910.79845  22718007.9454   22718010.2194
        10.5004         11.0004
 -17889470.68947 -13711507.36946  20744455.1954   20744457.7034
        22.7504         22.7504
 -16615935.90746 -12833585.19346  22038919.8984   22038923.2974
        15.7504         15.2504
 03 10 31  1 51 30.0000000  0  6G 9G24G30G 7G 4G 5
 -14004972.11546  -9584298.45946  21269634.6174   21269642.1454
        19.5004         19.5004
 -18602412.71446 -13623017.00346  21445404.8524   21445414.7114
        17.5004         17.2504
  -6316713.84851                  24714134.9454
         2.7504
   4439487.25445   3206043.44245  22733425.4224   22733428.5394
        10.5004         11.0004
 -17865652.42147 -13692947.63646  20748987.5314   20748990.0394
        22.5004         22.7504
 -16681911.18746 -12884994.45946  22026364.8914   22026367.8444
        15.0004         14.7504
 03 10 31  1 52  0.0000000  0  6G 9G24G30G 7G 4G 5
 -13947704.70646  -9539674.44546  21280532.3914   21280539.6954
        19.2504         19.5004
 -18661820.66046 -13669308.47046  21434099.2814   21434108.7074
        17.7504         17.5004
  -6406983.92341                  24696956.1254
         3.2504
   4520503.01745   3269172.61045  22748842.1254   22748845.0554
        10.5004         10.7504
 -17841313.30547 -13673982.01446  20753618.9924   20753621.5004
        22.7504         23.0004
 -16747768.30746 -12936311.65546  22013832.5704   22013836.6374
        14.7504         14.5004
 03 10 31  1 52 30.0000000  0  6G 9G24G30G 7G 4G 5
 -13889980.80446  -9494694.72146  21291516.8984   21291524.4144
        19.5004         19.5004
 -18720877.43946 -13715326.28446  21422861.0004   21422870.9304
        18.2504         18.0004
  -6497351.52242                  24679757.6954
         4.0004
   4601510.58445   3332295.39145  22764257.1174   22764259.4844
        10.5004         10.7504
 -17816457.10047 -13654613.49746  20758348.9064   20758351.4964
        22.7504         22.7504
 -16813507.92746 -12987537.24046  22001322.5314   22001326.5984
        15.0004         15.2504
 03 10 31  1 53  0.0000000  0  6G 9G24G30G 7G 4G 5
 -13831795.21046  -9449355.21746  21302589.0234   21302596.1994
        19.5004         19.2504
 -18779574.11446 -13761063.46946  21411691.0634   21411700.3954
        17.7504         17.7504
  -6587808.71842                  24662544.6884
         4.7504
   4682516.58045   3395416.93745  22779672.0944   22779674.7544
        10.5004         11.2504
 -17791077.27647 -13634836.93046  20763178.5004   20763180.9964
        22.7504         22.7504
 -16879121.66246 -13038664.74946  21988837.1254   21988840.3594
        16.2504         15.2504
 03 10 31  1 53 30.0000000  0  6G 9G24G30G 7G 4G 5
 -13773147.99546  -9403655.97646  21313749.0234   21313756.4804
        19.7504         19.5004
 -18837906.69046 -13806516.96046  21400590.8524   21400600.1484
        18.0004         17.7504
  -6678351.90943                  24645314.4144
         5.5004
   4763522.01445   3458538.02945  22795087.1724   22795089.1414
        10.5004         10.7504
 -17765173.12147 -13614651.81946  20768107.9384   20768110.4454
        22.7504         22.7504
 -16944605.39646 -13089690.93046  21976375.7194   21976379.4574
        16.2504         15.7504
 03 10 31  1 54  0.0000000  0  6G 9G24G30G 7G 4G 5
 -13714045.89946  -9357602.27546  21324995.8444   21325003.3954
        19.2504         19.5004
 -18895878.31546 -13851689.25346  21389558.7424   21389567.5124
        17.7504         17.5004
  -6768984.63543                  24628067.7814
         5.7504
   4844521.45945   3521654.49245  22810500.6414   22810503.5704
        10.0004         10.0004
 -17738750.41347 -13594062.65746  20773136.0004   20773138.4264
        22.7504         23.0004
 -17009962.44846 -13140618.38746  21963938.6804   21963941.8674
        15.7504         14.5004
 03 10 31  1 54 30.0000000  0  6G 9G24G30G 7G 4G 5
 -13654490.04646  -9311194.99946  21336328.7974   21336336.1374
        19.2504         19.0004
 -18953486.50646 -13896578.36146  21378595.5554   21378604.8284
        18.5004         18.5004
  -6859704.63143  -4931611.66655  24610804.6724   24610814.2734
         6.2504          5.2504
   4925514.80545   3584766.19145  22825912.8754   22825916.3324
        10.0004         10.2504
 -17711809.55947 -13573069.73446  20778262.7034   20778264.8954
        23.0004         23.0004
 -17075190.12946 -13191445.01746  21951525.7194   21951528.9304
        15.2504         15.0004
 03 10 31  1 55  0.0000000  0  6G 9G24G30G 7G 4G 5
 -13594480.63446  -9264434.31346  21347748.0784   21347755.5354
        19.5004         19.2504
 -19010727.57446 -13941181.47246  21367702.4614   21367711.3484
        17.5004         17.2504
  -6950508.72943  -5002367.68945  24593524.8524   24593533.5634
         6.5004          5.0004
   5006503.29845   3647874.07345  22841324.3754   22841327.6684
         9.7504         10.0004
 -17684349.68847 -13551672.43346  20783488.1954   20783490.7154
        22.7504         22.7504
 -17140285.11046 -13242168.29646  21939138.6564   21939141.9494
        15.7504         14.7504
 03 10 31  1 55 30.0000000  0  6G 9G24G30G 7G 4G 5
 -13534016.07046  -9217318.95546  21359254.2274   21359261.4734
        19.2504         19.2504
 -19067595.97346 -13985494.19646  21356880.8524   21356889.5984
        18.5004         17.7504
  -7041392.46043  -5073185.68845  24576229.4694   24576236.1954
         5.7504          6.2504
   5087489.76545   3710980.44645  22856736.1564   22856739.1094
         9.5004         10.5004
 -17656368.07747 -13529868.52446  20788812.7814   20788815.0784
        22.7504         23.0004
 -17205242.15846 -13292784.10446  21926777.6254   21926780.6254
        16.2504         15.5004
 03 10 31  1 56  0.0000000  0  6G 9G24G30G 7G 4G 5
 -13473093.81346  -9169846.94646  21370847.3204   21370854.2854
        19.5004         19.0004
 -19124085.57546 -14029511.75046  21346130.9064   21346140.0164
        18.0004         17.7504
  -7132349.55243  -5144060.69544  24558920.8444   24558921.6054
         5.7504          4.7504
   5168478.18245   3774088.28745  22872148.1094   22872151.8484
         9.5004          9.2504
 -17627861.36247 -13507655.43546  20794237.4064   20794239.8094
        22.5004         23.0004
 -17270054.48046 -13343287.11446  21914444.4534   21914448.4734
        16.2504         15.7504
 03 10 31  1 56 30.0000000  0  6G 9G24G30G 7G 4G 5
 -13411719.02646  -9122022.29946  21382526.2274   21382533.6024
        19.2504         19.0004
 -19180197.55246 -14073234.97446  21335453.2274   21335461.9614
        18.2504         17.5004
  -7223382.94142  -5214995.51644  24541597.4454   24541605.4534
         4.7504          4.7504
   5249464.53645   3837194.55545  22887559.1254   22887561.8914
         9.5004          9.7504
 -17598833.61547 -13485036.33846  20799761.1644   20799763.4964
        22.7504         22.7504
 -17334723.40646 -13393678.41146  21902138.0944   21902141.9614
        15.7504         16.2504
 03 10 31  1 57  0.0000000  0  6G 9G24G30G 7G 4G 5
 -13349894.71146  -9073847.39146  21394290.8364   21394298.4224
        18.7504         18.7504
 -19235931.03946 -14116663.25846  21324847.0234   21324855.5234
        18.5004         18.5004
  -7314491.37742  -5285988.60744  24524258.1884   24524266.4304
         4.5004          4.2504
   5330447.29445   3900298.09545  22902968.7034   22902970.6134
        10.0004          9.7504
 -17569287.22547 -13462013.13846  20805383.7894   20805386.0274
        22.7504         22.7504
 -17399248.58746 -13443957.72146  21889859.2274   21889863.2704
        15.7504         15.5004
 03 10 31  1 57 30.0000000  0  6G 9G24G30G 7G 4G 5
 -13287615.64646  -9025318.12046  21406142.5634   21406149.8554
        19.2504         18.5004
 -19291277.62846 -14159790.06446  21314314.6884   21314323.3524
        18.7504         18.5004
  -7405666.67142                  24506908.4844
         4.0004
   5411432.72545   3963403.71645  22918380.2584   22918383.0944
         9.7504          9.7504
 -17539216.33047 -13438581.25146  20811105.9304   20811108.0514
        22.7504         23.0004
 -17463620.78946 -13494117.78746  21877609.8204   21877613.1374
        15.7504         15.2504
 03 10 31  1 58  0.0000000  0  6G 9G24G30G 7G 4G 5
 -13224887.63146  -8976438.97346  21418078.8134   21418086.0004
        18.7504         18.7504
 -19346239.13346 -14202616.82146  21303855.5784   21303864.1954
        18.7504         18.5004
  -7496911.02142                  24489546.4924
         4.0004
   5492416.34845   4026507.78145  22933790.3594   22933793.8404
        10.0004         10.0004
 -17508625.64747 -13414744.34946  20816927.0474   20816929.4024
        22.7504         23.0004
 -17527841.95646 -13544160.18846  21865388.8754   21865392.0164
        16.2504         15.7504
 03 10 31  1 58 30.0000000  0  6G 9G24G30G 7G 4G 5
 -13161708.70346  -8927208.50546  21430101.1254   21430108.5004
        18.5004         18.5004
 -19400809.50446 -14245138.78446  21293470.8134   21293479.0204
        18.7504         18.2504
  -7588218.89042                  24472169.1254
         4.2504
   5573401.90645   4089613.44345  22949202.1254   22949203.8834
        10.0004         10.2504
 -17477512.11947 -13390499.99946  20822847.7424   20822850.0164
        22.7504         22.7504
 -17591906.04146 -13594080.21746  21853197.5234   21853200.3594
        16.0004         15.5004
 03 10 31  1 59  0.0000000  0  7G 9G24G30G 7G 4G17G 5
 -13098081.36746  -8877628.64046  21442208.8204   21442216.2074
        18.2504         18.2504
 -19454987.61946 -14287355.02146  21283160.7424   21283168.8204
        19.5004         18.5004
  -7679589.65142  -4957867.94054  24454781.3524   24454782.6994
         4.0004          4.7504
   5654388.18745   4152719.64045  22964613.1094   22964613.9304
        10.0004          9.5004
 -17445877.48047 -13365849.58946  20828867.5634   20828870.0704
        22.7504         22.7504
  -6375197.78352                  25114910.1484
         4.2504
 -17655811.49546 -13643876.59046  21841036.9064   21841040.5744
        16.5004         16.5004
 03 10 31  1 59 30.0000000  0  7G 9G24G30G 7G 4G17G 5
 -13034004.89146  -8827698.80246  21454402.3204   21454409.8714
        18.2504         18.5004
 -19508769.51146 -14329262.55446  21272925.9694   21272934.3874
        18.7504         18.2504
  -7771019.72442  -5029111.62445  24437381.5084   24437385.7504
         4.2504          5.2504
   5735377.09345   4215827.93045  22980025.0864   22980028.5434
         9.7504         10.0004
 -17413720.28247 -13340791.96446  20834987.0784   20834989.4224
        23.0004         22.7504
  -6471142.22943                  25096652.2734
         5.5004
 -17719554.32146 -13693546.22446  21828907.0864   21828910.5554
        17.0004         16.5004
 03 10 31  2  0  0.0000000  0  7G 9G24G30G 7G 4G17G 5
 -12969481.91746  -8777421.01746  21466680.1024   21466687.1724
        18.0004         18.2504
 -19562153.51446 -14370860.04046  21262766.7584   21262774.6254
        18.7504         18.5004
  -7862507.87042                  24419973.0314
         4.2504
   5816367.75045   4278937.58245  22995437.0084   22995440.0204
         9.7504         10.0004
 -17381042.20347 -13315328.47346  20841205.0704   20841207.4264
        22.7504         22.7504
  -6567138.32443                  25078383.0234
         5.5004
 -17783132.75346 -13743087.80246  21816808.5004   21816811.9344
        17.0004         16.5004
 03 10 31  2  0 30.0000000  0  7G 9G24G30G 7G 4G17G 5
 -12904514.71846  -8726797.07946  21479042.9224   21479049.9344
        17.7504         18.2504
 -19615138.14046 -14412146.31546  21252684.0394   21252691.6024
        19.2504         18.7504
  -7954052.32742                  24402551.2584
         4.5004
   5897359.44245   4342047.97645  23010849.0164   23010852.1334
         9.7504         10.0004
 -17347844.55447 -13289460.11646  20847522.6884   20847525.0664
        23.0004         23.0004
  -6663184.48043                  25060104.2584
         5.5004
 -17846545.00446 -13792499.88146  21804741.0164   21804744.1334
        16.5004         16.0004
 03 10 31  2  1  0.0000000  0  7G 9G24G30G 7G 4G17G 5
 -12839100.65346  -8675824.93146  21491490.7504   21491497.4534
        18.2504         18.0004
 -19667717.31546 -14453116.65646  21242677.6644   21242685.7544
        18.7504         18.7504
  -8045647.30742                  24385121.4924
         4.5004
   5978356.12545   4405162.23745  23026262.2734   23026264.6884
         9.5004          9.7504
 -17314123.94547 -13263184.26146  20853939.6094   20853941.6724
        23.2504         22.7504
  -6759273.54242  -4955326.28155  25041817.3524   25041841.8634
         4.5004          5.2504
 -17909784.52946 -13841777.35746  21792706.7424   21792709.4844
        16.7504         16.2504
 03 10 31  2  1 30.0000000  0  7G 9G24G30G 7G 4G17G 5
 -12773247.30646  -8624510.51546  21504022.1484   21504028.9224
        18.0004         18.0004
 -19719894.67746 -14493773.91446  21232748.9064   21232756.5394
        19.5004         18.7504
  -8137296.70942                  24367680.7974
         4.7504
   6059352.07145   4468275.97545  23041675.9064   23041677.7234
         9.2504          9.5004
 -17279886.93847 -13236506.00946  20860454.2894   20860456.6454
        23.0004         23.0004
  -6855409.44941  -5030235.04044  25023519.7974   25023545.2464
         2.7504          4.5004
 -17972854.71246 -13890922.86846  21780705.5634   21780708.3634
        17.2504         16.5004
 03 10 31  2  2  0.0000000  0  7G 9G24G30G 7G 4G17G 5
 -12706953.01546  -8572852.52946  21516637.3834   21516644.7114
        18.0004         18.2504
 -19771664.53846 -14534113.63046  21222896.8204   21222904.1954
        19.0004         18.5004
  -8228995.53343                  24350231.1254
         5.0004
   6140350.48445   4531391.62545  23057088.4384   23057090.9574
         9.0004          9.2504
 -17245130.99947 -13209423.39746  20867068.3834   20867070.3634
        23.2504         22.7504
                                  25005216.7114
         2.0004
 -18035750.41746 -13939932.49046  21768736.4304   21768739.2544
        17.7504         16.7504
 03 10 31  2  2 30.0000000  0  7G 9G24G30G 7G 4G17G 5
 -12640221.42346  -8520853.78646  21529336.1724   21529343.3014
        17.7504         18.0004
 -19823026.80546 -14574135.66646  21213122.6094   21213130.3244
        19.2504         18.5004
  -8320743.33443                  24332770.7664
         5.5004
   6221349.58345   4594507.94645  23072502.1094   23072505.5904
         8.7504         10.0004
 -17209859.14447 -13181938.79746  20873780.0474   20873782.0044
        22.7504         22.7504
  -6375446.71951                  24986906.1804
         3.2504
 -18098470.21146 -13988804.95646  21756801.2344   21756804.0124
        17.5004         16.7504
 03 10 31  2  3  0.0000000  0  7G 9G24G30G 7G 4G17G 5
 -12573049.75446  -8468512.09946  21542118.5474   21542125.7464
        18.2504         18.5004
 -19873974.86346 -14613834.82846  21203427.2424   21203433.8874
        19.5004         18.5004
  -8412533.71743  -4924706.25555  24315303.2814   24315308.7194
         6.0004          6.7504
   6302353.19645   4657627.73845  23087916.4064   23087919.2194
         8.5004          9.2504
 -17174067.46047 -13154049.10946  20880590.8674   20880593.2234
        23.0004         23.0004
  -6471696.45842                  24968589.5394
         4.0004
 -18161007.94146 -14037535.53346  21744900.5164   21744903.5164
        17.5004         16.7504
 03 10 31  2  3 30.0000000  0  7G 9G24G30G 7G 4G17G 5
 -12505445.38346  -8415833.24446  21554983.1724   21554989.9804
        18.0004         18.2504
 -19924513.04547 -14653214.87946  21193809.9844   21193816.9494
        20.5004         19.5004
  -8504371.11043  -4996267.46345  24297827.2974   24297831.4574
         6.2504          6.0004
   6383355.52645   4720746.47245  23103330.8284   23103333.9454
         8.0004          9.5004
 -17137762.93747 -13125759.82146  20887499.5084   20887501.6644
        23.0004         22.5004
  -6567982.38242                  24950265.3524
         4.7504
 -18223366.70946 -14086126.69646  21733034.3284   21733037.1994
        17.7504         16.7504
 03 10 31  2  4  0.0000000  0  7G 9G24G30G 7G 4G17G 5
 -12437411.42646  -8362819.64646  21567929.2344   21567936.2584
        18.0004         18.2504
 -19974640.27746 -14692274.73746  21184270.3134   21184277.1454
        19.2504         18.7504
  -8596254.18843  -5067864.21545  24280342.3834   24280347.6684
         6.2504          5.7504
   6464355.43245   4783863.25245  23118744.8834   23118748.5984
         8.0004          9.0004
 -17100947.52847 -13097072.46146  20894505.2734   20894507.4064
        23.0004         22.7504
  -6664303.41342                  24931935.0634
         4.7504
 -18285545.54146 -14134577.67746  21721202.1954   21721205.3134
        18.5004         17.2504
 03 10 31  2  4 30.0000000  0  7G 9G24G30G 7G 4G17G 5
 -12368949.14246  -8309472.27446  21580957.2114   21580964.2934
        18.0004         18.5004
 -20024353.83146 -14731012.15246  21174810.3054   21174817.2114
        19.7504         18.5004
  -8688180.62043  -5139494.66245  24262849.2894   24262853.2274
         5.7504          6.2504
   6545353.36245   4846978.57745  23134158.1334   23134161.1684
         8.2504          9.0004
 -17063621.85247 -13067987.50246  20901608.0634   20901610.3134
        22.7504         22.5004
  -6760656.32143                  24913597.4454
         5.0004
 -18347541.55346 -14182886.19946  21709404.1484   21709407.1724
        18.2504         17.2504
 03 10 31  2  5  0.0000000  0  7G 9G24G30G 7G 4G17G 5
 -12300061.75746  -8255793.67146  21594065.6254   21594072.5904
        17.7504         18.0004
 -20073653.01946 -14769426.59946  21165428.1094   21165435.0164
        19.2504         18.7504
  -8780149.79342  -5211158.40445  24245346.8984   24245349.9344
         4.2504          6.2504
   6626347.71545   4910091.06445  23149570.6884   23149573.6644
         8.0004          9.2504
 -17025787.97247 -13038506.51146  20908807.6724   20908809.6524
        23.0004         22.5004
  -6857040.07242                  24895254.8204
         4.7504
 -18409354.16546 -14231051.85246  21697641.8834   21697644.6604
        18.2504         17.5004
 03 10 31  2  5 30.0000000  0  7G 9G24G30G 7G 4G17G 5
 -12230753.82846  -8201787.43846  21607254.5944   21607261.7234
        17.5004         18.0004
 -20122538.81347 -14807518.98246  21156125.6484   21156132.3754
        20.0004         19.0004
  -8872162.84941  -5282856.55545  24227836.6024   24227839.9414
         3.7504          6.2504
   6707335.78945   4973198.69345  23164981.3754   23164984.9384
         8.0004          8.7504
 -16987449.72547 -13008632.49346  20916103.1094   20916105.1254
        22.7504         22.2504
  -6953454.72342                  24876906.4384
         4.5004
 -18470982.80346 -14279074.15046  21685914.1174   21685917.0354
        18.7504         17.5004
 03 10 31  2  6  0.0000000  0  7G 9G24G30G 7G 4G17G 5
 -12161031.18246  -8147458.05446  21620522.4774   21620529.8984
        17.7504         18.0004
 -20171013.22246 -14845290.66946  21146900.7034   21146907.0314
        19.5004         19.2504
  -6372259.79151  -5354590.47344  24210318.7734   24210320.0394
         3.0004          4.7504
   6788313.54345   5036298.28245  23180391.8204   23180396.3444
         8.2504          9.5004
 -16948612.29047 -12978369.49746  20923493.6334   20923495.8134
        23.0004         22.2504
  -7049901.92042                  24858552.4774
         4.0004
 -18532429.53346 -14326954.58546  21674221.1174   21674224.3524
        18.7504         18.2504
 03 10 31  2  6 30.0000000  0  7G 9G24G30G 7G 4G17G 5
 -12090893.71346  -8092805.37646  21633869.0394   21633876.0634
        17.2504         17.2504
 -20219072.38046 -14882738.86746  21137755.2814   21137761.7034
        19.7504         19.0004
  -6464360.42242  -5426356.82044  24192792.1884   24192795.8554
         4.0004          4.0004
   6869282.62245   5099391.06745  23195799.0314   23195803.0044
         8.2504          9.0004
 -16909274.73947 -12947716.83046  20930979.0864   20930980.9494
        22.7504         22.5004
  -7146376.98841                  24840191.8204
         3.7504
 -18593690.21746 -14374690.11146  21662563.4614   21662566.6254
        18.2504         18.0004
 03 10 31  2  7  0.0000000  0  7G 9G24G30G 7G 4G17G 5
 -12020345.77546  -8037832.82746  21647294.2424   21647300.7344
        17.5004         17.7504
 -20266717.21246 -14919864.22846  21128688.0164   21128694.7074
        19.7504         19.2504
  -6556503.34743  -5498156.28645  24175258.9064   24175258.5204
         5.5004          5.5004
   6950240.69545   5162475.27045  23211204.3204   23211209.1374
         8.5004          9.0004
 -16869440.49347 -12916677.09146  20938559.5944   20938561.7854
        22.7504         22.2504
  -7242880.13741  -4937972.59853  24821825.3914   24821845.5634
         3.2504          3.5004
 -18654764.60246 -14422280.40646  21650941.5704   21650944.8524
        18.7504         18.2504
 03 10 31  2  7 30.0000000  0  7G 9G24G30G 7G 4G17G 5
 -11949393.68546  -7982545.40846  21660795.1724   21660802.2074
        17.5004         17.5004
 -20313950.03746 -14956668.55446  21119699.4454   21119705.7974
        19.7504         19.0004
  -6648690.70743  -5569990.43845  24157715.7974   24157713.9344
         6.0004          5.5004
   7031183.30645   5225547.44045  23226608.4144   23226610.9224
         8.7504          9.2504
 -16829114.92347 -12885254.48846  20946232.9614   20946235.0354
        22.7504         22.5004
  -7339413.12141  -5013191.23344  24803453.0474   24803473.9734
         2.7504          4.2504
 -18715655.28546 -14469727.61646  21639354.1884   21639356.8954
        18.7504         17.7504
 03 10 31  2  8  0.0000000  0  7G 9G24G30G 7G 4G17G 5
 -11878041.25146  -7926946.06946  21674373.7034   21674380.5474
        17.2504         17.2504
 -20360770.79346 -14993151.74546  21110789.5554   21110795.3554
        19.5004         19.0004
  -6740922.78843  -5641859.48444  24140164.0234   24140167.5864
         6.7504          4.0004
   7112108.30945   5288605.95545  23242007.8914   23242010.2344
         9.0004          8.7504
 -16788301.30847 -12853451.60246  20953999.6024   20954001.6994
        22.7504         22.5004
  -7435975.46741  -5088432.96743  24785077.6414   24785095.4224
         3.0004          3.7504
 -18776361.17546 -14517030.84046  21627802.0474   21627804.6954
        18.2504         17.7504
 03 10 31  2  8 30.0000000  0  7G 9G24G30G 7G 4G17G 5
 -11806286.16046  -7871032.93946  21688028.1564   21688035.0744
        17.5004         17.5004
 -20407173.71046 -15029309.41446  21101959.1334   21101965.1094
        19.7504         19.0004
  -6833193.27343  -5713758.47745  24122605.6954   24122606.6914
         6.5004          5.0004
   7193019.83145   5351653.92145  23257404.3674   23257407.1454
         9.0004          9.0004
 -16746996.62547 -12821266.05746  20961859.4694   20961861.7194
        22.2504         22.0004
  -7532560.31642  -5163692.10244  24766697.5004   24766717.1804
         4.0004          4.5004
 -18836876.24046 -14564185.35546  21616286.5704   21616289.3244
        18.2504         17.5004
 03 10 31  2  9  0.0000000  0  7G 9G24G30G 7G 4G17G 5
 -11734133.83246  -7814810.25346  21701757.6884   21701764.6764
        17.0004         17.0004
 -20453160.35546 -15065142.74046  21093207.8054   21093213.3954
        19.5004         19.0004
  -6925503.98143  -5785688.90644  24105039.3204   24105042.8364
         6.2504          4.5004
   7273914.37845   5414688.65445  23272798.9144   23272801.9844
         9.0004          8.7504
 -16705205.58847 -12788701.55346  20969811.8524   20969813.5744
        22.5004         22.2504
  -7629168.80842  -5238969.87144  24748314.0704   24748335.1374
         4.7504          4.5004
 -18897201.40246 -14611191.91346  21604807.3204   21604810.1804
        18.7504         18.0004
 03 10 31  2  9 30.0000000  0  7G 9G24G30G 7G 4G17G 5
 -11661587.53046  -7758280.55246  21715562.6564   21715569.4064
        17.0004         17.2504
 -20498730.30446 -15100651.41246  21084535.7034   21084541.3754
        19.7504         19.0004
  -7017853.81343  -5857649.74745  24087465.7734   24087469.9574
         5.5004          5.0004
   7354790.61245   5477709.13345  23288188.4774   23288191.6994
         8.7504          8.5004
 -16662930.53947 -12755759.90046  20977856.8674   20977858.8834
        22.7504         22.2504
  -7725799.66243  -5314265.16145  24729923.9304   24729950.2114
         5.5004          5.0004
 -18957335.08646 -14658049.22746  21593364.0554   21593366.9614
        19.2504         18.7504
 03 10 31  2 10  0.0000000  0  7G 9G24G30G 7G 4G17G 5
 -11588651.05346  -7701446.85946  21729442.3914   21729448.8244
        17.0004         17.2504
 -20543883.26947 -15135835.11846  21075943.0944   21075948.6724
        20.0004         19.5004
  -7110242.28642  -5929640.61645  24069885.1094   24069886.1174
         4.7504          6.0004
   7435646.84345   5540714.01245  23303574.8754   23303576.3984
         8.7504          8.2504
 -16620174.33347 -12722443.33446  20985992.7664   20985994.7584
        22.2504         21.7504
  -7822452.09843  -5389577.33145  24711531.1174   24711543.7774
         6.0004          6.2504
 -19017277.44546 -14704757.48746  21581957.0864   21581959.9224
        18.7504         18.2504
 03 10 31  2 10 30.0000000  0  7G 9G24G30G 7G 4G17G 5
 -11515326.39746  -7644310.74946  21743395.5944   21743402.2154
        17.0004         17.0004
 -20588617.62947 -15170692.63246  21067429.9614   21067435.5514
        20.0004         19.2504
  -7202667.36442  -6001660.02744  24052296.7664   24052299.2034
         4.5004          4.7504
   7516483.12945   5603703.31745  23318957.3594   23318958.1684
         8.5004          8.7504
 -16576937.88547 -12688752.55946  20994220.4774   20994222.3164
        22.2504         22.0004
  -7919123.66243  -5464904.61544  24693132.9064   24693144.2894
         5.5004          4.2504
 -19077025.59046 -14751314.43146  21570587.4844   21570590.5084
        19.2504         18.5004
 03 10 31  2 11  0.0000000  0  7G 9G24G30G 7G 4G17G 5
 -11441611.22246  -7586870.38546  21757423.4224   21757429.6334
        17.7504         17.2504
 -20632926.93647 -15205218.73846  21058997.6804   21059003.0354
        20.0004         19.7504
  -7295122.80242  -6073703.11444  24034702.5554   24034706.4694
         4.5004          4.7504
   7597303.62745   5666680.36645  23334337.0554   23334338.9414
         8.2504          8.0004
 -16533218.46847 -12654685.36746  21002539.7584   21002541.5634
        22.2504         21.7504
  -8015807.24342  -5540241.35744  24674733.8134   24674750.0944
         4.7504          4.5004
 -19136572.48346 -14797714.52646  21559256.2734   21559258.8524
        19.5004         18.7504
 03 10 31  2 11 30.0000000  0  7G 9G24G30G 7G 4G17G 5
 -11367508.77446  -7529128.18846  21771524.5084   21771531.3794
        17.5004         17.0004
 -20676811.25047 -15239413.73546  21050646.3984   21050651.8014
        20.0004         19.5004
  -7387607.79243  -6145769.10345  24017102.7504   24017104.6844
         5.0004          6.0004
   7678107.03145   5729644.08745  23349713.1804   23349716.9184
         8.0004          8.0004
 -16489018.63247 -12620243.89746  21010950.7424   21010952.5944
        22.2504         21.5004
  -8112501.61941  -5615586.32943  24656332.3754   24656355.5864
         3.7504          3.7504
 -19195917.46246 -14843957.34646  21547963.0004   21547965.8244
        19.2504         18.5004
 03 10 31  2 12  0.0000000  0  7G 9G24G30G 7G 4G17G 5
 -11293026.02446  -7471089.46846  21785697.6884   21785704.3674
        17.5004         17.0004
 -20720274.53747 -15273280.97546  21042375.6884   21042380.7504
        20.5004         20.0004
  -7480125.41243  -6217860.64145  23999498.0634   23999503.1374
         6.0004          6.0004
   7758887.95945   5792590.29045  23365085.4924   23365087.3094
         8.0004          8.5004
 -16444344.82747 -12585433.09046  21019452.1804   21019454.0664
        22.2504         21.7504
  -8209209.35241  -5690941.72043  24637929.0314   24637942.3594
         3.7504          3.7504
 -19255063.05346 -14890044.75946  21536707.5004   21536710.5704
        18.7504         18.7504
 03 10 31  2 12 30.0000000  0  7G 9G24G30G 7G 4G17G 5
 -11218165.59446  -7412756.53846  21799942.7894   21799949.5514
        16.7504         16.7504
 -20763314.70647 -15306818.33146  21034184.7344   21034189.9964
        20.2504         19.5004
  -7572674.31943  -6289976.64445  23981885.9144   23981889.2424
         6.0004          5.7504
   7839646.31444   5855518.84645  23380453.8754   23380456.8524
         7.7504          8.2504
 -16399198.78947 -12550254.43046  21028043.0944   21028044.9574
        22.0004         21.5004
  -8305928.89141  -5766306.35744  24619521.7194   24619537.8014
         3.2504          4.5004
 -19314007.21046 -14935975.16846  21525491.1564   21525494.4264
        19.5004         19.0004
 03 10 31  2 13  0.0000000  0  7G 9G24G30G 7G 4G17G 5
 -11142927.78746  -7354129.64846  21814260.4924   21814266.9844
        17.0004         16.7504
 -20805928.54547 -15340023.49446  21026075.2424   21026080.5164
        20.2504         20.0004
  -7665250.27943  -6362113.64945  23964269.9844   23964273.3014
         6.0004          5.7504
   7920383.64544   5918431.09145  23395817.0474   23395821.1024
         7.5004          7.2504
 -16353579.65647 -12514706.92246  21036723.9454   21036725.8324
        21.7504         21.5004
  -8402656.16341  -5841677.37844  24601113.5944   24601130.4024
         3.2504          4.7504
 -19372746.51447 -14981746.03946  21514313.6254   21514316.3794
        20.0004         19.2504
 03 10 31  2 13 30.0000000  0  7G 9G24G30G 7G 4G17G 5
 -11067318.54946  -7295213.48046  21828648.5314   21828654.4264
        17.0004         16.7504
 -20848117.71747 -15372897.62046  21018046.6334   21018051.8714
        20.0004         19.5004
  -7757854.55843  -6434272.64344  23946648.0394   23946652.0234
         6.5004          4.7504
   8001096.60844   5981324.31745  23411176.2504   23411179.6604
         7.0004          7.7504
 -16307492.56647 -12478794.82446  21045493.9144   21045495.6604
        22.0004         21.5004
  -8499391.86642  -5917055.18344  24582706.7894   24582720.5514
         4.5004          4.5004
 -19431281.50446 -15027357.73746  21503174.6414   21503177.4534
        19.7504         19.5004
 03 10 31  2 14  0.0000000  0  7G 9G24G30G 7G 4G17G 5
 -10991336.35846  -7236006.64746  21843107.2194   21843113.6414
        16.7504         16.7504
 -20889876.71747 -15405436.18346  21010099.6564   21010104.3444
        20.5004         20.0004
  -7850482.10143  -6506449.81545  23929020.8754   23929025.9024
         6.0004          5.0004
   8081788.38443   6044201.10145  23426531.2344   23426531.3524
         6.7504          7.5004
 -16260935.64247 -12442516.64546  21054353.1954   21054355.1764
        22.2504         21.5004
  -8596129.73143  -5992434.68945  24564297.8134   24564313.9304
         5.7504          5.2504
 -19489606.33246 -15072805.54246  21492075.4384   21492078.7304
        19.5004         19.5004
 03 10 31  2 14 30.0000000  0  7G 9G24G30G 7G 4G17G 5
 -10914982.87446  -7176510.37146  21857637.2424   21857643.8404
        17.0004         16.7504
 -20931204.97847 -15437639.24946  21002234.4144   21002238.6334
        20.5004         20.5004
  -7943131.12043  -6578644.06345  23911390.9384   23911393.6454
         5.5004          6.0004
   8162459.25043   6107061.55045  23441881.8204   23441885.3364
         6.5004          7.5004
 -16213909.71647 -12405872.97746  21063301.9534   21063303.8164
        22.2504         21.5004
  -8692866.77743  -6067813.36345  24545888.9304   24545903.5944
         5.5004          6.0004
 -19547718.49647 -15118087.57946  21481017.0864   21481020.2974
        20.0004         19.2504
 03 10 31  2 15  0.0000000  0  7G 9G24G30G 7G 4G17G 5
 -10838263.57546  -7116728.95246  21872235.8914   21872242.5594
        16.7504         16.5004
 -20972105.12947 -15469509.23546  20994451.3754   20994455.4064
        21.2504         20.5004
  -8035802.26942  -6650855.39145  23893755.9924   23893764.0824
         4.7504          5.2504
   8243105.64743   6169902.85345  23457228.1024   23457231.7344
         6.7504          7.7504
 -16166419.77747 -12368867.79046  21072339.1644   21072340.7814
        22.2504         21.7504
  -8789604.25341  -6143192.21745  24527477.9384   24527496.4804
         3.7504          5.0004
 -19605618.97647 -15163204.64146  21469999.2424   21470001.7504
        20.5004         19.7504
 03 10 31  2 15 30.0000000  0  7G 9G24G30G 7G 4G17G 5
 -10761180.23246  -7056663.88346  21886904.4454   21886910.3524
        16.5004         16.2504
 -21012573.99047 -15501043.30446  20986750.2424   20986754.5434
        21.2504         20.7504
  -8128492.00542  -6723080.84445  23876116.0944   23876123.9144
         4.5004          5.5004
   8323728.38643   6232725.79745  23472571.0784   23472573.8914
         6.7504          7.2504
 -16118466.85747 -12331501.83546  21081464.1024   21081465.9414
        22.0004         21.7504
  -8886339.22141  -6218569.26444  24509070.6884   24509083.8164
         3.7504          4.0004
 -19663304.86246 -15208154.65946  21459021.5004   21459024.5944
        19.7504         19.5004
 03 10 31  2 16  0.0000000  0  7G 9G24G30G 7G 4G17G 5
 -10683731.18046  -6996313.91946  21901642.1644   21901648.3984
        16.2504         16.0004
 -21052605.31547 -15532236.20546  20979132.3444   20979136.7504
        21.2504         20.7504
  -8221195.09342  -6795316.77445  23858476.0474   23858480.5124
         4.7504          5.0004
   8404331.46243   6295533.40845  23487908.8444   23487911.0124
         6.7504          7.5004
 -16070048.09447 -12293772.90546  21090677.7814   21090679.6094
        22.2504         21.5004
  -8983065.58043  -6293939.92445  24490664.2664   24490683.5704
         5.7504          5.2504
 -19720769.71446 -15252932.41446  21448086.6334   21448089.7624
        19.7504         19.5004
 03 10 31  2 16 30.0000000  0  7G 9G24G30G 7G 4G17G 5
 -10605918.99346  -6935681.04146  21916449.3444   21916455.1214
        16.2504         15.7504
 -21092198.10947 -15563087.12646  20971597.7194   20971602.0554
        21.2504         20.7504
  -8313909.98443  -6867561.93545  23840833.2814   23840837.0784
         5.5004          6.7504
   8484914.41343   6358325.31045  23503242.5084   23503246.3874
         6.7504          8.7504
 -16021165.32147 -12255682.36946  21099980.0474   21099981.9574
        22.0004         21.5004
  -9079780.82843  -6369301.85445  24472259.7584   24472274.9024
         6.2504          6.7504
 -19778011.48647 -15297536.37446  21437193.4144   21437196.2154
        20.2504         19.7504
 03 10 31  2 17  0.0000000  0  7G 9G24G30G 7G 4G17G 5
 -10527753.68846  -6874772.97246  21931324.0634   21931330.6024
        16.0004         16.0004
 -21131359.45447 -15593601.88646  20964144.8204   20964148.8404
        21.5004         21.0004
  -8406642.51643  -6939820.93345  23823186.3204   23823190.1644
         6.2504          7.2504
   8565469.00644   6421095.14345  23518572.9454   23518574.9734
         7.2504          8.2504
 -15971828.20347 -12217237.72246  21109368.3914   21109370.4414
        22.2504         21.5004
  -9176490.54143  -6444659.50345  24453856.0314   24453868.8204
         5.2504          5.0004
 -19835036.18247 -15341971.14746  21426341.9144   21426344.5274
        20.2504         19.7504
 03 10 31  2 17 30.0000000  0  7G 9G24G30G 7G 4G17G 5
 -10449229.51946  -6813585.20646  21946266.5004   21946273.2384
        16.0004         16.0004
 -21170080.28947 -15623773.49746  20956776.2734   20956779.9064
        21.5004         20.7504
  -8499382.32843  -7012085.51145  23805539.4924   23805540.8054
         6.5004          6.5004
   8646003.45944   6483849.28645  23533898.2734   23533901.2154
         7.5004          8.2504
 -15922030.14647 -12178433.88646  21118844.6804   21118846.5314
        22.0004         21.2504
  -9273184.28042  -6520004.67944  24435454.2424   24435470.8054
         4.7504          4.5004
 -19891832.99247 -15386228.25746  21415533.8834   21415536.3324
        20.2504         19.7504
 03 10 31  2 18  0.0000000  0  7G 9G24G30G 7G 4G17G 5
 -10370351.52146  -6752121.76946  21961276.1254   21961283.0554
        15.7504         15.5004
 -21208361.73947 -15653602.89246  20949491.1724   20949495.0044
        20.7504         21.0004
  -8592130.49843  -7084356.82745  23787889.2734   23787891.6414
         6.5004          6.7504
   8726514.86044   6546585.49645  23549219.5554   23549221.6994
         7.5004          8.7504
 -15871775.68047 -12139274.50546  21128407.4144   21128409.1844
        22.0004         21.5004
  -9369862.13643  -6595337.52845  24417057.3914   24417070.0634
         6.0004          6.0004
 -19948402.48347 -15430308.26246  21404769.0784   21404771.7504
        20.5004         20.0004
 03 10 31  2 18 30.0000000  0  7G 9G24G30G 7G 4G17G 5
 -10291119.30846  -6690382.31046  21976353.8594   21976360.9884
        15.7504         15.5004
 -21246199.73847 -15683086.88446  20942291.0164   20942294.6844
        21.2504         21.0004
  -8684881.81143  -7156630.39945  23770239.6024   23770243.0824
         6.0004          6.2504
   8807005.97644   6609305.85345  23564536.1414   23564538.1334
         7.7504          8.0004
 -15821063.60247 -12099758.58846  21138057.8754   21138059.3874
        22.0004         21.2504
  -9466518.97243  -6670653.77445  24398663.4304   24398677.5784
         5.2504          6.5004
 -20004739.63347 -15474207.29446  21394048.5314   21394050.9804
        20.7504         20.2504
 03 10 31  2 19  0.0000000  0  7G 9G24G30G 7G 4G17G 5
 -10211536.32246  -6628369.55046  21991497.4064   21991504.1564
        15.2504         16.2504
 -21283594.05747 -15712225.26146  20935174.6484   20935178.4574
        21.0004         20.5004
  -8777635.39943  -7228905.83845  23752588.8444   23752594.0004
         6.5004          6.5004
   8887475.49744   6672009.42845  23579848.4454   23579850.8594
         7.7504          8.2504
 -15769896.61647 -12059888.18946  21147794.4614   21147796.0314
        21.7504         21.5004
  -9563153.95543  -6745953.11845  24380273.9224   24380286.4774
         5.0004          6.0004
 -20060843.38547 -15517924.44346  21383371.9844   21383374.6454
        20.5004         20.0004
 03 10 31  2 19 30.0000000  0  7G 9G24G30G 7G 4G17G 5
 -10131601.36546  -6566082.49346  22006708.8284   22006715.9104
        16.0004         16.2504
 -21320539.83447 -15741013.98446  20928144.3284   20928148.0784
        21.2504         21.0004
  -8870385.85544  -7301178.87745  23734939.0864   23734943.1764
         7.5004          5.5004
   8967926.90745   6734698.86645  23595158.1804   23595161.5434
         8.0004          8.0004
 -15718272.83047 -12019661.84446  21157618.0634   21157619.7154
        21.7504         21.0004
  -9659760.98843  -6821230.65545  24361889.4384   24361902.0984
         5.5004          6.0004
 -20116708.12947 -15561455.45646  21372741.6644   21372744.2424
        20.7504         19.7504
 03 10 31  2 20  0.0000000  0  7G 9G24G30G 7G 4G17G 5
 -10051320.41346  -6503525.85246  22021985.7034   22021992.1484
        15.7504         16.5004
 -21357039.16847 -15769454.80646  20921198.2584   20921201.9734
        21.0004         20.7504
  -8963134.35644  -7373450.42445  23717289.0704   23717294.4264
         7.2504          5.7504
   9048356.62945   6797371.44446  23610463.3594   23610464.7424
         8.0004         12.5004
 -15666197.44447 -11979083.55546  21167527.8524   21167529.3524
        21.7504         21.0004
  -9756341.45643  -6896487.59245  24343509.6094   24343526.1844
         5.0004          5.7504
 -20172334.88847 -15604801.00346  21362156.1094   21362159.0274
        21.0004         20.2504
 03 10 31  2 20 30.0000000  0  7G 9G24G30G 7G 4G17G 5
  -9970690.27346  -6440697.12146  22037329.1724   22037335.5474
        15.7504         15.7504
 -21393085.76047 -15797542.91846  20914339.0474   20914342.7624
        21.2504         21.2504
  -9055873.47143  -7445714.55145  23699640.8594   23699643.1334
         6.2504          5.7504
   9128770.14644   6860031.31645  23625764.9694   23625766.7384
         7.7504          8.7504
 -15613666.55947 -11938150.34546  21177523.8594   21177525.7114
        21.5004         21.0004
  -9852887.22743  -6971717.42845  24325137.4304   24325153.1954
         5.0004          5.7504
 -20227715.22747 -15647954.43346  21351617.5164   21351620.3164
        21.2504         20.5004
 03 10 31  2 21  0.0000000  0  7G 9G24G30G 7G 4G17G 5
  -9889718.18846  -6377601.96846  22052737.8524   22052743.8754
        15.7504         15.5004
 -21428682.85347 -15825280.74246  20907564.8364   20907568.3874
        21.2504         21.2504
  -9148606.04842  -7517973.68745  23681993.6024   23682003.0274
         4.5004          5.0004
   9209162.46944   6922674.69445  23641063.2974   23641065.9344
         7.5004          7.5004
 -15560687.04247 -11896867.56546  21187605.6094   21187607.0864
        21.7504         20.7504
  -9949401.09243  -7046922.41545  24306769.9454   24306783.2854
         5.2504          6.7504
 -20282852.40547 -15690918.41846  21341125.1334   21341128.0274
        21.0004         20.5004
 03 10 31  2 21 30.0000000  0  7G 9G24G30G 7G 4G17G 5
  -9808405.41746  -6314241.34846  22068210.5704   22068217.3914
        15.5004         15.5004
 -21463828.13147 -15852666.43346  20900876.6954   20900880.0124
        21.2504         21.0004
  -9241328.87442  -7590225.14344  23664350.0554   23664347.7584
         4.2504          4.5004
   9289534.72144   6985302.48545  23656357.0704   23656360.4344
         7.5004          7.2504
 -15507259.06847 -11855235.35246  21197772.6024   21197774.2074
        21.5004         20.7504
 -10045879.44743  -7122099.86445  24288411.1414   24288421.4454
         5.5004          6.5004
 -20337742.90647 -15733690.19146  21330679.8754   21330682.4534
        21.2504         20.5004
 03 10 31  2 22  0.0000000  0  7G 9G24G30G 7G 4G17G 5
  -9726753.73146  -6250616.59846  22083748.6884   22083754.4414
        15.7504         15.2504
 -21498519.85647 -15879698.71846  20894274.9694   20894278.4024
        21.2504         21.2504
  -9334038.53543  -7662466.21045  23646707.7584   23646709.0474
         5.7504          5.7504
   9369887.60244   7047915.10445  23671648.3594   23671650.6454
         7.2504          7.2504
 -15453383.85347 -11813254.61146  21208024.7894   21208026.3714
        21.2504         20.7504
 -10142319.07943  -7197247.13045  24270060.1884   24270076.0474
         5.0004          6.2504
 -20392383.86847 -15776267.46146  21320281.9694   21320284.5124
        21.5004         21.0004
 03 10 31  2 22 30.0000000  0  7G 9G24G30G 7G 4G17G 5
  -9644766.19846  -6186730.18546  22099349.9924   22099356.1684
        15.2504         15.2504
 -21532757.58647 -15906377.27646  20887759.7974   20887763.4304
        21.2504         21.2504
  -9426733.77743  -7734695.97145  23629069.0554   23629069.8874
         6.5004          6.2504
   9450220.14943   7110511.91045  23686935.1804   23686935.5434
         6.7504          7.2504
 -15399064.02047 -11770927.47446  21218361.5554   21218362.9494
        21.5004         20.5004
 -10238718.54742  -7272362.99245  24251713.5234   24251724.8714
         4.5004          5.7504
 -20446773.68447 -15818649.08646  21309931.7274   21309934.5274
        21.2504         21.0004
 03 10 31  2 23  0.0000000  0  7G 9G24G30G 7G 4G17G 5
  -9562445.80646  -6122584.39246  22115015.6174   22115022.0274
        15.5004         14.7504
 -21566540.95547 -15932701.78646  20881330.7034   20881334.2894
        21.2504         21.2504
  -9519413.49943  -7806913.71345  23611432.2274   23611436.8324
         6.7504          7.5004
   9530531.94343   7173092.46345  23702218.4454   23702218.7274
         6.2504          5.7504
 -15344301.80147 -11728255.59046  21228782.3204   21228784.1254
        21.2504         20.5004
 -10335075.74543  -7347446.02245  24233378.2814   24233395.0904
         6.2504          5.7504
 -20500910.52347 -15860833.57846  21299629.8054   21299632.5474
        21.0004         21.0004
 03 10 31  2 23 30.0000000  0  7G 9G24G30G 7G 4G17G 5
  -9479793.94546  -6058180.26046  22130743.7504   22130749.1764
        15.2504         14.7504
 -21599867.81347 -15958670.65046  20874988.8134   20874992.1414
        21.0004         21.2504
  -9612074.53443  -7879116.90345  23593800.1094   23593805.9104
         6.5004          7.5004
   9610824.08043   7235657.81745  23717497.4844   23717501.4344
         5.7504          6.2504
 -15289097.73047 -11685239.39746  21239287.2664   21239288.8954
        21.2504         20.5004
 -10431387.22044  -7422493.24645  24215051.5864   24215063.8954
         7.2504          7.0004
 -20554790.95847 -15902818.27446  21289376.8364   21289379.6484
        21.5004         21.0004
 03 10 31  2 24  0.0000000  0  7G 9G24G30G 7G 4G17G 5
  -9396807.33546  -5993515.28446  22146534.9844   22146540.6094
        15.0004         15.0004
 -21632731.62147 -15984278.78246  20868734.9144   20868738.2894
        21.0004         21.5004
  -9704709.03143  -7951299.36745  23576170.5314   23576176.2734
         6.0004          7.0004
   9691101.94543   7298212.11745  23732773.1414   23732774.8754
         5.5004          5.7504
 -15233448.23147 -11641876.08746  21249876.7424   21249878.2894
        21.2504         20.5004
 -10527645.10943  -7497498.58245  24196732.4144   24196743.9614
         5.7504          7.5004
 -20608407.45147 -15944597.33446  21279173.9924   21279176.6994
        21.5004         21.0004
 03 10 31  2 24 30.0000000  0  7G 9G24G30G 7G 4G17G 5
  -9313499.36746  -5928599.92346  22162388.1024   22162393.9964
        15.0004         15.0004
 -21665141.96847 -16009533.58446  20862567.4924   20862570.8324
        20.5004         21.5004
  -9797325.43143  -8023467.81245  23558546.5084   23558549.6844
         5.7504          6.7504
   9771354.79443   7360746.73445  23748044.7114   23748046.3284
         5.2504          6.2504
 -15177365.66547 -11598175.34446  21260549.0634   21260550.8324
        21.2504         20.2504
 -10623857.94243  -7572468.66845  24178422.8674   24178435.9844
         5.7504          7.0004
 -20661768.04647 -15986176.98346  21269019.7664   21269022.0744
        21.7504         21.2504
 03 10 31  2 25  0.0000000  0  7G 9G24G30G 7G 4G17G 5
  -9229868.14946  -5863432.70446  22178302.9614   22178308.8914
        14.7504         14.7504
 -21697093.01247 -16034430.46646  20856487.0704   20856490.6454
        20.7504         21.5004
  -9889917.29243  -8095617.21945  23540927.3674   23540931.9144
         6.2504          7.2504
   9851587.06243   7423265.30845  23763312.5394   23763317.7774
         5.0004          6.0004
 -15120847.69147 -11554135.35846  21271303.9144   21271305.3674
        20.7504         20.0004
 -10720019.23343  -7647398.77745  24160123.5004   24160132.9844
         6.5004          6.7504
 -20714866.04647 -16027552.04546  21258915.5864   21258917.9304
        21.7504         21.2504
 03 10 31  2 25 30.0000000  0  7G 9G24G30G 7G 4G17G 5
  -9145913.98246  -5798013.86746  22194278.6884   22194284.0554
        14.7504         14.7504
 -21728581.94547 -16058967.19346  20850495.0634   20850498.6374
        20.7504         21.5004
  -9982480.55343  -8167744.26345  23523313.3444   23523316.8014
         6.5004          6.7504
   9931800.73343   7485769.52145  23778576.2734   23778580.2114
         5.5004          6.5004
 -15063894.06047 -11509755.90546  21282141.7424   21282143.3834
        21.0004         20.2504
 -10816124.77843  -7722285.55945  24141835.5944   24141847.3754
         6.5004          6.7504
 -20767697.78547 -16068719.62446  21248861.8914   21248864.7034
        21.7504         21.2504
 03 10 31  2 26  0.0000000  0  7G 9G24G30G 7G 4G17G 5
  -9061638.17346  -5732344.41746  22210315.7114   22210321.6764
        14.2504         14.2504
 -21759606.24647 -16083141.80046  20844591.2344   20844594.5394
        20.7504         21.2504
 -10075011.54943  -8239846.32245  23505704.5944   23505709.5164
         6.7504          6.5004
  10011997.14343   7548260.19445  23793838.3524   23793841.7974
         5.5004          6.7504
 -15006505.27747 -11465037.36446  21293062.7344   21293064.3984
        21.0004         20.0004
 -10912170.87143  -7797126.11145  24123556.8284   24123568.9024
         5.7504          7.0004
 -20820258.76047 -16109676.21146  21238860.0784   21238862.7384
        22.2504         21.2504
 03 10 31  2 26 30.0000000  0  7G 9G24G30G 7G 4G17G 5
  -8977048.89146  -5666430.73846  22226412.4144   22226419.4144
        14.2504         14.2504
 -21790171.15047 -16106958.48146  20838774.7274   20838778.2074
        21.0004         21.5004
 -10167513.83344  -8311926.02745  23488102.1484   23488105.3364
         7.7504          7.2504
  10092170.46343   7610732.89145  23809093.5004   23809093.1134
         5.7504          6.5004
 -14948688.88947 -11419985.62246  21304064.8284   21304066.7624
        21.0004         20.2504
 -11008160.43543  -7871922.54445  24105291.2664   24105304.4774
         6.5004          6.7504
 -20872552.64147 -16150424.64346  21228908.9144   21228911.5274
        22.2504         21.7504
 03 10 31  2 27  0.0000000  0  7G 9G24G30G 7G 4G17G 5
  -8892142.87446  -5600270.15446  22242569.2504   22242575.4614
        14.2504         14.2504
 -21820269.73547 -16130411.84246  20833047.1564   20833050.6374
        21.0004         21.2504
 -10259979.46244  -8383977.13745  23470506.4694   23470508.1214
         7.7504          7.0004
  10172326.30543   7673191.98145  23824347.2894   23824346.9494
         6.2504          7.0004
 -14890441.08247 -11374597.70046  21315149.1174   21315150.5824
        21.0004         20.0004
 -11104085.44843  -7946668.47745  24087035.5234   24087045.4774
         5.5004          7.0004
 -20924571.74347 -16190958.98046  21219009.7194   21219011.9804
        22.2504         21.7504
 03 10 31  2 27 30.0000000  0  7G 9G24G30G 7G 4G17G 5
  -8806928.74346  -5533869.38746  22258784.8284   22258790.9924
        14.2504         14.2504
 -21849907.55647 -16153506.19846  20827407.2424   20827410.4064
        21.2504         21.5004
 -10352412.38344  -8456002.56745  23452916.7504   23452919.1644
         7.5004          7.7504
  10252458.54243   7735632.70345  23839596.8524   23839599.3594
         6.2504          7.0004
 -14831770.11047 -11328880.01346  21326313.9064   21326315.3594
        20.7504         20.0004
 -11199950.65442  -8021368.03745  24068791.2034   24068802.4924
         4.7504          6.0004
 -20976320.20247 -16231282.36546  21209162.1954   21209164.8094
        22.2504         21.5004
 03 10 31  2 28  0.0000000  0  7G 9G24G30G 7G 4G17G 5
  -8721404.38646  -5467227.03946  22275060.0944   22275066.2114
        14.5004         14.5004
 -21879078.30347 -16176236.60046  20821856.1564   20821859.4264
        21.2504         21.7504
 -10444805.78643  -8527997.31245  23435335.0394   23435336.9264
         6.7504          7.2504
  10332572.14043   7798058.85045  23854840.8364   23854845.1724
         6.7504          7.0004
 -14772672.93147 -11282830.27746  21337559.6024   21337560.7734
        20.5004         19.7504
 -11295748.15343  -8096014.92544  24050563.6724   24050574.3054
         5.7504          4.7504
 -21027790.76747 -16271389.23846  21199367.7814   21199370.2424
        22.7504         21.7504
 03 10 31  2 28 30.0000000  0  7G 9G24G30G 7G 4G17G 5
  -8635572.96046  -5400345.46146  22291393.4614   22291400.1054
        14.0004         14.2504
 -21907782.27847 -16198603.25346  20816393.9924   20816397.3794
        21.0004         22.0004
 -10537157.86543  -8599959.83945  23417760.5864   23417761.5234
         6.7504          7.7504
  10412666.40544   7860469.91345  23870082.6254   23870085.9184
         7.2504          7.7504
 -14713151.75247 -11236450.12646  21348886.1094   21348887.4694
        21.0004         20.2504
 -11391476.58043  -8170608.05945  24032346.7584   24032360.3444
         6.5004          7.0004
 -21078981.62847 -16311278.23846  21189626.5864   21189629.1294
        22.5004         22.0004
 03 10 31  2 29  0.0000000  0  7G 9G24G30G 7G 4G17G 5
  -8549444.08546  -5333232.15846  22307782.6094   22307789.0784
        14.0004         14.2504
 -21936025.36847 -16220610.72846  20811019.5164   20811022.7384
        21.2504         21.7504
 -10629473.47043  -8671893.95045  23400193.7114   23400197.5554
         6.5004          7.2504
  10492734.46844   7922860.64345  23885319.7664   23885322.2034
         7.2504          8.0004
 -14653215.85247 -11189746.79746  21360291.3674   21360293.1484
        20.7504         20.0004
 -11487140.50143  -8245150.95845  24014141.9614   24014150.8834
         6.2504          6.5004
 -21129897.25347 -16350952.73846  21179937.2734   21179939.6054
        22.7504         22.0004
 03 10 31  2 29 30.0000000  0  7G 9G24G30G 7G 4G17G 5
  -8463012.23646  -5265882.65246  22324230.7194   22324236.7544
        14.0004         13.5004
 -21963798.86947 -16242252.31046  20805733.8204   20805737.0554
        21.0004         21.7504
 -10721742.69143  -8743791.95145  23382634.7664   23382638.5514
         6.5004          7.7504
  10572783.83644   7985236.73545  23900552.2974   23900553.4104
         7.5004          7.2504
 -14592859.42947 -11142715.77046  21371776.9224   21371778.3054
        20.5004         19.7504
 -11582729.96243  -8319635.78745  23995950.7344   23995962.8324
         6.2504          7.0004
 -21180528.24447 -16390405.38646  21170302.6564   21170304.9414
        22.7504         22.2504
 03 10 31  2 30  0.0000000  0  7G 9G24G30G 7G 4G17G 5
  -8376277.97046  -5198297.55346  22340734.8524   22340740.5944
        13.7504         13.7504
 -21991099.85147 -16263525.71446  20800538.8984   20800542.1804
        21.2504         21.7504
 -10813961.06643  -8815650.37845  23365086.6094   23365089.6334
         6.5004          6.7504
  10652816.71044   8047600.03545  23915781.9454   23915786.2584
         7.5004          8.5004
 -14532082.20947 -11095356.86446  21383342.2504   21383343.9264
        20.5004         19.7504
 -11678240.19743  -8394058.86445  23977775.4384   23977784.6884
         6.0004          6.7504
 -21230869.79747 -16429632.48446  21160723.1644   21160725.6484
        23.0004         22.2504
 03 10 31  2 30 30.0000000  0  7G 9G24G30G 7G 4G17G 5
  -8289245.80646  -5130480.30646  22357297.3674   22357303.2034
        14.0004         13.7504
 -22017929.91047 -16284432.19746  20795433.1724   20795436.5354
        21.0004         21.7504
 -10906128.26643  -8887468.83745  23347547.3594   23347550.0904
         6.5004          6.7504
  10732831.27944   8109949.07845  23931008.8834   23931011.4264
         7.2504          7.5004
 -14470888.13647 -11047673.14646  21394987.2424   21394989.0474
        20.2504         20.0004
 -11773670.95243  -8468419.90045  23959615.1174   23959625.9614
         6.5004          6.7504
 -21280921.48747 -16468633.76246  21151198.2424   21151200.9264
        22.7504         22.2504
 03 10 31  2 31  0.0000000  0  7G 9G24G30G 7G 4G17G 5
  -8201918.13246  -5062432.77946  22373915.1024   22373921.9964
        14.0004         14.0004
 -22044287.86447 -16304970.79546  20790417.2974   20790420.5554
        21.0004         21.7504
 -10998241.93744  -8959245.60845  23330018.7584   23330022.1334
         7.0004          6.5004
  10812827.61443   8172283.87745  23946229.5314   23946229.3094
         6.7504          7.5004
 -14409279.12947 -10999666.13846  21406710.8444   21406712.4024
        20.5004         19.7504
 -11869019.90244  -8542717.22245  23941471.1094   23941481.6724
         7.0004          7.0004
 -21330681.24547 -16507407.56446  21141729.5784   21141731.7934
        23.0004         22.7504
 03 10 31  2 31 30.0000000  0  7G 9G24G30G 7G 4G17G 5
  -8114296.51646  -4994156.15946  22390588.7274   22390594.7154
        14.0004         13.7504
 -22070171.76547 -16325140.04246  20785491.7584   20785494.9924
        21.2504         22.0004
 -11090298.78644  -9030978.08745  23312501.2814   23312505.5124
         7.5004          6.7504
  10892806.86943   8234605.34545  23961450.4304   23961451.6134
         6.5004          7.5004
 -14347256.09047 -10951336.48046  21418513.2344   21418514.9344
        20.2504         19.7504
 -11964283.72044  -8616948.25045  23923343.6644   23923352.2234
         7.2504          7.5004
 -21380145.63747 -16545951.27246  21132316.8984   21132319.2774
        23.0004         22.5004
 03 10 31  2 32  0.0000000  0  7G 9G24G30G 7G 4G17G 5
  -8026386.68746  -4925655.04546  22407317.4384   22407323.6134
        14.0004         13.5004
 -22095583.83047 -16344941.61446  20780656.2274   20780659.4024
        21.0004         22.0004
 -11182299.61944  -9102666.95945  23294993.5864   23294996.2584
         7.7504          7.7504
  10972766.08343   8296911.27045  23976665.7344   23976666.4384
         6.0004          6.2504
 -14284823.80147 -10902687.92946  21430394.1254   21430395.6604
        20.2504         19.5004
 -12059463.20943  -8691113.60645  23905230.6564   23905239.7074
         6.5004          7.2504
 -21429315.54247 -16584265.44046  21122959.7734   21122961.9534
        23.2504         22.5004
 03 10 31  2 32 30.0000000  0  7G 9G24G30G 7G 4G17G 5
  -7938192.35046  -4856932.21846  22424100.0634   22424105.9224
        13.5004         13.7504
 -22120524.67547 -16364376.00146  20775909.8674   20775912.9734
        21.2504         22.2504
 -11274243.45344  -9174311.48645  23277497.0704   23277499.7894
         7.7504          8.0004
  11052704.08243   8359200.63945  23991877.5554   23991879.8984
         5.7504          6.7504
 -14221985.80547 -10853723.25446  21442351.5944   21442353.4224
        20.2504         19.5004
 -12154557.35143  -8765212.52945  23887133.5004   23887142.6914
         5.7504          7.5004
 -21478189.51647 -16622349.05946  21113659.4224   21113661.6604
        23.2504         22.5004
 03 10 31  2 33  0.0000000  0  7G 9G24G30G 7G 4G17G 5
  -7849707.93846  -4787983.33246  22440939.1484   22440945.3834
        14.0004         14.0004
 -22144985.58047 -16383436.39746  20771255.6564   20771258.7274
        21.7504         22.2504
 -11366119.56144  -9245903.16745  23260013.6564   23260015.8244
         7.5004          8.5004
  11132628.95043   8421479.67645  24007085.9774   24007091.6254
         5.5004          5.7504
 -14158735.85947 -10804437.56146  21454387.6564   21454389.1334
        20.0004         19.2504
 -12249555.71243  -8839236.71745  23869057.0474   23869067.2814
         6.0004          7.2504
 -21526757.70647 -16660194.37646  21104417.1334   21104419.6644
        22.7504         22.5004
 03 10 31  2 33 30.0000000  0  7G 9G24G30G 7G 4G17G 5
  -7760946.27046  -4718818.35146  22457829.1334   22457835.6254
        13.2504         14.0004
 -22168976.16647 -16402130.32546  20766689.8444   20766692.7974
        21.5004         22.2504
 -11457935.96844  -9317448.37045  23242541.7974   23242546.1334
         7.2504          8.5004
  11212530.52343   8483740.76645  24022290.9614   24022294.6764
         5.0004          5.7504
 -14095086.21046 -10754840.41646  21466499.5634   21466500.9574
        19.7504         19.2504
 -12344466.11543  -8913192.38245  23850994.2664   23851001.6414
         6.5004          7.7504
 -21575027.73347 -16697807.35646  21095231.8754   21095234.2074
        23.2504         22.5004
 03 10 31  2 34  0.0000000  0  7G 9G24G30G 7G 4G17G 5
  -7671902.48546  -4649433.54946  22474773.5704   22474779.3014
        13.5004         13.5004
 -22192488.02047 -16420451.20046  20762215.7974   20762218.7974
        21.7504         22.2504
 -11549682.81145  -9388939.26245  23225082.4924   23225085.1054
         8.0004          9.0004
  11292416.38543   8545989.46344  24037493.7034   24037493.1174
         5.0004          4.7504
 -14031031.24547 -10704927.45846  21478689.2274   21478690.6454
        20.0004         19.2504
 -12439278.75543  -8987071.94745  23832952.1884   23832964.4494
         6.2504          6.7504
 -21622989.83347 -16735180.41646  21086104.7194   21086107.0394
        23.0004         22.2504
 03 10 31  2 34 30.0000000  0  7G 9G24G30G 7G 4G17G 5
  -7582579.13846  -4579830.95646  22491771.5944   22491778.1214
        13.2504         13.7504
 -22215520.43447 -16438398.46646  20757833.0394   20757836.1454
        21.7504         22.2504
 -11641357.93045  -9460374.34645  23207637.8364   23207640.1094
         9.0004          9.5004
  11372286.70942   8608226.09145  24052692.6724   24052697.4304
         4.7504          5.2504
 -13966573.25146 -10654700.43946  21490955.0004   21490956.5004
        19.7504         19.0004
 -12533991.35043  -9060873.63045  23814927.6174   23814935.7194
         6.5004          7.2504
 -21670641.55747 -16772311.61946  21077036.9304   21077039.4844
        23.2504         22.7504
 03 10 31  2 35  0.0000000  0  7G 9G24G30G 7G 4G17G 5
  -7492986.00546  -4510018.12446  22508820.3754   22508826.2814
        13.0004         13.0004
 -22238080.58847 -16455977.78346  20753539.8984   20753542.8164
        21.7504         22.2504
 -11732965.99845  -9531757.16445  23190205.2974   23190207.3134
         9.0004          8.7504
  11452134.35342   8670445.05644  24067885.4064   24067890.9964
         4.5004          4.0004
 -13901721.26746 -10604166.41846  21503295.8914   21503297.8134
        19.5004         18.7504
 -12628608.88844  -9134601.23045  23796922.9304   23796931.3834
         7.2504          8.2504
 -21717988.21247 -16809205.12546  21068027.2584   21068029.7304
        23.2504         23.0004
 03 10 31  2 35 30.0000000  0  7G 9G24G30G 7G 4G17G 5
  -7403121.69346  -4439993.99746  22525921.1564   22525927.3674
        13.0004         13.2504
 -22260163.33247 -16473185.07646  20749337.2344   20749340.1524
        21.5004         22.5004
 -11824500.63544  -9603082.77045  23172786.5864   23172788.3094
         7.7504          7.2504
  11531963.28742   8732649.28645  24083077.4064   24083084.1914
         4.2504          5.0004
 -13836473.34746 -10553323.87746  21515712.1564   21515713.6914
        19.5004         19.0004
 -12723125.06944  -9208249.86545  23778936.9144   23778945.7074
         7.0004          8.0004
 -21765023.85347 -16845856.24846  21059076.6644   21059079.0904
        23.2504         22.7504
 03 10 31  2 36  0.0000000  0  7G 9G24G30G 7G 4G17G 5
  -7312988.78946  -4369760.64046  22543072.2734   22543078.4144
        12.7504         12.7504
 -22281767.76847 -16490019.67246  20745226.2734   20745229.3204
        21.5004         22.0004
 -11915959.39944  -9674349.24845  23155382.3914   23155383.5984
         7.5004          7.2504
  11611773.95442   8794839.52044  24098264.8284   24098268.9654
         4.5004          4.5004
 -13770831.19346 -10502174.11546  21528203.2114   21528204.6414
        19.5004         19.0004
 -12817537.65644  -9281817.86345  23760971.7344   23760981.6054
         7.7504          8.0004
 -21811745.63647 -16882262.85546  21050185.7424   21050188.0864
        23.2504         23.0004
 03 10 31  2 36 30.0000000  0  7G 9G24G30G 7G 4G17G 5
  -7222594.75046  -4299323.78446  22560274.5084   22560281.0354
        13.0004         13.0004
 -22302898.52247 -16506485.16846  20741205.2814   20741208.2114
        21.5004         22.5004
 -12007345.11644  -9745558.82145  23137991.8134   23137990.7114
         7.7504          7.2504
  11691561.24842                  24113448.4224
         4.7504
 -13704802.16446 -10450722.90346  21540768.4384   21540770.0084
        19.5004         18.7504
 -12911848.96844  -9355306.97845  23743024.2894   23743032.4494
         7.2504          7.5004
 -21858156.21647 -16918426.86946  21041354.3914   21041356.7934
        23.7504         22.7504
 03 10 31  2 37  0.0000000  0  7G 9G24G30G 7G 4G17G 5
  -7131937.05646  -4228681.48246  22577525.4384   22577531.9304
        12.7504         12.7504
 -22323550.09347 -16522577.27246  20737275.3674   20737278.4964
        21.5004         22.5004
 -12098649.86944  -9816705.35945  23120617.7424   23120620.9774
         7.7504          7.2504
  11771330.55943                  24128627.7344
         5.0004
 -13638382.93546 -10398967.64846  21553407.5864   21553409.2624
        19.2504         18.7504
 -13006051.73844  -9428711.46045  23725097.6804   23725107.4694
         7.5004          7.7504
 -21904248.03047 -16954342.46746  21032583.3524   21032585.3444
        23.7504         23.0004
 03 10 31  2 37 30.0000000  0  7G 9G24G30G 7G 4G17G 5
  -7041013.52046  -4157832.01346  22594827.8134   22594833.8834
        12.5004         13.0004
 -22343717.04947 -16538291.76346  20733437.8594   20733440.8364
        21.5004         22.5004
 -12189866.53644  -9887783.17445  23103259.4774   23103263.0864
         7.5004          7.7504
  11851086.96643  -4893830.96655  24143804.3914   24143806.0784
         5.0004          5.5004
 -13571570.78046 -10346906.17946  21566121.0474   21566122.7584
        19.0004         18.5004
 -13100138.48144  -9502025.52945  23707193.7584   23707203.0554
         7.7504          7.7504
 -21950014.03047 -16990004.26346  21023874.0004   21023876.4494
        23.7504         23.2504
 03 10 31  2 38  0.0000000  0  7G 9G24G30G 7G 4G17G 5
  -6949828.64846  -4086778.95946  22612180.0004   22612187.0124
        12.5004         13.0004
 -22363400.60347 -16553629.57546  20729692.1414   20729695.2704
        21.7504         22.7504
 -12280994.64045  -9958792.06145  23085918.4304   23085919.8244
         8.2504          8.2504
  11930828.66743  -4831694.50544  24158979.3984   24158976.1764
         5.2504          4.5004
 -13504369.82646 -10294541.81446  21578909.0084   21578910.7074
        19.0004         18.2504
 -13194109.33444  -9575249.34945  23689311.4924   23689318.8674
         7.2504          8.0004
 -21995453.87947 -17025411.89546  21015227.2344   21015229.4144
        23.7504         23.2504
 03 10 31  2 38 30.0000000  0  7G 9G24G30G 7G 4G17G 5
  -6858382.97346  -4015522.66146  22629581.4144   22629588.1294
        12.7504         13.0004
 -22382598.10847 -16568588.64546  20726038.7894   20726041.5904
        21.7504         22.5004
 -12372029.72545 -10029728.40245  23068595.1724   23068597.6564
         8.7504          9.2504
  12010557.61843  -4769568.17745  24174150.3984   24174153.4454
         5.5004          5.0004
 -13436779.85946 -10241874.30446  21591771.1884   21591772.8874
        18.7504         17.7504
 -13287959.64944  -9648379.19845  23671451.5554   23671456.5824
         7.7504          7.7504
 -22040563.45647 -17060562.21246  21006643.1024   21006645.3404
        23.7504         23.5004
 03 10 31  2 39  0.0000000  0  7G 9G24G30G 7G 4G17G 5
  -6766676.16946  -3944062.86146  22647032.9064   22647038.6484
        12.5004         12.7504
 -22401306.39147 -16583166.49746  20722478.6414   20722481.6054
        21.5004         22.7504
 -12462966.33545 -10100588.00245  23051290.0084   23051291.6374
         9.2504          9.7504
  12090277.24743  -4707448.87245  24189321.8834   24189327.5904
         5.7504          5.5004
 -13368800.00046 -10188902.98246  21604707.2274   21604708.9144
        18.7504         18.0004
 -13381684.22445  -9721411.13445  23653616.7504   23653625.0164
         8.0004          8.2504
 -22085337.95347 -17095451.41646  20998122.9924   20998125.2424
        24.2504         23.5004
 03 10 31  2 39 30.0000000  0  7G 9G24G30G 7G 4G17G 5
  -6674710.13946  -3872401.13846  22664533.4844   22664540.7074
        12.5004         12.7504
 -22419524.06247 -16597362.02246  20719011.8754   20719014.8284
        21.5004         22.5004
 -12553801.45545 -10171368.57645  23034005.2584   23034007.1334
         9.2504          9.5004
  12169988.08743  -4645336.63445  24204488.9304   24204494.3204
         5.7504          5.7504
 -13300431.90446 -10135629.14446  21617717.2344   21617718.8874
        18.7504         18.2504
 -13475280.29845  -9794342.89745  23635805.5084   23635813.6094
         8.0004          8.5004
 -22129773.74947 -17130076.70346  20989666.8444   20989669.0594
        24.2504         23.5004
 03 10 31  2 40  0.0000000  0  7G 9G24G30G 7G 4G17G 5
  -6582482.81046  -3800535.73746  22682083.9924   22682090.4614
        12.5004         12.2504
 -22437246.25047 -16611171.48246  20715639.6724   20715642.5084
        21.7504         22.5004
 -12644527.99945 -10242064.56745  23016740.3204   23016742.7344
         8.7504          8.5004
  12249694.96143  -4583227.29745  24219657.6644   24219660.4534
         6.0004          6.7504
 -13231672.95146 -10082050.73946  21630801.8754   21630803.2704
        18.7504         18.2504
 -13568740.96044  -9867169.18345  23618019.5784   23618027.4574
         7.7504          8.5004
 -22173863.99147 -17164432.72246  20981276.8914   20981279.1054
        24.5004         23.5004
 03 10 31  2 40 30.0000000  0  7G 9G24G30G 7G 4G17G 5
  -6490000.96546  -3728471.97646  22699682.4924   22699688.1054
        12.5004         12.5004
 -22454476.51447 -16624597.63946  20712360.5944   20712363.4304
        21.5004         22.5004
 -12735147.63645 -10312677.23445  22999495.9224   22999497.6564
         8.2504          7.5004
  12329393.93943  -4521124.23845  24234823.1884   24234826.3754
         6.0004          6.2504
 -13162529.23646 -10028172.51646  21643959.5474   21643960.9184
        18.5004         18.0004
 -13662067.82544  -9939891.13545  23600260.4224   23600269.0274
         7.5004          8.2504
 -22217610.99347 -17198521.28446  20972952.2814   20972954.3794
        24.7504         23.5004
 03 10 31  2 41  0.0000000  0  7G 9G24G30G 7G 4G17G 5
  -6397264.51146  -3656209.85946  22717329.1484   22717336.1134
        12.0004         12.2504
 -22471212.03247 -16637638.26246  20709176.1094   20709178.8984
        21.5004         22.5004
 -12825655.25245 -10383202.56645  22982272.5004   22982274.3754
         8.0004          8.0004
  12409087.77843  -4459025.08645  24249989.3984   24249991.8594
         6.0004          6.0004
 -13093000.39946  -9973994.20846  21657190.1414   21657191.5474
        18.5004         17.7504
 -13755256.09745 -10012505.08645  23582527.2584   23582535.7234
         8.2504          8.0004
 -22261009.80147 -17232338.52746  20964693.6484   20964695.5124
        24.7504         23.7504
 03 10 31  2 41 30.0000000  0  7G 9G24G30G 7G 4G17G 5
  -6304274.10146  -3583749.82246  22735024.3134   22735031.4304
        12.0004         12.2504
 -22487449.88347 -16650291.11746  20706085.9384   20706088.7974
        21.5004         23.0004
 -12916045.95545 -10453636.81745  22965072.0634   22965073.6454
         8.7504          8.7504
  12488778.85843  -4396928.20845  24265154.0864   24265157.8954
         6.0004          6.2504
 -13023086.24646  -9919515.67446  21670494.5164   21670496.4844
        18.5004         17.5004
 -13848301.20445 -10085007.53045  23564821.5474   23564829.4614
         8.0004          7.7504
 -22304056.08747 -17265881.08646  20956502.1024   20956504.3874
        24.5004         23.7504
 03 10 31  2 42  0.0000000  0  7G 9G24G30G 7G 4G17G 5
  -6211034.43346  -3511095.59046  22752768.3134   22752774.2664
        12.0004         12.2504
 -22503192.12247 -16662557.79246  20703090.4694   20703093.4344
        21.5004         23.0004
 -13006319.80245 -10523980.05045  22947893.3054   22947894.7344
         9.2504          9.2504
  12568465.30343  -4334834.88745  24280317.3754   24280322.2624
         5.7504          5.7504
 -12952791.04446  -9864740.18846  21683871.5474   21683873.0004
        18.5004         18.0004
 -13941203.44344 -10157398.65645  23547141.0864   23547148.6254
         7.7504          8.5004
 -22346749.32547 -17299148.55546  20948377.7344   20948379.9264
        24.7504         24.2504
 03 10 31  2 42 30.0000000  0  7G 9G24G30G 7G 4G17G 5
  -6117548.49245  -3438249.44045  22770558.1414   22770564.8204
        11.7504         11.7504
 -22518438.49447 -16674438.08946  20700189.3754   20700192.4804
        21.7504         22.7504
 -13096474.47345 -10594230.45645  22930737.4534   22930739.4924
         9.7504          9.7504
  12648146.78243  -4272745.41445  24295480.0944   24295483.8444
         5.7504          6.0004
 -12882117.14646  -9809669.58246  21697320.1254   21697321.1804
        18.5004         18.0004
 -14033960.59645 -10229676.76745  23529491.3284   23529500.5664
         8.0004          8.2504
 -22389087.83047 -17332139.60246  20940321.2814   20940323.3674
        24.7504         24.0004
 03 10 31  2 43  0.0000000  0  7G 9G24G30G 7G 4G17G 5
  -6023813.35545  -3365209.13846  22788395.5234   22788401.5944
        11.7504         12.0004
 -22533183.15147 -16685927.40446  20697383.6644   20697386.6884
        21.5004         22.7504
 -13186501.79745 -10664381.61745  22913606.0474   22913607.8754
         9.7504         10.2504
  12727829.25543  -4210655.18945  24310644.0084   24310646.8444
         5.0004          6.0004
 -12811061.40046  -9754301.46946  21710841.6334   21710843.4614
        18.5004         17.7504
 -14126564.75345 -10301835.69045  23511868.7974   23511874.2814
         8.0004          8.5004
 -22431063.53447 -17364847.93446  20932333.4144   20932335.4534
        24.5004         24.2504
 03 10 31  2 43 30.0000000  0  8G 9G24G30G10G 7G 4G17G 5
  -5929832.68245  -3291977.52546  22806280.3754   22806287.5044
        11.7504         12.0004
 -22547427.17747 -16697026.64046  20694672.6724   20694675.4024
        21.5004         22.7504
 -13276400.14145 -10734432.17145  22896498.9454   22896501.6644
         9.2504         10.0004
  -6378668.25151                  25011635.8674
         3.2504
  12807511.72643  -4148565.01245  24325805.5634   24325808.6564
         5.0004          6.7504
 -12739626.56546  -9698637.96746  21724435.0004   21724436.3714
        18.2504         18.0004
 -14219015.00545 -10373874.73645  23494276.6644   23494284.1564
         9.0004          9.0004
 -22472675.84147 -17397273.12546  20924414.8524   20924417.1254
        24.5004         24.2504
 03 10 31  2 44  0.0000000  0  8G 9G24G30G10G 7G 4G17G 5
  -5835609.47745  -3218556.90345  22824209.3914   22824215.6374
        11.5004         11.5004
 -22561170.28047 -16707735.57646  20692057.6094   20692060.4924
        21.7504         22.7504
 -13366167.47745 -10804380.59045  22879415.8524   22879417.6564
         9.0004          9.5004
  -6479186.53541                  24992507.2734
         3.5004
  12887194.03542  -4086474.88545  24340969.2734   24340972.0634
         4.7504          5.7504
 -12667815.27846  -9642681.12246  21738100.3054   21738101.8164
        18.2504         17.5004
 -14311309.00045 -10445792.01745  23476713.4774   23476720.5124
         8.7504          8.5004
 -22513922.39847 -17429413.30246  20916566.1414   20916568.4264
        24.5004         24.0004
 03 10 31  2 44 30.0000000  0  8G 9G24G30G10G 7G 4G17G 5
  -5741152.55445  -3144954.18645  22842184.2814   22842191.0434
        11.2504         11.2504
 -22574418.58547 -16718058.89346  20689536.4614   20689539.6024
        21.7504         22.7504
 -13455807.76145 -10874230.11945  22862358.3524   22862360.2854
         9.2504          9.2504
  -6579814.91042                  24973358.6884
         4.0004
  12966870.19542  -4024389.55745  24356131.7194   24356131.3204
         4.5004          5.0004
 -12595635.87446  -9586437.42546  21751836.1254   21751837.5314
        18.2504         17.2504
 -14403451.27145 -10517591.06145  23459178.0704   23459186.1024
         8.0004          8.7504
 -22554807.27447 -17461271.63646  20908785.7974   20908788.3164
        24.2504         24.2504
 03 10 31  2 45  0.0000000  0  8G 9G24G30G10G 7G 4G17G 5
  -5646460.80345  -3071168.49545  22860203.6884   22860209.7584
        11.5004         11.7504
 -22587168.01047 -16727993.47146  20687110.2344   20687113.1884
        22.0004         23.0004
 -13545314.60245 -10943975.73245  22845326.5234   22845328.7034
         9.2504          9.2504
  -6680546.73942                  24954188.7034
         4.7504
  13046544.27642  -3962305.96445  24371292.4144   24371299.1294
         4.5004          5.0004
 -12523086.80846  -9529905.68646  21765641.2344   21765642.7814
        18.0004         17.5004
 -14495435.31245 -10589266.92745  23441675.0634   23441682.7774
         8.2504          8.7504
 -22595324.35547 -17492843.32446  20901075.6254   20901077.8874
        24.5004         24.2504
 03 10 31  2 45 30.0000000  0  8G 9G24G30G10G 7G 4G17G 5
  -5551534.31645  -2997199.89645  22878267.2974   22878273.3094
        11.2504         11.2504
 -22599415.51747 -16737536.88646  20684779.7664   20684782.4614
        21.7504         22.7504
 -13634682.42145 -11013612.90345  22828319.2584   22828321.3444
         9.2504          9.5004
  -6781375.86443                  24935002.0704
         5.2504
  13126218.91042  -3900221.79143  24386453.3364   24386456.5124
         4.0004          3.7504
 -12450167.49246  -9473085.44646  21779517.3204   21779518.6914
        17.7504         17.5004
 -14587256.35845 -10660815.74945  23424201.4224   23424208.4804
         8.2504          9.0004
 -22635469.20147 -17524124.98846  20893436.2424   20893438.8204
        24.5004         24.0004
 03 10 31  2 46  0.0000000  0  8G 9G24G30G10G 7G 4G17G 5
  -5456380.03545  -2923053.81945  22896373.3134   22896380.8164
        10.7504         11.0004
 -22611165.29147 -16746692.51746  20682543.7034   20682546.3164
        21.7504         23.0004
 -13723913.30645 -11083143.41545  22811339.7734   22811343.0084
         9.5004          9.7504
  -6882303.16743                  24915794.0704
         5.7504
  13205890.35142  -3838140.27244  24401614.7734   24401621.7154
         4.0004          4.0004
 -12376884.35746  -9415981.70046  21793462.5944   21793464.1764
        17.7504         17.0004
 -14678916.42345 -10732239.08845  23406759.0944   23406767.5704
         8.0004          8.5004
 -22675243.61947 -17555117.97646  20885867.4224   20885869.4844
        24.5004         24.5004
 03 10 31  2 46 30.0000000  0  9G 9G24G30G10G 7G 4G 6G17G 5
  -5361006.33745  -2848736.70146  22914523.4694   22914530.5984
        11.0004         12.0004
 -22622423.14747 -16755464.84646  20680401.4144   20680404.0984
        21.7504         23.0004
 -13813010.50345 -11152569.76245  22794384.0634   22794386.4414
         9.2504          9.5004
  -6983331.36743                  24896569.0784
         6.0004
  13285552.61742  -3776065.76144  24416774.4924   24416776.6724
         4.0004          4.5004
 -12303245.51246  -9358600.76446  21807475.4774   21807476.7774
        17.5004         17.2504
  -6361613.94251                  25474156.3204
         3.5004
 -14770419.11045 -10803539.80245  23389348.5864   23389355.4694
         8.7504          9.5004
 -22714651.10247 -17585825.09146  20878368.2584   20878370.3674
        24.5004         24.2504
 03 10 31  2 47  0.0000000  0  9G 9G24G30G10G 7G 4G 6G17G 5
  -5265413.54145  -2774248.89245  22932715.0164   22932721.4024
        11.2504         11.7504
 -22633186.33747 -16763851.72746  20678353.3134   20678356.0554
        21.7504         22.7504
 -13901969.11445 -11221888.10145  22777455.7344   22777459.6954
         8.7504          9.5004
  -7084454.69243  -4952432.52155  24877325.7504   24877342.6994
         5.7504          7.2504
  13365208.46442  -3713996.23745  24431931.3754   24431927.5434
         4.0004          5.2504
 -12229250.66746  -9300942.44346  21821556.4384   21821558.2424
        17.5004         17.0004
  -6439796.21341                  25459278.0704
         3.2504
 -14861760.12545 -10874714.56345  23371965.7344   23371973.4384
         8.7504          9.2504
 -22753687.31147 -17616242.89546  20870939.8754   20870942.1374
        24.5004         24.2504
 03 10 31  2 47 30.0000000  0  9G 9G24G30G10G 7G 4G 6G17G 5
  -5169598.29045  -2699587.75245  22950947.2664   22950954.1374
        11.2504         11.5004
 -22643448.96447 -16771848.56346  20676400.1484   20676402.8444
        21.7504         23.0004
 -13990780.50045 -11291091.70545  22760555.8754   22760558.3834
         8.7504          9.2504
  -7185663.76643  -5031295.96345  24858066.1954   24858085.9804
         5.2504          6.2504
  13444863.97142  -3651927.08145  24447090.2894   24447082.6914
         4.2504          5.0004
 -12154896.15246  -9243003.84946  21835705.6484   21835706.7734
        17.5004         16.7504
  -6517978.40641  -4922583.62052  25444397.7034   25444402.3554
         2.5004          2.5004
 -14952930.92145 -10945756.75745  23354615.9304   23354622.0704
         8.7504          9.0004
 -22792344.32547 -17646365.21246  20863583.6414   20863585.7274
        24.5004         24.2504
 03 10 31  2 48  0.0000000  0  9G 9G24G30G10G 7G 4G 6G17G 5
  -5073572.22245  -2624762.31145  22969220.5554   22969227.2704
        11.2504         11.5004
 -22653219.59247 -16779462.02046  20674540.8054   20674543.5594
        21.7504         23.0004
 -14079451.02445 -11360185.56045  22743682.9614   22743685.6684
         9.2504         10.0004
  -7286963.99742  -5110230.48745  24838788.6414   24838808.2734
         4.5004          5.5004
  13524510.50542  -3589864.78745  24462246.9774   24462248.6414
         4.5004          5.0004
 -12080192.87446  -9184793.49046  21849921.2344   21849922.4414
        17.2504         17.0004
  -6596168.84041                  25429520.7814
         2.5004
 -15043938.38045 -11016671.62845  23337298.8984   23337306.6134
         8.2504          9.0004
 -22830629.00547 -17676197.41746  20856298.4614   20856300.7344
        24.7504         24.5004
 03 10 31  2 48 30.0000000  0  9G 9G24G30G10G 7G 4G 6G17G 5
  -4977333.44445  -2549771.14945  22987535.4694   22987541.7504
        10.7504         11.2504
 -22662493.84647 -16786688.71146  20672776.2194   20672778.8324
        21.7504         23.0004
 -14167973.57645 -11429164.15245  22726837.7584   22726839.1524
        10.0004         10.2504
  -7388347.53541  -5189229.75945  24819495.4064   24819510.1054
         3.7504          5.5004
  13604152.76842  -3527805.96344  24477402.0864   24477407.9454
         4.7504          4.7504
 -12005138.54846  -9126309.60846  21864203.6724   21864204.8914
        17.2504         16.5004
                                  25414640.4064
         2.5004
 -15134775.93345 -11087454.12245  23320012.1804   23320020.3524
         8.7504          9.0004
 -22868534.33147 -17705734.02046  20849085.2894   20849087.4924
        24.5004         24.7504
 03 10 31  2 49  0.0000000  0  9G 9G24G30G10G 7G 4G 6G17G 5
  -4880887.87845  -2474618.82745  23005887.6094   23005893.6454
        11.0004         11.2504
 -22671274.86847 -16793531.04146  20671104.8204   20671107.6804
        21.5004         23.0004
 -14256348.99145 -11498028.06445  22710020.2504   22710021.3874
        10.0004         10.0004
  -7489814.79741                  24800184.4844
         2.7504
  13683787.58443  -3465753.00545  24492556.7894   24492556.5554
         5.0004          5.0004
 -11929738.78246  -9067556.55846  21878551.5474   21878552.5084
        17.0004         16.2504
  -6377270.76241                  25399761.7734
         3.2504
 -15225444.30845 -11158104.83445  23302758.8204   23302766.5474
         8.7504          9.2504
 -22906061.41147 -17734975.89346  20841944.1094   20841946.3714
        24.5004         24.5004
 03 10 31  2 49 30.0000000  0  9G 9G24G30G10G 7G 4G 6G17G 5
  -4784237.05845  -2399306.55545  23024280.1254   23024286.8634
        11.0004         11.0004
 -22679561.37247 -16799988.04246  20669528.2344   20669531.0354
        21.7504         23.2504
 -14344573.53645 -11566774.47045  22693231.8444   22693233.0044
        10.0004         10.2504
  -6318606.99851                  24780860.6724
         2.2504
  13763416.53643  -3403704.39045  24507708.3444   24507708.4384
         5.0004          5.0004
 -11853994.43846  -9008534.99246  21892965.4534   21892966.8834
        17.2504         16.5004
  -6455474.38442                  25384881.5164
         4.0004
 -15315940.48845 -11228621.26745  23285537.8524   23285547.1604
         8.7504          9.5004
 -22943207.06247 -17763920.56346  20834875.6334   20834877.7544
        24.5004         24.5004
 03 10 31  2 50  0.0000000  0  9G 9G24G30G10G 7G 4G 6G17G 5
  -4687382.42745  -2323835.53145  23042709.3834   23042716.3954
        10.7504         10.5004
 -22687352.01747 -16806058.65746  20668045.6094   20668048.4804
        21.5004         23.2504
 -14432643.14445 -11635400.08845  22676472.3594   22676474.8794
        10.0004         10.0004
  -6379593.10551                  24761523.1644
         3.7504
  13843041.05143  -3341659.35945  24522860.2734   24522865.0434
         5.2504          5.2504
 -11777906.20746  -8949245.48146  21907444.4614   21907445.8094
        17.0004         16.2504
  -6533680.47942                  25369996.5004
         4.2504
 -15406260.90845 -11299000.83745  23268351.1174   23268358.0004
         9.5004          9.0004
 -22979967.63347 -17792565.13446  20827880.3134   20827882.6564
        24.7504         24.7504
 03 10 31  2 50 30.0000000  0  9G 9G24G30G10G 7G 4G 6G17G 5
  -4590328.84145  -2248209.44845  23061179.1414   23061186.2234
        11.0004         10.7504
 -22694649.17447 -16811744.74446  20666656.9144   20666659.7384
        21.5004         23.0004
 -14520557.39045 -11703904.65845  22659742.8984   22659744.9024
        10.5004         10.7504
  -6481285.87942                  24742170.4454
         4.0004
  13922659.32343  -3279619.16545  24538011.6484   24538016.2424
         5.0004          5.5004
 -11701478.76846  -8889691.62746  21921988.3134   21921989.2854
        17.0004         16.2504
  -6611890.72842  -4918524.70154  25355115.5314   25355112.0164
         4.5004          4.5004
 -15496405.40445 -11369243.32645  23251196.4144   23251204.3404
         9.2504         10.0004
 -23016343.21447 -17820909.72746  20820958.1954   20820960.4224
        24.7504         24.7504
 03 10 31  2 51  0.0000000  0  9G 9G24G30G10G 7G 4G 6G17G 5
  -4493076.90445  -2172428.78745  23079685.1254   23079691.5234
        10.5004         10.5004
 -22701450.90447 -16817044.77346  20665362.6414   20665365.5704
        21.7504         23.2504
 -14608312.07345 -11772284.94045  22643043.9304   22643044.9844
        10.5004         10.5004
  -6583046.14742                  24722805.8284
         4.5004
  14002273.19343  -3217582.42645  24553162.0084   24553164.7854
         5.2504          5.0004
 -11624712.46946  -8829873.73446  21936596.0164   21936597.0944
        16.7504         16.2504
  -6690102.92142  -4979469.26244  25340231.0084   25340235.8954
         4.2504          4.7504
 -15586369.80645 -11439345.45545  23234075.8524   23234085.2894
         9.5004         10.2504
 -23052330.04047 -17848951.41646  20814110.2274   20814112.4304
        24.7504         24.7504
 03 10 31  2 51 30.0000000  0  9G 9G24G30G10G 7G 4G 6G17G 5
  -4395629.15945  -2096495.53245  23098229.5704   23098235.9344
        10.2504         10.7504
 -22707756.86047 -16821958.51746  20664162.5944   20664165.5824
        21.7504         23.0004
 -14695904.13845 -11840538.50045  22626374.9384   22626376.1804
        10.0004         10.0004
  -6684870.57942                  24703427.9304
         4.0004
  14081883.14543  -3155548.65545  24568311.2894   24568310.3754
         5.5004          5.0004
 -11547609.26746  -8769793.32346  21951268.4384   21951269.9494
        16.5004         16.0004
  -6768316.26241  -5040414.62443  25325346.1804   25325350.9964
         3.7504          3.2504
 -15676151.95545 -11509305.46045  23216991.7344   23216999.2974
         9.2504          9.7504
 -23087925.97947 -17876688.51246  20807336.3524   20807338.5314
        24.7504         24.7504
 03 10 31  2 52  0.0000000  0  9G 9G24G30G10G 7G 4G 6G17G 5
  -4297992.39645  -2020414.99245  23116808.9304   23116814.4384
        10.5004         10.7504
 -22713571.21247 -16826489.13446  20663056.1334   20663058.9344
        21.7504         23.2504
 -14783335.03045 -11908666.43345  22609738.1564   22609739.5274
        10.5004          9.7504
  -6786760.03741  -4936867.03952  24684039.1484   24684059.1094
         3.0004          2.5004
  14161485.52843  -3093520.81545  24583458.6884   24583460.2114
         5.0004          5.5004
 -11470175.22746  -8709455.11346  21966003.3364   21966004.8364
        16.5004         16.0004
  -6846534.13741  -5101363.51543  25310459.8984   25310469.3014
         3.0004          3.5004
 -15765753.92645 -11579125.16645  23199940.5474   23199948.7194
         9.7504         10.2504
 -23123132.71647 -17904122.35046  20800636.8204   20800638.9184
        24.7504         24.7504
 03 10 31  2 52 30.0000000  0  9G 9G24G30G10G 7G 4G 6G17G 5
  -4200161.80245  -1944183.53945  23135426.4224   23135431.8244
        10.2504         10.2504
 -22718886.42047 -16830630.85946  20662044.8134   20662047.3674
        21.7504         23.2504
 -14870594.39045 -11976660.74545  22593133.1484   22593135.2464
        11.0004         10.7504
  -6888703.40541  -5016302.51244  24664639.3524   24664649.5394
         3.0004          4.5004
  14241088.21743  -3031492.68244  24598606.9614   24598605.8594
         5.0004          4.5004
 -11392405.01046  -8648854.95546  21980802.6954   21980804.2424
        16.5004         16.0004
  -6924748.37841                  25295578.1954
         3.7504
 -15855165.75245 -11648796.77945  23182927.1024   23182935.0634
         9.7504         10.2504
 -23157939.93547 -17931244.84146  20794013.1094   20794015.4184
        24.5004         25.0004
 03 10 31  2 53  0.0000000  0  9G 9G24G30G10G 7G 4G 6G17G 5
  -4102143.05145  -1867805.48645  23154078.2424   23154084.9924
         9.7504         10.5004
 -22723705.58647 -16834386.00046  20661127.6954   20661130.0984
        21.7504         23.2504
 -14957682.40845 -12044521.41145  22576560.7424   22576562.8524
        11.2504         11.2504
  -6990699.74942  -5095779.24044  24645229.5394   24645244.1334
         4.5004          4.5004
  14320688.40543  -2969466.58345  24613753.6414   24613758.1054
         5.0004          5.2504
 -11314303.60046  -8587996.69246  21995664.7974   21995666.3094
        16.2504         15.7504
  -7002961.59341                  25280696.2664
         3.7504
 -15944388.19045 -11718320.78145  23165948.1094   23165956.1764
         9.7504         10.2504
 -23192349.18447 -17958057.22846  20787465.2504   20787467.4774
        24.7504         25.0004
 03 10 31  2 53 30.0000000  0  9G 9G24G30G10G 7G 4G 6G17G 5
  -4003937.24045  -1791281.64845  23172766.5234   23172772.5704
        10.2504         10.2504
 -22728027.37347 -16837753.52946  20660305.0944   20660307.8834
        21.7504         23.2504
 -15044595.57545 -12112245.82545  22560021.8914   22560024.0004
        11.2504         11.0004
  -7092745.03543  -5175294.30745  24625810.2034   24625823.0164
         5.5004          5.2504
  14400287.49642  -2907441.27344  24628901.8364   24628906.0664
         4.7504          4.5004
 -11235872.30546  -8526881.38746  22010589.7734   22010591.0514
        16.0004         16.0004
  -7081171.92242                  25265811.8134
         4.0004
 -16033418.13245 -11787694.78145  23149006.1884   23149014.5234
         9.7504         10.7504
 -23226357.16947 -17984556.92646  20780993.9534   20780996.2274
        24.7504         25.0004
 03 10 31  2 54  0.0000000  0  9G 9G24G30G10G 7G 4G 6G17G 5
  -3905544.09845  -1714611.75845  23191488.8364   23191495.8244
         9.2504         10.0004
 -22731849.22047 -16840731.53746  20659577.8754   20659580.4414
        21.7504         23.2504
 -15131328.40245 -12179829.78245  22543516.8054   22543519.6054
        11.2504         10.7504
  -7194832.52943  -5254842.34445  24606384.4144   24606399.0784
         5.2504          5.2504
  14479888.85642  -2845414.27644  24644050.4304   24644054.0984
         4.2504          4.7504
 -11157110.42846  -8465508.50046  22025577.8674   22025579.6134
        16.0004         15.7504
  -7159376.05242                  25250930.6644
         4.2504
 -16122250.43745 -11856914.71945  23132102.8914   23132111.4384
        10.2504         10.5004
 -23259958.85347 -18010740.01746  20774599.6884   20774601.6914
        24.5004         25.0004
 03 10 31  2 54 30.0000000  0  9G 9G24G30G10G 7G 4G 6G17G 5
  -3806967.41245  -1637798.74445  23210248.4844   23210256.3164
         9.5004         10.5004
 -22735172.15947 -16843320.81746  20658945.5474   20658948.1604
        21.7504         23.7504
 -15217879.48945 -12247272.21445  22527046.6174   22527047.9064
        11.0004         10.7504
  -7296959.79143  -5334421.13345  24586948.3524   24586960.3204
         5.0004          5.5004
  14559491.27042  -2783386.43944  24659198.6954   24659193.0124
         4.5004          4.0004
 -11078021.32946  -8403880.63846  22040628.3054   22040630.1564
        16.2504         16.0004
  -7237574.52042                  25236049.7584
         4.7504
 -16210883.62545 -11925979.48245  23115236.6804   23115244.2664
        10.2504         10.5004
 -23293153.38347 -18036605.89146  20768282.8204   20768285.0354
        24.5004         25.0004
 03 10 31  2 55  0.0000000  0  9G 9G24G30G10G 7G 4G 6G17G 5
  -3708211.53745  -1560846.18645  23229040.8054   23229047.8164
         9.5004         10.2504
 -22737997.84747 -16845522.65446  20658407.6564   20658410.3634
        22.0004         23.5004
 -15304247.21845 -12314571.80245  22510611.5234   22510612.6844
        10.5004         10.2504
  -7399125.08543  -5414029.75045  24567506.0394   24567523.5634
         5.0004          5.7504
  14639093.89542  -2721358.39045  24674345.5944   24674351.7114
         4.2504          5.7504
 -10998608.30246  -8342000.39346  22055739.9064   22055741.8754
        16.0004         15.7504
  -7315768.18942                  25221168.8364
         4.0004
 -16299317.41545 -11994888.87445  23098406.8054   23098414.3094
         9.7504         10.7504
 -23325939.86047 -18062153.85546  20762043.9694   20762046.2194
        25.2504         25.2504
 03 10 31  2 55 30.0000000  0  9G 9G24G30G10G 7G 4G 6G17G 5
  -3609279.02445  -1483756.03045  23247867.5314   23247874.1884
        10.0004         10.5004
 -22740326.67247 -16847337.35346  20657964.7194   20657967.6024
        21.5004         23.2504
 -15390428.84845 -12381726.32645  22494211.2194   22494213.4924
        10.7504         10.7504
  -7501324.81143  -5493665.39045  24548057.5474   24548074.5314
         6.2504          5.2504
  -6256573.96051                  24689493.7344
         3.7504
 -10918873.71546  -8279869.54446  22070912.9224   22070914.5044
        16.0004         15.5004
  -7393956.57042                  25206289.2584
         4.0004
 -16387549.57445 -12063641.14145  23081617.1414   23081625.1254
        10.0004          9.7504
 -23358316.15347 -18087382.16246  20755882.5864   20755885.0124
        24.7504         25.2504
 03 10 31  2 56  0.0000000  0  9G 9G24G30G10G 7G 4G 6G17G 5
  -3510167.16645  -1406526.14945  23266727.9534   23266734.5394
         9.7504         10.0004
 -22742152.82847 -16848760.25146  20657617.1094   20657620.1564
        21.5004         23.5004
 -15476416.17845 -12448729.39845  22477848.9304   22477850.6414
        11.0004         11.2504
  -7603549.38842  -5573320.11445  24528604.1024   24528618.8134
         4.7504          5.7504
  -6176964.64941                  24704641.9064
         3.5004
 -10838814.20046  -8217485.50346  22086147.7034   22086149.9064
        15.7504         15.5004
  -7472133.37141                  25191414.6414
         3.7504
 -16475572.33745 -12132230.28645  23064866.8524   23064874.8364
        10.2504         10.5004
 -23390274.79647 -18112284.99446  20749801.2424   20749803.5514
        24.7504         25.2504
 03 10 31  2 56 30.0000000  0  9G 9G24G30G10G 7G 4G 6G17G 5
  -3410885.48445  -1329164.10045  23285620.2504   23285626.6374
         9.5004          9.7504
 -22743483.39947 -16849797.03946  20657363.8054   20657366.6414
        21.7504         23.5004
 -15562213.21145 -12515584.16045  22461521.8134   22461522.9494
        11.0004         11.2504
  -7705802.24142  -5652996.62844  24509145.7974   24509160.5554
         4.7504          4.5004
  -6097355.42441                  24719791.4454
         3.5004
 -10758438.56246  -8154855.14346  22101442.9384   22101444.8244
        15.5004         15.5004
  -7550304.82541                  25176537.1174
         3.7504
 -16563390.32045 -12200659.94945  23048155.9454   23048163.3094
        10.0004         10.7504
 -23421820.31047 -18136865.84546  20743798.5084   20743800.7814
        25.0004         25.2504
 03 10 31  2 57  0.0000000  0  9G 9G24G30G10G 7G 4G 6G17G 5
  -3311436.89945  -1251671.87645  23304543.9384   23304551.0434
         9.2504         10.0004
 -22744319.48447 -16850448.40246  20657204.3594   20657206.8794
        21.5004         23.5004
 -15647818.24345 -12582289.28845  22445231.7584   22445233.6454
        11.2504         11.5004
  -7808081.28043  -5732693.91545  24489681.1094   24489693.0904
         5.5004          6.5004
  -6017746.91841                  24734941.3204
         3.0004
 -10677749.98846  -8091980.94546  22116797.0474   22116799.0164
        15.2504         14.7504
  -7628471.28641                  25161664.2894
         3.5004
 -16651002.42245 -12268929.09145  23031482.6334   23031490.2424
        10.0004         10.5004
 -23452951.91847 -18161124.14546  20737874.2274   20737876.2774
        25.0004         25.2504
 03 10 31  2 57 30.0000000  0  9G 9G24G30G10G 7G 4G 6G17G 5
  -3211818.49845  -1174047.22245  23323503.1564   23323510.5904
         9.5004          9.2504
 -22744656.13447 -16850710.78646  20657140.7814   20657143.4534
        21.7504         23.2504
 -15733222.96945 -12648838.35645  22428979.6564   22428981.0744
        11.5004         11.2504
  -7910376.95143  -5812404.12945  24470215.0474   24470223.8754
         6.0004          7.0004
  -5938133.38841  -4881451.76154  24750090.1254   24750091.2274
         2.7504          4.0004
 -10596745.16646  -8028860.26546  22132211.8594   22132213.4304
        15.0004         15.2504
  -7706626.67141  -4918518.72354  25146790.1564   25146801.4574
         3.2504          4.7504
 -16738400.66745 -12337031.53545  23014850.8754   23014858.9414
         9.7504         10.2504
 -23483661.53847 -18185053.73746  20732030.2894   20732032.3984
        25.0004         25.2504
 03 10 31  2 58  0.0000000  0  9G 9G24G30G10G 7G 4G 6G17G 5
  -3112035.72345  -1096294.47545  23342491.4224   23342498.6214
         9.7504         10.2504
 -22744495.88047 -16850585.88646  20657171.0164   20657173.8754
        21.7504         23.5004
 -15818427.21345 -12715231.22545  22412765.8204   22412767.1214
        11.2504         11.2504
  -8012688.41141  -5892126.51844  24450744.0784   24450750.3714
         3.7504          4.5004
  -5858516.86341  -4819412.74744  24765240.4064   24765241.2274
         2.5004          4.7504
 -10515428.70846  -7965496.78146  22147685.9614   22147687.6254
        15.0004         15.2504
  -7784772.86041  -4979411.81443  25131920.2664   25131921.3914
         3.2504          3.7504
 -16825585.46145 -12404967.63945  22998261.8524   22998269.3204
        10.0004         10.7504
 -23513950.01947 -18208655.19446  20726266.4064   20726268.8444
        24.5004         25.2504
 03 10 31  2 58 30.0000000  0  9G 9G24G30G10G 7G 4G 6G17G 5
  -3012093.30245  -1018417.36845  23361508.2344   23361515.5864
         9.2504         10.2504
 -22743840.75347 -16850075.37046  20657295.9694   20657298.6414
        21.5004         23.5004
 -15903430.17145 -12781467.25145  22396590.5474   22396591.5084
        11.0004         10.7504
  -8115014.04541  -5971860.03444  24431272.1954   24431280.9414
         3.7504          4.7504
  -5778899.25541  -4757373.24443  24780392.1334   24780398.0044
         3.0004          3.5004
 -10433804.70346  -7901893.65746  22163218.1174   22163219.6294
        15.0004         14.7504
  -7862911.40741  -5040298.82845  25117050.8444   25117057.3134
         3.2504          5.0004
 -16912556.77445 -12472737.38145  22981710.5864   22981718.1374
        10.0004         10.5004
 -23543817.16347 -18231928.29246  20720583.0474   20720585.2734
        24.5004         25.0004
 03 10 31  2 59  0.0000000  0  9G 9G24G30G10G 7G 4G 6G17G 5
  -2911991.69345   -940416.21045  23380558.2734   23380566.4224
         9.2504         10.0004
 -22742689.24747 -16849178.05546  20657514.9304   20657517.9654
        21.5004         23.2504
 -15988227.43945 -12847543.01245  22380454.0084   22380455.8834
        11.0004         11.0004
  -8217348.49242  -6051600.45844  24411799.5004   24411817.6454
         4.5004          4.2504
  -5699278.32841                  24795542.6644
         3.0004
 -10351873.64746  -7838051.30546  22178809.1414   22178810.5354
        14.7504         14.5004
  -7941040.00641  -5101178.33042  25102184.4924   25102192.6414
         3.5004          2.2504
 -16999310.71645 -12540337.75345  22965202.5474   22965210.3324
        10.5004         10.5004
 -23573259.24447 -18254870.18746  20714980.3914   20714982.7114
        24.7504         25.2504
 03 10 31  2 59 30.0000000  0  9G 9G24G30G10G 7G 4G 6G17G 5
  -2811739.48445   -862297.70745  23399635.6564   23399643.4534
         9.7504         10.2504
 -22741047.55647 -16847898.77346  20657827.5944   20657830.0314
        22.0004         23.7504
 -16072821.82045 -12913460.68345  22364355.8204   22364357.0864
        11.0004         11.2504
  -8319693.89042  -6131349.23245  24392321.7974   24392334.9384
         4.0004          5.7504
  -5619659.40641                  24810694.4304
         3.0004
 -10269643.34546  -7773975.74046  22194457.2424   22194459.0594
        14.5004         14.5004
  -8019163.80142  -5162053.89644  25087317.3284   25087315.3134
         4.0004          4.2504
 -17085850.56545 -12607771.20745  22948734.7504   22948743.5784
        10.7504         11.2504
 -23602279.80447 -18277483.65146  20709458.0554   20709460.5164
        25.0004         25.2504
 03 10 31  3  0  0.0000000  0  9G 9G24G30G10G 7G 4G 6G17G 5
  -2711335.45645   -784060.94545  23418741.4304   23418749.4964
         9.0004          9.7504
 -22738911.98947 -16846234.66246  20658233.4924   20658236.2344
        21.7504         23.7504
 -16157206.73445 -12979215.11945  22348298.5234   22348300.2704
        11.7504         11.2504
  -8422042.93842  -6211100.97744  24372844.9454   24372850.4304
         4.7504          4.5004
  -5540038.22841                  24825845.8524
         3.5004
 -10187112.17646  -7709665.74146  22210162.5164   22210164.8954
        14.5004         14.7504
  -8097278.18041  -5222922.21244  25072452.5164   25072456.9224
         3.7504          4.5004
 -17172170.62645 -12675033.45645  22932308.2504   22932315.0474
        11.2504         11.0004
 -23630873.37347 -18299764.38546  20704017.0394   20704019.3594
        25.0004         25.2504
 03 10 31  3  0 30.0000000  0  9G 9G24G30G10G 7G 4G 6G17G 5
  -2610779.64545   -705705.94245  23437876.1954   23437883.9224
         9.0004          9.5004
 -22736280.44147 -16844184.09546  20658734.5314   20658737.2624
        21.7504         23.7504
 -16241376.95346 -13044802.33445  22332280.8364   22332281.5984
        12.2504         11.5004
  -8524389.16243  -6290850.58045  24353369.1564   24353374.9224
         5.7504          5.5004
  -5460411.98942  -4858696.44755  24840997.9224   24841001.6484
         4.2504          5.2504
 -10104279.62346  -7645120.88246  22225924.8674   22225926.5784
        14.5004         14.2504
  -8175380.03141  -5283780.75444  25057590.0234   25057596.8204
         3.7504          4.7504
 -17258266.26645 -12742120.81145  22915925.5944   22915933.7074
        11.2504         11.2504
 -23659034.84347 -18321708.36646  20698657.8914   20698660.1644
        25.2504         25.5004
 03 10 31  3  1  0.0000000  0  9G 9G24G30G10G 7G 4G 6G17G 5
  -2510083.65145   -627241.57445  23457039.6804   23457047.1954
         9.5004         10.2504
 -22733162.35747 -16841754.39846  20659327.7344   20659330.3834
        21.7504         24.0004
 -16325338.60346 -13110226.95146  22316304.0394   22316306.9454
        12.0004         12.0004
  -8626738.65742  -6370602.79145  24333891.7274   24333905.3134
         4.5004          5.2504
  -5380789.51742  -4796653.07945  24856150.2194   24856148.9064
         4.7504          5.5004
 -10021157.18846  -7580350.14546  22241742.7194   22241743.9494
        14.5004         14.2504
  -8253477.85341  -5344636.24143  25042729.2734   25042735.9184
         3.7504          3.5004
 -17344144.22145 -12809038.46845  22899581.4144   22899588.5554
        11.0004         11.2504
 -23686771.43147 -18343321.31046  20693380.0554   20693382.3634
        25.0004         25.2504
 03 10 31  3  1 30.0000000  0  9G 9G24G30G10G 7G 4G 6G17G 5
  -2409242.31545   -548664.08145  23476227.6254   23476234.9534
         8.7504          9.7504
 -22729550.05847 -16838939.58646  20660015.0314   20660017.8204
        21.7504         23.7504
 -16409081.05545 -13175480.77645  22300367.9534   22300369.6994
        11.7504         11.7504
  -8729079.34743  -6450348.03345  24314417.2424   24314428.0274
         6.0004          6.7504
  -5301162.45642  -4734606.05245  24871303.0704   24871301.7934
         4.2504          5.2504
  -9937738.81346  -7515348.81546  22257616.0164   22257617.4344
        14.2504         14.0004
  -8331563.19042                  25027869.6954
         4.0004
 -17429794.77145 -12875778.93645  22883284.6254   22883292.3524
        11.5004         11.7504
 -23714073.24447 -18364595.45246  20688184.4144   20688186.5824
        25.2504         25.7504
 03 10 31  3  2  0.0000000  0  9G 9G24G30G10G 7G 4G 6G17G 5
  -2308254.37745   -469972.29245  23495446.0004   23495452.2584
         9.0004          9.7504
 -22725440.24047 -16835737.10546  20660797.1484   20660799.9144
        21.7504         23.7504
 -16492598.00945 -13240558.88446  22284475.4454   22284476.7344
        11.7504         12.2504
  -8831403.93043  -6530080.86745  24294944.8834   24294953.5594
         6.7504          5.2504
  -5221526.78742  -4672552.30544  24886455.5704   24886461.8404
         4.2504          4.0004
  -9854023.17446  -7450115.84646  22273546.9534   22273548.4884
        14.2504         14.2504
  -8409631.84442                  25013012.0084
         4.2504
 -17515212.34245 -12942337.92045  22867028.8284   22867035.5204
        11.2504         11.7504
 -23740934.70647 -18385526.46746  20683072.9694   20683075.1724
        25.2504         25.7504
 03 10 31  3  2 30.0000000  0  9G 9G24G30G10G 7G 4G 6G17G 5
  -2207128.18545   -391172.55045  23514689.7424   23514695.6254
         8.7504          9.2504
 -22720839.24447 -16832151.90446  20661672.8524   20661675.5824
        21.5004         23.7504
 -16575892.74646 -13305463.89346  22268625.2194   22268626.9774
        12.5004         12.0004
  -8933715.22843  -6609803.36645  24275475.6564   24275486.8284
         5.5004          5.7504
  -5141888.33243  -4610496.37845  24901611.7194   24901614.3094
         5.0004          5.0004
  -9770018.57346  -7384657.72346  22289532.9694   22289534.3524
        14.2504         14.2504
  -8487689.23742  -4934727.74255  24998160.7034   24998164.0434
         4.7504          5.7504
 -17600400.48445 -13008718.01845  22850818.0004   22850826.4414
        11.0004         11.7504
 -23767359.99347 -18406117.61446  20678044.5784   20678046.7934
        25.2504         25.7504
 03 10 31  3  3  0.0000000  0  9G 9G24G30G10G 7G 4G 6G17G 5
  -2105871.22145   -312271.11645  23533958.1644   23533964.7504
         8.2504          9.2504
 -22715751.41247 -16828187.30946  20662640.2344   20662642.9534
        21.5004         23.2504
 -16658966.41546 -13370196.62446  22252816.8754   22252818.8674
        12.7504         12.2504
  -9036013.26943  -6689515.29645  24256008.4454   24256018.5394
         6.0004          6.7504
  -5062250.83343  -4548441.30245  24916765.2664   24916770.9144
         5.5004          5.0004
  -9685731.11446  -7318979.18346  22305571.8754   22305573.8324
        14.2504         13.7504
  -8565738.82642  -4995545.55345  24983308.4774   24983304.9494
         4.7504          5.5004
 -17685361.49745 -13074921.15745  22834649.3754   22834657.4304
        11.0004         11.2504
 -23793351.21747 -18426370.52046  20673098.2974   20673100.5704
        25.2504         25.7504
 03 10 31  3  3 30.0000000  0  9G 9G24G30G10G 7G 4G 6G17G 5
  -2004480.48144   -233265.59845  23553251.8364   23553258.1524
         7.7504          9.2504
 -22710172.17847 -16823839.84146  20663702.4064   20663705.0554
        21.5004         23.5004
 -16741810.91746 -13434750.76745  22237051.9454   22237053.6804
        13.0004         11.7504
  -9138288.96343  -6769209.85345  24236544.2974   24236553.3244
         5.2504          5.7504
  -4982608.46643  -4486382.34245  24931921.9384   24931924.0594
         5.5004          5.0004
  -9601157.52846  -7253077.69046  22321665.4774   22321666.8714
        14.0004         13.2504
  -8643774.68242  -5056352.75644  24968458.9614   24968469.9924
         4.7504          4.2504
 -17770087.77145 -13140941.41446  22818526.5944   22818534.0274
        11.5004         12.2504
 -23818901.05247 -18446279.47546  20668236.7034   20668238.7304
        25.5004         25.5004
 03 10 31  3  4  0.0000000  0  9G 9G24G30G10G 7G 4G 6G17G 5
  -1902957.79045   -154157.20045  23572571.7274   23572578.4534
         8.7504          9.2504
 -22704101.14347 -16819109.14446  20664857.5314   20664860.1454
        21.7504         23.7504
 -16824422.80446 -13499123.65446  22221331.4694   22221333.0744
        12.5004         12.2504
  -9240538.44543  -6848883.78845  24217086.3054   24217097.5944
         5.5004          5.5004
  -4902960.35043  -4424319.01545  24947076.2584   24947075.6604
         5.0004          5.2504
  -9516299.66446  -7186954.68846  22337813.6484   22337815.5234
        14.0004         13.7504
  -8721795.46042  -5117148.21045  24953610.4694   24953610.8204
         4.5004          5.2504
 -17854576.63245 -13206776.72746  22802449.4924   22802457.0554
        11.7504         12.0004
 -23844006.92947 -18465842.50946  20663458.9924   20663461.2664
        25.2504         25.7504
 03 10 31  3  4 30.0000000  0  9G 9G24G30G10G 7G 4G 6G17G 5
  -1801311.59045    -74952.50745  23591913.7664   23591922.1374
         8.0004          9.2504
 -22697544.96247 -16814000.45546  20666105.5234   20666108.1254
        21.7504         24.0004
 -16906805.08646 -13563317.56946  22205654.5864   22205656.7424
        12.5004         12.2504
  -9342763.91143  -6928539.16445  24197633.6254   24197643.3324
         6.5004          7.7504
  -4823311.84142  -4362255.15645  24962233.9774   24962234.9144
         4.7504          5.2504
  -9431165.31546  -7120616.23246  22354014.6094   22354016.2034
        13.5004         13.0004
  -8799806.38642  -5177935.99444  24938767.0084   24938771.6844
         4.5004          4.7504
 -17938832.13045 -13272430.22346  22786416.0554   22786423.0084
        11.7504         12.0004
 -23868672.92847 -18485062.84146  20658765.2504   20658767.4184
        25.2504         25.5004
 03 10 31  3  5  0.0000000  0  9G 9G24G30G10G 7G 4G 6G17G 5
  -1699543.66044      4347.06545  23611279.0864   23611287.0474
         7.7504          8.7504
 -22690503.06947 -16808513.22046  20667445.3444   20667448.0394
        21.7504         23.7504
 -16988954.41846 -13627329.94546  22190021.3834   22190023.7504
        12.7504         13.0004
  -9444961.06943  -7008172.44845  24178185.1884   24178190.2854
         5.0004          6.0004
  -4743662.06543                  24977390.4844
         5.0004
  -9345755.87246  -7054063.41846  22370266.9774   22370268.1024
        13.5004         13.5004
  -8877806.46042  -5238715.19843  24923923.0704   24923929.1764
         4.5004          3.5004
 -18022851.34245 -13337899.59646  22770427.1254   22770434.5474
        11.5004         12.0004
 -23892896.71547 -18503938.58046  20654155.6334   20654157.7544
        25.0004         25.2504
 03 10 31  3  5 30.0000000  0  9G 9G24G30G10G 7G 4G 6G17G 5
  -1597658.97045     83737.67145  23630667.5234   23630674.8634
         8.0004          9.0004
 -22682978.34947 -16802649.77746  20668877.1804   20668879.8164
        21.7504         24.0004
 -17070870.44046 -13691160.59046  22174433.9924   22174436.5704
        13.5004         13.0004
  -9547128.62643  -7087782.79145  24158742.8444   24158749.7154
         6.7504          5.5004
  -4664013.06843                  24992547.8834
         5.5004
  -9260076.19546  -6987300.01446  22386571.5554   22386572.7624
        13.5004         13.2504
  -8955797.26142  -5299487.47644  24909083.0474   24909090.9384
         4.5004          4.7504
 -18106634.63845 -13403185.05946  22754483.9224   22754491.1564
        11.5004         12.0004
 -23916678.26147 -18522469.65046  20649630.2344   20649632.6724
        25.0004         25.7504
 03 10 31  3  6  0.0000000  0  9G 9G24G30G10G 7G 4G 6G17G 5
  -1495656.37645    163220.17745  23650078.6884   23650085.6994
         8.2504          8.7504
 -22674967.66447 -16796407.64446  20670401.6724   20670404.3914
        21.7504         23.7504
 -17152546.42146 -13754804.14646  22158891.7664   22158893.6644
        13.2504         13.2504
  -9649259.19743  -7167364.33445  24139306.3914   24139316.3204
         5.0004          6.0004
  -4584360.50843                  25007705.3674
         5.0004
  -9174124.25446  -6920324.49646  22402927.5704   22402928.5204
        13.5004         13.5004
  -9033774.44842  -5360249.01144  24894244.3204   24894246.5354
         4.5004          4.7504
 -18190175.97145 -13468281.98546  22738585.6644   22738593.1094
        11.5004         12.2504
 -23940011.96647 -18540651.74046  20645189.8984   20645192.0554
        25.0004         25.7504
 03 10 31  3  6 30.0000000  0  9G 9G24G30G10G 7G 4G 6G17G 5
  -1393536.91545    242793.70345  23669512.6024   23669520.1884
         8.7504          9.0004
 -22666469.90447 -16789785.99546  20672018.7344   20672021.4064
        21.5004         24.0004
 -17233977.84746 -13818257.23146  22143394.9774   22143395.9264
        13.0004         12.5004
  -9751347.41743  -7246912.74645  24119880.6564   24119885.5314
         6.7504          6.5004
  -4504702.37942                  25022863.4384
         4.5004
  -9087900.84546  -6853137.43846  22419336.0084   22419337.7664
        13.5004         13.5004
  -9111735.70242  -5420998.11044  24879408.1174   24879408.8674
         4.5004          4.7504
 -18273471.82145 -13533187.63246  22722736.0164   22722744.0354
        11.7504         12.2504
 -23962894.51647 -18558482.32046  20640835.6334   20640838.0354
        25.2504         25.7504
 03 10 31  3  7  0.0000000  0  9G 9G24G30G10G 7G 4G 6G17G 5
  -1291305.29945    322454.66245  23688965.0784   23688971.5124
         8.2504          8.5004
 -22657487.70647 -16782786.81946  20673727.6414   20673730.2074
        21.7504         24.0004
 -17315164.15846 -13881519.29546  22127946.3594   22127947.5084
        13.2504         12.2504
  -9853391.64842  -7326427.31844  24100460.3524   24100467.6214
         4.5004          4.2504
  -4425040.46141                  25038021.9924
         3.7504
  -9001410.06746  -6785742.06246  22435793.5634   22435794.6174
        13.5004         13.5004
  -9189682.60642  -5481736.01843  24864575.2734   24864580.7464
         4.2504          3.7504
 -18356522.32946 -13597902.15646  22706932.2194   22706939.6294
        12.0004         12.2504
 -23985326.19847 -18575961.56047  20636566.8364   20636569.0634
        25.2504         26.0004
 03 10 31  3  7 30.0000000  0  9G 9G24G30G10G 7G 4G 6G17G 5
  -1188958.87845    402205.08445  23708441.9224   23708449.2384
         8.0004          8.7504
 -22648016.54647 -16775406.67746  20675530.2894   20675532.9494
        22.0004         23.7504
 -17396097.44746 -13944584.21946  22112545.4534   22112547.3284
        13.2504         12.7504
  -9955383.45642  -7405900.57145  24081052.3204   24081061.3364
         4.7504          5.0004
  -4345369.49541                  25053183.9844
         3.2504
  -8914649.13646  -6718136.14746  22452304.5704   22452306.3164
        13.5004         13.2504
  -9267609.45542  -5542458.41143  24849746.9144   24849745.6374
         4.0004          3.2504
 -18439320.76346 -13662420.24946  22691175.4924   22691182.6684
        12.2504         12.5004
 -24007299.61547 -18593083.72647  20632385.5394   20632387.8134
        25.2504         26.0004
 03 10 31  3  8  0.0000000  0  9G 9G24G30G10G 7G 4G 6G17G 5
  -1086510.38745    482035.10045  23727936.0314   23727943.0554
         8.2504          8.5004
 -22638066.90747 -16767653.64746  20677423.6484   20677426.4024
        21.7504         24.0004
 -17476784.75246 -14007457.42946  22097190.8054   22097192.4924
        13.5004         13.0004
 -10057328.51442  -7485337.84043  24061651.9924   24061659.6844
         4.2504          3.2504
  -4265698.87041                  25068344.2034
         3.7504
  -8827630.14446  -6650329.14846  22468863.4774   22468865.0004
        13.5004         13.2504
  -9345525.61641  -5603172.37744  24834918.5704   24834926.4844
         3.7504          4.7504
 -18521874.51845 -13726747.64346  22675466.3914   22675473.9884
        11.7504         12.5004
 -24028823.00347 -18609855.19147  20628289.8984   20628292.1134
        25.2504         26.0004
 03 10 31  3  8 30.0000000  0  9G 9G24G30G10G 7G 4G 6G17G 5
   -983960.31845    561944.21945  23747452.5394   23747458.6804
         8.2504          8.2504
 -22627637.78447 -16759527.04246  20679407.8524   20679410.5944
        21.7504         24.0004
 -17557221.32846 -14070135.26646  22081884.3524   22081886.0984
        13.2504         13.0004
 -10159221.97043  -7564734.75645  24042262.7664   24042269.6604
         5.7504          7.0004
  -4186026.30041                  25083505.0084
         3.7504
  -8740353.24346  -6582321.19746  22485472.0084   22485474.0234
        13.5004         13.2504
  -9423428.58641                  24820095.0944
         3.7504
 -18604179.77946 -13790881.43646  22659802.6954   22659809.6954
        12.0004         12.7504
 -24049892.89247 -18626273.28446  20624280.3134   20624282.5864
        25.2504         25.7504
 03 10 31  3  9  0.0000000  0  9G 9G24G30G10G 7G 4G 6G17G 5
   -881299.92344    641939.34045  23766987.3134   23766995.4264
         7.7504          8.2504
 -22616717.99947 -16751018.10546  20681486.1954   20681488.7384
        21.7504         24.0004
 -17637392.98846 -14132606.65546  22066627.8364   22066629.9344
        13.2504         13.2504
 -10261047.91243  -7644079.13845  24022884.7034   24022891.5984
         5.5004          7.7504
  -4106340.18541                  25098669.4304
         3.5004
  -8652809.05946  -6514104.95746  22502130.8204   22502132.3204
        13.2504         13.5004
  -9501306.33542                  24805277.0164
         4.0004
 -18686223.08246 -13854811.13246  22644191.0944   22644198.7504
        12.2504         12.5004
 -24070496.21447 -18642327.81447  20620359.6254   20620361.9344
        25.2504         26.0004
 03 10 31  3  9 30.0000000  0  9G 9G24G30G10G 7G 4G 6G17G 5
   -778542.86244    722009.74745  23786540.4384   23786548.9144
         7.5004          8.2504
 -22605319.51547 -16742136.14446  20683655.0474   20683657.6374
        21.7504         23.7504
 -17717308.04146 -14194878.13246  22051420.7814   22051422.0474
        13.7504         12.7504
 -10362814.03945  -7723376.72645  24003519.3054   24003523.8984
         8.2504          6.7504
  -4026651.08141                  25113833.7424
         2.7504
  -8565010.89646  -6445690.79046  22518837.9614   22518839.4384
        13.2504         13.2504
  -9579169.23542                  24790458.0314
         4.0004
 -18768013.84845 -13918544.07246  22628626.5474   22628633.4884
        11.7504         12.5004
 -24090642.02647 -18658025.82747  20616525.8754   20616528.1844
        25.2504         26.0004
 03 10 31  3 10  0.0000000  0  9G 9G24G30G10G 7G 4G 6G17G 5
   -675689.24544    802155.44345  23806112.4694   23806119.9614
         7.5004          8.0004
 -22593440.68047 -16732879.91146  20685915.5944   20685918.1954
        21.7504         24.0004
 -17796961.24046 -14256945.58946  22036263.1954   22036265.6914
        13.5004         13.2504
 -10464514.38645  -7802623.33645  23984165.7734   23984171.7734
         9.0004         10.2504
                                  25129000.5474
         2.0004
  -8476958.65546  -6377078.65046  22535594.1644   22535594.6094
        13.0004         13.2504
  -9657014.51442  -4940726.47354  24775645.7194   24775651.0634
         4.2504          4.0004
 -18849547.78746 -13982076.87846  22613111.0864   22613118.2384
        12.2504         12.5004
 -24110326.55147 -18673364.39546  20612780.1644   20612782.4844
        25.0004         25.7504
 03 10 31  3 10 30.0000000  0  9G 9G24G30G10G 7G 4G 6G17G 5
   -572743.51544    882372.96145  23825703.1254   23825710.7934
         7.2504          8.0004
 -22581083.72847 -16723251.12346  20688266.9064   20688269.6024
        21.7504         23.7504
 -17876351.56846 -14318808.22446  22021155.5554   22021158.0514
        13.0004         12.7504
 -10566147.14245  -7881817.02945  23964825.6334   23964833.4304
         8.0004          8.0004
                                  25144169.1954
         1.0004
  -8388656.15846  -6308271.50046  22552397.2034   22552398.1994
        12.7504         13.0004
  -9734843.34242  -5001372.42145  24760835.7114   24760840.4804
         4.2504          5.7504
 -18930824.44446 -14045409.21946  22597644.7664   22597650.7894
        12.5004         12.7504
 -24129549.20847 -18688343.10246  20609122.2114   20609124.4494
        24.7504         25.7504
 03 10 31  3 11  0.0000000  0  8G 9G24G30G10G 4G 6G17G 5
   -469712.43444    962656.94745  23845308.3754   23845314.5864
         7.5004          8.0004
 -22568253.31047 -16713253.40846  20690708.5704   20690711.0664
        21.5004         23.7504
 -17955479.98546 -14380466.73646  22006098.4924   22006100.1684
        13.5004         13.2504
 -10667712.10045  -7960958.19045  23945497.9694   23945502.4344
         8.2504          9.2504
  -8300109.42146  -6239274.05746  22569247.0634   22569248.9264
        12.5004         12.7504
  -9812659.04242  -5062008.24445  24746028.0474   24746038.2114
         4.2504          5.2504
 -19011846.03346 -14108542.77946  22582227.0314   22582233.5004
        13.0004         12.5004
 -24148312.84347 -18702964.11746  20605551.6484   20605553.8164
        25.0004         25.7504
 03 10 31  3 11 30.0000000  0  8G 9G24G30G10G 4G 6G17G 5
   -366596.78545   1043006.79445  23864931.5474   23864938.0394
         8.0004          8.2504
 -22554948.65047 -16702886.20846  20693240.3284   20693243.1294
        21.5004         24.0004
 -18034342.36646 -14441917.94646  21991091.1484   21991092.8014
        14.2504         14.0004
 -10769204.51343  -8040042.55345  23926183.4224   23926191.5824
         6.0004          7.5004
  -8211319.21346  -6170086.88046  22586142.7424   22586144.4064
        12.5004         12.0004
  -9890459.38542  -5122631.97844  24731222.6884   24731226.4964
         4.5004          4.5004
 -19092608.72846 -14171474.65846  22566857.6724   22566864.6374
        13.0004         12.5004
 -24166613.68647 -18717224.53746  20602069.0944   20602071.2384
        25.0004         25.7504
 03 10 31  3 12  0.0000000  0  8G 9G24G30G10G 4G 6G17G 5
   -263399.25144   1123420.40145  23884570.4304   23884577.8404
         7.2504          8.0004
 -22541170.08747 -16692149.63446  20695862.2814   20695865.0944
        21.7504         23.5004
 -18112935.64746 -14503159.43746  21976135.5704   21976137.1054
        14.5004         14.0004
 -10870620.19643  -8119067.29445  23906885.0004   23906889.0314
         5.0004          5.2504
  -8122287.70346  -6100711.70446  22603085.1564   22603087.4774
        12.0004         12.0004
  -9968243.80042  -5183243.28845  24716421.7194   24716425.1994
         4.7504          6.2504
 -19173110.54146 -14234203.23546  22551538.6094   22551545.4534
        13.0004         12.7504
 -24184450.37247 -18731123.24446  20598674.8444   20598677.0594
        25.0004         25.7504
 03 10 31  3 12 30.0000000  0  8G 9G24G30G10G 4G 6G17G 5
   -160116.67043   1203900.19745  23904222.4694   23904231.2274
         6.5004          7.7504
 -22526913.41347 -16681040.50946  20698575.1804   20698577.7114
        21.7504         24.0004
 -18191251.60046 -14564184.82346  21961232.2584   21961234.3794
        14.0004         13.5004
  -6338821.36652  -8198025.35145  23887602.1804   23887610.8444
         4.5004          5.2504
  -8033011.17746  -6031145.59646  22620073.9774   22620076.1214
        12.0004         12.0004
 -10046005.90743  -5243837.22545  24701624.6484   24701630.0864
         5.0004          6.0004
 -19253344.74946 -14296723.29946  22536270.3204   22536276.9304
        13.0004         13.2504
 -24201815.73847 -18744654.69246  20595370.2274   20595372.4884
        25.0004         25.7504
 03 10 31  3 13  0.0000000  0  8G 9G24G30G10G 4G 6G17G 5
    -56759.52043   1284438.19345  23923891.3984   23923898.2194
         6.7504          7.7504
 -22512187.12547 -16669565.37746  20701377.4844   20701380.1214
        22.0004         24.0004
 -18269295.16646 -14624997.83746  21946380.8984   21946382.4574
        14.2504         13.7504
  -6440069.79741                  23868332.4384
         3.0004
  -7943499.98945  -5961396.62845  22637107.2584   22637110.0944
        11.7504         11.7504
 -10123753.20443  -5304419.61645  24686829.3984   24686834.0744
         5.0004          5.0004
 -19333316.84246 -14359039.15946  22521052.7034   22521058.8794
        13.5004         13.0004
 -24218715.46247 -18757823.34747  20592154.5944   20592156.9494
        25.2504         26.0004
 03 10 31  3 13 30.0000000  0  8G 9G24G30G10G 4G 6G17G 5
     46667.39843   1365030.55145  23943571.2114   23943578.6804
         6.0004          7.7504
 -22496993.99347 -16657726.53646  20704268.5164   20704271.0354
        21.7504         24.0004
 -18347065.91946 -14685598.45046  21931581.5864   21931582.8874
        14.7504         14.2504
  -6541235.19943                  23849084.7664
         6.7504
  -7853758.21645  -5891467.98045  22654184.4064   22654186.9384
        11.7504         11.5004
                                  24672037.2424
         4.7504
 -19413027.02546 -14421150.90846  22505884.1804   22505890.5314
        13.5004         13.0004
 -24235150.40147 -18770629.80547  20589027.1884   20589029.4384
        25.0004         26.0004
 03 10 31  3 14  0.0000000  0  8G 9G24G30G10G 4G 6G17G 5
    150165.49443   1445678.37145  23963267.9534   23963275.2934
         6.7504          8.0004
 -22481331.34547 -16645521.86746  20707249.2424   20707251.7624
        22.0004         24.0004
 -18424556.99046 -14745981.10846  21916835.6254   21916837.2664
        14.7504         14.2504
  -6642310.02543                  23829848.3204
         6.7504
  -7763784.14945  -5821358.32845  22671306.8054   22671308.8204
        11.7504         11.5004
  -6376803.32643                  24657247.9224
         5.0004
 -19492469.67446 -14483054.18746  22490766.3054   22490773.1024
        13.2504         13.2504
 -24251114.92847 -18783069.68946  20585989.1804   20585991.2194
        25.2504         25.7504
 03 10 31  3 14 30.0000000  0  8G 9G24G30G10G 4G 6G17G 5
    253733.09144   1526380.34145  23982976.8134   23982985.6884
         7.7504          8.2504
 -22465198.96447 -16632951.16546  20710319.1094   20710321.7344
        22.2504         24.0004
 -18501764.84246 -14806143.02746  21902143.1254   21902144.0984
        14.5004         14.2504
  -6743289.80645  -4947109.89555  23810633.2504   23810639.4144
         8.0004          7.5004
  -7673579.29045  -5751068.82546  22688471.8524   22688474.1724
        11.7504         12.0004
  -6454500.45143                  24642462.0084
         5.2504
 -19571642.11446 -14544746.90246  22475700.6414   22475706.8164
        13.5004         13.5004
 -24266606.69647 -18795141.20847  20583041.1024   20583043.4694
        25.0004         26.0004
 03 10 31  3 15  0.0000000  0  8G 9G24G30G10G 4G 6G17G 5
    357361.21445   1607129.51545  24002697.3204   24002704.5204
         8.0004          8.0004
 -22448603.74847 -16620019.78246  20713477.1024   20713479.6454
        22.0004         24.0004
 -18578692.85446 -14866086.93546  21887504.2274   21887506.0904
        14.7504         14.0004
  -6844177.04445  -5025722.79745  23791434.3834   23791438.6374
         9.5004          8.5004
  -7583152.00645  -5680606.02545  22705679.4614   22705681.7704
        11.7504         11.7504
  -6532184.09843  -4934609.81355  24627679.4694   24627686.2774
         5.5004          5.7504
 -19650548.73146 -14606232.48846  22460685.3204   22460692.3674
        13.2504         13.2504
 -24281630.30547 -18806847.92746  20580182.1804   20580184.3834
        25.0004         25.7504
 03 10 31  3 15 30.0000000  0  8G 9G24G30G10G 4G 6G17G 5
    461049.66644   1687925.63045  24022428.9224   24022435.8524
         7.0004          8.0004
 -22431544.29747 -16606726.65946  20716723.2274   20716725.6764
        22.2504         24.0004
 -18655335.87946 -14925808.76846  21872919.8284   21872921.5394
        15.2504         14.5004
  -6944965.64644  -5104258.96145  23772254.0164   23772259.8284
         7.2504          8.0004
  -7492501.88845  -5609969.60046  22722929.0864   22722931.4884
        11.7504         12.2504
  -6609851.31443  -4995129.73845  24612900.9614   24612907.8794
         5.5004          6.0004
 -19729185.12546 -14667507.50046  22445720.5004   22445727.3204
        13.2504         13.7504
 -24296181.83247 -18818186.78547  20577413.2114   20577415.4964
        25.0004         26.0004
 03 10 31  3 16  0.0000000  0  8G 9G24G30G10G 4G 6G17G 5
    564789.70143   1768761.97445  24042168.1334   24042176.7274
         6.7504          7.7504
 -22414027.66347 -16593077.29746  20720056.5554   20720059.1214
        22.2504         24.2504
 -18731697.20946 -14985311.08446  21858389.1174   21858391.0864
        15.0004         14.7504
  -7045657.91544  -5182720.02645  23753093.1804   23753097.8674
         7.2504          8.2504
  -7401637.26946  -5539165.99346  22740220.8914   22740222.6954
        12.0004         12.2504
  -6687507.75343  -5055641.28245  24598122.4614   24598131.8754
         5.0004          6.0004
 -19807555.82146 -14728575.48946  22430807.0084   22430813.6644
        12.7504         13.5004
 -24310265.85447 -18829161.34847  20574733.0704   20574735.1684
        25.0004         26.0004
 03 10 31  3 16 30.0000000  0  8G 9G24G30G10G 4G 6G17G 5
    668583.56643   1849640.28945  24061918.8594   24061927.7344
         6.7504          8.2504
 -22396049.78247 -16579068.54046  20723477.2894   20723479.8554
        22.0004         24.0004
 -18807769.38846 -15044588.09546  21843912.6884   21843914.6094
        14.7504         14.5004
  -7146245.51245  -5261099.52745  23733952.0004   23733958.9534
         8.0004          8.5004
  -7310555.59145  -5468193.27646  22757552.9924   22757554.5864
        11.7504         12.2504
  -6765148.10343  -5116140.35744  24583347.7424   24583353.5554
         5.0004          4.7504
 -19885654.06946 -14789431.17646  22415945.1884   22415952.1524
        13.0004         13.2504
 -24323876.15247 -18839766.78347  20572143.1024   20572145.4694
        24.7504         26.0004
 03 10 31  3 17  0.0000000  0  8G 9G24G30G10G 4G 6G17G 5
    772419.31744   1930551.24845  24081679.7504   24081687.3244
         7.5004          7.7504
 -22377621.40647 -16564708.74046  20726984.2194   20726986.7384
        22.0004         24.0004
 -18883558.93546 -15103644.84746  21829489.9534   21829491.1484
        14.2504         14.0004
  -7246733.94142  -5339401.82045  23714826.7194   23714832.0514
         4.2504          5.7504
  -7219268.49245  -5397060.47245  22774924.2034   22774926.5004
        11.7504         11.7504
  -6842781.16543  -5176633.72445  24568574.7504   24568585.3834
         5.0004          5.2504
 -19963488.03946 -14850080.93146  22401134.5944   22401140.9104
        13.5004         13.7504
 -24337020.60547 -18850009.22147  20569641.6334   20569643.9184
        24.7504         26.0004
 03 10 31  3 17 30.0000000  0  8G 9G24G30G10G 4G 6G17G 5
    876300.90545   2011497.90245  24101448.1724   24101455.5004
         8.0004          8.0004
 -22358736.91547 -16549993.55846  20730578.0944   20730580.6954
        21.7504         24.0004
 -18959056.71946 -15162474.25446  21815123.7734   21815125.1684
        14.7504         14.0004
  -7347113.46644  -5417619.27745  23695727.4224   23695732.1914
         7.5004          8.5004
  -7127771.79845  -5325764.39046  22792335.7664   22792337.8054
        11.7504         12.2504
  -6330136.76853                  24553804.5004
         5.2504
 -20041048.89746 -14910517.85646  22386374.4304   22386381.0744
        13.2504         13.7504
 -24349691.22647 -18859882.44646  20567230.4064   20567232.6804
        24.7504         25.5004
 03 10 31  3 18  0.0000000  0  8G 9G24G30G10G 4G 6G17G 5
    980215.89344   2092470.59945  24121223.0634   24121228.9104
         7.2504          6.7504
 -22339407.00047 -16534931.30346  20734256.2344   20734258.8364
        21.7504         24.0004
 -19034269.77246 -15221081.81746  21800810.3834   21800811.9884
        14.7504         14.2504
  -7447390.07943  -5495756.48345  23676645.1484   23676649.5784
         6.5004          6.5004
  -7036077.15845  -5254314.01546  22809784.6094   22809787.3984
        11.5004         12.2504
  -6407750.28343                  24539035.3054
         5.0004
 -20118344.67046 -14970748.19846  22371666.3674   22371673.1644
        13.7504         14.5004
 -24361896.22247 -18869392.83547  20564908.2194   20564910.3404
        25.2504         26.0004
 03 10 31  3 18 30.0000000  0  8G 9G24G30G10G 4G 6G17G 5
   1084162.20344   2173467.74845  24141001.1094   24141008.4964
         7.0004          7.0004
 -22319632.26347 -16519522.44946  20738019.1884   20738021.5784
        21.7504         24.0004
 -19109194.92146 -15279465.07246  21786553.0944   21786554.7584
        15.0004         14.7504
  -7547559.41142  -5573810.27245  23657581.7664   23657590.2304
         4.0004          6.7504
  -6944186.26945  -5182710.76345  22827270.8674   22827273.4224
        11.5004         11.7504
  -6485357.50243                  24524267.5944
         5.0004
 -20195373.67846 -15030770.72046  22357007.4694   22357014.1724
        14.0004         14.2504
 -24373633.77347 -18878539.00147  20562674.3834   20562676.6684
        25.0004         26.0004
 03 10 31  3 19  0.0000000  0  8G 9G24G30G10G 4G 6G17G 5
   1188135.87644   2254486.34445  24160787.4454   24160793.7154
         7.7504          8.0004
 -22299415.00647 -16503768.76046  20741866.7504   20741869.3404
        21.7504         23.7504
 -19183830.52546 -15337622.70746  21772350.7734   21772352.4384
        15.0004         15.0004
  -7647619.20643  -5651778.62545  23638542.6254   23638548.6954
         6.7504          6.5004
  -6852102.88745  -5110957.45646  22844793.4924   22844795.5664
        11.2504         12.0004
  -6562959.23342  -4958772.85655  24509499.2504   24509502.4384
         4.5004          5.0004
 -20272135.29946 -15090584.87946  22342400.6484   22342407.2114
        14.0004         14.5004
 -24384903.92647 -18887320.95746  20560529.9614   20560532.2344
        24.7504         25.7504
 03 10 31  3 19 30.0000000  0  8G 9G24G30G10G 4G 6G17G 5
   1292135.85243   2335525.25445  24180579.1564   24180582.9774
         6.5004          6.5004
 -22278754.16747 -16487669.32946  20745797.8204   20745800.5044
        21.7504         23.7504
 -19258172.17546 -15395551.26346  21758203.4614   21758205.5234
        15.2504         14.7504
  -7747563.88243  -5729657.18845  23619523.2734   23619529.6484
         6.7504          7.7504
  -6759827.20445  -5039054.36345  22862353.0944   22862354.2894
        11.0004         11.2504
  -6640553.27342  -5019235.92545  24494734.6094   24494739.6374
         4.7504          5.5004
 -20348625.98246 -15150187.89746  22327844.3204   22327850.4844
        14.2504         14.2504
 -24395703.35647 -18895736.11747  20558474.9614   20558477.1994
        24.7504         26.2504
 03 10 31  3 20  0.0000000  0  8G 9G24G30G10G 4G 6G17G 5
   1396158.08343   2416581.30945  24200372.5234   24200380.3444
         5.5004          6.5004
 -22257652.86247 -16471226.71846  20749813.3674   20749815.8524
        21.5004         23.7504
 -19332218.57346 -15453249.76446  21744113.4454   21744115.4734
        15.0004         14.5004
  -7847391.40843  -5807444.56345  23600525.3134   23600530.2934
         6.2504          6.7504
  -6667362.99445  -4967004.33845  22879948.3444   22879950.6054
        10.7504         11.5004
  -6718140.89642  -5079693.76944  24479969.6254   24479977.8094
         4.7504          4.5004
 -20424845.39746 -15209579.51746  22313340.0784   22313346.2774
        14.5004         14.5004
 -24406032.24647 -18903784.60347  20556509.1094   20556511.4304
        24.5004         26.0004
 03 10 31  3 20 30.0000000  0  8G 9G24G30G10G 4G 6G17G 5
   1500192.91643   2497647.25245  24220170.8204   24220177.7734
         6.2504          7.5004
 -22236119.25647 -16454447.28846  20753911.2584   20753913.7664
        21.7504         23.7504
 -19405974.22146 -15510721.64146  21730077.5784   21730079.8874
        15.0004         14.5004
  -7947105.34744  -5885143.44945  23581551.7814   23581557.1844
         7.5004          8.0004
  -6574719.59645  -4894814.69345  22897577.9924   22897580.3594
        10.5004         11.2504
  -6795728.26742  -5140151.52544  24465206.6414   24465212.7584
         4.5004          4.7504
 -20500799.15246 -15268764.09946  22298886.5474   22298892.7704
        14.5004         14.0004
 -24415896.62347 -18911471.14947  20554632.0314   20554634.4224
        24.7504         26.0004
 03 10 31  3 21  0.0000000  0  8G 9G24G30G10G 4G 6G17G 5
   1604244.73843   2578726.42245  24239971.1564   24239976.5124
         6.2504          7.2504
 -22214147.33647 -16437326.37546  20758092.3134   20758094.8554
        21.7504         23.7504
 -19479429.36046 -15567959.36746  21716099.7894   21716101.6054
        15.7504         15.0004
  -8046694.92445  -5962745.40945  23562599.7734   23562602.5744
         8.7504          7.0004
  -6481892.17245  -4822481.65545  22915242.5944   22915243.6134
        10.2504         10.7504
  -6873307.83143  -5200603.13645  24450442.9384   24450448.0354
         5.0004          6.0004
 -20576478.81946 -15327735.13746  22284484.9064   22284491.4224
        14.5004         14.2504
 -24425287.92147 -18918789.04346  20552845.0784   20552847.3284
        24.5004         25.7504
 03 10 31  3 21 30.0000000  0  8G 9G24G30G10G 4G 6G17G 5
   1708306.69143   2659813.54445  24259772.8284   24259779.0394
         6.7504          7.5004
 -22191742.34047 -16419867.76946  20762355.7894   20762358.3094
        22.0004         24.0004
 -19552585.62946 -15624964.23346  21702178.6644   21702180.2464
        16.2504         15.7504
  -8146160.90245  -6040251.00445  23543672.2114   23543677.4734
         9.5004          8.2504
  -6388887.09445  -4750010.17545  22932940.8054   22932942.6094
        10.0004         11.2504
  -6950883.43243  -5261051.65645  24435681.1414   24435687.9844
         5.0004          5.7504
 -20651886.62246 -15386494.31946  22270135.6564   22270141.5394
        14.2504         13.7504
 -24434209.15247 -18925740.75246  20551147.4614   20551150.0394
        24.5004         25.7504
 03 10 31  3 22  0.0000000  0  8G 9G24G30G10G 4G 6G17G 5
   1812382.94343   2740911.83845  24279577.3364   24279583.2664
         6.7504          8.0004
 -22168899.02247 -16402067.70846  20766702.5784   20766704.9574
        21.7504         23.7504
 -19625433.55446 -15681728.81646  21688316.2274   21688317.3404
        16.0004         15.2504
  -8245492.93544  -6117652.38845  23524769.0234   23524772.9614
         7.5004          7.5004
  -6295699.86845  -4677396.75545  22950673.9304   22950675.8524
        10.0004         10.5004
  -7028448.05742  -5321491.63745  24420920.2114   24420925.2854
         4.7504          5.7504
 -20727014.56046 -15445035.43946  22255839.3914   22255845.9414
        15.2504         15.0004
 -24442652.34547 -18932319.87546  20549540.7974   20549543.1414
        24.7504         25.7504
 03 10 31  3 22 30.0000000  0  8G 9G24G30G10G 4G 6G17G 5
   1916464.70843   2822014.42445  24299383.2194   24299390.7344
         6.0004          6.7504
 -22145624.49647 -16383931.68746  20771131.7734   20771134.1884
        22.0004         24.0004
 -19697976.57246 -15738255.80746  21674511.4534   21674512.9064
        15.7504         15.0004
  -8344693.59744  -6194951.38645  23505890.8834   23505893.3204
         7.5004          7.7504
  -6202338.97945  -4604648.01545  22968439.6644   22968441.7274
         9.7504         10.0004
  -7106007.21143  -5381927.46245  24406161.7194   24406167.6844
         5.2504          5.0004
 -20801867.28246 -15503362.11546  22241595.0864   22241601.1684
        14.7504         14.5004
 -24450622.60047 -18938530.50347  20548024.1644   20548026.5664
        24.7504         26.0004
 03 10 31  3 23  0.0000000  0  8G 9G24G30G10G 4G 6G17G 5
   2020550.27344   2903120.05745  24319192.0314   24319200.5084
         7.0004          7.0004
 -22121919.16947 -16365460.01746  20775642.7894   20775645.2974
        22.0004         24.0004
 -19770211.47546 -15794542.77446  21660765.9774   21660767.7114
        16.2504         15.7504
  -8443758.18245  -6272144.33245  23487041.0164   23487044.2504
         9.2504          9.0004
  -6108805.50345  -4531764.80445  22986238.4304   22986240.2934
         9.7504         10.5004
  -7183559.37643  -5442357.80845  24391403.8984   24391408.9144
         5.7504          6.2504
 -20876442.09446 -15561472.24546  22227403.7274   22227409.6804
        14.7504         14.2504
 -24458117.33847 -18944370.57447  20546598.0004   20546600.6724
        24.5004         26.0004
