     2.10           OBSERVATION DATA    G (GPS)             RINEX VERSION / TYPE
teqc  2007Feb5      UNAVCO Archive Ops  20070321 07:50:32UTCPGM / RUN BY / DATE
Solaris 5.10|UltraSparc IIIi|cc -xarch=v9 SC5.8|=+-|*Sparc  COMMENT
BIT 2 OF LLI FLAGS DATA COLLECTED UNDER A/S CONDITION       COMMENT
GARL                                                        MARKER NAME
49721S001                                                   MARKER NUMBER
Davis, Jim          Harvard-Smithsonian CfA                 OBSERVER / AGENCY
3609A14796          TRIMBLE 4000SSI     7.19B               REC # / TYPE / VERS
0220062100          TRM29659.00     SCIS                    ANT # / TYPE
 -2384509.0615 -4239524.8940  4114370.6286                  APPROX POSITION XYZ
        0.0884        0.0000        0.0000                  ANTENNA: DELTA H/E/N
     1     1                                                WAVELENGTH FACT L1/2
     7    L1    L2    C1    P2    P1    S1    S2            # / TYPES OF OBSERV
    30.0000                                                 INTERVAL
RINEX file created by UNAVCO GPS Archive.                   COMMENT
For more information contact archive@unavco.org             COMMENT
Monument ID: 11764                                          COMMENT
UNAVCO 4-char name:   GARL                                  COMMENT
4-char name from Log or data file: GARL                     COMMENT
Monument location: 40.416527 -119.355457 1640.2266          COMMENT
Visit ID: 59421                                             COMMENT
                                                            COMMENT
GARL-BRGN-NV1996                                            COMMENT
                                                            COMMENT
End of DB comments                                          COMMENT
 SNR is mapped to RINEX snr flag value [1-9]                COMMENT
  L1: 3 -> 1; 8 -> 5; 40 -> 9                               COMMENT
  L2: 1 -> 1; 5 -> 5; 60 -> 9                               COMMENT
  2003    10    30     0     0   30.0000000     GPS         TIME OF FIRST OBS
                                                            END OF HEADER
 03 10 30  0  0 30.0000000  0  8G28G 7G 9G 4G 8G26G29G11
  21598016.52056  16910753.11356  21741534.2974   21741536.6524
        18.7504         17.0004
   2964646.52757   2387521.50756  20600288.2664   20600293.5164
        21.5004         23.7504
  -5795681.62956  -3199715.93955  22297175.6954   22297185.5664
        13.0004         11.5004
  -3587950.97955  -2700120.76655  23117875.9614   23117900.7894
        10.5004          9.2504
  40477664.19755  32284770.88155  23562380.4224   23562403.8094
         8.2504          6.7504
  16074271.12255  12625657.94355  23231773.0864   23231799.4024
         9.2504          9.2504
  20490435.76853  16573441.95655  23641295.5554   23641329.8054
         6.5004          6.7504
  20395768.87351                  24839065.1024
         3.7504
 03 10 30  0  1  0.0000000  0  8G28G 7G 9G 4G 8G26G29G11
  21701549.28546  16991428.01646  21761236.0394   21761238.4884
        18.5004         16.7504
   3041101.05247   2447096.67946  20614837.0004   20614842.0864
        21.5004         23.7504
  -5820196.96546  -3218817.36146  22292509.1414   22292519.5984
        12.7504         12.7504
  -3632236.86145  -2734627.57845  23109446.4534   23109472.6054
         8.7504          8.5004
  40643862.90744  32414276.26645  23594006.3834   23594027.0514
         7.2504          6.2504
  16203906.28845  12726672.02745  23256442.3364   23256468.5354
         9.2504          9.5004
  20629995.96343  16682189.27245  23667852.6174   23667887.0234
         6.5004          7.0004
  20529345.72542                  24864482.9144
         4.0004
 03 10 30  0  1 30.0000000  0  8G28G 7G 9G 4G 8G26G29G11
  21805240.84646  17072226.68346  21780968.0474   21780970.5434
        18.5004         17.0004
   3117874.34847   2506920.27846  20629446.2424   20629451.0004
        21.5004         23.7504
  -5844396.11446  -3237672.39846  22287902.9694   22287913.0164
        12.7504         12.7504
  -3676364.43244  -2769011.01045  23101048.2274   23101074.8954
         7.7504          8.2504
  40810201.12745  32543890.31845  23625659.8134   23625682.0274
         8.0004          6.5004
  16333813.06945  12827897.74045  23281163.0554   23281190.8834
         9.2504          9.0004
  20769702.05043  16791050.34445  23694439.0864   23694472.9964
         6.2504          7.0004
  20663219.08742                  24889959.5634
         4.0004
 03 10 30  0  2  0.0000000  0  8G28G 7G 9G 4G 8G26G29G11
  21909082.39046  17153142.21846  21800728.1174   21800730.7074
        18.7504         16.7504
   3194956.43347   2566984.48746  20644114.2584   20644119.4614
        21.5004         23.5004
  -5868285.45546  -3256286.21146  22283356.3594   22283366.8404
        12.7504         12.7504
  -3720339.14545  -2803275.22445  23092679.0164   23092704.6764
         8.0004          7.5004
  40976668.13343  32673604.78845  23657338.0554   23657358.2734
         6.7504          5.7504
  16463979.85845  12929326.05545  23305933.8054   23305961.7384
         9.2504          9.5004
  20909542.18943  16900015.92345  23721051.3914   23721085.0664
         6.5004          6.2504
  20797379.59742                  24915489.5164
         4.0004
 03 10 30  0  2 30.0000000  0  8G28G 7G 9G 4G 8G26G29G11
  22013078.10346  17234178.03046  21820517.7504   21820520.5984
        18.2504         16.7504
   3272349.24247   2627290.85446  20658841.4064   20658846.1764
        21.5004         23.7504
  -5891858.44346  -3274653.58146  22278869.5634   22278879.2584
        13.5004         12.5004
  -3764153.77045  -2837414.60745  23084339.3834   23084365.4534
         8.7504          7.5004
  41143265.82142  32803420.88743  23689039.4534   23689052.6174
         4.5004          3.2504
  16594407.28445  13030957.49745  23330753.0554   23330781.3054
         9.0004          8.7504
  21049516.80843  17009086.22945  23747690.4144   23747724.7624
         6.7504          6.7504
  20931826.12642                  24941074.5164
         4.0004
 03 10 30  0  3  0.0000000  0  8G28G 7G 9G 4G 8G26G29G11
  22117228.11246  17315333.95746  21840336.4774   21840339.3134
        18.5004         16.7504
   3350052.62347   2687839.16146  20673627.6254   20673632.5234
        21.5004         23.7504
  -5915111.88046  -3292771.93846  22274444.0314   22274453.2344
        13.7504         13.2504
  -3807804.75045  -2871426.53645  23076032.0004   23076053.1374
         9.0004          7.5004
  41309992.62642  32933337.84444  23720767.0474   23720787.7854
         4.7504          4.5004
  16725093.41045  13132790.49845  23355622.3834   23355650.4924
         9.5004         10.0004
  21189623.96143  17118259.91445  23774351.6724   23774385.0314
         6.7504          6.7504
  21066562.30542                  24966713.3674
         4.0004
 03 10 30  0  3 30.0000000  0  8G28G 7G 9G 4G 8G26G29G11
  22221522.60346  17396602.52246  21860183.0314   21860185.9384
        18.2504         16.5004
   3428054.46447   2748619.98446  20688470.8524   20688475.4804
        21.5004         23.7504
  -5938053.67446  -3310647.62446  22270077.2274   22270085.5514
        13.2504         12.5004
  -3851299.42945  -2905316.56245  23067752.7114   23067776.6604
         8.2504          7.5004
  41476836.05843  33063345.51445  23752516.9454   23752539.6174
         6.2504          6.7504
  16856024.83845  13234814.65445  23380537.1254   23380567.3674
         9.2504          9.0004
  21329849.92343  17227526.13245  23801034.2894   23801068.4574
         5.7504          7.2504
  21201571.26842                  24992405.6254
         4.0004
 03 10 30  0  4  0.0000000  0  8G28G 7G 9G 4G 8G26G29G11
  22325972.19346  17477991.90546  21880059.5784   21880062.2734
        18.5004         16.2504
   3506364.73147   2809641.06946  20703372.8134   20703377.7464
        21.5004         23.7504
  -5960670.22846  -3328269.92946  22265772.6644   22265780.9304
        13.0004         12.7504
  -3894623.61045  -2939073.87945  23059507.9534   23059531.0004
         9.0004          8.2504
  41643805.22844  33193451.13045  23784290.4774   23784312.6564
         7.7504          8.2504
  16987209.42345  13337036.09645  23405502.5234   23405530.4224
         9.2504          8.7504
  21470202.78543  17336891.31345  23827744.1804   23827779.4304
         6.5004          6.2504
  21336864.00642                  25018150.3754
         4.2504
 03 10 30  0  4 30.0000000  0  8G28G 7G 9G 4G 8G26G29G11
  22430569.64746  17559496.41846  21899963.4064   21899966.0554
        18.0004         16.7504
   3584974.99147   2870896.02046  20718331.6804   20718336.6374
        21.5004         23.5004
  -5982966.49346  -3345642.79646  22261529.0084   22261537.8364
        13.0004         12.7504
  -3937781.17145  -2972701.31645  23051294.4304   23051316.1644
        10.0004          9.2504
  41810890.62445  33323647.31445  23816085.6644   23816108.1374
        10.0004         10.0004
  17118637.01745  13439446.86945  23430511.7504   23430540.9734
         9.0004          8.2504
  21610672.37643  17446347.46445  23854474.0314   23854504.8714
         6.2504          7.0004
  21472429.90742                  25043947.3284
         4.2504
 03 10 30  0  5  0.0000000  0  8G28G 7G 9G 4G 8G26G29G11
  22535316.15546  17641117.12046  21919896.1954   21919898.7624
        18.2504         16.5004
   3663884.66747   2932384.28646  20733347.6724   20733352.8874
        21.7504         23.5004
  -6004938.36446  -3362762.80646  22257347.6094   22257355.9344
        13.7504         14.0004
  -3980767.70145  -3006195.44745  23043112.5234   23043135.2424
        10.7504         10.0004
  41978091.30845  33453933.32945  23847902.6884   23847924.3754
        10.2504         10.0004
  17250305.64445  13542045.47745  23455567.0784   23455594.1914
         8.5004          9.0004
  21751256.48843  17555892.86545  23881227.4694   23881266.7274
         6.2504          6.2504
  21608266.68542     35302.75452  25069797.2974   25069797.3324
         4.2504          2.5004
 03 10 30  0  5 30.0000000  0  8G28G 7G 9G 4G 8G26G29G11
  22640212.81846  17722854.85746  21939857.2274   21939860.0514
        18.0004         16.0004
   3743093.25947   2994105.42746  20748420.2974   20748425.0784
        21.5004         23.7504
  -6026582.39746  -3379627.27346  22253228.3914   22253236.7974
        14.0004         13.5004
  -4023579.36445  -3039553.33545  23034964.6644   23034985.4494
        11.5004         10.5004
  42145406.27345  33584308.40545  23879742.9064   23879763.4804
         9.0004          8.5004
  17382213.16545  13644830.22245  23480668.9304   23480697.0744
         9.0004          8.7504
  21891952.82643  17665525.74445  23907999.7114   23908036.1334
         5.5004          6.7504
  21744375.13742    141361.32044  25095697.5474   25095703.6174
         4.2504          4.0004
 03 10 30  0  6  0.0000000  0  8G28G 7G 9G 4G 8G26G29G11
  21169843.20346  16577112.34546  21660055.3524   21660057.9884
        18.0004         16.0004
   2247182.57747   1828460.97246  20463757.7584   20463762.3524
        21.5004         24.0004
  -7623316.82346  -4623834.99346  21949379.0234   21949386.9144
        14.0004         13.2504
  -5641634.19745  -4300373.48145  22727057.6334   22727078.8164
        11.7504         10.5004
  40737419.26043  32487175.44645  23611811.0554   23611833.4924
         6.5004          7.0004
  15938941.37445  12520202.50445  23206023.0704   23206052.2584
         8.5004          8.7504
  20457343.54643  16547647.63145  23635005.6024   23635039.6764
         5.7504          6.0004
  20305337.53642   -979966.02843  24821856.7814   24821854.8364
         4.2504          3.0004
 03 10 30  0  6 30.0000000  0  8G28G 7G 9G 4G 8G26G29G11
  21275035.38446  16659080.32546  21680072.7664   21680075.1564
        18.2504         16.0004
   2326980.76247   1890641.61546  20478942.7974   20478947.4024
        21.5004         23.7504
  -7644302.20546  -4640186.25746  21945384.4064   21945391.9694
        13.2504         12.5004
  -5684090.97246  -4333454.92445  22718977.2424   22718996.6994
        12.7504         11.0004
  40904951.86943  32617720.07745  23643692.0864   23643715.7774
         5.5004          6.5004
  16071313.28545  12623349.07445  23231214.0394   23231240.6134
         9.0004          8.7504
  20598250.87243  16657444.90345  23661818.9844   23661856.2154
         6.2504          6.2504
  20441975.48642                  24847858.3674
         4.2504
 03 10 30  0  7  0.0000000  0  8G28G 7G 9G 4G 8G26G29G11
  21380380.02946  16741167.11346  21700118.7734   21700120.7664
        18.0004         16.5004
   2407076.40847   1953053.96546  20494184.2974   20494188.9384
        21.2504         23.7504
  -7664949.67646  -4656274.27646  21941455.0864   21941462.0514
        13.7504         12.5004
  -5726360.23745  -4366390.09145  22710932.0784   22710953.0274
        10.7504         10.0004
  41072595.09941  32748350.94445  23675591.9064   23675616.7814
         3.0004          5.0004
  16203917.69845  12726676.82645  23256447.5084   23256476.3094
         8.7504          8.7504
  20739263.84143  16767324.53145  23688652.5944   23688693.5044
         5.7504          6.5004
  20578879.05942                  24873910.7034
         4.2504
 03 10 30  0  7 30.0000000  0  8G28G 7G 9G 4G 8G26G29G11
  21485869.27246  16823366.57246  21720192.7894   21720195.6024
        18.0004         15.7504
   2487460.37147   2015691.08446  20509480.7894   20509485.1374
        21.5004         23.7504
  -7685264.48946  -4672102.99946  21937588.4614   21937595.7544
        13.7504         13.5004
  -5768446.61545  -4399182.62845  22702921.9774   22702941.8444
        10.5004         10.0004
  -1480358.08251                  23707513.8364
         3.5004
  16336743.79345  12830177.32345  23281723.3054   23281752.0234
         8.7504          8.5004
  20880371.90743  16877278.19445  23715504.1564   23715541.3404
         5.7504          6.5004
  20716038.98042                  24900011.3594
         4.2504
 03 10 30  0  8  0.0000000  0  8G28G 7G 9G 4G 8G26G29G11
  21591502.83046  16905678.49246  21740294.5864   21740296.8244
        17.7504         15.7504
   2568130.70847   2078551.23846  20524831.6254   20524836.3484
        21.5004         23.7504
  -7705244.66046  -4687670.99046  21933785.2664   21933792.3364
        13.5004         13.2504
  -5810347.83945  -4431830.92145  22694946.0004   22694963.7344
         9.5004          9.2504
  -1312516.17543                  23739453.8204
         5.7504
  16469788.09145  12933847.86545  23307040.9064   23307070.3524
         8.5004          8.5004
  21021571.02443  16987302.83445  23742375.1724   23742410.1764
         6.0004          6.7504
  20853452.60142                  24926159.1484
         4.2504
 03 10 30  0  8 30.0000000  0  8G28G 7G 9G 4G 8G26G29G11
  21697283.26146  16988104.81246  21760423.7274   21760426.3054
        17.5004         15.7504
   2649088.48247   2141635.43746  20540237.0864   20540241.4344
        21.5004         23.5004
  -7724885.68846  -4702974.92246  21930047.5394   21930054.3014
        14.0004         13.5004
  -5852058.38745  -4464330.74645  22687008.7034   22687027.6094
        10.0004          9.7504
  -1144575.94345                  23771411.9924
         8.2504
  16603050.01345  13037688.01645  23332399.9144   23332428.7384
         8.2504          8.2504
  21162861.09543  17097398.39445  23769262.8834   23769303.2194
         5.7504          5.7504
  20991118.90042                  24952358.1954
         4.2504
 03 10 30  0  9  0.0000000  0  8G28G 7G 9G 4G 8G26G29G11
  21803208.43246  17070643.92146  21780580.0394   21780582.4654
        17.7504         15.7504
   2730330.31747   2204940.89646  20555696.7814   20555700.9654
        21.5004         23.5004
  -7744186.68246  -4718013.97646  21926373.6644   21926380.4964
        14.0004         13.2504
  -5893577.08045  -4496681.20545  22679105.0084   22679124.3244
         9.0004          9.0004
   -976541.40844                  23803387.8984
         7.2504
  16736524.51845  13141693.79345  23357799.7344   23357828.3484
         8.2504          8.5004
  21304236.92843  17207560.75845  23796167.6094   23796204.5944
         6.2504          6.0004
  21129033.67942                  24978603.0634
         4.0004
 03 10 30  0  9 30.0000000  0  8G28G 7G 9G 4G 8G26G29G11
  21909275.73446  17153293.83746  21800764.4774   21800766.6214
        17.5004         15.5004
   2811852.18447   2268464.62346  20571210.0554   20571214.2384
        21.5004         23.7504
  -7763147.82046  -4732788.07446  21922765.2424   21922770.9264
        14.0004         12.7504
  -5934903.20245  -4528881.63545  22671240.3444   22671257.2344
         9.5004          8.5004
   -808417.50144  -1218868.78155  23835380.9454   23835403.1724
         7.2504          7.0004
  16870205.67045  13245860.57345  23383239.4454   23383270.1454
         8.5004          8.2504
  21445691.90643  17317784.82645  23823083.5554   23823122.0744
         5.5004          5.5004
  21267195.29642                  25004895.1414
         4.0004
 03 10 30  0 10  0.0000000  0  8G28G 7G 9G 4G 8G26G29G11
  22015486.63346  17236055.55246  21820975.2894   21820977.5394
        17.2504         15.5004
   2893654.58047   2332207.04246  20586776.0314   20586779.5474
        21.5004         23.2504
  -7781765.06646  -4747294.42346  21919221.8444   21919227.6214
        13.7504         13.0004
  -5976031.96445  -4560928.34945  22663412.8364   22663430.0204
        10.7504          9.0004
   -640204.47043  -1087793.91545  23867390.7664   23867412.9924
         6.7504          7.2504
  17004092.31945  13350187.50145  23408718.0784   23408746.6914
         8.7504          7.7504
  21587225.46243  17428070.07444  23850017.7664   23850054.5394
         5.0004          4.7504
  21405601.00841                  25031231.5234
         3.7504
 03 10 30  0 10 30.0000000  0  8G28G 7G 9G 4G 8G26G29G11
  22121839.04646  17318927.68946  21841213.8914   21841216.0004
        17.5004         15.5004
   2975733.25447   2396164.73146  20602394.8594   20602398.7274
        21.5004         23.5004
  -7800038.51946  -4761532.91946  21915744.5164   21915750.8914
        14.0004         13.2504
  -6016962.37245  -4592820.50045  22655621.6564   22655637.4574
        10.7504          9.2504
   -471907.09144   -956653.39445  23899416.8524   23899438.1174
         7.2504          6.7504
  17138178.73145  13454670.02645  23434233.9844   23434262.0594
         8.5004          7.5004
  21728832.02043  17538412.19945  23876964.8444   23876997.3834
         5.0004          6.5004
  21544244.33141                  25057614.0864
         3.7504
 03 10 30  0 11  0.0000000  0  8G28G 7G 9G 4G 8G26G29G11
  22228334.42646  17401911.25246  21861478.7194   21861480.6414
        17.2504         15.5004
   3058088.26547   2460337.64846  20618066.5634   20618070.5594
        21.7504         23.7504
  -7817963.93246  -4775500.17346  21912332.9774   21912337.8874
        14.7504         13.7504
  -6057689.79345  -4624554.35345  22647870.7584   22647886.4774
        11.0004          9.5004
   -303525.63943   -825447.24745  23931459.1484   23931478.7704
         5.0004          5.7504
  17272463.68045  13559307.26345  23459786.4064   23459816.0044
         8.5004          8.2504
  21870509.43242  17648809.50045  23903923.3834   23903962.3014
         4.5004          6.0004
  21683125.68041                  25084041.7974
         3.5004
 03 10 30  0 11 30.0000000  0  8G28G 7G 9G 4G 8G26G29G11
  22334973.06146  17485006.36846  21881771.4534   21881773.6684
        17.5004         15.7504
   3140718.66947   2524725.19346  20633790.4844   20633794.5744
        21.5004         23.7504
  -7835538.46746  -4789194.09946  21908988.1804   21908992.8554
        14.5004         13.5004
  -6098210.68945  -4656127.30245  22640158.7034   22640174.6914
        10.7504         10.0004
   -135061.63341   -694176.99544  23963516.4694   23963538.6254
         3.2504          4.2504
  17406944.49645  13664097.16545  23485378.8834   23485409.4884
         9.0004          8.0004
  22012255.91742  17759260.65045  23930898.4694   23930943.4104
         4.7504          5.0004
  21822244.26641                  25110514.7274
         3.2504
 03 10 30  0 12  0.0000000  0  8G28G 7G 9G 4G 8G26G29G11
  22441750.79346  17568209.78746  21902090.4384   21902092.6524
        17.0004         15.5004
   3223619.42147   2589323.37046  20649565.6724   20649569.7034
        21.5004         23.7504
  -7852763.58646  -4802615.70346  21905709.5944   21905714.8204
        14.2504         13.5004
  -6138525.80045  -4687539.90045  22632484.9774   22632501.8554
        10.5004         10.2504
     33478.27343   -562847.49345  23995589.1094   23995613.6914
         6.0004          7.2504
  17541613.89145  13769033.95145  23511005.7114   23511036.8674
         8.2504          7.5004
  22154064.06442  17869759.80545  23957884.2274   23957922.7234
         4.5004          5.7504
  21961590.95641                  25137032.3754
         3.2504
 03 10 30  0 12 30.0000000  0  8G28G 7G 9G 4G 8G26G29G11
  22548675.32346  17651527.59346  21922437.4304   21922439.3054
        16.7504         15.2504
   3306796.46347   2654136.98046  20665393.4844   20665397.2934
        21.5004         23.5004
  -7869629.43646  -4815757.45746  21902500.1644   21902505.5084
        14.7504         13.7504
  -6178624.47545  -4718783.80045  22624853.8754   22624869.1024
        11.2504         10.5004
    202099.73243   -431454.44345  24027677.3914   24027698.4224
         6.7504          6.5004
  17676476.58945  13874121.42745  23536669.1024   23536698.8164
         8.2504          7.0004
  22295937.94242  17980310.15944  23984881.8834   23984925.1484
         4.5004          4.5004
  22101172.59641                  25163592.3054
         3.0004
 03 10 30  0 13  0.0000000  0  8G28G 7G 9G 4G 8G26G29G11
  22655742.87346  17734956.86546  21942811.8054   21942814.5594
        16.7504         15.2504
   3390244.21347   2719161.37646  20681272.8524   20681276.6134
        21.5004         23.7504
  -7886137.51246  -4828620.53046  21899358.3984   21899363.0274
        15.5004         14.2504
  -6218507.38045  -4749859.61745  22617262.7974   22617278.3054
        11.0004          9.7504
    370796.66243   -300002.48743  24059778.6094   24059799.2424
         5.7504          3.7504
  17811525.69145  13979354.08345  23562367.9694   23562398.4804
         8.0004          7.5004
  22437871.39343  18090906.92645  24011893.3594   24011934.5394
         5.5004          6.0004
  22240982.93241                  25190198.3834
         3.0004
 03 10 30  0 13 30.0000000  0  8G28G 7G 9G 4G 8G26G29G11
  22762946.72946  17818492.43946  21963212.3524   21963214.7664
        16.7504         15.2504
   3473954.49047   2784390.31446  20697202.4774   20697206.3554
        21.5004         23.2504
  -7902291.87746  -4841208.05346  21896284.5004   21896289.4344
        15.2504         14.2504
  -6258178.16845  -4780770.17245  22609712.1484   22609726.9884
        11.0004         10.7504
    539560.11443                  24091893.6024
         5.0004
  17946751.16344  14084724.28345  23588100.2034   23588129.6024
         7.7504          8.2504
  22579854.23543  18201542.22344  24038911.4384   24038955.3594
         5.0004          4.7504
  22381012.97641                  25216845.4844
         3.0004
 03 10 30  0 14  0.0000000  0  8G28G 7G 9G 4G 8G26G29G11
  22870288.22846  17902135.31146  21983638.1564   21983640.5824
        16.5004         15.2504
   3557927.42447   2849823.94646  20713181.6024   20713185.3524
        21.5004         23.5004
  -7918088.69346  -4853516.98746  21893277.6254   21893281.8324
        14.7504         14.0004
  -6297632.34745  -4811511.87645  22602203.6414   22602217.5204
        11.7504         10.7504
    708389.48743                  24124021.6884
         6.2504
  18082151.36744  14190230.67645  23613865.9144   23613895.7934
         7.5004          7.2504
  22721884.06443  18312214.13345  24065940.8674   24065975.1914
         5.5004          5.5004
  22521259.79941                  25243533.2424
         2.7504
 03 10 30  0 14 30.0000000  0  8G28G 7G 9G 4G 8G26G29G11
  22977768.41446  17985886.13146  22004091.2274   22004093.6524
        16.2504         15.2504
   3642162.61447   2915461.87846  20729210.9694   20729214.8134
        21.5004         23.5004
  -7933524.81446  -4865545.10446  21890340.3674   21890345.8754
        15.0004         14.2504
  -6336865.62445  -4842081.50845  22594736.1564   22594749.9184
        11.7504         11.2504
    877283.76944  -1205667.15455  24156161.8134   24156184.5434
         7.0004          6.2504
  18217724.42944  14295871.74045  23639666.1724   23639694.0354
         7.7504          8.0004
  22863959.93043  18422921.89945  24092979.7734   24093021.0234
         5.2504          6.2504
  22661723.47641                  25270262.3984
         2.7504
 03 10 30  0 15  0.0000000  0  8G28G 7G 9G 4G 8G26G29G11
  23085389.86546  18069747.07846  22024570.7664   22024572.8754
        16.2504         15.2504
   3726661.06447   2981304.93046  20745290.5084   20745294.2814
        21.5004         23.5004
  -7948595.03946  -4877288.05746  21887472.5944   21887477.8204
        15.7504         15.0004
  -6375872.55045  -4872474.86345  22587312.5164   22587326.1724
        11.5004         10.7504
   1046243.12043  -1074010.94545  24188313.7664   24188336.6134
         5.5004          6.5004
  18353469.61945  14401646.91045  23665498.4694   23665529.3444
         8.0004          7.7504
  23006081.20043  18533665.01345  24120020.7034   24120061.0164
         5.0004          5.5004
                                  25297036.0474
         2.5004
 03 10 30  0 15 30.0000000  0  8G28G 7G 9G 4G 8G26G29G11
  23193143.98246  18153711.36346  22045076.0634   22045077.9494
        16.2504         14.5004
   3811412.98047   3047345.53946  20761418.3524   20761421.6684
        21.5004         23.2504
  -7963305.08946  -4888750.13646  21884673.0084   21884677.9654
        15.5004         15.0004
  -6414658.12545  -4902695.70845  22579930.6724   22579943.7074
        11.7504         11.5004
   1215257.33441   -942311.92744  24220475.2504   24220493.7234
         3.7504          4.5004
  18489375.50344  14507547.34345  23691358.7974   23691388.1604
         7.5004          7.0004
  23148235.46943  18644433.92745  24147074.1564   24147115.5354
         5.7504          5.0004
  -1551928.41351                  25323844.2974
         2.5004
 03 10 30  0 16  0.0000000  0  8G28G 7G 9G 4G 8G26G29G11
  23301037.16446  18237784.03646  22065607.2424   22065609.7734
        16.0004         14.7504
   3896423.34047   3113587.49146  20777594.9774   20777598.3284
        21.5004         23.2504
  -7977646.49846  -4899925.06346  21881944.3984   21881949.0394
        15.0004         14.0004
  -6453213.14245  -4932736.96045  22572592.3524   22572603.5354
        11.7504         11.0004
   1384330.43442   -810567.14144  24252649.2584   24252676.3014
         4.0004          4.0004
  18625445.40045  14613575.56145  23717254.1094   23717283.4264
         8.0004          7.5004
  23290427.12243  18755231.83145  24174132.7894   24174171.6254
         5.2504          6.2504
  -1495442.40751                  25350696.0474
         2.2504
 03 10 30  0 16 30.0000000  0  8G28G 7G 9G 4G 8G26G29G11
  23409074.84346  18321969.29646  22086165.7814   22086167.5394
        16.0004         15.0004
   3981695.78747   3180033.62346  20793821.7114   20793825.1564
        21.5004         23.2504
  -7991611.43546  -4910806.65446  21879286.1484   21879290.6954
        15.2504         13.7504
  -6491529.03645  -4962591.94645  22565299.3284   22565311.3324
        11.7504         11.0004
   1553465.66043                  24284836.5554
         5.0004
  18761681.52444  14719733.27245  23743178.0634   23743208.2344
         7.5004          6.5004
  23432657.89243  18866060.37645  24201199.0164   24201235.8244
         5.0004          5.7504
                                  25377587.0634
         2.5004
 03 10 30  0 17  0.0000000  0  8G28G 7G 9G 4G 8G26G29G11
  23517249.18446  18406261.04246  22106750.6024   22106752.7344
        15.7504         14.5004
   4067221.36647   3246677.07146  20810096.5314   20810099.9534
        21.5004         23.2504
  -8005205.54446  -4921399.35046  21876699.3054   21876704.0514
        16.0004         15.0004
  -6529610.32546  -4992264.17145  22558052.4534   22558064.3284
        12.0004         10.7504
   1722652.87043                  24317031.4774
         5.5004
  18898072.93645  14826012.03745  23769134.5784   23769164.9384
         8.0004          7.7504
  23574916.98342  18976910.86145  24228270.0004   24228306.6684
         4.7504          5.2504
                                  25404514.0394
         2.2504
 03 10 30  0 17 30.0000000  0  7G28G 7G 9G 4G 8G26G29
  23625560.60046  18490659.56246  22127361.8834   22127363.7114
        15.7504         14.7504
   4152998.72947   3313516.59246  20826419.3984   20826422.8794
        21.2504         23.2504
  -8018425.67646  -4931700.52546  21874183.6024   21874188.1134
        15.5004         15.2504
  -6567453.45846  -5021750.81645  22550849.2894   22550859.4414
        12.2504         11.2504
   1891890.83743                  24349236.4694
         5.2504
  19034617.15644  14932409.83345  23795117.0164   23795148.3134
         7.7504          7.2504
  23717201.84043  19087781.38145  24255346.4774   24255383.8954
         5.0004          5.0004
 03 10 30  0 18  0.0000000  0  7G28G 7G 9G 4G 8G26G29
  23734009.51846  18575165.19646  22147998.7344   22148000.8204
        15.7504         14.5004
   4239027.34847   3380551.98646  20842790.1644   20842793.6334
        21.2504         23.2504
  -8031269.09146  -4941708.13346  21871739.3054   21871743.9344
        15.0004         15.5004
  -6605054.89846  -5051049.17345  22543693.4614   22543703.8954
        12.7504         11.7504
   2061177.51743  -1144055.82155  24381451.1954   24381471.5314
         5.2504          5.7504
  19171311.30944  15038924.43745  23821127.8984   23821158.3754
         7.5004          7.2504
  23859509.92542  19198670.01945  24282427.4304   24282465.7734
         4.7504          5.2504
 03 10 30  0 18 30.0000000  0  7G28G 7G 9G 4G 8G26G29
  23842599.65446  18659780.87646  22168663.0474   22168665.1334
        15.7504         14.2504
   4325308.86247   3447784.36646  20859208.8754   20859212.5784
        21.2504         23.0004
  -8043729.57946  -4951417.22746  21869367.7584   21869372.2584
        15.0004         14.5004
  -6642407.90746  -5080153.98046  22536584.5164   22536594.9964
        13.0004         12.0004
   2230514.32543  -1012105.72245  24413676.0864   24413698.8164
         6.0004          6.0004
  19308156.18744  15145556.54745  23847170.1724   23847199.6764
         7.7504          7.5004
  24001841.55142  19309577.03145  24309512.6484   24309545.8094
         4.0004          5.5004
 03 10 30  0 19  0.0000000  0  7G28G 7G 9G 4G 8G26G29
  23951329.41146  18744505.29246  22189353.2894   22189355.4454
        15.5004         14.2504
   4411840.61447   3515211.77146  20875675.2664   20875678.8524
        21.2504         22.7504
  -8055806.82546  -4960827.88146  21867069.4534   21867073.7304
        15.7504         14.5004
  -6679510.97446  -5109064.13745  22529522.8594   22529532.8484
        12.7504         11.2504
   2399897.84343   -880119.05545  24445908.3674   24445930.5354
         6.5004          5.2504
  19445147.13544  15252302.47245  23873239.1954   23873268.9694
         7.2504          7.5004
  24144192.36143  19420499.02444  24336602.5234   24336645.2154
         5.0004          4.5004
 03 10 30  0 19 30.0000000  0  8G28G 7G 9G 4G 8G26G29G11
  24060199.95346  18829339.48546  22210070.8674   22210072.4614
        15.7504         14.2504
   4498622.00847   3582833.62246  20892189.0634   20892192.8594
        21.2504         22.7504
  -8067497.33746  -4969937.15646  21864845.0314   21864848.8054
        15.7504         15.2504
  -6716359.99745  -5137776.38545  22522508.9534   22522517.3954
        11.7504         11.0004
   2569326.67743   -748097.18945  24478150.4384   24478177.4804
         6.5004          5.0004
  19582281.91944  15359160.48345  23899334.2274   23899366.4264
         7.2504          7.7504
  24286560.71342  19531434.45844  24363693.0004   24363742.4694
         4.2504          4.7504
  -1466150.41051                  25539734.6414
         2.2504
 03 10 30  0 20  0.0000000  0  7G28G 7G 9G 4G 8G26G29
  24169203.53046  18914277.39746  22230813.3754   22230815.2974
        15.7504         14.2504
   4585643.84847   3650642.91046  20908749.0234   20908752.9264
        21.2504         22.7504
  -8078806.63446  -4978749.45346  21862692.6724   21862697.3364
        16.0004         15.7504
  -6752959.48146  -5166294.19845  22515543.9454   22515554.4614
        12.7504         11.2504
   2738791.17243   -616047.49445  24510398.4224   24510420.9774
         6.0004          5.2504
  19719549.70544  15466122.16345  23925457.4064   23925486.8054
         7.2504          7.2504
  24428935.23342  19642374.91144  24390787.9064   24390823.3674
         4.5004          4.5004
 03 10 30  0 20 30.0000000  0  7G28G 7G 9G 4G 8G26G29
  24278341.16846  18999319.84446  22251581.8594   22251583.8054
        15.7504         14.0004
   4672905.91247   3718639.36546  20925354.0634   20925357.4614
        21.0004         22.7504
  -8089731.11846  -4987261.89746  21860613.7504   21860618.7664
        15.5004         15.7504
  -6789305.34446  -5194614.44845  22508626.1884   22508635.0044
        12.0004         11.2504
   2908290.27842   -483970.84544  24542653.3054   24542679.8554
         4.7504          4.5004
  19856948.50743  15573185.89145  23951601.8054   23951631.9774
         6.5004          7.2504
  24571313.45242  19753318.26444  24417879.6724   24417920.7584
         4.0004          4.5004
 03 10 30  0 21  0.0000000  0  7G28G 7G 9G 4G 8G26G29
  22812203.26446  17856874.84146  21972584.7584   21972586.9844
        15.2504         14.0004
   3184996.06247   2559229.20046  20642214.4064   20642217.9804
        21.2504         23.0004
  -9675682.21146  -6223067.77246  21558816.8914   21558821.0044
        15.5004         15.5004
  -8400809.16346  -6450330.57345  22201966.6644   22201975.7734
        12.7504         11.7504
   1502413.89442  -1579459.45744  24275125.1954   24275155.1454
         4.2504          4.2504
  18419066.43544  14452758.04145  23677982.5634   23678013.1214
         7.2504          6.7504
  23138285.02843  18636671.81445  24145188.2814   24145229.6134
         5.0004          5.0004
 03 10 30  0 21 30.0000000  0  8G28G 7G 9G 4G 8G26G 5G29
  22921613.74246  17942129.82146  21993405.1954   21993407.2934
        15.7504         14.0004
   3272738.43647   2627599.96846  20658911.2194   20658914.7584
        21.2504         22.7504
  -9685825.70546  -6230971.81746  21556886.4534   21556890.9184
        16.0004         15.0004
  -8436633.88546  -6478244.84146  22195148.6024   22195157.9224
        13.0004         12.0004
   1671980.17542  -1447330.55444  24307392.5634   24307415.2814
         4.0004          4.5004
  18556722.76044  14560022.38645  23704178.9224   23704209.2114
         7.0004          7.0004
  -3157288.31251                  25105166.3674
         3.0004
  23280668.21542  18747619.07444  24172279.4454   24172321.9494
         4.2504          4.2504
 03 10 30  0 22  0.0000000  0  8G28G 7G 9G 4G 8G26G 5G29
  23031156.32146  18027487.72046  22014250.0314   22014252.4224
        15.5004         13.2504
   3360714.51947   2696152.76046  20675652.4064   20675655.8754
        21.2504         22.7504
  -9695578.99646  -6238571.70546  21555030.4694   21555034.9224
        16.2504         15.5004
  -8472197.53746  -6505955.74346  22188380.6884   22188389.1644
        13.2504         12.0004
   1841572.98642  -1315180.88943  24339664.9924   24339680.5354
         4.0004          3.5004
  18694499.09343  14667380.31445  23730395.4924   23730427.1764
         6.7504          6.5004
  -3172806.01851                  25097792.3524
         2.5004
  23423044.62743  18858560.84144  24199377.7344   24199422.5704
         5.5004          4.7504
 03 10 30  0 22 30.0000000  0  8G28G 7G 9G 4G 8G26G 5G29
  23140833.91446  18112950.81446  22035120.9454   22035123.5234
        15.5004         13.5004
   3448925.95247   2764889.01246  20692438.4224   20692441.9494
        21.0004         22.7504
  -9704937.08846  -6245863.53846  21553250.0784   21553255.0124
        16.7504         16.0004
  -8507494.29046  -6533458.78946  22181662.8524   22181670.5664
        13.0004         12.2504
   2011192.68442  -1183010.46344  24371944.6804   24371976.7854
         4.0004          4.7504
  18832394.95443  14774831.34845  23756636.6094   23756668.8094
         6.5004          6.5004
                                  25090399.3524
         2.5004
  23565414.70342  18969497.74144  24226465.1334   24226504.4734
         4.0004          4.7504
 03 10 30  0 23  0.0000000  0  8G28G 7G 9G 4G 8G26G 5G29
  23250653.35946  18198524.41646  22056018.8674   22056021.0474
        15.0004         13.5004
   3537378.35947   2833813.10246  20709270.2504   20709273.6254
        21.2504         22.7504
  -9713890.72146  -6252840.24946  21551545.9534   21551549.9264
        16.2504         16.0004
  -8542513.56646  -6560745.57746  22174998.5554   22175006.6214
        13.0004         12.0004
   2180844.32742  -1050815.03045  24404227.5314   24404248.9734
         4.5004          5.5004
  18970414.56743  14882378.81945  23782901.8594   23782932.2424
         6.7504          7.2504
                                  25082993.8984
         2.7504
  23707782.34942  19080432.61944  24253561.0634   24253606.5204
         4.5004          4.5004
 03 10 30  0 23 30.0000000  0  8G28G 7G 9G 4G 8G26G 5G29
  23360613.60346  18284207.72046  22076944.1414   22076945.6524
        15.2504         13.5004
   3626068.46647   2902922.37146  20726147.2194   20726150.4414
        21.0004         22.5004
  -9722439.29046  -6259501.35446  21549918.7274   21549923.1214
        16.5004         15.7504
  -8577254.29646  -6587815.38046  22168386.7814   22168394.6254
        13.0004         12.2504
   2350524.22143   -918597.51645  24436518.4924   24436541.2584
         5.0004          6.0004
  19108553.31843  14990019.05645  23809189.4064   23809222.0274
         6.7504          6.7504
  -3188537.01442                  25075573.7344
         4.0004
  23850142.56843  19191361.92945  24280652.6564   24280695.7464
         5.2504          6.5004
 03 10 30  0 24  0.0000000  0  8G28G 7G 9G 4G 8G26G 5G29
  23470715.59246  18370001.45346  22097895.2734   22097897.6994
        15.0004         13.5004
   3714995.86647   2972216.46046  20743069.7114   20743073.2034
        21.2504         22.5004
  -9730579.46946  -6265844.27346  21548370.0394   21548374.1994
        16.7504         16.0004
  -8611712.41246  -6614665.07046  22161829.2274   22161837.2344
        13.5004         12.2504
   2520231.35143   -786358.79345  24468811.2344   24468838.5124
         5.5004          6.2504
  19246809.09344  15097750.55645  23835498.2344   23835527.2464
         7.0004          6.7504
  -3227612.70142                  25068138.1334
         4.5004
  23992493.67041  19302283.91943  24307739.8204   24307789.0554
         3.7504          3.7504
 03 10 30  0 24 30.0000000  0  8G28G 7G 9G 4G 8G26G 5G29
  23580962.64946  18455908.31446  22118874.6334   22118876.5434
        14.7504         13.7504
   3804162.73447   3041697.26746  20760037.3834   20760040.7344
        21.0004         22.5004
  -9738305.48646  -6271864.33446  21546899.6254   21546903.5984
        16.7504         16.0004
  -8645881.20746  -6641289.32546  22155325.9774   22155333.1174
        13.5004         12.0004
   2689966.78143   -654097.93645  24501111.7814   24501143.7704
         6.0004          6.2504
  19385182.26643  15205573.48745  23861829.8134   23861859.7034
         6.5004          6.7504
  -3266764.20443                  25060688.3054
         5.0004
  24134836.22842  19413199.33645  24334829.3204   24334872.1644
         4.5004          5.0004
 03 10 30  0 25  0.0000000  0  8G28G 7G 9G 4G 8G26G 5G29
  23691359.73846  18541932.04746  22139882.6334   22139884.8134
        14.5004         13.2504
   3893572.46847   3111367.23746  20777051.5864   20777054.9844
        21.0004         22.7504
  -9745610.16246  -6277556.19446  21545509.4144   21545513.2584
        17.0004         16.0004
  -8679752.59446  -6667681.89546  22148879.6334   22148887.6884
        12.7504         12.2504
   2859733.69343   -521812.67845  24533418.0634   24533446.5824
         5.7504          6.2504
  19523674.71544  15313489.37845  23888184.8754   23888216.0904
         7.2504          6.7504
  -3305985.42643                  25053226.7344
         5.2504
  24277172.48541  19524109.68944  24361912.1954   24361960.9264
         3.7504          4.5004
 03 10 30  0 25 30.0000000  0  8G28G 7G 9G 4G 8G26G 5G29
  23801902.39546  18628069.20546  22160917.9224   22160920.1954
        14.5004         13.2504
   3983218.93847   3181221.64246  20794110.8594   20794114.4344
        21.0004         22.2504
  -9752495.57846  -6282921.24946  21544199.1884   21544203.1374
        17.2504         16.2504
  -8713328.21846  -6693844.01146  22142490.3204   22142497.1294
        13.5004         12.5004
   3029525.13343   -389508.35345  24565728.2584   24565754.3874
         5.5004          5.2504
  19662278.71643  15421492.17645  23914559.6954   23914590.6884
         6.5004          7.0004
  -3345280.41943  -2469496.63255  25045747.7584   25045765.8794
         5.7504          6.0004
  24419494.34742  19635009.06944  24388999.8914   24389040.3324
         4.5004          4.0004
 03 10 30  0 26  0.0000000  0  8G28G 7G 9G 4G 8G26G 5G29
  23912595.51546  18714323.62846  22181982.2344   22181984.2974
        14.5004         12.7504
   4073105.74747   3251263.36046  20811215.5474   20811219.0164
        21.0004         22.7504
  -9758955.02146  -6287954.51646  21542970.0234   21542974.0904
        17.0004         16.5004
  -8746600.09046  -6719769.49246  22136158.4694   22136165.4804
        14.0004         12.5004
   3199343.84243   -257182.72145  24598043.9694   24598074.9264
         5.0004          5.0004
  19800996.35743  15529583.51145  23940958.0474   23940989.6724
         6.7504          5.7504
  -3384643.74043  -2500169.06745  25038257.5634   25038275.6024
         5.5004          6.2504
  24561803.89941                  24416075.8444
         3.0004
 03 10 30  0 26 30.0000000  0  8G28G 7G 9G 4G 8G26G 5G29
  24023441.74046  18800697.31346  22203075.5474   22203078.3484
        14.2504         13.2504
   4163234.11247   3321493.27746  20828366.5474   20828370.2034
        21.0004         22.2504
  -9764982.98646  -6292651.52446  21541822.6804   21541826.4184
        17.2504         16.2504
  -8779562.32746  -6745453.83346  22129885.5084   22129892.4024
        13.7504         12.2504
   3369190.69242   -124835.21844  24630366.3674   24630392.4384
         4.5004          4.2504
  19939827.21143  15637763.11245  23967377.6174   23967408.6214
         6.5004          6.7504
  -3424072.30943  -2530892.46645  25030753.2194   25030771.4694
         5.0004          5.2504
  24704101.19542                  24443162.3984
         4.5004
 03 10 30  0 27  0.0000000  0  8G28G 7G 9G 4G 8G26G 5G29
  24134439.43946  18887189.05746  22224197.3284   22224199.6254
        14.0004         13.0004
   4253600.73647   3391908.85646  20845562.6174   20845565.8874
        21.0004         22.7504
  -9770579.40046  -6297012.24346  21540757.5864   21540760.9144
        17.5004         16.2504
  -8812214.09646  -6770896.30446  22123671.1954   22123678.1024
        13.2504         12.0004
   3539061.36842      7530.79944  24662691.9064   24662723.7544
         4.0004          4.2504
  20078766.19743  15746026.86545  23993815.4304   23993848.6254
         6.5004          7.0004
  -3463566.93342  -2561667.32445  25023238.8204   25023256.7894
         4.5004          5.5004
  24846381.28642                  24470234.5474
         4.7504
 03 10 30  0 27 30.0000000  0  8G28G 7G 9G 4G 8G26G 5G29
  24245592.77146  18973802.11646  22245349.5314   22245351.3364
        14.0004         12.7504
   4344208.54147   3462512.37346  20862804.3754   20862807.9844
        21.2504         22.7504
  -9775737.67946  -6301031.64546  21539776.1564   21539780.1884
        17.0004         16.2504
  -8844547.68246  -6796090.88646  22117518.7504   22117525.6214
        14.0004         12.5004
   3708958.27241                  24695023.1724
         3.2504
  20217814.82343  15854376.03645  24020274.6564   24020306.2234
         6.7504          6.5004
  -3503122.66342  -2592489.97844  25015709.9224   25015732.3014
         4.0004          4.2504
  24988645.30242  -2377608.78954  24497307.2894   24497350.8834
         4.0004          4.2504
 03 10 30  0 28  0.0000000  0  8G28G 7G 9G 4G 8G26G 5G29
  24356895.52246  19060531.50446  22266529.7194   22266531.5234
        14.2504         12.2504
   4435049.73447   3533297.75546  20880091.0084   20880094.5704
        21.0004         22.5004
  -9780461.88846  -6304712.78646  21538876.6884   21538880.7774
        17.0004         16.2504
  -8876566.52146  -6821040.25946  22111424.6094   22111431.3714
        13.5004         13.0004
   3878872.89541                  24727356.3524
         2.5004
  20356963.65344  15962803.33445  24046757.1484   24046789.0204
         7.0004          7.5004
  -3542745.41141  -2623364.74244  25008171.8134   25008188.3164
         3.2504          4.2504
  25130884.17342  -2266774.13645  24524375.2424   24524420.8284
         4.0004          5.0004
 03 10 30  0 28 30.0000000  0  8G28G 7G 9G 4G 8G26G 5G29
  24468355.12746  19147383.16446  22287739.7114   22287741.1764
        14.0004         12.7504
   4526130.16347   3604269.52946  20897423.4144   20897426.6844
        21.0004         22.0004
  -9784742.53546  -6308048.17646  21538062.1884   21538065.5634
        17.5004         16.7504
  -8908260.32346  -6845736.41846  22105393.7814   22105400.6524
        14.2504         13.0004
                                  24759694.2194
         2.0004
  20496216.94543  16071312.00545  24073252.3594   24073281.1484
         6.2504          5.5004
  -3582427.33041                  25000621.5784
         2.7504
  25273102.47741  -2155955.73344  24551437.1254   24551482.3244
         3.7504          4.7504
 03 10 30  0 29  0.0000000  0  7G28G 7G 9G 4G26G 5G29
  24579960.63646  19234348.53146  22308977.5554   22308979.7464
        13.7504         13.0004
   4617437.49347   3675418.14646  20914798.1254   20914801.4414
        21.0004         22.2504
  -9788588.58646  -6311045.04146  21537330.3364   21537334.1564
        17.7504         17.0004
  -8939636.90146  -6870185.44846  22099423.1414   22099429.2704
        15.0004         13.0004
  20635560.75143  16179891.23245  24099771.1954   24099804.4614
         6.7504          7.0004
                                  24993056.0944
         2.0004
  25415285.79742  -2045164.76743  24578495.9454   24578552.1414
         4.0004          3.2504
 03 10 30  0 29 30.0000000  0  6G28G 7G 9G 4G26G29
  24691715.16246  19321430.00146  22330243.5084   22330245.2074
        13.5004         13.0004
   4708973.54647   3746744.92446  20932216.9774   20932220.2464
        21.0004         22.2504
  -9791994.10346  -6313698.41046  21536682.1954   21536685.2544
        17.5004         16.5004
  -8970689.89746  -6894382.40946  22093513.3524   22093519.3054
        14.5004         12.7504
  20774995.17443  16288541.04045  24126305.8914   24126337.4104
         6.5004          6.0004
  25557435.36542                  24605548.8444
         4.5004
 03 10 30  0 30  0.0000000  0  6G28G 7G 9G 4G26G29
  24803619.08446  19408627.87246  22351538.0164   22351539.3754
        13.7504         13.0004
   4800737.38847   3818249.27846  20949678.9614   20949682.2194
        21.0004         22.0004
  -9794957.30646  -6316007.33546  21536118.1564   21536121.6724
        17.2504         16.5004
  -9001416.06946  -6918324.73346  22087665.9844   22087672.1484
        14.0004         12.5004
  20914517.65943  16397259.47845  24152855.5554   24152885.7854
         6.2504          6.5004
  25699548.11242                  24632591.5164
         4.0004
 03 10 30  0 30 30.0000000  0  7G28G 7G 9G 4G26G 5G29
  24915677.19746  19495945.89346  22372862.1174   22372864.4264
        14.2504         12.7504
   4892731.77547   3889933.26746  20967185.0314   20967188.0434
        21.0004         21.7504
  -9797470.79046  -6317965.71546  21535639.7114   21535643.4844
        17.7504         17.0004
  -9031807.87246  -6942006.55246  22081883.1724   22081888.8444
        15.2504         12.7504
  21054129.64243  16506047.65345  24179424.0704   24179454.3834
         6.2504          6.0004
                                  24970290.0394
         3.5004
  25841625.77942  -2410923.98454  24659629.8054   24659673.4104
         4.2504          4.0004
 03 10 30  0 31  0.0000000  0  7G28G 7G 9G 4G26G 5G29
  25027887.88546  19583382.82946  22394214.9694   22394217.1844
        13.5004         12.7504
   4984953.92947   3961794.76646  20984734.3594   20984737.4654
        21.0004         22.0004
  -9799534.46346  -6319573.60146  21535247.0634   21535250.7424
        18.2504         17.5004
  -9061863.73246  -6965426.61046  22076163.4224   22076169.6094
        15.0004         13.0004
  21193826.56243  16614902.04045  24206006.1804   24206038.0864
         5.5004          5.5004
  -3189505.94543                  24962678.3834
         5.0004
  25983663.83541                  24686656.7424
         3.7504
 03 10 30  0 31 30.0000000  0  7G28G 7G 9G 4G26G 5G29
  25140244.91746  19670933.76346  22415595.8134   22415598.1804
        13.5004         12.7504
   5077396.17547   4033827.71846  21002325.3834   21002328.5824
        21.0004         22.0004
  -9801152.46546  -6320834.33846  21534938.9144   21534942.4884
        17.7504         17.5004
  -9091587.01146  -6988587.55646  22070507.0554   22070513.0084
        14.5004         13.0004
  21333599.33543  16723815.47145  24232604.1644   24232640.6684
         5.5004          5.5004
  -3229570.68743                  24955056.2424
         6.2504
  26125653.38042                  24713679.9844
         4.2504
 03 10 30  0 32  0.0000000  0  7G28G 7G 9G 4G26G 5G29
  25252751.60546  19758601.28446  22437005.2974   22437007.2424
        13.5004         12.5004
   5170060.32747   4106033.58446  21019958.9224   21019962.1334
        21.0004         21.7504
  -9802319.31746  -6321743.57946  21534716.5864   21534720.5944
        17.5004         17.2504
  -9120971.53146  -7011484.51246  22064915.0634   22064920.8634
        14.0004         12.7504
  21473448.02243  16832788.10945  24259217.1564   24259251.7034
         5.7504          5.2504
  -3269696.46543                  24947418.9844
         6.7504
  26267594.68242                  24740693.4304
         4.2504
 03 10 30  0 32 30.0000000  0  7G28G 7G 9G 4G26G 5G29
  25365405.89946  19846383.85446  22458443.1254   22458444.6484
        13.5004         12.7504
   5262942.77847   4178409.54346  21037633.4694   21037636.5274
        21.0004         21.7504
  -9803034.78546  -6322301.06246  21534580.4384   21534584.6334
        18.0004         17.2504
  -9150016.45146  -7034116.87446  22059388.6094   22059393.9184
        14.7504         13.2504
  21613367.49743  16941815.82945  24285844.8834   24285879.2664
         5.7504          6.2504
  -3309884.89944  -2459377.17655  24939772.7664   24939789.5744
         7.5004          6.2504
  26409483.01341                  24767687.4304
         3.0004
 03 10 30  0 33  0.0000000  0  7G28G 7G 9G 4G26G 5G29
  25478212.69946  19934285.25546  22479909.5164   22479910.9924
        13.5004         12.7504
   5356046.96947   4250958.22846  21055350.6024   21055354.0704
        20.7504         21.5004
  -9803291.93446  -6322501.30346  21534531.5314   21534535.3054
        18.0004         17.2504
  -9178713.76946  -7056478.40946  22053927.4844   22053933.4964
        15.0004         12.5004
  21753359.69943  17050900.44345  24312483.7274   24312514.2854
         6.0004          5.7504
  -3350130.53444  -2490738.09745  24932114.6334   24932134.9454
         7.2504          5.7504
  26551319.73941                  24794684.9924
         3.7504
 03 10 30  0 33 30.0000000  0  8G24G28G 7G 9G 4G26G 5G29
  -3160606.48851                  24621166.6724
         3.2504
  25591164.97746  20022300.00746  22501403.0004   22501404.4654
        13.5004         12.5004
   5449364.74547   4323673.42446  21073108.3594   21073111.5704
        20.5004         21.5004
  -9803095.76546  -6322348.39046  21534568.7734   21534572.0204
        18.2504         17.5004
  -9207067.49446  -7078572.18746  22048531.4924   22048537.2344
        14.2504         13.0004
  21893414.75843  17160033.86145  24339136.3594   24339166.2624
         6.2504          6.2504
  -3390439.40943  -2522148.22345  24924444.3134   24924467.0904
         6.5004          6.2504
  26693095.31941                  24821665.4144
         3.7504
 03 10 30  0 34  0.0000000  0  8G24G28G 7G 9G 4G26G 5G29
  -3219237.43442                  24610007.3984
         4.0004
  25704261.45446  20110427.12546  22522924.9534   22522926.8754
        13.5004         12.7504
   5542893.10347   4396552.71646  21090906.4454   21090909.6804
        20.5004         21.2504
  -9802445.72046  -6321841.88746  21534692.6724   21534696.1054
        18.2504         17.5004
  -9235076.18446  -7100397.09246  22043201.5944   22043207.0314
        14.5004         13.5004
  22033528.18343  17269212.86945  24365796.7344   24365831.3754
         5.7504          6.2504
  -3430812.44143  -2553608.37645  24916763.0394   24916784.3054
         5.5004          6.7504
  26834805.63542                  24848636.2664
         4.2504
 03 10 30  0 34 30.0000000  0  8G24G28G 7G 9G 4G26G 5G29
  -3277910.01743                  24598839.9304
         5.0004
  25817507.26146  20198670.60446  22544474.6724   22544477.3554
        13.5004         12.7504
   5636635.92547   4469599.14346  21108744.5864   21108747.9264
        20.5004         21.5004
  -9801334.31446  -6320975.89746  21534904.3984   21534908.2194
        18.5004         17.7504
  -9262731.68946  -7121946.78446  22037939.3364   22037944.4454
        15.0004         13.5004
  22173702.00243  17378438.91145  24392471.2274   24392505.6094
         5.5004          6.2504
  -3471243.78942  -2585113.96345  24909068.7194   24909086.1724
         4.2504          5.7504
  -3098914.81651  -2436812.21654  24875585.9844   24875634.4574
         3.0004          4.2504
 03 10 30  0 35  0.0000000  0  8G24G28G 7G 9G 4G26G 5G29
  -3336631.24743                  24587663.6024
         5.2504
  25930892.55046  20287022.79246  22566051.3914   22566053.4064
        13.2504         12.7504
   5730581.68147   4542803.62446  21126622.0864   21126625.3324
        20.2504         21.2504
  -9799769.48046  -6319756.52646  21535202.0004   21535205.4224
        18.5004         17.7504
  -9290040.79546  -7143226.58746  22032742.7194   22032748.1684
        15.7504         13.5004
  22313923.44943  17487702.07445  24419155.1954   24419188.9414
         5.5004          5.2504
  -3511742.29941  -2616671.90645  24901362.6484   24901386.4224
         3.7504          5.7504
  -2957343.18142  -2326498.06743  24902529.5784   24902578.3914
         4.5004          3.2504
 03 10 30  0 35 30.0000000  0  8G24G28G 7G 9G 4G26G 5G29
  -3395389.75943  -2458251.82555  24576479.6254   24576530.0204
         5.5004          5.7504
  26044426.30746  20375490.66546  22587655.9224   22587657.8324
        13.2504         12.2504
   5824738.09447   4616172.30046  21144539.5944   21144542.7234
        20.2504         21.2504
  -9797740.26546  -6318175.26446  21535588.0864   21535591.1914
        18.5004         17.7504
  -9316992.04646  -7164227.48346  22027613.6564   22027619.0704
        15.5004         13.5004
  22454198.30643  17597006.73445  24445851.6804   24445885.2974
         5.7504          5.0004
  -3552298.22141  -2648274.72544  24893644.9064   24893665.8674
         2.7504          4.7504
  -2815841.12241  -2216237.94944  24929454.6724   24929508.6414
         3.7504          4.0004
 03 10 30  0 36  0.0000000  0  8G24G28G 7G 9G 4G26G 5G29
  -5029607.54743  -3731665.02745  24265496.3914   24265544.3324
         6.2504          6.5004
  24582689.48046  19236475.02846  22309496.8444   22309498.5784
        13.2504         12.0004
   4343683.79447   3462103.99346  20862704.4144   20862707.5664
        20.2504         21.5004
 -11370667.36746  -7543832.61146  21236269.9614   21236273.5354
        18.5004         17.7504
 -10919006.16946  -8412550.07346  21722760.7034   21722766.6454
        15.2504         14.0004
  21019105.52843  16478752.26045  24172762.0234   24172797.9414
         5.5004          6.0004
                                  24586122.0554
         1.2504
  -4249829.46441  -3333632.61144  24656578.7344   24656626.8204
         3.7504          4.5004
 03 10 30  0 36 30.0000000  0  7G24G28G 7G 9G 4G26G29
  -5088436.19443  -3777502.30645  24254298.5864   24254346.6954
         5.7504          5.7504
  24696515.60846  19325170.84646  22331156.9774   22331158.8164
        13.2504         12.2504
   4438252.48347   3535793.89946  20880699.7974   20880703.2074
        20.2504         21.2504
 -11367707.58346  -7541526.02846  21236833.1094   21236836.3554
        18.2504         17.7504
 -10945237.09046  -8432989.54346  21717769.3364   21717774.8444
        15.7504         14.5004
  21159473.94943  16588129.88445  24199472.7274   24199507.4024
         5.7504          5.7504
  -4108479.61541                  24683475.4534
         3.2504
 03 10 30  0 37  0.0000000  0  7G24G28G 7G 9G 4G26G29
  -5147302.65143  -3823369.05744  24243094.5394   24243138.7774
         5.0004          4.7504
  24810480.84146  19413974.90546  22352843.8364   22352846.0164
        12.7504         12.0004
   4533018.27947   3609637.42946  20898733.2504   20898736.2734
        20.2504         21.5004
 -11364287.06846  -7538860.56446  21237483.5784   21237486.8714
        18.2504         18.0004
 -10971110.47046  -8453150.51146  21712844.9064   21712851.1414
        15.7504         13.5004
  21299877.72143  16697534.97045  24226189.3674   24226221.9534
         5.5004          5.7504
  -3967217.21941                  24710358.1564
         3.2504
 03 10 30  0 37 30.0000000  0  8G24G28G 7G 9G 4G26G 5G29
  -5206198.74042  -3869258.96643  24231884.4454   24231943.8634
         4.2504          3.7504
  24924590.61846  19502891.62546  22374558.6024   22374560.1134
        12.5004         12.0004
   4627985.03347   3683637.54946  20916805.0234   20916808.5514
        20.2504         21.0004
 -11360398.38146  -7535830.35346  21238223.7894   21238227.3984
        18.5004         18.0004
 -10996618.37346  -8473026.55646  21707990.7424   21707996.9414
        15.2504         13.7504
  21440319.07843  16806969.36945  24252916.6484   24252942.3094
         5.0004          5.0004
  -4749384.07753                  24562870.7734
         5.0004
  -3826039.35641                  24737221.9614
         3.0004
 03 10 30  0 38  0.0000000  0  8G24G28G 7G 9G 4G26G 5G29
  -5265124.89141  -3915172.31442  24220668.9384   24220712.9184
         3.2504          2.7504
  25038841.81846  19591918.54545  22396299.5634   22396302.0594
        12.5004         11.2504
   4723148.22647   3757790.73746  20934913.6334   20934917.1134
        20.5004         21.0004
 -11356042.75846  -7532436.26046  21239052.2344   21239055.4574
        18.2504         18.0004
 -11021760.75046  -8492617.64446  21703206.4694   21703211.9184
        15.0004         14.2504
  21580792.00742  16916428.55644  24279646.7974   24279683.7234
         4.7504          4.7504
  -4790240.41343                  24555098.3204
         5.7504
  -3684952.12541                  24764073.6174
         2.7504
 03 10 30  0 38 30.0000000  0  8G24G28G 7G 9G 4G26G 5G29
  -5324072.43241                  24209448.6024
         2.7504
  25153240.11946  19681060.14845  22418068.9924   22418070.6914
        12.5004         11.5004
   4818511.95147   3832100.19346  20953061.2194   20953064.4414
        20.5004         21.0004
 -11351212.59846  -7528672.41446  21239971.0554   21239974.4654
        18.0004         18.0004
 -11046529.51146  -8511917.67146  21698492.5084   21698498.0984
        15.7504         14.5004
  21721299.10843  17025914.27144  24306384.5084   24306417.7734
         5.0004          4.5004
  -4831150.63743  -3690241.75155  24547314.0394   24547338.7274
         6.0004          5.2504
  -3543953.11341                  24790907.4534
         3.5004
 03 10 30  0 39  0.0000000  0  8G24G28G 7G 9G 4G26G 5G29
  -5383044.67941                  24198224.5554
         3.7504
  25267779.39546  19770311.57945  22439864.8134   22439865.6914
        12.5004         11.0004
   4914069.07347   3906560.41346  20971244.9304   20971248.2114
        20.5004         21.0004
 -11345911.85346  -7524541.87146  21240980.0314   21240983.4654
        18.5004         18.2504
 -11070927.52646  -8530928.75446  21693849.5004   21693855.3834
        15.0004         13.5004
  21861831.36643  17135419.48445  24333128.9694   24333158.0514
         5.5004          5.7504
  -4872120.04043  -3722166.85744  24539518.5394   24539543.6844
         5.7504          4.2504
  -3403050.85641                  24817722.0394
         3.2504
 03 10 30  0 39 30.0000000  0  8G24G28G 7G 9G 4G26G 5G29
  -5442037.31943                  24186996.9304
         5.0004
  25382461.49746  19859674.30645  22461688.3914   22461690.4884
        12.2504         11.0004
   5009819.59747   3981171.23946  20989465.7034   20989468.9964
        20.2504         21.0004
 -11340136.81246  -7520041.73546  21242079.3674   21242083.1884
        19.0004         18.2504
 -11094950.49746  -8549647.51546  21689277.8834   21689283.0744
        15.7504         14.7504
  22002387.56743  17244943.48944  24359874.2664   24359909.0594
         5.2504          4.5004
  -4913146.26643  -3754136.24943  24531711.6724   24531738.7734
         5.2504          3.7504
  -3262246.43341                  24844512.0944
         2.7504
 03 10 30  0 40  0.0000000  0  8G24G28G 7G 9G 4G26G 5G29
  -5501047.99143                  24175765.3054
         6.2504
  25497285.52246  19949147.62545  22483538.8134   22483541.2154
        12.0004         10.5004
   5105761.42147   4055931.14946  21007722.8204   21007725.7384
        20.2504         21.0004
 -11333886.42646  -7515171.16946  21243268.0004   21243270.8364
        18.5004         18.0004
 -11118596.45846  -8568072.55346  21684778.3134   21684783.1764
        15.7504         14.0004
  22142964.01843  17354483.06645  24386627.7114   24386659.2664
         5.7504          5.0004
  -4954229.20442  -3786150.01544  24523894.0234   24523910.8324
         4.2504          4.0004
                                  24871292.0084
         2.5004
 03 10 30  0 40 30.0000000  0  7G24G28G 7G 9G 4G26G 5
  -5560075.18943                  24164530.3364
         6.7504
  25612250.29545  20038730.63945  22505414.8914   22505416.9414
        11.7504         11.0004
   5201892.10947   4130838.26746  21026015.7894   21026018.6844
        20.2504         20.7504
 -11327160.32846  -7509929.98946  21244547.9614   21244551.1724
        18.7504         17.7504
 -11141863.81146  -8586202.65946  21680350.6094   21680355.2154
        17.5004         14.7504
  22283556.39343  17464035.23845  24413384.4534   24413416.5824
         6.2504          5.5004
  -4995369.54042  -3818208.22244  24516065.2814   24516082.0084
         4.0004          4.5004
 03 10 30  0 41  0.0000000  0  8G24G28G 7G 9G 4G26G 5G29
  -5619119.62643                  24153292.1884
         6.2504
  25727352.58545  20128420.74045  22527318.6644   22527320.2344
        11.7504         10.7504
   5298206.73447   4205888.67546  21044343.5554   21044346.7774
        20.2504         20.7504
 -11319959.75146  -7504319.07146  21245918.3054   21245921.4344
        19.0004         18.2504
 -11164753.29146  -8604038.27346  21675994.5084   21675999.2774
        16.7504         14.5004
  22424158.51043  17573594.87545  24440138.0084   24440173.4924
         5.7504          6.2504
  -5036569.39342  -3850312.81444  24508226.8204   24508249.2704
         4.0004          4.5004
  -4618568.12252                  24924782.9844
         4.0004
 03 10 30  0 41 30.0000000  0  8G24G28G 7G 9G 4G26G 5G29
  -5678178.97143                  24142051.0944
         6.0004
  25842591.50045  20218217.32345  22549247.8204   22549249.6724
        11.2504         10.5004
   5394703.22447   4281080.82246  21062706.1484   21062708.9844
        20.0004         20.7504
 -11312283.74746  -7498337.68346  21247378.9844   21247382.1954
        19.2504         18.2504
 -11187262.78946  -8621577.82246  21671710.6414   21671715.7624
        17.0004         14.7504
  22564766.64943  17683159.27045  24466896.8054   24466933.2734
         6.0004          5.7504
  -5077828.47242  -3882463.57145  24500376.1254   24500398.7384
         4.2504          5.0004
  -4478196.49941                  24951494.7734
         3.7504
 03 10 30  0 42  0.0000000  0  8G24G28G 7G 9G 4G26G 5G29
  -5737248.17842                  24130808.5314
         4.7504
  25957969.41645  20308122.20245  22571202.8364   22571204.4414
        11.2504         10.7504
   5491382.40947   4356415.25846  21081103.8364   21081107.1054
        20.2504         20.7504
 -11304128.19546  -7491982.63746  21248930.8984   21248933.8054
        18.7504         18.5004
 -11209387.10446  -8638817.18946  21667499.9454   21667504.6334
        16.0004         14.7504
  22705380.32243  17792727.99445  24493652.5704   24493683.0474
         5.5004          6.2504
  -5119143.67242  -3914657.86745  24492513.5084   24492541.5594
         4.7504          5.7504
  -4337940.21141                  24978187.8754
         3.2504
 03 10 30  0 42 30.0000000  0  8G24G28G 7G 9G 4G26G 5G29
  -5796324.08142                  24119564.9614
         4.2504
  26073486.73345  20398135.75245  22593185.3984   22593188.6684
        11.2504         11.0004
   5588243.41747   4431891.41546  21099535.6024   21099538.6374
        20.2504         20.5004
 -11295490.82146  -7485252.14246  21250574.5314   21250577.7304
        18.7504         18.2504
 -11231123.27646  -8655754.13746  21663363.4534   21663367.8594
        16.5004         14.5004
  22845996.70143  17902298.82645  24520409.9614   24520442.1024
         5.0004          6.0004
  -5160513.71543  -3946894.83945  24484642.4614   24484667.7934
         5.7504          6.2504
  -4197801.31441                  25004857.3524
         3.2504
 03 10 30  0 43  0.0000000  0  8G24G28G 7G 9G 4G26G 5G29
  -5855407.05842                  24108320.9224
         4.0004
  26189140.16245  20488255.36945  22615193.4384   22615194.7274
        11.5004         11.0004
   5685281.64247   4507505.71546  21118001.3984   21118004.5394
        20.2504         20.5004
 -11286373.11646  -7478147.36746  21252309.2194   21252312.5824
        18.7504         18.2504
 -11252471.58546  -8672388.77246  21659300.7194   21659306.0274
        16.2504         15.0004
  22986609.90743  18011867.18145  24547169.2194   24547207.2234
         5.2504          5.5004
  -5201941.01443  -3979176.36045  24476759.4924   24476786.5004
         6.0004          5.7504
  -4057786.04641                  25031501.7894
         3.2504
 03 10 30  0 43 30.0000000  0  8G24G28G 7G 9G 4G26G 5G29
  -5914489.99642  -3711955.55655  24097075.7814   24097112.1094
         4.5004          5.2504
  26304934.31245  20578484.60445  22637228.8444   22637231.7154
        11.5004         11.0004
   5782499.80547   4583260.10946  21136501.2274   21136504.1094
        20.2504         20.7504
 -11276769.28446  -7470663.81046  21254136.9774   21254140.2344
        19.2504         18.5004
 -11273424.92646  -8688715.53146  21655312.9534   21655317.5704
        16.0004         14.5004
  23127221.18343  18121433.93044  24573926.3834   24573960.8594
         5.0004          4.7504
  -5243420.37143  -4011498.35345  24468865.5084   24468888.6024
         6.0004          5.5004
  -3917892.90641                  25058123.1484
         3.2504
 03 10 30  0 44  0.0000000  0  8G24G28G 7G 9G 4G26G 5G29
  -5973571.66743  -3757990.92444  24085830.2114   24085863.9454
         5.0004          4.7504
  26420866.81645  20668821.66845  22659290.0864   22659291.8094
        11.2504         10.7504
   5879895.08447   4659152.62046  21155035.0314   21155037.5984
        20.2504         20.2504
 -11266678.92746  -7462801.13346  21256056.9454   21256060.1454
        18.7504         18.7504
 -11293982.61646  -8704734.05446  21651400.8364   21651405.7114
        16.2504         15.2504
  23267825.73443  18230995.62345  24600685.0164   24600719.2194
         5.7504          5.5004
  -5284952.40343  -4043861.18845  24460963.6564   24460985.1564
         6.0004          5.0004
  -3778126.33841                  25084721.4384
         3.0004
 03 10 30  0 44 30.0000000  0  8G24G28G 7G 9G 4G26G 5G29
  -6032651.57543  -3804024.92045  24074584.8984   24074621.6374
         5.2504          5.7504
  26536935.58745  20759264.88845  22681376.6094   22681377.4184
        11.2504         11.0004
   5977463.29647   4735179.71846  21173601.6484   21173604.7074
        20.0004         20.5004
 -11256102.64546  -7454559.80246  21258069.8444   21258072.8204
        19.0004         18.7504
 -11314144.17346  -8720443.75546  21647563.5004   21647567.8364
        15.7504         14.7504
  23408418.38543  18340547.91445  24627438.3984   24627475.8404
         5.2504          5.2504
  -5326538.98543  -4076266.31645  24453050.2424   24453073.3014
         5.5004          5.5004
  -4619224.13251                  25111294.6724
         2.5004
 03 10 30  0 45  0.0000000  0  8G24G28G 7G 9G 4G26G 5G29
  -6091725.73543  -3850054.53145  24063342.7734   24063381.2934
         5.2504          6.5004
  26653142.10445  20849815.51045  22703490.3134   22703491.8134
        11.7504         10.5004
   6075204.86647   4811342.01146  21192201.3594   21192204.3134
        20.2504         20.5004
 -11245037.60146  -7445937.63446  21260175.2504   21260178.4734
        19.2504         19.0004
 -11333906.07346  -8735842.17346  21643802.4844   21643806.7504
        16.5004         15.5004
  23548997.54942  18450089.68945  24654189.2894   24654222.1334
         4.5004          5.2504
  -5368177.12542  -4108711.51844  24445125.9924   24445147.2234
         4.2504          4.2504
  -4703024.79751                  25137843.2344
         3.0004
 03 10 30  0 45 30.0000000  0  8G24G28G 7G 9G 4G26G 5G29
  -6150799.38843  -3896083.88745  24052101.2194   24052136.1294
         6.7504          5.5004
  26769477.62945  20940466.64945  22725627.9224   22725629.0354
        11.5004         11.2504
   6173109.93447   4887631.71246  21210831.9614   21210834.8794
        20.0004         20.5004
 -11233490.50046  -7436939.86346  21262372.6414   21262375.7814
        19.5004         19.0004
 -11353273.86446  -8750933.49946  21640116.7114   21640121.0004
        17.2504         15.0004
  23689552.02742  18559612.27444  24680934.9224   24680971.1564
         4.2504          4.2504
  -5409874.91142  -4141202.90044  24437190.6484   24437218.6174
         4.0004          4.5004
  -4563666.34742                  25164362.8674
         4.0004
 03 10 30  0 46  0.0000000  0  8G24G28G 7G 9G 4G26G 5G29
  -6209873.53343  -3942113.68545  24040858.0944   24040886.8364
         6.0004          5.2504
  26885938.52345  21031215.46345  22747790.2734   22747792.1024
        11.5004         11.2504
   6271173.16646   4964044.64346  21229492.8914   21229495.6564
        19.7504         20.0004
 -11221463.45446  -7427568.09846  21264661.0084   21264664.1954
        19.2504         18.7504
 -11372248.62646  -8765718.53446  21636506.0784   21636509.8164
        17.2504         15.5004
  23830074.84743  18669110.16845  24707678.5634   24707714.9844
         5.0004          5.0004
  -5451635.00142  -4173742.63844  24429243.2424   24429269.4534
         4.0004          4.5004
  -4424458.32842                  25190854.7584
         4.2504
 03 10 30  0 46 30.0000000  0  8G24G28G 7G 9G 4G26G 5G29
  -6268946.47143  -3988142.66145  24029615.0314   24029649.6724
         6.5004          5.7504
  27002523.68445  21122061.08945  22769975.0164   22769977.0664
        11.2504         11.2504
   6369392.01546   5040578.83546  21248182.9534   21248186.1174
        19.5004         20.2504
 -11208955.87346  -7417821.90446  21267041.0944   21267044.0004
        19.2504         18.7504
 -11390829.22746  -8780196.52046  21632969.7114   21632973.2384
        17.7504         15.0004
  23970562.04742  18778580.28844  24734411.7504   24734450.2934
         4.7504          4.5004
  -5493457.49942  -4206330.77245  24421283.8204   24421312.3874
         4.0004          5.0004
  -4285404.64343                  25217317.2274
         5.0004
 03 10 30  0 47  0.0000000  0  8G24G28G 7G 9G 4G26G 5G29
  -6328020.71043  -4034172.65345  24018371.5864   24018405.9104
         6.5004          5.7504
  27119227.76545  21212999.38545  22792182.9304   22792184.4064
        11.0004         11.2504
   6467760.02646   5117229.26746  21266901.9144   21266904.9964
        19.5004         20.2504
 -11195971.44446  -7407704.12046  21269511.7814   21269514.9924
        19.2504         19.0004
 -11409017.97146  -8794369.24246  21629508.8524   21629512.3094
        18.0004         16.0004
  24111005.59842  18888016.42344  24761135.8054   24761178.4734
         4.2504          4.7504
  -5535346.58442  -4238970.52145  24413312.3674   24413338.8014
         4.5004          5.5004
  -4146513.13343                  25243750.8834
         5.2504
 03 10 30  0 47 30.0000000  0  8G24G28G 7G 9G 4G26G 5G29
  -6387093.97143  -4080201.91245  24007129.6174   24007162.8244
         6.2504          7.2504
  27236049.58945  21304029.43345  22814413.9534   22814415.4064
        11.2504         11.2504
   6566274.78446   5193994.01246  21285648.2894   21285651.3134
        19.5004         20.0004
 -11182509.55946  -7397214.27746  21272073.7114   21272076.8874
        19.5004         19.0004
 -11426813.62246  -8808235.68046  21626121.6094   21626125.5704
        17.0004         16.0004
  24251401.40043  18997415.30145  24787854.3754   24787891.3954
         5.0004          5.2504
  -5577302.99242  -4271662.67345  24405328.2034   24405353.8404
         4.7504          5.5004
  -4007787.66842                  25270150.0314
         4.0004
 03 10 30  0 48  0.0000000  0  8G24G28G 7G 9G 4G26G 5G29
  -6446162.67343  -4126227.52545  23995887.9694   23995921.4804
         5.5004          7.2504
  27352990.13345  21395151.98545  22836666.6094   22836668.2384
        11.0004         11.0004
   6664935.74746   5270872.71846  21304423.2974   21304426.3554
        19.5004         20.0004
 -11168567.88546  -7386350.60346  21274726.8204   21274730.0904
        19.7504         19.0004
 -11444212.56746  -8821793.05646  21622811.0474   21622815.2304
        17.7504         15.7504
  24391747.60642  19106775.54545  24814560.7194   24814592.9414
         4.2504          5.2504
  -5619324.18443  -4304404.68745  24397330.0704   24397357.8874
         5.0004          5.2504
  -3869229.73741                  25296517.1024
         3.7504
 03 10 30  0 48 30.0000000  0  8G24G28G 7G 9G 4G26G 5G29
  -6505222.38342  -4172246.12745  23984646.4844   23984681.5234
         4.5004          6.2504
  27470050.85045  21486368.14545  22858942.5554   22858943.8324
        10.7504         10.5004
   6763743.15046   5347865.49446  21323225.6174   21323228.5824
        19.5004         20.0004
 -11154143.11146  -7375110.47446  21277471.6724   21277474.7544
        19.2504         18.7504
 -11461210.50846  -8835037.99346  21619575.9304   21619579.3984
        17.5004         15.7504
  24532042.92342  19216095.99545  24841258.4304   24841297.4884
         4.5004          5.0004
  -5661407.40743  -4337194.84445  24389320.8674   24389344.2894
         5.7504          6.2504
  -3730840.12841                  25322853.7814
         3.2504
 03 10 30  0 49  0.0000000  0  7G24G28G 7G 9G 4G26G 5
  -6564272.91942  -4218257.63745  23973409.1094   23973440.3484
         4.7504          5.7504
  27587228.84845  21577675.71545  22881240.6564   22881243.9024
        10.7504         10.5004
   6862692.92746   5424969.26646  21342055.1174   21342058.2704
        19.5004         19.7504
 -11139236.63046  -7363494.99646  21280308.0704   21280311.3754
        19.5004         19.0004
 -11477807.94746  -8847970.89346  21616417.1484   21616420.6994
        18.0004         16.2504
  24672281.50443  19325372.49544  24867946.3364   24867985.5124
         5.2504          4.7504
  -5703554.42043  -4370034.31145  24381299.1564   24381325.8134
         5.7504          6.7504
 03 10 30  0 49 30.0000000  0  7G24G28G 7G 9G 4G26G 5
  -6623315.10843  -4264262.49545  23962173.0704   23962207.1334
         6.0004          6.7504
  27704520.49345  21669071.80745  22903560.7034   22903562.8484
        10.7504         10.5004
   6961779.83446   5502179.80446  21360910.7584   21360913.7344
        19.7504         19.7504
 -11123850.77046  -7351505.94646  21283236.0394   21283239.2624
        19.5004         19.0004
 -11494006.11046  -8860592.71046  21613334.7814   21613338.6484
        18.0004         16.2504
  24812456.92342  19434599.42143  24894619.7194   24894670.2304
         4.5004          3.7504
  -5745768.91243  -4402926.02345  24373262.9774   24373283.9614
         5.5004          6.2504
 03 10 30  0 50  0.0000000  0  7G24G28G 7G 9G 4G26G 5
  -6682345.45344  -4310258.21945  23950936.6484   23950970.8284
         7.0004          6.5004
  27821926.17345  21760556.80345  22925902.1254   22925903.9884
        10.5004         10.5004
   7061003.38346   5579496.93746  21379792.3914   21379795.3554
        19.2504         19.5004
 -11107983.10446  -7339141.47046  21286255.4224   21286258.6334
        19.5004         19.5004
 -11509801.92546  -8872901.04846  21610328.9774   21610332.5864
        18.5004         16.7504
  24952566.72242  19543775.49644  24921283.6954   24921320.7154
         4.7504          4.2504
  -5788048.64843  -4435868.29945  24365215.9454   24365235.8594
         5.5004          5.5004
 03 10 30  0 50 30.0000000  0  7G24G28G 7G 9G 4G26G 5
  -6741364.81644  -4356245.23145  23939704.8984   23939732.9494
         7.5004          6.0004
  27939442.27445  21852127.78945  22948264.5634   22948266.8954
        10.0004          9.7504
   7160358.41246   5656916.55846  21398698.7034   21398701.5274
        19.2504         19.2504
 -11091635.93646  -7326403.36446  21289366.2344   21289369.5394
        19.5004         19.2504
 -11525196.41346  -8884896.67346  21607399.1804   21607402.5084
        19.0004         17.0004
  25092604.32342  19652895.24645  24947932.9454   24947967.9734
         4.7504          5.5004
  -5830396.32443  -4468863.07245  24357155.1644   24357170.1454
         5.2504          5.0004
 03 10 30  0 51  0.0000000  0  7G24G28G 7G 9G 4G26G 5
  -6800367.29244  -4402219.04445  23928475.4454   23928503.0634
         7.2504          5.0004
  28057071.52845  21943786.96745  22970648.2664   22970651.5704
        10.0004          9.7504
   7259846.32846   5734439.66046  21417630.6884   21417633.5594
        19.2504         19.5004
 -11074804.88846  -7313288.21146  21292568.7424   21292571.9414
        19.7504         19.2504
 -11540184.35946  -8896575.54046  21604547.0234   21604550.6804
        18.2504         17.0004
  25232569.96742  19761958.82245  24974565.3204   24974597.0984
         4.7504          6.0004
  -5872807.82343  -4501907.12045  24349080.6334   24349097.9574
         5.5004          5.2504
 03 10 30  0 51 30.0000000  0  7G24G28G 7G 9G 4G26G 5
  -8434773.88243  -5675780.43945  23617457.7194   23617488.1954
         6.5004          6.0004
  26599395.86245  20807935.77845  22693262.4844   22693264.5824
         9.7504         10.0004
   5784047.18346   4584466.36546  21136795.6564   21136798.3874
        19.2504         19.2504
 -12632909.87446  -8527395.93746  20996071.0314   20996073.9144
        19.7504         19.7504
 -13130185.68546 -10135537.53846  21301980.0164   21301983.9414
        18.7504         17.2504
  23797043.31842  18643366.14845  24701395.6334   24701427.9844
         4.7504          5.2504
  -7490706.15443  -5762602.86445  24041201.8364   24041218.9024
         6.0004          5.5004
 03 10 30  0 52  0.0000000  0  7G24G28G 7G 9G 4G26G 5
  -8493742.35943  -5721727.52945  23606233.3834   23606260.5784
         6.2504          6.2504
  26717242.77245  20899764.51145  22715688.0474   22715689.1374
        10.0004          9.0004
   5883788.27646   4662186.70046  21155775.5314   21155778.3554
        19.2504         19.2504
 -12615115.29446  -8513529.99846  20999457.4694   20999460.6334
        19.5004         19.5004
 -13144361.74646 -10146583.77546  21299282.5864   21299285.8554
        19.0004         17.5004
  23936847.63142  18752304.09744  24728000.3364   24728035.7034
         4.7504          4.5004
  -7533251.87043  -5795751.01744  24033102.8204   24033118.0004
         6.5004          4.5004
 03 10 30  0 52 30.0000000  0  7G24G28G 7G 9G 4G26G 5
  -8552686.06143  -5767655.22745  23595015.0944   23595043.3554
         6.2504          6.2504
  26835201.75545  20991680.64245  22738134.4844   22738136.5124
        10.2504          9.7504
   5983657.88646   4740007.26546  21174780.4454   21174783.5514
        19.2504         19.2504
 -12596833.19946  -8499284.16546  21002936.4924   21002940.0314
        19.5004         19.5004
 -13158124.43246 -10157307.90746  21296663.1414   21296666.6684
        18.5004         17.0004
  24076570.75841  18861178.64944  24754588.0634   24754625.5744
         3.7504          4.7504
  -7575859.74843  -5828947.29745  24024991.7584   24025005.8134
         6.7504          5.2504
 03 10 30  0 53  0.0000000  0  7G24G28G 7G 9G 4G26G 5
  -8611613.41743  -5813570.14545  23583799.2814   23583826.0784
         6.2504          6.7504
  26953261.88845  21083675.55945  22760601.4224   22760603.4494
        11.0004          9.2504
   6083643.14346   4817917.80446  21193806.6174   21193809.5594
        19.2504         19.5004
 -12578073.64547  -8484666.29546  21006506.3914   21006509.2974
        20.0004         19.7504
 -13171482.91446 -10167717.07446  21294121.3054   21294124.5984
        18.7504         17.2504
  24216198.60542  18969979.33744  24781160.6024   24781197.0594
         4.2504          4.0004
  -7618541.19344  -5862201.02745  24016865.5704   24016880.1174
         7.0004          6.0004
 03 10 30  0 53 30.0000000  0  7G24G28G 7G 9G 4G26G 5
  -8670519.36343  -5859468.20345  23572588.0004   23572616.0984
         6.0004          6.5004
  27071424.92145  21175750.65145  22783086.3134   22783087.8014
        10.7504         10.5004
   6183744.60946   4895918.94246  21212855.2974   21212858.1094
        19.2504         19.5004
 -12558833.52247  -8469673.94746  21010167.7894   21010170.7544
        20.2504         19.7504
 -13184432.77346 -10177807.83746  21291657.3134   21291660.5354
        19.0004         17.5004
  24355730.05541  19078704.52044  24807712.0234   24807746.6994
         3.7504          4.2504
  -7661293.09643  -5895510.09645  24008727.5474   24008741.6134
         6.7504          7.0004
 03 10 30  0 54  0.0000000  0  7G24G28G 7G 9G 4G26G 5
  -8729397.13143  -5905344.33445  23561381.2894   23561406.2934
         5.5004          6.2504
  27189694.69645  21267908.95445  22805592.8984   22805593.7664
        11.2504         10.2504
   6283965.00946   4974012.73546  21231927.0084   21231929.9024
        19.2504         19.2504
 -12539107.27347  -8454302.81446  21013921.2274   21013924.1684
        20.0004         19.5004
 -13196967.62846 -10187575.22446  21289271.4454   21289274.9614
        18.5004         17.0004
  24495166.36242  19187355.65445  24834246.0394   24834283.9494
         4.0004          5.2504
  -7704110.66243  -5928870.64945  24000576.4384   24000590.0004
         6.5004          7.0004
 03 10 30  0 54 30.0000000  0  7G24G28G 7G 9G 4G26G 5
  -8788248.06842  -5951199.38945  23550179.3204   23550206.8554
         4.7504          6.2504
  27308066.90145  21360147.07745  22828117.9064   22828120.6374
        10.5004          9.7504
   6384298.69246   5052194.66346  21251019.6024   21251022.8364
        19.2504         19.2504
 -12518897.59546  -8438554.96946  21017767.0234   21017770.3984
        19.7504         19.5004
 -13209089.47946 -10197020.80046  21286964.7344   21286967.8754
        19.0004         17.5004
  24634500.46841  19295927.23143  24860758.2194   24860794.7464
         3.2504          3.7504
  -7746996.87343  -5962285.04945  23992412.4304   23992422.7114
         6.0004          7.0004
 03 10 30  0 55  0.0000000  0  7G24G28G 7G 9G 4G26G 5
  -8847069.33343  -5997031.28345  23538983.5004   23539009.1484
         5.0004          5.7504
  27426541.37845  21452464.90945  22850662.9924   22850664.1294
        10.7504          9.5004
   6484744.71146   5130464.38846  21270133.8134   21270136.6484
        19.2504         19.2504
 -12498203.62647  -8422429.76646  21021705.0944   21021708.1414
        20.2504         20.0004
 -13220796.09946 -10206142.83746  21284737.4384   21284740.3794
        19.2504         17.0004
  24773729.24542  19404416.42844  24887255.5164   24887293.7304
         4.2504          4.5004
  -7789950.89143  -5995752.49845  23984235.6884   23984246.4384
         5.5004          6.0004
 03 10 30  0 55 30.0000000  0  7G24G28G 7G 9G 4G26G 5
  -8905860.64544  -6042839.85245  23527795.7274   23527821.9144
         7.0004          6.7504
  27545115.64245  21544860.50845  22873227.1724   22873228.1684
        10.2504          9.7504
   6585299.22546   5208818.64746  21289268.6174   21289271.6054
        19.2504         19.0004
 -12477026.33047  -8405927.94846  21025735.0164   21025738.0634
        20.0004         19.7504
 -13232087.35046 -10214941.21846  21282588.5554   21282592.4224
        19.0004         17.2504
  24912847.83742  19512819.96443  24913729.1804   24913765.3794
         4.7504          3.5004
  -7832974.11043  -6029274.15145  23976046.2344   23976055.2734
         5.2504          6.0004
 03 10 30  0 56  0.0000000  0  7G24G28G 7G 9G 4G26G 5
  -8964627.81745  -6088629.64845  23516610.9384   23516636.9384
         8.5004          9.0004
  27663780.92745  21637327.03945  22895808.6564   22895810.1564
        10.5004          9.2504
   6685952.03546   5287249.48646  21308422.0004   21308424.9534
        19.0004         19.0004
 -12455373.07847  -8389055.25746  21029855.3914   21029858.4384
        20.0004         19.7504
 -13242969.89146 -10223421.12146  21280517.5234   21280520.8754
        18.7504         17.5004
  25051844.81642  19621128.74744  24940178.5004   24940216.7624
         4.0004          4.5004
  -7876074.08643  -6062856.17045  23967842.8674   23967848.1764
         5.5004          5.7504
 03 10 30  0 56 30.0000000  0  7G24G28G 7G 9G 4G26G 5
  -9023357.65045  -6134390.26245  23505432.2194   23505455.8404
         8.2504          9.0004
  27782547.78045  21729872.66945  22918409.1484   22918410.6844
        10.0004          9.7504
   6786712.52546   5365764.24546  21327596.2734   21327598.8054
        19.0004         19.0004
 -12433232.20947  -8371802.63246  21034068.6024   21034071.7194
        20.0004         19.7504
 -13253430.87046 -10231572.52346  21278527.6024   21278530.6844
        19.2504         17.2504
  25190727.67742  19729348.44845  24966609.1414   24966644.5904
         4.5004          5.2504
  -7919239.46043  -6096489.72545  23959627.6334   23959639.4734
         5.7504          6.2504
 03 10 30  0 57  0.0000000  0  7G24G28G 7G 9G 4G26G 5
  -9082055.88443  -6180126.33845  23494259.6954   23494281.7114
         6.7504          8.0004
  27901407.19545  21822490.52745  22941026.4534   22941027.9184
         9.5004          8.7504
   6887570.53646   5444354.96646  21346788.7894   21346791.4964
        18.7504         19.0004
 -12410611.04647  -8354175.73646  21038373.5234   21038376.2894
        20.0004         20.0004
 -13263476.81846 -10239400.54846  21276615.3134   21276619.0864
        18.7504         17.2504
  25329484.94842  19837470.28744  24993014.7664   24993059.3204
         4.7504          4.0004
  -7962477.49943  -6130180.13345  23951399.2114   23951404.4264
         6.0004          6.2504
 03 10 30  0 57 30.0000000  0  7G24G28G 7G 9G 4G26G 5
  -9140712.04043  -6225829.57545  23483095.4144   23483119.5394
         6.0004          6.0004
  28020366.56345  21915186.18845  22963663.7344   22963664.9774
         9.5004          8.7504
   6988532.01746   5523026.20946  21366001.0554   21366003.8554
        18.7504         18.5004
 -12387500.90147  -8336167.78846  21042770.8054   21042773.7814
        20.0004         19.5004
 -13273097.93846 -10246897.51946  21274784.3674   21274787.9184
        18.7504         17.5004
  25468121.46042  19945498.30644  25019395.8834   25019426.5474
         4.7504          4.2504
  -8005779.69043  -6163920.88045  23943157.3134   23943166.2584
         6.5004          6.2504
 03 10 30  0 58  0.0000000  0  7G24G28G 7G 9G 4G26G 5
  -9199322.94943  -6271497.65045  23471940.4224   23471961.5124
         6.2504          6.2504
  28139425.99745  22007959.86845  22986320.0784   22986322.4344
         9.7504          9.5004
   7089596.21246   5601777.50246  21385233.3054   21385235.9884
        18.7504         18.7504
 -12363900.73547  -8317778.00946  21047261.8524   21047264.8284
        20.0004         20.0004
 -13282291.85146 -10254061.59946  21273034.8054   21273038.1684
        18.5004         17.7504
  25606634.51042  20053429.84344  25045756.1954   25045791.5634
         4.5004          4.5004
  -8049144.64043  -6197710.67245  23934904.8754   23934912.4264
         6.7504          6.7504
 03 10 30  0 58 30.0000000  0  7G24G28G 7G 9G 4G26G 5
  -9257890.80144  -6317132.32145  23460793.6024   23460814.1994
         7.0004          6.7504
  28258580.66045  22100807.72245  23008994.3914   23008996.4884
         9.0004          8.7504
   7190757.09946   5680604.19146  21404483.3834   21404486.4184
        18.5004         18.7504
 -12339814.12447  -8299009.19146  21051845.5084   21051848.1564
        20.0004         20.0004
 -13291061.10046 -10260894.75346  21271366.3054   21271369.9264
        18.5004         17.7504
  25745016.46142  20161259.24744  25072089.3674   25072127.2774
         4.7504          4.5004
  -8092575.69043  -6231551.99345  23926640.1724   23926647.6764
         6.7504          7.2504
 03 10 30  0 59  0.0000000  0  7G24G28G 7G 9G 4G26G 5
  -9316416.26943  -6362733.91745  23449654.4844   23449674.0824
         6.7504          6.7504
  28377826.49445  22193726.63645  23031685.0314   23031686.8594
         8.2504          9.5004
   7292009.79246   5759502.44846  21423750.8594   21423753.8134
        18.2504         18.5004
 -12315243.33047  -8279863.09746  21056521.1254   21056524.4304
        20.0004         19.7504
 -13299407.28746 -10267398.24446  21269777.9224   21269781.2974
        19.2504         17.7504
  25883260.97943  20268981.55044  25098396.5634   25098431.2034
         5.0004          4.0004
  -8136074.90944  -6265446.15145  23918360.7504   23918368.9574
         7.0004          8.0004
 03 10 30  0 59 30.0000000  0  7G24G28G 7G 9G 4G26G 5
  -9374893.75543  -6408298.15345  23438523.6094   23438542.3404
         6.0004          6.5004
  28497166.07845  22286718.55245  23054394.8754   23054396.3634
         8.5004          9.2504
   7393355.41246   5838473.08746  21443036.4694   21443039.4104
        18.5004         18.2504
 -12290184.71547  -8260336.88746  21061289.7034   21061292.7274
        20.5004         20.2504
 -13307325.57246 -10273568.30046  21268271.2734   21268274.7194
        19.2504         17.5004
  26021367.92242  20376596.58244  25124678.6804   25124718.6174
         4.5004          4.5004
  -8179638.79243  -6299390.58345  23910069.6954   23910076.7774
         6.7504          6.7504
 03 10 30  1  0  0.0000000  0  7G24G28G 7G 9G 4G26G 5
  -9433321.40443  -6453823.56445  23427403.7344   23427424.0474
         6.0004          7.0004
  28616598.69845  22379782.98545  23077122.2424   23077124.0004
         8.2504          8.5004
   7494791.71846   5917514.41246  21462339.0004   21462341.8484
        18.5004         18.2504
 -12264638.42847  -8240430.65746  21066150.9064   21066154.0354
        20.0004         20.2504
 -13314815.14246 -10279404.27546  21266845.7894   21266848.9884
        19.2504         18.0004
  26159333.43141  20484101.44744  25150931.2114   25150969.4844
         3.2504          4.0004
  -8223267.50344  -6333385.59445  23901767.1024   23901774.1484
         7.2504          7.5004
 03 10 30  1  0 30.0000000  0  7G24G28G 7G 9G 4G26G 5
  -9491695.32844  -6499307.20145  23416294.8134   23416313.2034
         7.2504          7.2504
  28736124.75945  22472920.20645  23099867.2894   23099870.0084
         8.5004          9.5004
   7596318.19746   5996625.98046  21481658.5554   21481661.0984
        18.2504         18.0004
 -12238602.43947  -8220142.81746  21071105.1884   21071108.4924
        20.2504         20.0004
 -13321872.71246 -10284903.61646  21265502.4924   21265506.3714
        19.2504         18.0004
  26297155.69941  20591494.63144  25177160.9924   25177195.7734
         3.2504          4.2504
  -8266959.38344  -6367430.08045  23893452.0944   23893460.1254
         7.5004          7.5004
 03 10 30  1  1  0.0000000  0  7G24G28G 7G 9G 4G26G 5
  -9550012.45244  -6544746.57845  23405195.3674   23405213.8404
         7.7504          8.0004
  28855744.98544  22566130.86745  23122629.6954   23122632.0984
         7.7504          8.2504
   7697934.52746   6075807.56546  21500996.1334   21500998.9694
        18.2504         18.0004
 -12212075.06747  -8199472.10746  21076153.2814   21076156.3284
        20.2504         20.0004
 -13328495.47046 -10290064.13346  21264242.6414   21264245.7584
        19.7504         18.0004
  26434832.66841  20698774.54945  25203358.4064   25203406.9964
         3.7504          5.2504
  -8310712.09844  -6401522.05445  23885124.8984   23885131.2384
         7.5004          6.5004
 03 10 30  1  1 30.0000000  0  7G24G28G 7G 9G 4G26G 5
  -9608268.08345  -6590138.15145  23394107.6254   23394125.2544
         8.0004          7.7504
  28975460.45145  22659415.67245  23145412.1334   23145414.8874
         8.2504          8.7504
   7799640.86246   6155059.32546  21520349.8204   21520352.4574
        18.2504         18.0004
 -12185053.96747  -8178416.66946  21081295.1024   21081297.7274
        20.5004         20.2504
 -13334680.16446 -10294883.29246  21263065.5554   21263069.1174
        19.7504         18.2504
  26572363.11941  20805940.36644  25229530.6024   25229573.7154
         3.2504          4.5004
  -8354523.29644  -6435659.23845  23876787.3914   23876793.6604
         7.5004          7.0004
 03 10 30  1  2  0.0000000  0  7G24G28G 7G 9G 4G26G 5
  -9666462.36845  -6635481.89045  23383033.1954   23383050.0984
         8.7504          8.2504
  29095267.87445  22752772.15245  23168209.9774   23168213.1174
         8.2504          8.2504
   7901432.47946   6234377.45546  21539720.0084   21539722.4804
        18.2504         17.7504
 -12157541.36647  -8156978.22846  21086530.2814   21086533.4104
        20.0004         20.2504
 -13340427.93247 -10299361.96046  21261971.6564   21261974.6214
        20.0004         18.0004
  26709740.97641                  25255670.7664
         2.5004
  -8398394.73344  -6469843.43445  23868437.5314   23868440.2384
         7.2504          6.7504
 03 10 30  1  2 30.0000000  0  7G24G28G 7G 9G 4G26G 5
  -9724592.06345  -6680775.36845  23371968.7504   23371984.1414
         8.7504          8.5004
  29215167.68744  22846200.60145  23191025.7734   23191028.1174
         7.7504          8.5004
   8003309.18246   6313761.94946  21559106.7114   21559109.3594
        18.2504         18.0004
 -12129535.43447  -8135155.33246  21091859.8284   21091862.7584
        20.2504         20.2504
 -13345735.90547 -10303497.92746  21260961.6094   21260964.9384
        20.0004         18.7504
  26846964.18541                  25281787.2034
         3.7504
  -8442325.67043  -6504074.31945  23860076.8524   23860079.8054
         6.5004          6.0004
 03 10 30  1  3  0.0000000  0  7G24G28G 7G 9G 4G26G 5
  -9782656.72345  -6726018.30845  23360918.1804   23360932.5864
         9.0004          8.7504
  29335157.40645  22939699.11745  23213859.4844   23213861.1374
         8.0004          8.2504
   8105266.92346   6393209.56746  21578508.5164   21578511.3754
        18.2504         18.2504
 -12101037.85747  -8112949.35646  21097282.8364   21097285.5314
        20.2504         20.2504
 -13350604.91946 -10307291.85846  21260034.8364   21260037.7424
        19.7504         18.5004
  26984027.78742                  25307872.0784
         4.2504
  -8486317.13143  -6538352.74645  23851705.1024   23851711.1484
         6.2504          6.2504
 03 10 30  1  3 30.0000000  0  7G24G28G 7G 9G 4G26G 5
  -9840647.04244  -6771203.36445  23349879.4384   23349893.9494
         7.2504          8.7504
  29455243.41345  23033272.66245  23236710.8444   23236712.1334
         8.7504          8.7504
   8207311.25646   6472724.62846  21597927.0554   21597929.9964
        18.2504         17.7504
 -12072040.84047  -8090354.21546  21102800.4224   21102803.0944
        20.2504         20.0004
 -13355025.87046 -10310736.61946  21259193.2584   21259196.3524
        19.7504         18.7504
  27120935.55441                  25333924.8754
         3.7504
  -8530360.89243  -6572672.01645  23843323.1484   23843328.5514
         6.2504          6.7504
 03 10 30  1  4  0.0000000  0  7G24G28G 7G 9G 4G26G 5
  -9898565.40744  -6816332.36245  23338857.1484   23338873.5234
         7.7504          8.2504
  29575420.01645  23126916.85045  23259579.9064   23259582.3444
         8.7504          8.2504
   8309435.46546   6552301.96946  21617360.0164   21617362.7234
        18.0004         17.7504
 -12042549.24347  -8067373.68946  21108412.6334   21108415.3164
        20.2504         20.0004
 -13359002.78947 -10313835.37446  21258436.6804   21258439.9024
        20.0004         18.7504
  27257679.39141                  25359946.4694
         3.2504
  -8574461.53943  -6607035.99245  23834931.2114   23834935.8984
         6.7504          6.7504
 03 10 30  1  4 30.0000000  0  7G24G28G 7G 9G 4G26G 5
  -9956408.75245  -6861403.04445  23327848.8754   23327861.7234
         8.7504          8.2504
  29695687.18045  23220631.55345  23282466.6954   23282468.3834
         9.5004          8.5004
   8411638.37246   6631940.64746  21636809.4144   21636812.5554
        18.0004         18.0004
 -12012562.19547  -8044007.10246  21114118.9534   21114121.5084
        20.5004         20.0004
 -13362533.44647 -10316586.40046  21257764.6564   21257767.4454
        20.2504         18.7504
  27394256.36242                  25385936.5314
         4.0004
  -8618617.51244  -6641443.04045  23826528.2664   23826535.4654
         7.2504          6.2504
 03 10 30  1  5  0.0000000  0  7G24G28G 7G 9G 4G26G 5
 -10014173.60345  -6906412.56845  23316855.2504   23316869.2464
         8.0004          7.7504
  29816045.46845  23314417.24645  23305370.1884   23305371.9344
         9.5004          8.2504
   8513919.46746   6711640.25946  21656272.3204   21656274.9344
        17.7504         17.7504
 -11982077.88547  -8020253.06046  21119919.6724   21119922.6844
        20.5004         20.5004
 -13365615.37947 -10318987.76646  21257178.1724   21257181.2774
        20.2504         19.0004
  27530664.73042                  25411894.5634
         4.7504
  -8662826.85444  -6675891.60545  23818115.5554   23818119.3524
         7.2504          7.0004
 03 10 30  1  5 30.0000000  0  7G24G28G 7G 9G 4G26G 5
 -10071853.19943  -6951355.75645  23305876.9924   23305889.0204
         6.7504          8.0004
  29936498.85445  23408277.16545  23328290.9384   23328293.5744
         9.5004          8.2504
   8616281.34946   6791402.82546  21675751.2734   21675753.7584
        17.7504         17.7504
 -11951091.77247  -7996107.96746  21125816.1804   21125818.8754
        20.5004         20.5004
 -13368242.74147 -10321034.91646  21256678.2114   21256681.4454
        21.0004         19.0004
  27666905.76342                  25437822.0004
         4.2504
  -8707084.10744  -6710377.28845  23809693.4774   23809701.2384
         7.2504          6.0004
 03 10 30  1  6  0.0000000  0  7G24G28G 7G 9G 4G26G 5
 -10129445.67943  -6996231.11145  23294914.9224   23294923.9384
         6.7504          7.0004
  30057045.64045  23502209.67745  23351230.5554   23351232.7814
         9.2504          8.5004
   8718721.74046   6871226.56846  21695244.8364   21695247.3674
        17.7504         17.7504
 -11919604.29047  -7971572.22146  21131807.9694   21131810.3014
        20.2504         20.5004
 -13370414.64147 -10322727.14846  21256264.6094   21256267.6214
        20.5004         19.0004
  27802975.71941                  25463716.5394
         3.0004
  -8751389.52143  -6744900.67345  23801260.9534   23801267.5274
         6.7504          5.7504
 03 10 30  1  6 30.0000000  0  7G24G28G 7G 9G 4G26G 5
 -10186951.94645  -7041039.43345  23283971.6804   23283981.1054
         8.0004          6.7504
  30177682.02245  23596212.11545  23374185.8054   23374189.0634
         8.7504          8.7504
   8821235.63846   6951107.60046  21714752.5004   21714755.0664
        17.7504         17.7504
 -11887618.50647  -7946648.17546  21137894.5554   21137897.2384
        20.2504         20.2504
 -13372133.13547 -10324066.07146  21255937.5784   21255940.6604
        21.0004         19.5004
  27938868.09341                  25489576.0864
         3.2504
  -8795744.64843  -6779462.38645  23792820.3754   23792825.1914
         6.7504          6.5004
 03 10 30  1  7  0.0000000  0  7G24G28G 7G 9G 4G26G 5
 -10244365.52844  -7085775.55945  23273043.9694   23273056.4534
         7.7504          7.7504
  30298411.93645  23690287.47345  23397160.3914   23397160.7774
         9.0004          9.2504
   8923825.88946   7031048.10046  21734274.8444   21734277.6094
        17.7504         17.5004
 -11855129.42047  -7921331.96046  21144077.0864   21144079.7344
        20.2504         20.5004
 -13373392.53947 -10325047.25646  21255697.7274   21255700.7974
        21.2504         19.2504
  28074584.24742                  25515402.3134
         4.5004
  -8840144.90943  -6814059.06045  23784371.1644   23784377.2814
         6.7504          7.7504
 03 10 30  1  7 30.0000000  0  7G24G28G 7G 9G 4G26G 5
 -10301683.27445  -7130437.09045  23262136.0394   23262147.7384
         8.2504          8.2504
  30419235.20845  23784435.57145  23420152.2584   23420153.5234
         8.0004          8.2504
   9026491.40146   7111047.17446  21753811.6334   21753813.8714
        17.7504         17.2504
 -11822136.08447  -7895622.85046  21150355.6174   21150358.2074
        20.5004         20.2504
 -13374190.61247 -10325668.95046  21255545.8914   21255548.7974
        20.7504         19.2504
  28210121.79841                  25541195.3914
         3.7504
  -8884589.43444  -6848690.36245  23775912.8444   23775919.3364
         7.2504          7.7504
 03 10 30  1  8  0.0000000  0  7G24G28G 7G 9G 4G26G 5
 -10358901.67745  -7175021.25045  23251245.9694   23251255.6884
         8.5004          8.7504
  30540151.88945  23878656.44845  23443162.3284   23443165.5984
         8.0004          8.0004
   9129231.47846   7191104.44546  21773362.1884   21773364.6254
        17.7504         17.2504
 -11788637.76947  -7869520.25746  21156729.8594   21156732.5434
        20.5004         20.5004
 -13374525.56147 -10325929.75346  21255481.8834   21255484.9414
        21.2504         19.5004
  28345478.11841                  25566952.7584
         2.7504
  -8929077.55744  -6883356.00045  23767446.4064   23767451.3984
         7.5004          8.0004
 03 10 30  1  8 30.0000000  0  7G24G28G 7G 9G 4G26G 5
 -11991441.78145  -8447128.94045  22940583.2584   22940592.8134
         9.0004          8.5004
  29085744.35545  22745351.94145  23166397.1644   23166397.5044
         8.0004          8.2504
   7656626.34746   6043619.94346  21493134.4924   21493137.1524
        17.5004         17.0004
 -13330054.26347  -9070623.98346  20863408.2344   20863410.6604
        20.2504         20.2504
 -14949817.18647 -11553429.51746  20955713.4384   20955716.4964
        20.5004         19.5004
  26905233.63441                  25292882.7734
         3.0004
 -10549029.99545  -8145656.13745  23459179.7504   23459183.9344
         8.0004          8.5004
 03 10 30  1  9  0.0000000  0  7G24G28G 7G 9G 4G26G 5
 -12048458.14045  -8491555.82645  22929733.4144   22929742.6174
        10.0004          8.7504
  29206842.92143  22839714.44445  23189441.0474   23189441.9264
         6.7504          7.0004
   7759506.77846   6123786.46346  21512712.3754   21512714.9534
        17.0004         17.0004
 -13295548.60447  -9043736.42546  20869974.1174   20869976.8594
        20.5004         20.7504
 -14949225.02847 -11552967.89146  20955825.9774   20955828.7304
        20.7504         19.5004
  27040215.26842                  25318571.9694
         4.0004
 -10593604.29545  -8180388.91845  23450697.2344   23450700.3634
         8.2504          8.2504
 03 10 30  1  9 30.0000000  0  7G24G28G 7G 9G 4G26G 5
 -12105365.95645  -8535898.22045  22918902.6644   22918912.2074
         9.0004          9.0004
  29328034.96444  22934149.88345  23212504.5314   23212504.7544
         7.7504          7.5004
   7862458.86746   6204008.93046  21532303.3524   21532306.0124
        17.0004         16.7504
 -13260535.16247  -9016453.18746  20876637.2274   20876639.6414
        20.5004         20.5004
 -14948163.93747 -11552140.84846  20956027.5864   20956030.7034
        20.7504         20.0004
  27175008.70641                  25344224.7814
         3.7504
 -10638216.44045  -8215151.14945  23442207.6954   23442210.6254
         8.0004          8.0004
 03 10 30  1 10  0.0000000  0  7G24G28G 7G 9G 4G26G 5
 -12162163.33444  -8580154.60845  22908092.9384   22908103.8404
         7.5004          8.7504
  29449319.68943  23028657.50545  23235582.3984   23235582.5514
         6.5004          7.7504
   7965480.41446   6284285.45546  21551907.5004   21551909.7854
        17.0004         16.7504
 -13225014.21147  -8988774.50946  20883396.4304   20883398.8914
        20.5004         20.2504
 -14946632.69447 -11550947.46446  20956319.1174   20956321.7304
        21.2504         20.0004
                                  25369836.3674
         2.5004
 -10682866.13944  -8249942.51945  23433710.5314   23433713.7774
         7.5004          7.5004
 03 10 30  1 10 30.0000000  0  7G24G28G 7G 9G 4G26G 5
 -12218844.52045  -8624320.53845  22897305.6884   22897315.6994
         8.0004          9.0004
  29570699.07044  23123238.89445  23258680.9694   23258682.0124
         7.5004          8.5004
   8068573.07446   6364617.41146  21571525.1564   21571527.8524
        17.0004         16.7504
 -13188982.50047  -8960697.85346  20890253.3754   20890256.2814
        20.2504         20.2504
 -14944627.30347 -11549384.60246  20956700.3364   20956702.9144
        20.7504         19.7504
  -7800963.54951                  25395416.1884
         2.7504
 -10727549.69944  -8284760.22445  23425206.9384   23425210.0664
         7.5004          8.0004
 03 10 30  1 11  0.0000000  0  7G24G28G 7G 9G 4G26G 5
 -12275411.88745  -8668397.84645  22886541.3984   22886550.9064
         9.0004          9.5004
  29692168.51743  23217890.41545  23281795.5164   23281796.2664
         6.7504          7.0004
   8171730.71246   6444999.91646  21591156.0944   21591158.8954
        17.0004         16.7504
 -13152444.28647  -8932226.53146  20897205.9614   20897208.6914
        20.2504         20.5004
 -14942150.68947 -11547454.55946  20957171.6724   20957174.1914
        21.2504         20.0004
  -7666752.35341                  25420954.6644
         2.7504
 -10772270.72845  -8319607.30445  23416696.5234   23416700.0044
         8.0004          8.2504
 03 10 30  1 11 30.0000000  0  7G24G28G 7G 9G 4G26G 5
 -12331857.16345  -8712380.13645  22875799.3364   22875807.6024
         9.5004          9.2504
  29813733.06544  23312616.12145  23304928.9224   23304929.8364
         7.7504          8.5004
   8274957.48046   6525436.35046  21610799.3284   21610802.3404
        17.0004         16.7504
 -13115393.99047  -8903356.17846  20904256.6804   20904259.3404
        20.2504         20.5004
 -14939196.43647 -11545152.32346  20957733.6024   20957735.8754
        20.5004         19.7504
  -7532737.88042                  25446459.7664
         4.0004
 -10817022.67745  -8354478.55945  23408180.0554   23408184.8134
         8.2504          8.5004
 03 10 30  1 12  0.0000000  0  7G24G28G 7G 9G 4G26G 5
 -12388179.17545  -8756266.37445  22865081.4534   22865089.5434
         9.2504         10.0004
  29935390.68943  23407414.31045  23328079.5084   23328079.9884
         6.7504          7.5004
   8378250.37646   6605924.23046  21630455.4614   21630457.7114
        17.0004         16.5004
 -13077832.86647  -8874087.78446  20911404.1564   20911406.8284
        20.2504         20.5004
 -14935764.40747 -11542477.84446  20958386.6724   20958388.7584
        21.0004         20.0004
  -7398924.06142  -6110213.45255  25471925.7504   25471966.0274
         4.5004          5.0004
 -10861805.65145  -8389374.05245  23399658.4774   23399662.1564
         8.0004          8.5004
 03 10 30  1 12 30.0000000  0  7G24G28G 7G 9G 4G26G 5
 -12444370.38345  -8800050.76845  22854386.0554   22854394.3794
         8.2504          9.2504
  30057145.74744  23502288.40245  23351248.9224   23351250.0474
         7.2504          7.5004
   8481613.49046   6686466.94846  21650124.5554   21650126.7344
        16.7504         16.5004
 -13039755.66247  -8844417.24246  20918650.1174   20918652.7074
        20.2504         20.5004
 -14931848.40347 -11539426.23746  20959131.9224   20959134.4884
        21.2504         20.2504
  -7265308.81941  -6006099.07944  25497351.2814   25497395.9414
         2.7504          4.0004
 -10906613.71244  -8424289.05345  23391130.6174   23391133.4534
         7.2504          7.5004
 03 10 30  1 13  0.0000000  0  7G24G28G 7G 9G 4G26G 5
 -12500433.37245  -8843735.28845  22843717.8524   22843725.1914
         9.2504          8.5004
  30178992.33544  23597233.81845  23374435.6174   23374435.6994
         7.5004          8.0004
   8585039.79746   6767058.92446  21669805.6174   21669808.5124
        16.7504         16.5004
 -13001167.34547  -8814348.39346  20925993.3754   20925996.2234
        20.2504         20.2504
 -14927452.32947 -11536000.53746  20959968.0944   20959970.6374
        20.7504         19.7504
                                  25522742.3134
         2.5004
 -10951451.58243  -8459227.27645  23382597.7274   23382603.7274
         6.7504          7.2504
 03 10 30  1 13 30.0000000  0  7G24G28G 7G 9G 4G26G 5
 -12556366.18645  -8887318.46445  22833073.5084   22833081.6684
         9.5004          9.5004
  30300929.44243  23692249.71645  23397639.3204   23397640.2934
         6.7504          7.7504
   8688527.29646   6847698.51346  21689498.9064   21689501.8594
        16.7504         16.5004
 -12962068.19047  -8783881.46946  20933433.4924   20933436.2704
        20.2504         20.7504
 -14922575.45747 -11532200.18446  20960896.1414   20960898.4844
        21.0004         20.0004
  -7775004.36751                  25548087.5084
         3.2504
 -10996318.42544  -8494188.15445  23374059.8204   23374065.5164
         7.0004          7.5004
 03 10 30  1 14  0.0000000  0  7G24G28G 7G 9G 4G26G 5
 -12612164.86345  -8930797.19745  22822454.8984   22822460.7114
        10.0004          8.7504
  30422958.21544  23787337.05245  23420860.6724   23420860.6604
         7.5004          8.5004
   8792075.99346   6928385.83646  21709203.6334   21709206.1294
        16.7504         16.2504
 -12922456.88847  -8753015.48546  20940971.2584   20940974.1294
        20.2504         20.5004
 -14917215.25547 -11528023.22846  20961915.9064   20961918.2854
        20.7504         20.0004
  -7642017.02342                  25573396.6484
         4.7504
 -11041211.51044  -8529169.55245  23365516.9384   23365520.0554
         7.5004          8.0004
 03 10 30  1 14 30.0000000  0  6G24G28G 7G 9G 4G 5
 -12667825.01545  -8974168.03845  22811862.6884   22811869.3094
         9.2504          9.2504
  30545079.78744  23882496.71645  23444099.8524   23444100.8484
         7.7504          8.0004
   8895686.33946   7009121.18446  21728919.9924   21728922.7584
        16.7504         16.7504
 -12882331.82947  -8721749.17446  20948606.7504   20948609.1414
        20.5004         20.7504
 -14911368.77747 -11523467.34146  20963028.1954   20963030.5274
        20.7504         20.2504
 -11086128.34945  -8564169.50445  23356969.4224   23356973.8524
         8.0004          8.2504
 03 10 30  1 15  0.0000000  0  6G24G28G 7G 9G 4G 5
 -12723346.20545  -9017430.62245  22801296.1174   22801302.2704
         8.5004          9.0004
  30667291.47844  23977726.68445  23467355.5864   23467355.7154
         7.5004          8.0004
   8999354.82946   7089901.83946  21748647.6024   21748650.2974
        16.7504         16.2504
 -12841694.85947  -8690083.98346  20956339.4064   20956342.0554
        20.2504         20.5004
 -14905037.02247 -11518533.36846  20964232.7894   20964235.0274
        20.2504         20.0004
 -11131069.99245  -8599188.75445  23348417.0704   23348421.8984
         8.0004          7.7504
 03 10 30  1 15 30.0000000  0  6G24G28G 7G 9G 4G 5
 -12778721.03045  -9060579.16745  22790759.8594   22790764.9104
        10.0004          9.0004
  30789597.75945  24073030.24745  23490629.5554   23490630.8674
         8.7504          8.5004
   9103085.32346   7170730.87046  21768386.8754   21768389.7234
        16.7504         16.7504
 -12800540.63747  -8658015.74746  20964171.0634   20964173.9224
        20.2504         20.2504
 -14898213.74047 -11513216.38646  20965531.7034   20965533.6254
        21.0004         20.0004
 -11176030.03645  -8634222.35545  23339861.7814   23339864.1954
         8.0004          8.0004
 03 10 30  1 16  0.0000000  0  6G24G28G 7G 9G 4G 5
 -12833947.17145  -9103611.94145  22780249.8674   22780254.5554
         9.7504          9.2504
  30911997.96045  24168407.11645  23513921.8984   23513925.1334
         8.7504          8.2504
   9206876.01146   7251606.78146  21788137.5234   21788139.8914
        16.5004         16.2504
 -12758869.71547  -8625544.90746  20972100.7504   20972103.3404
        20.2504         20.5004
 -14890898.12747 -11507515.78646  20966923.2584   20966925.6024
        20.5004         20.5004
 -11221007.84644  -8669269.83945  23331301.8284   23331304.3714
         7.7504          7.0004
 03 10 30  1 16 30.0000000  0  6G24G28G 7G 9G 4G 5
 -12889026.75745  -9146530.55545  22769766.1254   22769774.4964
         8.5004          8.7504
  31034487.21544  24263853.39645  23537230.3524   23537231.8164
         7.5004          7.2504
   9310720.64646   7332524.67946  21807898.5634   21807901.2934
        16.2504         16.0004
 -12716686.46147  -8592674.84446  20980128.0554   20980130.6564
        20.2504         20.7504
 -14883093.65847 -11501434.25146  20968408.2034   20968409.9614
        20.7504         20.2504
 -11266007.18845  -8704334.05545  23322739.1644   23322741.9884
         8.2504          8.0004
 03 10 30  1 17  0.0000000  0  6G24G28G 7G 9G 4G 5
 -12943952.67045  -9189329.46045  22759314.8444   22759320.7504
         9.7504          9.5004
  31157069.24345  24359371.91245  23560557.3594   23560557.5124
         9.0004          7.7504
   9414622.88546   7413487.50146  21827670.3594   21827672.7734
        16.2504         16.0004
 -12673986.40747  -8559402.08446  20988253.5084   20988256.0274
        20.2504         20.5004
 -14874794.59647 -11494967.35446  20969987.5084   20969989.4414
        20.7504         20.2504
 -11311021.74445  -8739410.13945  23314173.1954   23314177.5084
         8.7504          8.5004
 03 10 30  1 17 30.0000000  0  6G24G28G 7G 9G 4G 5
 -12998721.97945  -9232006.34445  22748891.5084   22748898.1294
        10.2504         10.5004
  31279743.62744  24454962.40145  23583901.1644   23583902.8634
         7.7504          7.0004
   9518581.65046   7494494.37946  21847452.8284   21847455.5004
        16.0004         15.7504
 -12630769.27347  -8525726.40246  20996477.6334   20996480.0474
        20.7504         20.5004
 -14865999.82547 -11488114.20546  20971661.0314   20971663.1994
        20.5004         20.2504
 -11356050.45845  -8774497.29645  23305604.1484   23305608.6134
         9.0004          8.7504
 03 10 30  1 18  0.0000000  0  6G24G28G 7G 9G 4G 5
 -13053336.28646  -9274562.51545  22738500.2974   22738506.7424
        12.0004         10.5004
  31402505.58143  24550621.06445  23607261.9454   23607264.6644
         5.7504          6.2504
   9622590.78746   7575540.47246  21867245.5234   21867247.4454
        16.0004         15.7504
 -12587039.72347  -8491651.43846  21004799.0164   21004801.5594
        20.5004         21.0004
 -14856712.58647 -11480877.29146  20973428.1094   20973430.3244
        20.5004         20.2504
 -11401096.84945  -8809598.27445  23297032.0394   23297035.4024
         8.7504          9.0004
 03 10 30  1 18 30.0000000  0  6G24G28G 7G 9G 4G 5
 -13107791.66345  -9316994.87045  22728136.0554   22728142.2304
         9.5004          9.2504
  31525356.11744  24646348.85745  23630640.0164   23630641.8554
         7.5004          6.7504
   9726650.88546   7656626.27246  21887047.3284   21887049.3914
        16.0004         15.5004
 -12542796.13747  -8457175.93246  21013218.3914   21013221.0744
        20.7504         20.7504
 -14846930.13547 -11473254.48846  20975290.0554   20975292.0704
        21.0004         20.5004
 -11446157.91945  -8844710.65945  23288457.0864   23288460.1684
         8.7504          8.2504
 03 10 30  1 19  0.0000000  0  6G24G28G 7G 9G 4G 5
 -13162088.93845  -9359304.03845  22717805.0634   22717810.6764
        10.5004          9.7504
  31648290.81843  24742142.20643  23654032.5784   23654034.1954
         6.0004          3.7504
   9830756.85446   7737747.81746  21906857.9924   21906860.6174
        16.0004         15.2504
 -12498042.36247  -8422302.87046  21021734.9614   21021737.4574
        20.5004         20.7504
 -14836655.51047 -11465248.17546  20977244.9304   20977247.1094
        21.0004         20.5004
 -11491236.17045  -8879836.46545  23279878.6884   23279882.0634
         8.2504          8.7504
 03 10 30  1 19 30.0000000  0  6G24G28G 7G 9G 4G 5
 -13216222.08645  -9401485.39845  22707502.6954   22707507.7584
        10.7504         10.5004
  31771313.46042  24838003.97844  23677443.9774   23677445.9454
         4.5004          4.7504
   9934911.37446   7818907.16146  21926677.7274   21926680.3754
        15.7504         15.5004
 -12452774.51047  -8387029.19946  21030348.8204   21030351.7504
        20.5004         20.7504
 -14825883.30047 -11456854.11846  20979294.5704   20979296.6914
        20.7504         20.5004
 -11536326.29045  -8914971.55045  23271298.6564   23271301.9614
         8.7504          9.0004
 03 10 30  1 20  0.0000000  0  6G24G28G 7G 9G 4G 5
 -13270192.15345  -9443539.65445  22697232.4064   22697238.1254
        10.5004         10.0004
  31894419.77643  24933931.02044  23700870.6024   23700869.5354
         5.7504          4.7504
  10039109.54046   7900100.51146  21946506.4224   21946509.0824
        15.7504         15.2504
 -12406996.31547  -8351357.88046  21039060.0704   21039062.7894
        20.2504         20.5004
 -14814616.54947 -11448074.70546  20981438.5704   20981440.6334
        20.5004         20.2504
 -11581430.86445  -8950117.84245  23262715.8444   23262718.6214
         9.0004         10.0004
 03 10 30  1 20 30.0000000  0  6G24G28G 7G 9G 4G 5
 -13324000.33045  -9485467.78345  22686992.9924   22686998.1724
        10.5004         10.5004
  32017605.21643  25029919.78345  23724311.2344   23724316.9414
         5.7504          5.5004
  10143346.10846   7981323.81846  21966341.8754   21966344.5124
        15.7504         15.5004
 -12360711.73947  -8315291.97046  21047867.7894   21047870.1914
        20.5004         20.5004
 -14802858.14847 -11438912.20746  20983676.0164   20983678.1954
        21.0004         20.5004
 -11626552.67045  -8985277.53345  23254129.2344   23254133.2774
         9.2504         10.0004
 03 10 30  1 21  0.0000000  0  6G24G28G 7G 9G 4G 5
 -13377641.21245  -9527265.58245  22676784.9844   22676791.6054
        10.7504         10.7504
  32140872.17243  25125972.09145  23747766.9144   23747768.5554
         5.0004          5.7504
  10247622.67946   8062578.29146  21986185.0864   21986187.6524
        15.7504         14.5004
 -12313918.37447  -8278829.60046  21056772.2584   21056774.9184
        20.5004         21.0004
 -14790604.51447 -11429363.81646  20986007.6724   20986009.9454
        21.0004         20.5004
 -11671687.93345  -9020447.72245  23245539.7194   23245543.2464
         8.7504          9.5004
 03 10 30  1 21 30.0000000  0  6G24G28G 7G 9G 4G 5
 -13431115.22145  -9568933.40645  22666608.9694   22666613.1884
        11.2504         11.2504
  32264216.59843  25222084.54845  23771239.3054   23771240.6764
         5.7504          7.5004
  10351934.96246   8143860.58546  22006034.8674   22006037.4454
        15.5004         15.0004
 -12266619.47247  -8241973.31246  21065772.9614   21065775.7274
        20.5004         20.5004
 -14777857.64347 -11419431.09646  20988433.4534   20988435.2704
        21.2504         20.2504
 -11716837.94645  -9055629.42045  23236948.1724   23236950.2114
         8.2504          9.5004
 03 10 30  1 22  0.0000000  0  6G24G28G 7G 9G 4G 5
 -13484416.82745  -9610466.90745  22656465.3364   22656471.2194
        10.7504         10.5004
  32387641.33644  25318259.73045  23794727.7034   23794727.5274
         7.7504          8.0004
  10456284.69946   8225172.06346  22025891.7424   22025894.2034
        15.5004         15.0004
 -12218811.97647  -8204720.72146  21074870.5164   21074873.1644
        20.5004         20.5004
 -14764613.63847 -11409111.00846  20990953.3834   20990955.1524
        21.2504         20.5004
 -11761998.56445  -9090819.38945  23228354.1174   23228357.1644
         8.5004          9.5004
 03 10 30  1 22 30.0000000  0  6G24G28G 7G 9G 4G 5
 -13537547.36345  -9651867.06945  22646355.8594   22646361.5784
        11.5004         11.0004
  32511142.09444  25414494.08645  23818228.0394   23818229.3164
         7.2504          7.5004
  10560667.08546   8306509.02046  22045755.0784   22045757.3054
        15.2504         14.7504
 -12170500.07647  -8167075.06946  21084064.1414   21084066.5664
        20.5004         20.7504
 -14750875.36847 -11398405.76446  20993567.8674   20993569.6134
        21.2504         20.7504
 -11807172.54945  -9126019.77845  23219758.1484   23219761.4064
         9.2504          9.7504
 03 10 30  1 23  0.0000000  0  6G24G28G 7G 9G 4G 5
 -13590500.39746  -9693128.99445  22636278.0394   22636283.6764
        12.0004         11.2504
  32634722.32044  25510790.43945  23841744.8914   23841746.1684
         7.0004          7.0004
  10665084.50446   8387873.13146  22065625.3054   22065627.8714
        15.2504         14.5004
 -12121680.28347  -8129033.67946  21093354.1804   21093356.6994
        20.5004         20.7504
 -14736638.08147 -11387311.69546  20996277.1644   20996279.0164
        21.7504         20.7504
 -11852354.40645  -9161226.33245  23211160.4454   23211163.4574
         9.7504         10.5004
 03 10 30  1 23 30.0000000  0  6G24G28G 7G 9G 4G 5
 -13643275.34045  -9734252.15145  22626235.4384   22626240.5824
        11.0004         10.2504
  32758379.55644  25607146.72745  23865276.2584   23865276.4804
         7.5004          8.2504
  10769534.33546   8469262.69346  22085501.2274   22085503.6524
        15.2504         14.7504
 -12072354.81947  -8090598.28646  21102740.3284   21102742.5554
        20.5004         20.7504
 -14721902.90447 -11375829.62146  20999080.9774   20999082.7114
        21.7504         20.7504
 -11897545.22145  -9196439.91045  23202560.0634   23202563.2504
         9.5004          9.7504
 03 10 30  1 24  0.0000000  0  6G24G28G 7G 9G 4G 5
 -13695869.20245  -9775234.19245  22616226.6884   22616231.6684
        11.0004         10.5004
  32882113.60445  25703562.86345  23888822.5084   23888823.7274
         8.2504          9.2504
  10874015.15446   8550676.22446  22105383.6644   22105385.9024
        15.2504         14.5004
 -12022523.29847  -8051768.51246  21112222.7504   21112225.4804
        20.2504         20.5004
 -14706668.87047 -11363958.88946  21001979.8524   21001981.5164
        21.7504         21.0004
 -11942743.18445  -9231659.07045  23193959.0704   23193961.8364
         9.5004          9.5004
 03 10 30  1 24 30.0000000  0  6G24G28G 7G 9G 4G 5
 -13748283.73945  -9816076.60045  22606252.8204   22606258.7384
        11.7504         10.7504
  33005919.45144  25800035.02245  23912380.8754   23912382.5634
         7.7504          8.2504
  10978521.72946   8632109.89846  22125270.5084   22125273.2734
        15.2504         14.5004
 -11972190.60847  -8012548.24246  21121801.2034   21121803.8054
        20.5004         20.7504
 -14690939.47847 -11351702.12746  21004973.1644   21004974.9104
        21.7504         21.0004
 -11987951.08445  -9266885.98645  23185356.6334   23185358.7544
         9.5004          9.5004
 03 10 30  1 25  0.0000000  0  6G24G28G 7G 9G 4G 5
 -13800509.94645  -9856772.20545  22596314.1804   22596318.8674
        11.5004         11.2504
  33129803.20843  25896567.90545  23935955.3284   23935951.4494
         5.0004          5.2504
  11083059.27346   8713567.70746  22145163.5864   22145166.4224
        15.0004         14.2504
 -11921350.73347  -7972932.75046  21131475.3754   21131478.0354
        20.2504         20.7504
 -14674707.42647 -11339053.68646  21008061.8834   21008063.7814
        21.7504         21.2504
 -12033161.48545  -9302114.85645  23176752.7814   23176754.7274
         9.0004          9.0004
 03 10 30  1 25 30.0000000  0  6G24G28G 7G 9G 4G 5
 -13852544.16745  -9897318.19945  22586412.1484   22586418.0314
        10.7504         10.7504
  33253765.60743  25993162.01145  23959544.7194   23959545.1644
         6.0004          6.2504
  11187627.91446   8795049.73746  22165062.0784   22165064.8444
        14.7504         14.2504
 -11870002.84347  -7932921.44046  21141246.7194   21141249.2974
        20.5004         20.7504
 -14657970.94647 -11326012.22746  21011246.3134   21011247.8834
        21.5004         21.2504
 -12078371.43245  -9337343.36145  23168149.6024   23168151.6414
         9.0004          9.5004
 03 10 30  1 26  0.0000000  0  6G24G28G 7G 9G 4G 5
 -13904390.60946  -9937717.85345  22576546.5394   22576551.8014
        12.0004         11.5004
  33377798.75645  26089811.17445  23983147.7664   23983147.9064
         8.2504          8.7504
  11292219.32546   8876549.38346  22184965.0554   22184967.9024
        14.5004         14.5004
 -11818154.05347  -7892519.82146  21151113.2034   21151115.7704
        20.2504         20.7504
 -14640736.12547 -11312582.42546  21014526.2344   21014527.9454
        21.5004         21.2504
 -12123587.03245  -9372576.33245  23159544.8914   23159546.3094
         8.7504          8.7504
 03 10 30  1 26 30.0000000  0  6G24G28G 7G 9G 4G 5
 -13956046.21346  -9977968.87245  22566716.2114   22566721.0864
        12.2504         11.2504
  33501903.08643  26186515.89045  24006763.8754   24006765.6094
         5.2504          6.5004
  11396833.70246   8958067.05546  22204872.2424   22204875.2774
        14.5004         14.5004
 -11765804.16647  -7851727.72346  21161075.2424   21161078.0664
        20.2504         20.7504
 -14623001.44347 -11298763.15546  21017900.9224   21017902.9734
        21.5004         21.0004
 -12168805.68145  -9407811.61145  23150940.5634   23150942.4264
         8.2504          9.5004
 03 10 30  1 27  0.0000000  0  6G24G28G 7G 9G 4G 5
 -15582925.01345 -11245666.51245  22257131.9224   22257136.4454
        11.7504         11.2504
  -9431822.24451                  23730601.2664
         2.5004
   9926058.43546   7812008.49146  21924993.3364   21924995.2584
        14.5004         14.5004
 -13288366.53447  -9038139.96746  20871340.8364   20871343.4264
        20.2504         20.7504
 -16180180.49647 -12512149.39146  20721579.6174   20721581.3984
        21.5004         21.5004
 -13789442.46945 -10670645.44545  22842544.0164   22842546.9694
         9.0004          9.5004
 03 10 30  1 27 30.0000000  0  6G24G28G 7G 9G 4G 5
 -15634182.80845 -11285607.52245  22247377.1804   22247382.7704
        11.5004         11.2504
  -9307568.54844                  23754247.5234
         7.2504
  10030723.02646   7893565.28646  21944910.2114   21944912.4024
        14.2504         14.2504
 -13235007.07647  -8996561.18046  20881495.2034   20881497.5124
        20.2504         20.5004
 -16161436.02147 -12497543.26246  20725146.4924   20725148.0394
        21.7504         21.2504
 -13834655.24445 -10705876.20245  22833940.1024   22833942.5394
         9.5004         10.0004
 03 10 30  1 28  0.0000000  0  6G24G28G 7G 9G 4G 5
 -15685241.27946 -11325393.22646  22237661.6564   22237666.0514
        12.7504         12.0004
  -9183244.99944                  23777904.7274
         7.0004
  10135407.26646   7975137.34246  21964830.7504   21964833.0004
        14.2504         14.2504
 -13181147.43247  -8954592.64546  20891744.2894   20891746.8674
        20.2504         20.5004
 -16142189.47747 -12482545.89646  20728808.7274   20728810.1214
        21.7504         21.5004
 -13879866.41645 -10741105.64445  22825336.6564   22825338.8714
         9.7504          9.7504
 03 10 30  1 28 30.0000000  0  6G24G28G 7G 9G 4G 5
 -15736087.81046 -11365013.75845  22227985.7814   22227991.7704
        12.5004         11.5004
  -9058841.51241  -7307434.28455  23801575.7114   23801580.2234
         2.7504          5.5004
  10240120.44046   8056732.01446  21984757.3834   21984760.5594
        14.2504         14.0004
 -13126777.78347  -8912226.69446  20902090.2734   20902093.0864
        20.0004         20.7504
 -16122429.78947 -12467148.70246  20732569.0704   20732571.0634
        21.7504         21.2504
 -13925064.26045 -10776324.72245  22816736.0004   22816739.2814
         9.7504         10.0004
 03 10 30  1 29  0.0000000  0  6G24G28G 7G 9G 4G 5
 -15786729.48746 -11404474.65146  22218348.2034   22218352.7624
        12.2504         12.0004
  -8934367.88443  -7210442.09545  23825264.6414   23825266.9494
         5.2504          6.5004
  10344852.34046   8138341.35846  22004687.2664   22004689.9264
        14.2504         13.2504
 -13071907.80647  -8869470.87946  20912532.0634   20912534.5124
        20.0004         20.2504
 -16102165.89347 -12451358.59746  20736425.0704   20736426.6414
        21.7504         21.2504
 -13970257.11745 -10811539.90945  22808135.1484   22808138.3014
         9.2504          9.7504
 03 10 30  1 29 30.0000000  0  6G24G28G 7G 9G 4G 5
 -15837156.32946 -11443768.20245  22208753.0004   22208757.6174
        12.7504         11.7504
  -8809817.79345  -7113390.09744  23848966.4454   23848967.4654
         8.0004          4.7504
  10449608.88346   8219969.83446  22024622.0634   22024624.7584
        14.0004         13.7504
 -13016531.10947  -8826320.24146  20923069.6564   20923072.3054
        20.2504         20.7504
 -16081390.13947 -12435169.67046  20740378.4774   20740380.0704
        21.7504         21.2504
 -14015436.58745 -10846744.68245  22799537.6564   22799541.7464
         9.0004          9.2504
 03 10 30  1 30  0.0000000  0  6G24G28G 7G 9G 4G 5
 -15887361.85746 -11482889.26045  22199198.6564   22199203.7544
        12.7504         11.7504
  -8685187.50844  -7016275.14845  23872682.8364   23872679.7194
         7.5004          5.7504
  10554393.08146   8301619.82246  22044561.5164   22044564.5394
        14.0004         13.7504
 -12960644.08247  -8782771.98046  20933704.5234   20933707.2774
        20.2504         20.7504
 -16060097.73247 -12418578.14546  20744430.4694   20744432.0864
        22.0004         21.5004
 -14060596.89245 -10881934.50245  22790944.9224   22790947.1604
         9.2504          9.5004
 03 10 30  1 30 30.0000000  0  6G24G28G 7G 9G 4G 5
 -15937349.29346 -11521840.26546  22189686.0394   22189690.8554
        12.5004         12.0004
  -8560483.75742  -6919103.47145  23896411.6884   23896411.0784
         4.5004          6.7504
  10659197.78146   8383285.90646  22064504.7114   22064507.3714
        14.0004         13.7504
 -12904253.49647  -8738831.31046  20944435.7584   20944438.5704
        20.5004         20.5004
 -16038294.13447 -12401588.25346  20748579.2504   20748580.7034
        21.7504         21.7504
 -14105742.58845 -10917112.98945  22782354.6024   22782357.0634
        10.5004         10.2504
 03 10 30  1 31  0.0000000  0  6G24G28G 7G 9G 4G 5
 -15987113.91046 -11560617.76746  22180216.5084   22180221.3484
        13.2504         12.2504
  -8435704.15742  -6821872.77045  23920156.7344   23920158.1294
         4.5004          6.5004
  10764024.54146   8464969.05146  22084453.0944   22084455.3204
        13.7504         13.7504
 -12847356.85947  -8694496.24946  20955262.6334   20955265.2814
        20.2504         20.5004
 -16015976.53747 -12384197.86546  20752825.9924   20752827.6564
        21.7504         21.7504
 -14150869.22445 -10952276.56345  22773766.7664   22773768.1954
        11.2504         11.2504
 03 10 30  1 31 30.0000000  0  6G24G28G 7G 9G 4G 5
 -16036648.53446 -11599216.06946  22170789.6804   22170794.2854
        12.5004         12.5004
  -8310845.20344  -6724580.11145  23943916.9774   23943918.5124
         7.2504          8.0004
  10868877.14146   8546672.39946  22104405.7344   22104408.2424
        13.7504         13.7504
 -12789950.31147  -8649763.85946  20966186.6564   20966189.3404
        20.2504         20.7504
 -15993139.51547 -12366402.72846  20757171.9064   20757173.2774
        21.7504         21.7504
 -14195970.92846 -10987420.73546  22765184.5474   22765186.8914
        12.2504         12.2504
 03 10 30  1 32  0.0000000  0  6G24G28G 7G 9G 4G 5
 -16085953.50846 -11637635.47446  22161407.3674   22161411.4344
        12.5004         12.2504
  -8185909.92144  -6627227.90345  23967692.1724   23967690.9184
         7.0004          6.5004
  10973751.74746   8628392.84546  22124362.9614   22124366.0314
        13.7504         13.5004
 -12732037.71247  -8604637.17146  20977207.2584   20977209.8954
        20.2504         20.5004
 -15969785.77347 -12348204.98346  20761616.0314   20761617.4614
        22.0004         21.7504
 -14241049.25145 -11022546.67046  22756606.6334   22756608.9534
        11.5004         12.0004
 03 10 30  1 32 30.0000000  0  6G24G28G 7G 9G 4G 5
 -16135025.01746 -11675872.96946  22152069.1954   22152074.0824
        12.7504         12.0004
  -8060897.35943  -6529815.42244  23991481.2344   23991483.3674
         5.5004          4.7504
  11078648.65146   8710130.65346  22144324.0784   22144327.0314
        13.7504         13.5004
 -12673618.08447  -8559115.42046  20988324.0784   20988326.8674
        20.2504         20.5004
 -15945913.42747 -12329603.12646  20766158.6954   20766160.3014
        22.0004         22.0004
 -14286101.10645 -11057651.93545  22748033.2584   22748035.9184
        11.2504         11.5004
 03 10 30  1 33  0.0000000  0  6G24G28G 7G 9G 4G 5
 -16183864.40046 -11713929.56246  22142775.4224   22142780.0634
        13.2504         12.7504
  -7935812.39241  -6432346.59445  24015281.5864   24015283.7544
         3.2504          5.0004
  11183562.50146   8791881.67146  22164288.5944   22164290.9964
        13.7504         13.0004
 -12614696.42547  -8513202.43046  20999536.3674   20999538.9574
        20.0004         20.7504
 -15921526.34047 -12310600.19946  20770799.3754   20770801.0984
        21.7504         22.0004
 -14331129.09245 -11092738.61845  22739464.4224   22739467.4694
        11.2504         11.2504
 03 10 30  1 33 30.0000000  0  6G24G28G 7G 9G 4G 5
 -16232466.26446 -11751801.08746  22133527.0234   22133531.7704
        13.0004         12.7504
  -7810652.54241  -6334819.61545  24039101.0004   24039105.1134
         3.7504          5.5004
  11288495.30746   8873647.37646  22184257.1094   22184260.1334
        13.5004         13.0004
 -12555270.27447  -8466896.28546  21010844.6094   21010847.3634
        20.0004         20.5004
 -15896621.10047 -12291193.49946  20775538.8204   20775540.6374
        22.0004         21.7504
 -14376129.27145 -11127803.65945  22730901.4924   22730903.5554
        11.2504         11.2504
 03 10 30  1 34  0.0000000  0  6G24G28G 7G 9G 4G 5
 -16280825.02846 -11789483.28446  22124324.4224   22124328.7234
        12.7504         12.5004
  -7685414.88943  -6237231.85245  24062932.1024   24062932.3714
         5.0004          6.7504
  11393449.74146   8955430.07146  22204228.6094   22204231.5514
        13.7504         13.2504
 -12495337.40047  -8420195.31246  21022249.4694   21022252.0704
        20.0004         20.7504
 -15871193.85047 -12271380.03846  20780377.2734   20780378.9384
        22.0004         21.7504
 -14421096.23945 -11162842.79645  22722344.2274   22722347.2734
        11.0004         11.0004
 03 10 30  1 34 30.0000000  0  6G24G28G 7G 9G 4G 5
 -16328948.01346 -11826981.80546  22115166.7274   22115171.8834
        12.5004         12.5004
  -7560109.84543  -6139591.51045  24086777.8054   24086783.0084
         5.7504          6.0004
  11498415.14046   9037221.29646  22224202.7814   22224205.7814
        13.5004         12.5004
 -12434908.09247  -8373107.52346  21033748.9534   21033751.5314
        20.0004         20.5004
 -15845254.13847 -12251167.27146  20785313.6954   20785315.3834
        22.0004         22.0004
 -14466037.97445 -11197862.26645  22713792.2194   22713795.3714
        11.2504         10.7504
 03 10 30  1 35  0.0000000  0  6G24G28G 7G 9G 4G 5
 -16376819.46546 -11864284.36346  22106057.5474   22106062.7504
        13.0004         13.0004
  -7434725.30143  -6041889.29545  24110636.8674   24110632.5314
         5.5004          5.7504
  11603403.24946   9119030.25746  22244181.4064   22244183.8914
        13.5004         13.0004
 -12373969.89047  -8325623.17046  21045344.9064   21045347.6484
        20.0004         20.5004
 -15818788.75447 -12230544.88846  20790349.7664   20790351.6174
        22.0004         21.7504
 -14510940.38045 -11232851.12545  22705247.5164   22705250.2814
        11.7504         11.5004
 03 10 30  1 35 30.0000000  0  6G24G28G 7G 9G 4G 5
 -16424440.81646 -11901392.14346  22096995.7424   22097000.3134
        13.5004         12.5004
  -7309265.03342  -5944128.07243  24134511.7114   24134522.8484
         4.0004          3.7504
  11708409.40546   9200853.11246  22264163.6024   22264166.6604
        13.5004         13.0004
 -12312527.29747  -8277745.82146  21057037.1954   21057039.6334
        20.2504         20.5004
 -15791800.93647 -12209515.39646  20795485.3834   20795486.9064
        22.2504         22.0004
 -14555805.28145 -11267810.76645  22696709.8524   22696712.7584
        11.2504         11.0004
 03 10 30  1 36  0.0000000  0  6G24G28G 7G 9G 4G 5
 -16471807.98246 -11938301.91646  22087982.1414   22087987.5664
        13.2504         12.5004
  -7183728.05042                  24158399.5704
         4.2504
  11813434.64946   9282691.07346  22284149.2814   22284151.8594
        13.2504         13.0004
 -12250579.74447  -8229474.97546  21068825.4614   21068827.7934
        20.2504         20.2504
 -15764289.07747 -12188077.57346  20800720.7344   20800722.1764
        22.2504         22.0004
 -14600629.87045 -11302739.04345  22688180.2424   22688183.4064
        11.2504         11.2504
 03 10 30  1 36 30.0000000  0  6G24G28G 7G 9G 4G 5
 -16518915.68746 -11975009.40346  22079017.5634   22079022.6954
        13.0004         12.7504
  -7058112.54943                  24182304.8364
         5.7504
  11918480.42946   9364545.01146  22304138.9924   22304141.6764
        13.2504         12.5004
 -12188125.33447  -8180809.09446  21080710.2274   21080712.6764
        20.2504         20.5004
 -15736250.10547 -12166229.02446  20806056.4924   20806057.9454
        22.5004         22.2504
 -14645409.55845 -11337632.27545  22679658.6094   22679660.6134
        11.5004         11.7504
 03 10 30  1 37  0.0000000  0  6G24G28G 7G 9G 4G 5
 -16565763.14246 -12011514.19246  22070103.7344   22070109.1954
        14.0004         13.2504
  -6932420.91544                  24206223.0784
         7.0004
  12023543.77246   9446412.43046  22324131.9844   22324134.4224
        13.2504         12.7504
 -12125166.66047  -8131750.29146  21092690.4924   21092693.0234
        20.2504         20.5004
 -15707685.65347 -12143971.00446  20811492.1884   20811493.5824
        22.2504         22.0004
 -14690144.67745 -11372490.76845  22671145.7584   22671147.9144
        11.0004         11.0004
 03 10 30  1 37 30.0000000  0  6G24G28G 7G 9G 4G 5
 -16612350.73646 -12047816.30846  22061238.1024   22061242.8594
        14.2504         13.5004
  -6806656.54644  -7310065.12555  24230154.3364   24230156.0124
         7.2504          6.5004
  12128621.36046   9528291.02046  22344127.7114   22344129.8324
        13.0004         13.0004
 -12061707.78747  -8082301.77646  21104766.3284   21104768.3794
        20.5004         20.5004
 -15678598.50647 -12121305.69246  20817026.9774   20817028.6174
        22.0004         22.0004
 -14734836.71245 -11407315.73045  22662641.1094   22662643.0904
        11.5004         11.2504
 03 10 30  1 38  0.0000000  0  6G24G28G 7G 9G 4G 5
 -16658666.08246 -12083906.42946  22052424.9774   22052430.1804
        14.0004         13.5004
  -6680809.28443  -7212002.37645  24254103.2424   24254103.1604
         6.5004          5.5004
  12233722.57146   9610188.04646  22364127.2734   22364129.8054
        13.0004         13.0004
 -11997739.10346  -8032456.02546  21116938.9064   21116941.3674
        19.7504         20.2504
 -15648978.01447 -12098224.80146  20822663.4924   20822665.2624
        22.2504         22.2504
 -14779473.15945 -11442097.38045  22654146.8984   22654149.6054
        11.0004         11.5004
 03 10 30  1 38 30.0000000  0  6G24G28G 7G 9G 4G 5
 -16704710.38146 -12119785.42446  22043663.1254   22043668.8204
        14.5004         13.5004
  -6554883.53843  -7113878.49344  24278065.8984   24278060.3674
         5.0004          4.0004
  12338842.94946   9692099.89946  22384131.4384   22384134.6134
        12.7504         12.7504
 -11933264.86247  -7982216.32046  21129208.1024   21129210.4694
        20.0004         20.2504
 -15618827.40547 -12074730.81946  20828401.0084   20828402.7304
        22.0004         22.0004
 -14824056.12945 -11476837.39645  22645663.0784   22645666.0314
        11.0004         11.0004
 03 10 30  1 39  0.0000000  0  6G24G28G 7G 9G 4G 5
 -16750484.50346 -12155453.80346  22034952.5944   22034958.1024
        14.7504         14.2504
  -6428883.31442  -7015696.63543  24302042.0394   24302045.2034
         4.0004          3.7504
  12443978.18246   9774023.52046  22404138.0004   22404140.3204
        12.7504         12.2504
 -11868289.68047  -7931586.27846  21141572.4144   21141574.8524
        20.0004         20.5004
 -15588150.40147 -12050826.65746  20834238.6644   20834240.2704
        22.0004         22.0004
 -14868587.86745 -11511537.42346  22637189.1564   22637191.9804
        11.0004         12.0004
 03 10 30  1 39 30.0000000  0  6G24G28G 7G 9G 4G 5
 -16795982.61346 -12190907.11546  22026294.8054   22026299.1524
        14.5004         13.7504
  -6302805.91342  -6917454.64944  24326033.8674   24326040.9964
         4.2504          4.2504
  12549130.55446   9855960.34946  22424147.6644   22424150.2074
        12.5004         12.2504
 -11802811.13547  -7880564.01746  21154032.6804   21154035.3054
        20.0004         20.2504
 -15556943.70347 -12026509.79346  20840177.0084   20840178.5904
        21.7504         22.0004
 -14913063.15545 -11546193.41545  22628725.7894   22628729.1644
        11.2504         11.7504
 03 10 30  1 40  0.0000000  0  6G24G28G 7G 9G 4G 5
 -16841199.09546 -12226141.01246  22017691.2814   22017696.5554
        14.7504         13.7504
  -6176649.07243  -6819150.80444  24350043.1174   24350048.6254
         5.0004          4.7504
  12654302.27146   9937912.40746  22444161.1564   22444163.3364
        12.5004         12.7504
 -11736827.24846  -7829147.92346  21166588.8754   21166591.4654
        19.5004         20.5004
 -15525204.26447 -12001777.73846  20846216.9384   20846218.5084
        22.0004         22.2504
 -14957477.55145 -11580802.06146  22620273.5784   22620275.8054
        11.5004         12.0004
 03 10 30  1 40 30.0000000  0  6G24G28G 7G 9G 4G 5
 -16886131.97746 -12261153.86846  22009140.8284   22009146.9104
        14.2504         14.0004
  -6050413.72143  -6720785.85944  24374063.5634   24374063.2234
         5.7504          4.7504
  12759492.26946  10019878.66346  22464178.0164   22464180.0434
        12.5004         12.7504
 -11670339.39047  -7777339.17146  21179240.7894   21179243.5084
        20.0004         20.5004
 -15492931.95847 -11976630.48046  20852358.1564   20852359.9024
        22.0004         22.2504
 -15001829.36346 -11615361.83646  22611833.9614   22611837.1024
        12.2504         12.0004
 03 10 30  1 41  0.0000000  0  6G24G28G 7G 9G 4G 5
 -16930783.35246 -12295947.31046  22000644.2814   22000649.6484
        15.0004         13.7504
  -5924104.65643  -6622363.55945  24398099.7504   24398098.9534
         5.5004          5.0004
  12864695.29246  10101855.02746  22484197.7274   22484200.3404
        12.5004         12.2504
 -11603353.08546  -7725142.04346  21191988.0864   21191990.6994
        19.7504         20.0004
 -15460131.32047 -11951071.52446  20858599.9774   20858601.4884
        22.2504         22.2504
 -15046121.53846 -11649875.19445  22603405.1804   22603407.3014
        12.2504         11.7504
 03 10 30  1 41 30.0000000  0  6G24G28G 7G 9G 4G 5
 -16975150.35146 -12330519.19446  21992201.0704   21992206.6024
        14.0004         13.2504
  -5797722.09642  -6523884.11445  24422150.4064   24422152.9734
         4.5004          5.5004
  12969910.91346  10183841.24746  22504220.0234   22504222.6724
        12.7504         12.5004
 -11535868.77746  -7672556.82646  21204829.7734   21204832.3634
        19.7504         20.2504
 -15426801.90547 -11925100.56246  20864942.3754   20864944.1684
        22.0004         22.0004
 -15090351.61545 -11684340.13245  22594988.3134   22594990.3874
        11.7504         11.2504
 03 10 30  1 42  0.0000000  0  6G24G28G 7G 9G 4G 5
 -17019223.51246 -12364861.99246  21983814.4614   21983820.0044
        14.7504         13.7504
  -5671259.46141  -6425342.14543  24446216.1954   24446224.7194
         3.0004          3.0004
  13075145.11446  10265841.85946  22524245.0084   22524247.1414
        12.5004         12.2504
 -11467880.71646  -7619579.12646  21217767.4224   21217769.9884
        19.7504         20.2504
 -15392936.91447 -11898712.25946  20871386.5314   20871388.2894
        22.2504         22.0004
 -15134511.20146 -11718750.25046  22586585.1644   22586588.3984
        12.2504         12.5004
 03 10 30  1 42 30.0000000  0  6G24G28G 7G 9G 4G 5
 -17063003.18446 -12398976.03346  21975483.2504   21975489.0984
        15.0004         14.0004
                                  24470293.1334
         2.0004
  13180394.87646  10347854.58446  22544274.0634   22544276.8874
        12.2504         12.5004
 -11399392.39747  -7566211.61446  21230800.6804   21230803.2114
        20.0004         20.2504
 -15358538.73647 -11871908.48046  20877932.5084   20877934.1134
        22.0004         22.2504
 -15178601.40945 -11753106.33846  22578195.1254   22578198.7584
        11.7504         12.2504
 03 10 30  1 43  0.0000000  0  5G24G 7G 9G 4G 5
 -17106491.10946 -12432862.70246  21967207.9454   21967213.2544
        15.2504         14.0004
  13285655.14346  10429875.61345  22564304.0784   22564307.8874
        12.5004         11.7504
 -11330409.34146  -7512458.64646  21243927.4844   21243930.1684
        19.7504         19.7504
 -15323611.71947 -11844692.59846  20884578.5704   20884579.8594
        22.2504         22.5004
 -15222624.14345 -11787409.74046  22569817.9534   22569821.3284
        11.7504         12.0004
 03 10 30  1 43 30.0000000  0  6G24G28G 7G 9G 4G 5
 -17149682.02646 -12466517.87146  21958988.9534   21958995.1524
        14.5004         14.2504
  -9431405.36452                  24518496.8204
         4.0004
  13390927.78446  10511906.18846  22584336.9224   22584340.9884
        12.7504         12.2504
 -11260929.52846  -7458318.58946  21257149.1094   21257151.6764
        19.5004         20.0004
 -15288153.13647 -11817062.50046  20891326.1414   20891327.8164
        22.0004         22.5004
 -15266574.89946 -11821657.09746  22561454.5394   22561457.5864
        12.2504         12.2504
 03 10 30  1 44  0.0000000  0  6G24G28G 7G 9G 4G 5
 -17192572.86846 -12499939.25246  21950827.0234   21950832.1804
        14.7504         13.7504
  -9304644.37643                  24542619.0864
         5.0004
  13496213.24346  10593946.76346  22604371.7664   22604373.3954
        12.7504         12.2504
 -11190953.19446  -7403791.61146  21270465.3594   21270467.7624
        19.7504         19.7504
 -15252162.08947 -11789017.56846  20898175.0554   20898176.9064
        22.0004         22.2504
 -15310450.88446 -11855846.20346  22553105.3364   22553107.6564
        12.7504         12.5004
 03 10 30  1 44 30.0000000  0  6G24G28G 7G 9G 4G 5
 -17235157.09146 -12533121.64346  21942723.8134   21942729.3094
        15.7504         14.0004
  -9177805.90943                  24566754.9534
         5.7504
  13601514.16346  10675999.27846  22624409.5704   22624412.2894
        12.2504         12.0004
 -11120477.95346  -7348875.88846  21283876.2424   21283878.8914
        19.7504         20.0004
 -15215635.22347 -11760555.06346  20905126.1804   20905127.7274
        22.0004         22.0004
 -15354246.71646 -11889972.82246  22544771.5474   22544773.6094
        13.0004         12.2504
 03 10 30  1 45  0.0000000  0  6G24G28G 7G 9G 4G 5
 -17277434.67046 -12566064.96946  21934677.8054   21934683.2424
        15.2504         14.5004
  -9050892.09243  -7283188.83755  24590907.8204   24590910.1524
         6.0004          5.7504
  13706828.00146  10758061.95445  22644450.1254   22644452.7854
        12.0004         11.7504
 -11049507.04646  -7293573.94246  21297381.7664   21297384.2974
        19.7504         20.0004
 -15178574.76647 -11731676.80046  20912178.3364   20912179.9064
        22.0004         22.0004
 -15397963.10646 -11924037.55046  22536452.0394   22536454.9924
        12.7504         13.0004
 03 10 30  1 45 30.0000000  0  6G24G28G 7G 9G 4G 5
 -17319402.28546 -12598766.89046  21926692.2504   21926697.9344
        15.7504         14.5004
  -8923902.35843  -7184236.16645  24615072.6094   24615075.5744
         6.2504          6.5004
  13812155.12045  10840134.90045  22664492.9534   22664496.4574
        11.7504         11.7504
 -10978040.18046  -7237885.51846  21310981.5234   21310984.2894
        19.7504         20.0004
 -15140979.34947 -11702381.62846  20919332.6094   20919334.0984
        22.2504         22.5004
 -15441596.97946 -11958037.84046  22528148.7664   22528151.6024
        13.0004         12.7504
 03 10 30  1 46  0.0000000  0  6G24G28G 7G 9G 4G 5
 -17361053.73546 -12631222.40446  21918765.2424   21918770.5164
        15.0004         14.7504
  -8796833.77943  -7085222.36043  24639253.0864   24639254.5744
         6.0004          3.2504
  13917498.45945  10922220.47845  22684539.8204   22684542.3754
        11.5004         11.7504
 -10906074.93246  -7181808.74346  21324675.8364   21324678.6374
        19.7504         19.7504
 -15102845.71047 -11672667.10546  20926589.0784   20926590.5204
        22.2504         22.5004
 -15485142.20446 -11991969.10946  22519862.4384   22519865.2734
        13.0004         13.0004
 03 10 30  1 46 30.0000000  0  6G24G28G 7G 9G 4G 5
 -17402389.95546 -12663432.29246  21910899.7344   21910904.9024
        15.2504         14.5004
  -8669690.48043  -6986150.12645  24663449.8204   24663453.8284
         5.5004          5.2504
  14022854.19345  11004315.77345  22704588.3284   22704591.5634
        11.5004         11.2504
 -10833615.85546  -7125347.16546  21338464.6414   21338467.1374
        19.7504         20.0004
 -15064177.38347 -11642535.99246  20933947.4064   20933948.8714
        22.2504         22.2504
 -15528601.19146 -12025833.25346  22511592.5704   22511595.1024
        13.0004         12.5004
 03 10 30  1 47  0.0000000  0  6G24G28G 7G 9G 4G 5
 -19018830.67846 -13922996.28646  21603300.8444   21603305.6024
        15.2504         14.7504
 -10117889.46943  -8114617.52143  24387865.6174   24387862.0314
         5.2504          3.5004
  12552804.31945   9858822.18445  22424847.7194   22424851.3984
        11.2504         11.2504
 -12336082.59746  -8296100.45046  21052554.4454   21052557.3284
        19.5004         20.2504
 -16600394.07347 -12839588.01046  20641615.0474   20641616.7934
        22.0004         22.5004
 -17147393.80146 -13287230.08046  22203546.5164   22203548.8244
        13.2504         12.7504
 03 10 30  1 47 30.0000000  0  6G24G28G 7G 9G 4G 5
 -19059525.13946 -13954706.17446  21595556.8834   21595562.0044
        15.2504         14.7504
  -9990592.98242  -8015426.04044  24412089.7034   24412089.4804
         4.5004          4.7504
  12658187.55745   9940939.02445  22444901.3364   22444903.8094
        11.2504         11.0004
 -12262635.05946  -8238868.61346  21066531.5004   21066534.0084
        19.7504         20.0004
 -16560652.37047 -12808620.52446  20649177.6954   20649179.2424
        22.0004         22.5004
 -17190668.92946 -13320951.02046  22195311.7974   22195314.1644
        13.5004         13.5004
 03 10 30  1 48  0.0000000  0  6G24G28G 7G 9G 4G 5
 -19099895.34846 -13986163.20146  21587874.8674   21587880.0594
        16.2504         15.0004
  -9863221.21642                  24436328.9924
         4.2504
  12763582.67645  10023065.03345  22464956.9614   22464958.8834
        11.2504         10.7504
 -12188695.96046  -8181253.71446  21080601.3524   21080604.0124
        19.5004         19.7504
 -16520374.97247 -12777235.56946  20656842.2974   20656843.8324
        22.2504         22.2504
 -17233850.13546 -13354598.72546  22187094.2814   22187096.3554
        13.2504         13.2504
 03 10 30  1 48 30.0000000  0  6G24G28G 7G 9G 4G 5
 -19139945.74546 -14017371.05046  21580253.4384   21580259.0634
        16.0004         15.2504
  -9735781.57541                  24460580.3754
         3.5004
  12868982.90745  10105194.98845  22485014.3984   22485016.8134
        11.0004         11.0004
 -12114272.73546  -8123261.58146  21094763.7274   21094766.1524
        19.7504         20.0004
 -16479568.34447 -12745438.22146  20664607.6334   20664609.1684
        22.2504         22.2504
 -17276941.31546 -13388176.23146  22178894.5864   22178896.9774
        13.5004         13.7504
 03 10 30  1 49  0.0000000  0  7G24G28G 7G 9G 4G30G 5
 -19179667.71646 -14048322.95146  21572693.8364   21572698.6524
        16.2504         15.2504
  -9608267.71341                  24484845.0004
         3.0004
  12974393.98745  10187333.36745  22505073.7504   22505077.2894
        11.0004         11.0004
 -12039360.41546  -8064888.33246  21109018.8984   21109021.5944
        19.5004         20.0004
 -16438226.54547 -12713223.85746  20672474.7424   20672476.4534
        22.2504         22.0004
 -11036529.33051                  24911457.0864
         2.7504
 -17319934.83246 -13421677.63046  22170712.8054   22170715.4654
        13.0004         13.0004
 03 10 30  1 49 30.0000000  0  7G24G28G 7G 9G 4G30G 5
 -19219055.22946 -14079014.37346  21565198.5004   21565203.6804
        16.5004         15.5004
  -9480676.55941                  24509125.8444
         2.5004
  13079819.19245  10269483.00045  22525135.2664   22525137.7854
        11.0004         10.5004
 -11963956.69546  -8006132.17946  21123367.9534   21123370.6954
        19.7504         20.0004
 -16396346.31447 -12680589.94446  20680444.7664   20680446.4304
        22.2504         22.7504
 -11101017.52641                  24899184.6414
         3.0004
 -17362825.13946 -13455098.62946  22162550.9304   22162553.6954
        13.0004         13.0004
 03 10 30  1 50  0.0000000  0  7G24G28G 7G 9G 4G30G 5
 -19258111.00046 -14109447.11046  21557766.5004   21557770.9884
        16.5004         15.2504
                                  24533418.4534
         2.2504
  13185251.96445  10351638.10845  22545198.8134   22545202.0124
        11.0004         10.5004
 -11888067.77346  -7946997.96146  21137808.9064   21137811.5904
        19.5004         19.7504
 -16353933.14447 -12647540.72346  20688515.2974   20688516.9734
        22.2504         22.5004
 -11165612.71041                  24886892.7274
         3.7504
 -17405615.31646 -13488441.61246  22154408.4614   22154411.5784
        13.2504         13.0004
 03 10 30  1 50 30.0000000  0  7G24G28G 7G 9G 4G30G 5
 -19296831.33846 -14139618.54746  21550398.2584   21550403.0164
        16.5004         15.5004
                                  24557726.4064
         2.0004
  13290694.58545  10433801.31645  22565263.5634   22565267.2774
        11.0004         10.7504
 -11811693.50346  -7887485.56246  21152342.5084   21152345.3554
        19.7504         20.0004
 -16310985.42047 -12614074.91246  20696687.9614   20696689.5204
        22.2504         22.2504
 -11230311.65642                  24874580.5234
         4.2504
 -17448301.87446 -13521703.88146  22146285.6804   22146288.2704
        13.5004         13.0004
 03 10 30  1 51  0.0000000  0  7G24G28G 7G 9G 4G30G 5
 -19335212.77846 -14169526.03446  21543094.0474   21543098.5944
        16.5004         15.7504
                                  24582050.0474
         1.2504
  13396147.11045  10515972.06045  22585330.8204   22585333.0354
        11.0004         11.0004
 -11734833.92646  -7827594.99346  21166968.4144   21166970.6294
        19.7504         19.7504
 -16267502.23647 -12580191.88846  20704962.6174   20704964.3524
        22.0004         22.5004
 -11295111.52442                  24862247.9844
         4.7504
 -17490881.35246 -13554882.70746  22138182.8834   22138185.2734
        14.2504         13.5004
 03 10 30  1 51 30.0000000  0  6G24G 7G 9G 4G30G 5
 -19373252.03446 -14199166.77146  21535855.3054   21535860.1214
        16.5004         16.2504
  13501609.64945  10598150.74845  22605399.5474   22605401.8444
        10.7504         11.0004
 -11657490.29646  -7767327.25946  21181686.5394   21181689.2114
        19.7504         19.7504
 -16223484.00347 -12545891.96546  20713338.6254   20713340.3714
        22.0004         22.2504
 -11360010.87142                  24849899.4454
         4.7504
 -17533351.56446 -13587976.38846  22130101.4534   22130104.1254
        14.2504         14.5004
 03 10 30  1 52  0.0000000  0  6G24G 7G 9G 4G30G 5
 -19410937.21346 -14228531.82946  21528684.3984   21528689.7664
        16.2504         15.2504
  13607091.49745  10680344.38045  22625471.2664   22625473.5634
        11.0004         11.2504
 -11579653.61346  -7706675.36446  21196498.6724   21196501.4024
        19.7504         19.7504
 -16178920.74847 -12511167.35846  20721818.9534   20721820.9104
        22.0004         22.2504
 -11424997.94642                  24837531.1094
         4.7504
 -17575699.89646 -13620975.04146  22122042.4844   22122045.4964
        14.2504         14.2504
 03 10 30  1 52 30.0000000  0  6G24G 7G 9G 4G30G 5
 -19448268.45646 -14257621.07046  21521580.0784   21521585.2464
        16.5004         15.7504
  13712589.77445  10762550.90745  22645547.2734   22645551.0004
        11.0004         10.5004
 -11501327.92546  -7645642.47646  21211403.3984   21211405.9774
        19.7504         19.7504
 -16133815.51847 -12476020.41546  20730402.2194   20730403.6374
        22.0004         22.5004
 -11490074.04142                  24825148.1564
         4.7504
 -17617927.22646 -13653879.34846  22114006.7734   22114009.0124
        14.2504         14.5004
 03 10 30  1 53  0.0000000  0  6G24G 7G 9G 4G30G 5
 -19485244.55646 -14286433.47146  21514544.0634   21514548.5864
        17.0004         16.2504
  13818102.49445  10844768.70645  22665625.1174   22665628.2344
        10.7504         10.7504
 -11422515.98046  -7584230.76046  21226401.1644   21226403.4024
        19.7504         19.5004
 -16088170.12347 -12440452.55346  20739088.1564   20739089.5744
        22.2504         22.5004
 -11555239.05642                  24812745.4774
         4.2504
 -17660033.20946 -13686689.14946  22105994.4144   22105996.5474
        14.2504         14.0004
 03 10 30  1 53 30.0000000  0  6G24G 7G 9G 4G30G 5
 -19521862.50346 -14314966.62046  21507575.1094   21507579.8674
        17.2504         16.0004
  13923629.85845  10926997.71345  22685707.3364   22685710.2194
        11.0004         11.0004
 -11343218.32446  -7522440.66746  21241490.6884   21241493.2774
        19.5004         19.5004
 -16041984.23147 -12404463.59646  20747877.0004   20747878.9804
        22.2504         22.2504
 -11620490.68341                  24800329.2344
         3.7504
 -17702014.63146 -13719401.83946  22098005.0944   22098007.9534
        14.0004         14.2504
 03 10 30  1 54  0.0000000  0  6G24G 7G 9G 4G30G 5
 -19558114.33646 -14343214.50246  21500676.8674   21500682.0354
        17.0004         15.7504
  14029177.35145  11009242.55045  22705791.8834   22705793.6174
        10.7504         10.5004
 -11263430.80746  -7460268.94446  21256674.1334   21256677.1094
        19.2504         19.5004
 -15995252.66747 -12368049.42146  20756769.5234   20756770.8594
        22.0004         22.5004
 -11685821.85341                  24787896.6724
         3.0004
 -17743863.96146 -13752011.66346  22090041.6804   22090044.4454
        14.5004         14.5004
 03 10 30  1 54 30.0000000  0  6G24G 7G 9G 4G30G 5
 -19593995.49746 -14371173.40746  21493848.2274   21493853.0904
        17.0004         16.5004
  14134747.20645  11091504.81245  22725881.4924   22725884.7384
        10.7504         11.2504
 -11183151.88246  -7397714.22846  21271951.1414   21271954.0234
        19.2504         19.5004
 -15947973.00547 -12331208.11946  20765766.9454   20765768.6454
        22.0004         22.2504
                                  24775449.7894
         2.5004
 -17785576.63646 -13784515.00946  22082104.0084   22082106.0704
        15.2504         14.5004
 03 10 30  1 55  0.0000000  0  6G24G 7G 9G 4G30G 5
 -19629502.76346 -14398841.30946  21487091.7814   21487096.1884
        17.7504         16.7504
  14240339.49045  11173784.14245  22745974.9304   22745979.8284
        10.5004         10.0004
 -11102381.83946  -7334776.83246  21287321.3364   21287324.1604
        19.2504         19.2504
 -15900144.51447 -12293939.09346  20774868.1334   20774869.6564
        22.2504         22.2504
 -11078145.15251                  24762992.1804
         2.5004
 -17827149.28946 -13816909.30146  22074193.3914   22074195.4654
        15.5004         15.0004
 03 10 30  1 55 30.0000000  0  6G24G 7G 9G 4G30G 5
 -19664634.27446 -14426216.20846  21480405.2894   21480409.9534
        17.0004         16.5004
  14345954.29245  11256081.77345  22766072.2734   22766074.2424
        10.2504         10.7504
 -11021123.33346  -7271458.74046  21302784.5084   21302787.4964
        19.2504         19.5004
 -15851769.05247 -12256243.89246  20784073.8364   20784075.5124
        22.2504         22.2504
 -11143696.16541                  24750515.8444
         2.7504
 -17868580.61746 -13849193.44546  22066309.1484   22066311.6804
        15.0004         14.7504
 03 10 30  1 56  0.0000000  0  6G24G 7G 9G 4G30G 5
 -19699386.00646 -14453295.20346  21473792.6484   21473797.1374
        17.5004         16.5004
  14451591.96545  11338397.02945  22786174.8594   22786176.4064
        10.2504         10.7504
 -10939375.93246  -7207759.65446  21318340.5474   21318343.6994
        19.2504         19.0004
 -15802845.21347 -12218121.39346  20793383.6414   20793385.2114
        22.2504         22.2504
 -11209315.93941                  24738029.4694
         3.2504
 -17909867.17146 -13881364.78346  22058452.2274   22058454.8164
        14.7504         14.7504
 03 10 30  1 56 30.0000000  0  6G24G 7G 9G 4G30G 5
 -19733762.40146 -14480081.64246  21467251.3204   21467255.9734
        18.0004         16.7504
  14557245.15345  11420724.19545  22806279.6724   22806282.4144
        10.0004         10.2504
 -10857147.75546  -7143685.82846  21333987.9774   21333990.7664
        19.0004         19.0004
 -15753380.32547 -12179577.26046  20802796.1334   20802797.8674
        22.2504         22.2504
 -11065173.61952                  24725527.6414
         4.0004
 -17951013.34446 -13913426.76146  22050622.2894   22050624.9734
        14.5004         14.7504
 03 10 30  1 57  0.0000000  0  6G24G 7G 9G 4G30G 5
 -19767753.57746 -14506568.15946  21460781.8134   21460785.5394
        17.5004         16.5004
  14662922.37445  11503070.07045  22826389.8914   22826393.2424
        10.2504         10.2504
 -10774431.95346  -7079232.07746  21349728.5164   21349731.3754
        18.7504         19.0004
 -15703366.37047 -12140605.32946  20812313.7894   20812315.5354
        22.2504         22.5004
 -11130930.81442                  24713015.7734
         4.5004
 -17992008.24646 -13945370.91046  22042821.5864   22042823.7894
        15.5004         15.2504
 03 10 30  1 57 30.0000000  0  6G24G 7G 9G 4G30G 5
 -19801354.86746 -14532750.99346  21454388.2274   21454392.7854
        17.5004         16.7504
  14768625.31545  11585436.11545  22846503.8524   22846507.6484
        10.2504         10.0004
 -10691228.10146  -7014398.07946  21365561.6804   21365564.5394
        19.2504         19.0004
 -15652801.94647 -12101204.47646  20821936.0234   20821937.8054
        22.2504         22.2504
 -11196748.19243  -8605169.26154  24700489.5554   24700489.1804
         5.0004          4.2504
 -18032847.81446 -13977193.94546  22035050.0784   22035052.4104
        16.0004         15.2504
 03 10 30  1 58  0.0000000  0  6G24G 7G 9G 4G30G 5
 -19834564.78246 -14558628.71346  21448068.9694   21448073.3634
        17.7504         17.0004
  14874351.67245  11667820.16945  22866623.0474   22866626.3164
        10.0004         10.7504
 -10607538.98946  -6949185.95346  21381487.6564   21381490.4224
        19.2504         18.7504
 -15601689.18847 -12061376.35946  20831662.3984   20831664.0864
        22.7504         22.5004
 -11262625.46943  -8656502.12945  24687952.2194   24687956.3554
         5.5004          5.0004
 -18073531.28946 -14008895.29046  22027308.4064   22027310.5274
        15.7504         15.0004
 03 10 30  1 58 30.0000000  0  6G24G 7G 9G 4G30G 5
 -19867377.19446 -14584196.52546  21441824.6724   21441828.4924
        17.7504         17.2504
  14980105.88845  11750225.90745  22886747.5784   22886749.7464
         9.7504         10.5004
 -10523361.84846  -6883593.57946  21397505.8204   21397508.8554
        19.0004         18.7504
 -15550024.31547 -12021118.03846  20841494.0004   20841495.4064
        22.5004         22.2504
 -11328556.51243  -8707876.74945  24675407.5634   24675410.1884
         6.0004          5.2504
 -18114052.26446 -14040469.98246  22019597.0554   22019599.1764
        15.0004         14.7504
 03 10 30  1 59  0.0000000  0  6G24G 7G 9G 4G30G 5
 -19899791.78746 -14609454.59646  21435655.4924   21435659.4884
        17.5004         16.7504
  15085886.61045  11832652.48445  22906877.0004   22906880.8914
         9.5004         10.0004
 -10438699.75646  -6817623.37646  21413616.8914   21413620.0314
        19.0004         18.7504
 -15497809.23847 -11980430.97246  20851429.8754   20851431.6454
        22.2504         22.5004
 -11394541.30443  -8759293.40845  24662850.6024   24662860.1564
         6.2504          5.0004
 -18154409.92946 -14071917.45146  22011917.1484   22011918.7544
        15.2504         14.7504
 03 10 30  1 59 30.0000000  0  6G24G 7G 9G 4G30G 5
 -19931801.50646 -14634396.78346  21429564.2424   21429568.1214
        17.7504         17.0004
  15191697.13045  11915102.24245  22927011.5474   22927014.2894
         9.5004          9.5004
 -10353550.14646  -6751273.24246  21429820.3134   21429823.6294
        18.7504         18.5004
 -15445040.85447 -11939312.86546  20861471.6334   20861473.3094
        22.2504         22.2504
 -11460574.12543  -8810747.48245  24650284.8594   24650286.6414
         6.0004          5.2504
 -18194598.26346 -14103233.01146  22004269.4774   22004271.5164
        16.0004         15.0004
 03 10 30  2  0  0.0000000  0  6G24G 7G 9G 4G30G 5
 -19963410.70146 -14659027.08646  21423548.7274   21423552.5704
        17.7504         17.2504
  15297531.50045  11997570.63445  22947152.2194   22947156.4614
         9.5004          9.5004
 -10267920.05446  -6684548.57546  21446115.4774   21446119.0164
        19.0004         18.7504
 -15391725.09647 -11897768.12446  20871617.2504   20871619.1134
        22.2504         22.2504
 -11526658.63543  -8862241.76844  24637709.5944   24637711.3984
         5.7504          4.5004
 -18234620.57746 -14134419.15846  21996653.6954   21996656.2734
        16.0004         15.7504
 03 10 30  2  0 30.0000000  0  6G24G 7G 9G 4G30G 5
 -19994617.85446 -14683344.11946  21417610.3054   21417613.7624
        18.0004         17.2504
  15403388.59945  12080056.66445  22967295.7274   22967296.9694
         9.5004          9.0004
 -10181812.28446  -6617451.66446  21462500.9534   21462504.0824
        18.7504         18.7504
 -15337863.73847 -11855798.17046  20881866.4304   20881868.0124
        22.2504         22.5004
 -11592794.49743  -8913776.19745  24625123.7584   24625121.4734
         5.0004          5.7504
 -18274475.70046 -14165475.02546  21989069.4774   21989072.2894
        15.7504         16.2504
 03 10 30  2  1  0.0000000  0  6G24G 7G 9G 4G30G 5
 -20025411.02746 -14707338.59946  21411750.6334   21411754.6644
        18.2504         17.2504
  15509277.36545  12162567.30945  22987444.8674   22987446.8014
         9.5004          9.2504
 -10095218.90746  -6549976.46946  21478979.3834   21478982.9454
        18.5004         18.7504
 -15283448.19847 -11813396.48346  20892221.6334   20892223.1684
        22.2504         22.2504
 -11658970.15542  -8965341.48543  24612531.0634   24612532.0354
         4.5004          3.7504
 -18314152.06746 -14196391.65646  21981519.0474   21981521.8484
        15.2504         15.5004
 03 10 30  2  1 30.0000000  0  6G24G 7G 9G 4G30G 5
 -20055787.33546 -14731008.21946  21405969.5164   21405973.8524
        18.2504         17.5004
  15615198.81945  12245103.42145  23007601.9694   23007604.5594
         9.5004          9.7504
 -10008140.38646  -6482123.17846  21495550.2344   21495553.9144
        18.5004         18.5004
 -15228477.91447 -11770562.50846  20902682.2664   20902683.7194
        22.5004         22.2504
 -11725182.90942  -9016935.60045  24599930.4064   24599932.9734
         4.0004          5.0004
 -18353645.66946 -14227165.85046  21974003.7894   21974005.9804
        15.5004         15.2504
 03 10 30  2  2  0.0000000  0  6G24G 7G 9G 4G30G 5
 -20085747.88046 -14754354.01146  21400268.3984   21400272.2424
        18.2504         18.0004
  15721149.54045  12327662.28245  23027763.5084   23027767.8444
         9.5004          9.5004
  -9920581.59946  -6413895.56946  21512211.9534   21512215.3754
        18.5004         18.5004
 -15172956.80147 -11727299.28446  20913247.4454   20913249.0984
        22.2504         22.5004
 -11791434.31642  -9068559.91243  24587324.7034   24587336.5784
         4.0004          3.5004
 -18392958.14746 -14257798.91146  21966522.7894   21966524.6994
        15.7504         14.7504
 03 10 30  2  2 30.0000000  0  6G24G 7G 9G 4G30G 5
 -20115289.41946 -14777373.22746  21394646.7194   21394650.4924
        18.5004         17.7504
  15827130.52145  12410245.00045  23047930.9924   23047932.8674
         9.7504         10.0004
  -9832543.42646  -6345294.50246  21528964.7974   21528967.9614
        18.2504         18.2504
 -15116885.08847 -11683607.07246  20923917.4774   20923919.3524
        22.2504         22.2504
 -11857721.65641  -9120212.35143  24574708.9694   24574716.9534
         3.7504          3.7504
 -18432086.31746 -14288288.39146  21959077.1484   21959078.6844
        16.0004         15.0004
 03 10 30  2  3  0.0000000  0  6G24G 7G 9G 4G30G 5
 -20144407.24146 -14800062.25646  21389105.5944   21389109.8244
        18.7504         17.7504
  15933143.69945  12492852.71545  23068104.6254   23068106.9694
         9.7504          9.2504
  -9744024.86246  -6276319.11846  21545809.4304   21545813.0864
        18.0004         18.2504
 -15060260.63147 -11639484.09546  20934692.8594   20934694.2304
        22.2504         22.0004
 -11924040.25642  -9171888.92444  24562089.6254   24562093.8094
         4.0004          4.0004
 -18471024.90246 -14318630.15346  21951667.3834   21951669.7034
        16.0004         15.5004
 03 10 30  2  3 30.0000000  0  7G24G 7G 9G 4G30G17G 5
 -20173098.11046 -14822418.59746  21383646.2424   21383649.5824
        18.5004         17.7504
  16039189.89845  12575485.94445  23088284.7894   23088288.6334
         9.7504          9.2504
  -9655026.05946  -6206969.51546  21562745.7504   21562749.3364
        18.0004         18.2504
 -15003083.02047 -11594930.17146  20945573.4144   20945575.2424
        22.5004         22.2504
 -11990387.29042  -9223587.72944  24549463.7664   24549473.9774
         4.0004          4.0004
 -11039754.04951                  25234451.9224
         3.7504
 -18509770.84046 -14348821.80446  21944294.3834   21944296.3634
        16.5004         16.0004
 03 10 30  2  4  0.0000000  0  7G24G 7G 9G 4G30G17G 5
 -20201364.29646 -14844444.19846  21378266.7664   21378270.6914
        18.2504         18.2504
  16145265.39445  12658142.12845  23108470.6884   23108473.1484
         9.7504          9.7504
  -9565553.05446  -6137250.41046  21579772.0474   21579775.7624
        18.0004         18.0004
 -14945356.97147 -11549948.82846  20956558.3134   20956560.0824
        22.5004         22.2504
 -12056765.11242  -9275310.59945  24536832.2424   24536833.2034
         4.2504          5.0004
 -11110663.28642                  25220955.7584
         4.5004
 -18548325.63246 -14378864.51346  21936957.5004   21936959.5164
        16.7504         16.2504
 03 10 30  2  4 30.0000000  0  7G24G 7G 9G 4G30G17G 5
 -20229201.82046 -14866135.68646  21372970.0084   21372974.0634
        18.7504         18.0004
  16251371.13745  12740821.81945  23128662.2974   23128665.3914
         9.7504          9.5004
  -9475606.17846  -6067162.04746  21596888.1174   21596891.9494
        17.5004         17.7504
 -14887081.88447 -11504539.64146  20967647.7664   20967649.5824
        22.5004         22.5004
 -12123170.53542                  24524195.7734
         4.2504
 -11181595.83743                  25207457.0164
         5.2504
 -18586686.04046 -14408755.82746  21929657.9694   21929659.9384
        16.5004         15.7504
 03 10 30  2  5  0.0000000  0  7G24G 7G 9G 4G30G17G 5
 -20256613.57646 -14887495.44746  21367753.5234   21367757.4734
        18.7504         18.2504
  16357502.59445  12823521.73845  23148857.9064   23148860.0984
         9.5004          9.5004
  -9385191.68746  -5996709.33546  21614093.4614   21614097.0944
        17.7504         18.0004
 -14828263.65147 -11458707.24046  20978840.5554   20978841.9614
        22.7504         22.5004
 -12189606.28842                  24511553.5864
         4.5004
 -11252554.30243                  25193951.1804
         5.2504
 -18624853.78546 -14438496.90246  21922394.6884   21922396.7734
        16.5004         16.0004
 03 10 30  2  5 30.0000000  0  7G24G 7G 9G 4G30G17G 5
 -20283587.21946 -14908513.64046  21362620.5234   21362624.1684
        18.7504         18.2504
  16463668.85045  12906248.68145  23169060.5314   23169064.0824
         9.2504          9.5004
  -9294301.71846  -5925886.16946  21631389.5634   21631393.1024
        17.7504         17.7504
 -14768893.34447 -11412444.70246  20990138.2664   20990139.7774
        22.5004         22.2504
 -12256061.06042                  24498907.4064
         4.7504
 -11323525.53242                  25180444.6484
         4.7504
 -18662817.16146 -14468078.73346  21915170.3754   21915173.0704
        16.7504         16.0004
 03 10 30  2  6  0.0000000  0  7G24G 7G 9G 4G30G17G 5
 -20310131.30646 -14929197.10546  21357568.4774   21357572.2624
        18.5004         18.0004
  16569859.50745  12988994.58345  23189268.6804   23189272.4184
         9.0004          9.2504
  -9202947.87446  -5854701.45846  21648773.7344   21648777.6724
        17.5004         17.5004
 -14708981.88947 -11365760.42946  21001538.8284   21001540.5514
        22.7504         22.2504
 -12322542.89343  -8619104.11554  24486256.7664   24486265.4184
         5.0004          4.0004
 -11394518.17241                  25166933.0314
         3.7504
 -18700584.23046 -14497507.58446  21907983.7734   21907986.0594
        17.2504         16.7504
 03 10 30  2  6 30.0000000  0  7G24G 7G 9G 4G30G17G 5
 -20336235.15346 -14949537.33046  21352601.1334   21352604.4384
        18.7504         18.5004
  16676082.78645  13071765.80145  23209481.9694   23209484.6414
         8.7504          9.7504
  -9111123.56446  -5783150.10446  21666247.4694   21666251.0434
        17.5004         18.0004
 -14648521.95247 -11318648.80346  21013044.0554   21013045.8834
        22.5004         22.2504
 -12389041.88443  -8670921.59245  24473602.3834   24473607.9144
         5.5004          5.7504
 -11068173.07451                  25153417.9694
         2.2504
 -18738144.44646 -14526775.25946  21900836.3284   21900838.7304
        17.2504         16.2504
 03 10 30  2  7  0.0000000  0  7G24G 7G 9G 4G30G17G 5
 -20361897.00446 -14969533.18746  21347717.8364   21347721.1294
        19.5004         18.5004
  16782339.01245  13154562.86445  23229701.6564   23229704.9734
         8.2504          9.2504
  -9018830.96346  -5711233.91646  21683810.1804   21683814.4574
        17.7504         17.7504
 -14587514.29147 -11271110.37546  21024653.5704   21024655.2464
        22.7504         22.0004
 -12455555.73743  -8722750.65545  24460945.3134   24460947.0124
         6.0004          5.7504
 -11053976.35851                  25139904.4614
         2.5004
 -18775494.78346 -14555879.40546  21893728.4694   21893730.7774
        17.0004         16.0004
 03 10 30  2  7 30.0000000  0  7G24G 7G 9G 4G30G17G 5
 -20387120.39446 -14989187.47646  21342917.0164   21342920.5204
        19.2504         18.5004
  16888622.51545  13237381.16545  23249926.8364   23249928.5474
         8.0004          9.0004
  -8926076.84046  -5638958.10946  21701460.5394   21701464.1844
        17.7504         18.2504
 -14525965.37347 -11223150.23446  21036366.0314   21036367.6024
        22.7504         22.2504
 -12522087.88643  -8774593.85145  24448284.8914   24448287.2814
         6.0004          5.2504
 -11124997.11242                  25126388.5704
         4.0004
 -18812638.45646 -14584822.48946  21886660.0944   21886661.7704
        17.5004         16.5004
 03 10 30  2  8  0.0000000  0  7G24G 7G 9G 4G30G17G 5
 -20411902.17146 -15008497.64046  21338201.3364   21338204.4654
        19.2504         18.5004
  16994934.45645  13320221.61745  23270157.2974   23270162.5004
         8.0004          9.2504
  -8832861.64546  -5566322.99746  21719199.0004   21719203.0204
        17.7504         18.0004
 -14463874.57947 -11174767.80046  21048181.4924   21048182.9804
        22.7504         22.0004
 -12588635.11543  -8826448.78845  24435621.9454   24435624.7814
         6.2504          6.5004
 -11196024.42642                  25112870.7114
         4.2504
 -18849572.00646 -14613601.88046  21879632.1644   21879634.2734
        17.7504         17.0004
 03 10 30  2  8 30.0000000  0  7G24G 7G 9G 4G30G17G 5
 -20436244.39646 -15027465.30846  21333569.0234   21333572.0824
        19.5004         18.5004
  17101270.73645  13403081.12945  23290392.3524   23290397.5314
         8.0004          8.2504
  -8739191.70046  -5493333.57646  21737023.9694   21737027.9774
        17.7504         18.0004
 -14401247.19947 -11125967.22846  21060098.8444   21060100.6604
        22.2504         22.0004
 -12655199.73843  -8878317.18745  24422953.4384   24422956.2504
         5.5004          6.0004
 -11267060.87041                  25099352.0864
         3.5004
 -18886297.30246 -14642218.96646  21872643.6174   21872645.8554
        18.0004         17.2504
 03 10 30  2  9  0.0000000  0  7G24G 7G 9G 4G30G17G 5
 -22035571.63846 -16273694.06646  21029226.8364   21029230.2704
        19.0004         18.5004
  15632208.32544  12258357.22745  23010838.7894   23010842.6214
         7.7504          9.0004
 -10220491.20946  -6647593.02846  21455142.5704   21455146.3674
        17.7504         17.7504
 -15913507.95347 -12304352.23146  20772325.4064   20772326.8364
        22.5004         22.0004
 -14297208.26742 -10157804.31645  24110489.6484   24110492.2034
         4.5004          6.2504
 -12913530.28042                  24786036.5784
         4.7504
 -20498238.74846 -15898277.16846  21565901.1254   21565903.1294
        17.7504         17.0004
 03 10 30  2  9 30.0000000  0  7G24G 7G 9G 4G30G17G 5
 -22059037.56746 -16291978.95046  21024761.8134   21024764.4384
        19.5004         18.7504
  15738583.39544  12341246.94845  23031081.1414   23031084.5864
         7.7504          8.7504
 -10125925.34746  -6573905.39946  21473137.5164   21473141.4654
        17.5004         17.7504
 -15849819.31947 -12254724.67646  20784444.9454   20784446.5864
        22.2504         22.0004
 -14363810.99441 -10209702.42544  24097815.7584   24097815.3834
         3.2504          4.5004
 -12984584.08443                  24772513.8674
         5.5004
 -20534549.09246 -15926570.91446  21558991.5864   21558993.5904
        18.2504         17.5004
 03 10 30  2 10  0.0000000  0  7G24G 7G 9G 4G30G17G 5
 -22082063.82846 -16309921.26946  21020379.4144   21020382.0394
        19.2504         19.0004
  15844976.61045  12424150.69845  23051327.2504   23051330.7664
         8.0004          9.0004
 -10030915.82446  -6499872.06046  21491217.0164   21491221.0594
        17.2504         17.7504
 -15785602.68747 -12204685.73746  20796665.0554   20796666.5084
        22.5004         22.0004
 -14430431.10341 -10261614.08344  24085138.2114   24085142.1024
         3.0004          4.2504
 -13055644.26742                  24758991.1644
         4.7504
 -20570649.70446 -15954701.24746  21552122.2034   21552124.2424
        18.2504         17.5004
 03 10 30  2 10 30.0000000  0  7G24G 7G 9G 4G30G17G 5
 -22104657.37846 -16327526.46846  21016079.7894   21016082.8834
        19.5004         19.0004
  15951379.36345  12507062.03345  23071574.8444   23071578.8164
         8.2504          8.7504
  -9935473.06546  -6425501.17746  21509379.7974   21509383.3244
        17.2504         17.7504
 -15720867.94447 -12154243.09646  20808983.3594   20808985.1764
        22.2504         21.7504
 -14497075.19342 -10313544.44945  24072456.6414   24072463.8164
         4.0004          5.2504
 -13126716.89642                  24745464.5704
         4.2504
 -20606546.49346 -15982672.76546  21545290.8444   21545292.9774
        18.0004         17.5004
 03 10 30  2 11  0.0000000  0  7G24G 7G 9G 4G30G17G 5
 -22126816.16746 -16344792.90846  21011863.1484   21011866.3954
        19.5004         19.0004
  16057791.12445  12589980.37045  23091824.3984   23091827.1644
         8.2504          9.0004
  -9839599.08546  -6350794.27046  21527623.7424   21527627.5044
        17.0004         17.0004
 -15655616.29747 -12103397.65946  20821400.2584   20821402.1914
        22.2504         22.0004
 -14563741.47843 -10365492.23245  24059770.2734   24059773.7774
         5.0004          5.2504
 -13197799.85442                  24731935.8674
         4.0004
 -20642237.64946 -16010483.99846  21538499.1094   21538501.3954
        18.2504         17.7504
 03 10 30  2 11 30.0000000  0  7G24G 7G 9G 4G30G17G 5
 -22148539.57746 -16361720.14446  21007729.2504   21007732.2154
        19.5004         19.2504
  16164210.84845  12672904.93245  23112075.9694   23112076.3914
         8.7504          9.0004
  -9743296.64546  -6275753.45446  21545949.5394   21545953.4654
        17.0004         17.2504
 -15589849.88847 -12052151.09346  20833915.5234   20833917.0944
        22.2504         21.7504
 -14630428.87443 -10417456.23545  24047080.0394   24047081.6804
         6.0004          5.0004
 -13268891.78341                  24718406.7734
         2.7504
 -20677721.86646 -16038134.01846  21531746.9534   21531748.8404
        18.5004         17.7504
 03 10 30  2 12  0.0000000  0  7G24G 7G 9G 4G30G17G 5
 -22169822.04446 -16378303.77446  21003679.3444   21003682.1334
        19.5004         19.0004
  16270641.93945  12755838.15245  23132328.5944   23132332.1094
         8.7504          9.0004
  -9646564.33446  -6200377.66146  21564357.3054   21564361.8634
        16.7504         17.2504
 -15523566.43647 -12000501.71046  20846528.5164   20846530.3324
        22.2504         22.0004
 -14697131.97543                  24034387.2734
         6.5004
 -13339985.76741                  24704876.1884
         3.0004
 -20712993.01946 -16065618.05746  21525034.8674   21525036.6484
        18.2504         17.5004
 03 10 30  2 12 30.0000000  0  7G24G 7G 9G 4G30G17G 5
 -22190669.57746 -16394548.48546  20999712.0704   20999715.0124
        19.2504         19.2504
  16377076.62145  12838774.32545  23152582.6954   23152587.2194
         8.7504          8.2504
  -9549412.18046  -6124674.71446  21582844.4614   21582848.3524
        17.0004         17.0004
 -15456774.95247 -11948456.39446  20859238.6644   20859240.4924
        22.0004         21.7504
 -14763856.81943                  24021688.8984
         6.5004
 -13411088.61841                  24691343.9144
         2.7504
 -20748057.55946 -16092941.07546  21518362.1884   21518364.4844
        18.0004         17.0004
 03 10 30  2 13  0.0000000  0  7G24G 7G 9G 4G30G17G 5
 -22211081.54046 -16410453.81446  20995827.4144   20995830.2034
        19.7504         19.2504
  16483513.41545  12921712.07345  23172837.2894   23172839.4924
         8.7504          8.2504
  -9451843.01046  -6048646.84546  21601411.4534   21601415.2384
        16.7504         16.7504
 -15389477.47747 -11896016.76946  20872045.1564   20872046.8794
        22.0004         22.0004
 -14830602.33743                  24008988.3364
         6.0004
 -13482197.60441                  24677811.4534
         3.7504
 -20782913.23146 -16120101.34246  21511729.5864   21511731.6134
        18.5004         18.0004
 03 10 30  2 13 30.0000000  0  7G24G 7G 9G 4G30G17G 5
 -22231057.99846 -16426019.80046  20992026.1884   20992028.7894
        19.5004         19.2504
  16589950.69545  13004650.09345  23193091.8674   23193094.3404
         8.7504          8.5004
  -9353860.31346  -5972296.77946  21620056.7734   21620060.8984
        16.7504         17.2504
 -15321677.01247 -11843185.26846  20884947.2344   20884949.3324
        22.2504         21.5004
 -14897368.50543  -9869356.88155  23996282.6804   23996286.1484
         5.5004          5.7504
 -13553312.50743                  24664277.8364
         5.0004
 -20817559.47746 -16147098.42846  21505136.3834   21505138.7974
        18.7504         18.0004
 03 10 30  2 14  0.0000000  0  7G24G 7G 9G 4G30G17G 5
 -22250593.13346 -16441241.90446  20988308.5704   20988311.3364
        19.7504         19.5004
  16696392.56745  13087591.80245  23213346.7664   23213349.6374
         8.5004          8.2504
  -9255462.51946  -5895623.22446  21638781.3204   21638785.1294
        17.0004         16.7504
 -15253371.23747 -11789960.00246  20897945.2034   20897946.6334
        22.0004         21.5004
 -14964149.30742  -9921393.85644  23983574.4454   23983574.8204
         4.7504          4.7504
 -13624427.10243                  24650743.1254
         5.7504
 -20851990.27246 -16173927.63246  21498584.4924   21498586.7664
        18.5004         17.7504
 03 10 30  2 14 30.0000000  0  7G24G 7G 9G 4G30G17G 5
 -22269693.12446 -16456124.93246  20984674.0004   20984676.8244
        19.7504         19.5004
  16802830.96445  13170530.92145  23233601.5234   23233605.1564
         8.2504          8.2504
  -9156659.46046  -5818633.87746  21657582.7114   21657586.7664
        16.7504         16.7504
 -15184568.59247 -11736347.53346  20911037.9694   20911039.5864
        22.0004         21.2504
 -15030950.50942  -9973446.54145  23970862.9064   23970865.1094
         4.5004          5.0004
 -13695546.55443  -9852200.27755  24637208.5234   24637224.6174
         6.0004          5.2504
 -20886210.88246 -16200593.05846  21492072.3284   21492074.8594
        18.5004         17.7504
 03 10 30  2 15  0.0000000  0  7G24G 7G 9G 4G30G17G 5
 -22288356.33146 -16470667.60146  20981122.5084   20981125.5314
        19.7504         19.5004
  16909265.77145  13253467.09645  23253854.4614   23253854.1334
         8.2504          8.0004
  -9057452.84946  -5741330.12346  21676461.5784   21676465.7854
        17.2504         17.0004
 -15115270.39747 -11682348.91146  20924224.8134   20924226.4064
        21.7504         21.5004
 -15097769.94142 -10025513.61645  23958147.0944   23958153.8914
         4.5004          5.0004
 -13766668.12543  -9907617.88445  24623672.5784   24623691.1214
         5.5004          5.2504
 -20920219.02646 -16227092.92046  21485601.3204   21485603.1604
        19.0004         18.0004
 03 10 30  2 15 30.0000000  0  7G24G 7G 9G 4G30G17G 5
 -22306583.52546 -16484870.52946  20977653.8524   20977656.6994
        19.7504         19.5004
  17015694.37445  13336398.34745  23274107.7344   23274112.5514
         8.0004          8.2504
  -8957847.23746  -5663715.42646  21695416.1174   21695420.1254
        17.5004         17.0004
 -15045480.84247 -11627967.46346  20937505.3674   20937507.0554
        22.0004         21.0004
 -15164608.18642 -10077595.38145  23945428.2344   23945428.4694
         4.7504          5.0004
 -13837791.96542  -9963037.13643  24610136.7034   24610155.2344
         4.7504          3.2504
 -20954015.25746 -16253427.70846  21479170.2584   21479172.2854
        19.2504         18.7504
 03 10 30  2 16  0.0000000  0  7G24G 7G 9G 4G30G17G 5
 -22324369.37347 -16498729.51246  20974269.2194   20974272.0554
        20.0004         20.0004
  17122120.29244  13419327.53545  23294360.1564   23294362.2424
         7.7504          8.0004
  -8857841.47146  -5585788.91146  21714446.8284   21714451.1174
        17.2504         17.0004
 -14975197.47947 -11573201.21746  20950880.1254   20950881.4614
        21.7504         21.2504
 -15231459.81843 -10129687.62645  23932707.9224   23932708.7894
         5.5004          5.2504
 -13908912.19641 -10018453.57544  24596601.3204   24596620.0984
         3.7504          4.2504
 -20987593.28046 -16279592.40546  21472780.3444   21472782.9574
        18.7504         18.2504
 03 10 30  2 16 30.0000000  0  7G24G 7G 9G 4G30G17G 5
 -22341712.47646 -16512243.51246  20970969.0084   20970971.7974
        19.7504         19.5004
  17228543.71444  13502254.91945  23314611.7194   23314615.0124
         7.5004          7.2504
  -8757437.58346  -5507552.15146  21733552.8134   21733557.0204
        16.7504         16.5004
 -14904421.66847 -11518051.27246  20964347.8594   20964349.3954
        21.7504         21.2504
 -15298322.50143 -10181788.42245  23919983.2974   23919990.4734
         5.7504          5.2504
 -13980026.45441 -10073865.46643  24583066.8204   24583095.1644
         3.2504          3.7504
 -21020950.24946 -16305584.86346  21466432.4774   21466434.9494
        18.7504         18.2504
 03 10 30  2 17  0.0000000  0  7G24G 7G 9G 4G30G17G 5
 -22358610.11546 -16525410.39946  20967753.1254   20967755.9614
        19.7504         19.7504
  17334965.37844  13585180.84945  23334862.8984   23334865.6994
         7.2504          7.2504
  -8656636.47446  -5429005.88946  21752734.5084   21752738.5864
        16.5004         16.7504
 -14833153.62147 -11462517.77346  20977910.1564   20977912.2544
        21.5004         21.0004
 -15365193.17243 -10233895.47645  23907259.0634   23907261.0434
         6.0004          6.0004
 -14051130.86841 -10129269.71344  24569534.8054   24569553.9694
         3.2504          4.5004
 -21054083.11146 -16331402.61746  21460127.6024   21460129.7814
        19.2504         18.7504
 03 10 30  2 17 30.0000000  0  7G24G 7G 9G 4G30G17G 5
 -22375060.10747 -16538228.49046  20964622.9694   20964625.7114
        20.0004         20.0004
  17441386.00144  13668105.98045  23355115.0634   23355118.4844
         7.0004          6.2504
  -8555439.55946  -5350151.19046  21771991.5474   21771995.7304
        16.7504         16.2504
 -14761394.00947 -11406601.16846  20991565.3134   20991567.1294
        21.7504         21.0004
 -15432069.35543 -10286006.81245  23894532.6414   23894535.1844
         6.2504          6.5004
 -14122222.54741 -10184663.89445  24556006.7344   24556022.3834
         3.7504          5.5004
 -21086988.98746 -16357043.52646  21453865.8594   21453867.9224
        19.5004         19.0004
 03 10 30  2 18  0.0000000  0  7G24G 7G 9G 4G30G17G 5
 -22391056.69247 -16550693.32246  20961578.6094   20961581.1644
        20.0004         20.0004
  17547809.14843  13751032.85245  23375365.3674   23375369.6564
         6.7504          7.2504
  -8453845.00046  -5270986.62346  21791324.0474   21791327.9964
        16.2504         16.2504
 -14689140.33447 -11350299.60446  21005314.8444   21005316.5664
        21.7504         21.0004
 -15498944.86543 -10338117.62945  23881807.3284   23881809.3324
         6.2504          5.2504
 -14193295.14542 -10240043.30444  24542478.2034   24542494.5204
         4.0004          4.7504
 -21119661.79246 -16382502.87046  21447648.1884   21447650.5784
        19.2504         18.7504
 03 10 30  2 18 30.0000000  0  7G24G 7G 9G 4G30G17G 5
 -22406600.47547 -16562805.25946  20958620.9614   20958623.6564
        20.2504         20.2504
  17654233.47643  13833960.95945  23395618.2424   23395619.9654
         6.7504          7.2504
  -8351857.11846  -5191515.55446  21810732.0394   21810735.7664
        17.0004         16.2504
 -14616396.08247 -11293615.78846  21019157.7344   21019159.1884
        21.7504         21.2504
 -15565819.71643 -10390227.89744  23869080.8364   23869085.5944
         5.7504          4.7504
 -14264348.23243 -10295407.56145  24528957.5234   24528977.3324
         5.0004          5.7504
 -21152100.82046 -16407780.02746  21441475.0864   21441477.7234
        19.5004         19.0004
 03 10 30  2 19  0.0000000  0  7G24G 7G 9G 4G30G17G 5
 -22421693.46147 -16574565.96146  20955748.9614   20955751.2934
        20.7504         20.2504
  17760654.93543  13916886.86745  23415869.0394   23415871.4884
         6.5004          7.7504
  -8249481.53846  -5111742.38746  21830213.8284   21830217.8484
        16.5004         16.0004
 -14543166.47547 -11236553.76646  21033092.6254   21033094.3134
        21.7504         20.7504
 -15632695.59342 -10442338.95945  23856355.2194   23856351.6914
         4.7504          5.0004
 -14335382.82243 -10350757.57645  24515438.0474   24515449.5824
         5.5004          6.0004
 -21184307.36747 -16432876.03146  21435346.7114   21435348.7974
        20.0004         19.0004
 03 10 30  2 19 30.0000000  0  7G24G 7G 9G 4G30G17G 5
 -22436332.46947 -16585972.90546  20952962.9384   20952965.6094
        20.2504         20.2504
  17867074.90843  13999811.62345  23436119.7194   23436121.9344
         6.5004          7.7504
  -8146718.82146  -5031667.59246  21849768.7894   21849772.9024
        16.2504         16.0004
 -14469450.97647 -11179113.09046  21047120.3284   21047122.1094
        21.5004         21.0004
 -15699568.76742 -10494447.85944  23843628.5784   23843636.3054
         4.2504          4.7504
 -14406394.99242 -10406090.06745  24501923.2114   24501943.3244
         4.0004          5.7504
 -21216277.22446 -16457787.58546  21429263.2504   21429265.3834
        19.7504         19.0004
 03 10 30  2 20  0.0000000  0  7G24G 7G 9G 4G30G17G 5
 -22450518.77847 -16597027.11746  20950263.3914   20950265.9104
        20.5004         20.5004
  17973490.60443  14082732.86445  23456369.8674   23456371.9774
         6.7504          8.5004
  -8043573.94946  -4951294.96546  21869396.7664   21869400.4224
        16.2504         16.0004
 -14395254.01547 -11121297.25046  21061239.4384   21061240.9494
        21.7504         20.7504
 -15766439.64942 -10546554.93445  23830903.9304   23830906.0394
         4.7504          5.7504
 -14477385.21441 -10461405.26944  24488413.7194   24488426.9884
         3.2504          4.2504
 -21248011.34846 -16482515.42446  21423224.0634   21423226.5594
        19.2504         18.7504
 03 10 30  2 20 30.0000000  0  7G24G 7G 9G 4G30G17G 5
 -22464248.80547 -16607725.75246  20947650.8134   20947653.2854
        20.5004         20.5004
  18079904.60343  14165653.01145  23476619.5784   23476623.3634
         6.7504          7.2504
  -7940046.95646  -4870624.60546  21889097.5234   21889101.8954
        16.0004         16.0004
 -14320574.85747 -11063105.70946  21075450.3594   21075452.2704
        21.7504         21.0004
 -15833304.22543 -10598657.15445  23818180.9924   23818184.3324
         5.5004          6.7504
 -14548348.42243 -10516699.63644  24474909.7274   24474930.0634
         5.0004          4.5004
 -21279505.08846 -16507056.04346  21417231.0704   21417233.7304
        19.7504         19.2504
 03 10 30  2 21  0.0000000  0  7G24G 7G 9G 4G30G17G 5
 -22477519.73147 -16618066.67146  20945125.4064   20945127.6564
        20.5004         20.7504
  18186318.14744  14248572.57645  23496869.7974   23496873.7934
         7.0004          7.7504
  -7836138.53746  -4789657.00546  21908870.5234   21908874.8014
        15.7504         15.5004
 -14245413.29747 -11004538.33046  21089753.4304   21089755.2934
        21.7504         20.7504
 -15900158.61243 -10650751.38045  23805458.3914   23805459.3874
         6.2504          7.0004
 -14619280.95843 -10571970.26945  24461410.0554   24461424.9304
         6.0004          5.7504
 -21310754.05247 -16531405.77546  21411284.4304   21411286.9614
        20.0004         19.0004
 03 10 30  2 21 30.0000000  0  7G24G 7G 9G 4G30G17G 5
 -22490332.74347 -16628050.74546  20942687.0474   20942689.3674
        21.0004         20.5004
  18292728.60044  14331489.90545  23517119.7114   23517122.9454
         7.2504          8.5004
  -7731853.71946  -4708396.15746  21928715.2344   21928719.3484
        15.7504         15.5004
 -14169773.57847 -10945598.22546  21104147.1174   21104148.5944
        21.7504         20.7504
 -15967003.49943 -10702838.32645  23792738.3754   23792741.6804
         6.2504          7.5004
 -14690182.88143 -10627217.05945  24447916.8284   24447931.8674
         5.5004          5.2504
 -21341758.87347 -16555565.32446  21405384.2034   21405386.2304
        20.0004         19.5004
 03 10 30  2 22  0.0000000  0  7G24G 7G 9G 4G30G17G 5
 -22502685.19247 -16637675.98146  20940336.4454   20940338.9534
        20.5004         20.5004
  18399137.12244  14414405.73045  23537367.4144   23537371.9384
         7.2504          8.0004
  -7627193.48746  -4626842.75446  21948631.5084   21948635.8674
        15.5004         15.5004
 -14093656.39947 -10886286.12846  21118631.3444   21118632.9264
        21.5004         20.5004
 -16033835.79343 -10754915.46045  23780020.8524   23780025.4804
         6.2504          6.5004
 -14761050.81042 -10682437.28544  24434429.3914   24434440.0354
         4.5004          4.7504
 -21372516.11747 -16579531.93846  21399531.5234   21399533.6564
        20.2504         19.7504
 03 10 30  2 22 30.0000000  0  7G24G 7G 9G 4G30G17G 5
 -22514577.11847 -16646942.35646  20938073.2584   20938075.7894
        20.5004         20.5004
  18505542.07244  14497318.65845  23557616.6254   23557618.2424
         7.5004          7.7504
  -7522161.36046  -4544999.59546  21968617.9454   21968622.8794
        15.2504         15.2504
 -14017064.30247 -10826604.02646  21133206.8284   21133208.4694
        21.7504         20.7504
 -16100654.37943 -10806981.85045  23767304.2814   23767307.9384
         6.0004          6.2504
 -14831883.55642 -10737630.28145  24420948.7344   24420965.3324
         4.7504          6.2504
 -21403024.85947 -16603304.93146  21393725.7114   21393728.1484
        20.2504         19.5004
 03 10 30  2 23  0.0000000  0  7G24G 7G 9G 4G30G17G 5
 -22526000.81047 -16655843.87346  20935899.3444   20935902.1214
        20.5004         20.5004
  18611949.83944  14580233.80545  23577865.1024   23577869.7894
         7.7504          8.0004
  -7416753.41046  -4462863.58746  21988676.2424   21988680.3554
        15.0004         15.5004
 -13939992.75447 -10766548.34846  21147873.0474   21147875.0864
        21.5004         20.5004
 -16167451.05443 -10859031.09445  23754593.4844   23754595.3014
         6.5004          7.2504
 -14902672.23643 -10792788.89245  24407477.6724   24407492.1484
         5.7504          6.7504
 -21433276.09547 -16626877.24646  21387968.8674   21387971.2584
        20.2504         19.5004
 03 10 30  2 23 30.0000000  0  7G24G 7G 9G 4G30G17G 5
 -22536963.26747 -16664386.03546  20933813.3674   20933815.8754
        21.0004         20.7504
  18718352.53244  14663144.97645  23598112.8054   23598116.9064
         7.7504          7.7504
  -7310979.76846  -4380442.63646  22008805.0554   22008809.2384
        15.2504         15.5004
 -13862451.25247 -10706126.37446  21162628.6024   21162630.2544
        21.2504         20.5004
 -16234231.76344 -10911068.04745  23741886.0234   23741885.1914
         7.2504          5.7504
 -14973422.57642 -10847917.71045  24394012.7504   24394030.7194
         4.7504          5.5004
 -21463275.74047 -16650253.59146  21382260.0554   21382262.1524
        20.0004         19.5004
 03 10 30  2 24  0.0000000  0  7G24G 7G 9G 4G30G17G 5
 -22547462.53047 -16672567.16346  20931815.0704   20931817.5314
        20.5004         20.5004
  18824750.16544  14746052.23445  23618360.2034   23618363.5084
         7.7504          8.5004
  -7204842.86246  -4297738.60846  22029002.0394   22029006.4804
        15.5004         15.5004
 -13784441.44547 -10645339.51946  21177473.4534   21177475.0704
        21.2504         20.7504
 -16300994.24544 -10963090.77645  23729181.1484   23729184.4414
         7.0004          6.0004
 -15044132.52343 -10903015.17744  24380558.5474   24380574.3484
         5.7504          4.7504
 -21493021.43247 -16673432.04646  21376600.0234   21376602.3094
        20.5004         19.7504
 03 10 30  2 24 30.0000000  0  7G24G 7G 9G 4G30G17G 5
 -22557492.99347 -16680383.05746  20929906.5234   20929908.8554
        20.5004         20.7504
  18931147.44644  14828959.24745  23638606.4844   23638608.1954
         7.7504          7.2504
  -7098340.39546  -4214749.73746  22049268.8054   22049273.1644
        15.2504         15.5004
 -13705960.38347 -10584185.48246  21192407.7664   21192409.7114
        21.2504         20.2504
 -16367731.92043 -11015094.18645  23716481.4534   23716485.3554
         6.0004          5.7504
 -15114794.35543 -10958075.05045  24367110.7194   24367119.4304
         6.0004          5.7504
 -21522506.09247 -16696407.08446  21370989.2664   21370991.4804
        20.5004         19.7504
 03 10 30  2 25  0.0000000  0  7G24G 7G 9G 4G30G17G 5
 -22567052.62647 -16687832.07546  20928087.2504   20928089.5474
        21.0004         21.0004
  19037545.20544  14911866.54645  23658853.3594   23658860.4304
         7.5004          7.0004
  -6991473.63846  -4131477.04846  22069604.7584   22069609.0474
        15.2504         15.5004
 -13627008.69247 -10522664.70546  21207431.9064   21207433.8634
        21.2504         20.2504
 -16434441.50242 -11067075.78144  23703786.0234   23703790.3484
         4.2504          4.0004
 -15185405.09842 -11013095.14945  24353671.6024   24353679.2814
         4.7504          5.7504
 -21551726.60247 -16719176.32846  21365428.7194   21365430.9224
        20.2504         20.0004
 03 10 30  2 25 30.0000000  0  7G24G 7G 9G 4G30G17G 5
 -22576136.16647 -16694910.11146  20926358.6724   20926361.1094
        21.0004         21.0004
  19143947.27044  14994777.25945  23679100.0634   23679102.8754
         7.2504          7.2504
  -6884241.20546  -4047919.43946  22090010.7894   22090014.9384
        15.2504         15.2504
 -13547584.25847 -10460775.55246  21222545.8134   21222547.6414
        21.0004         20.2504
 -16501116.86542 -11119030.43944  23691097.4614   23691099.7234
         4.2504          4.0004
 -15255958.50643 -11068070.71945  24340245.0784   24340261.0784
         5.0004          5.2504
 -21580676.80647 -16741734.90346  21359919.6174   21359921.8554
        20.7504         20.0004
 03 10 30  2 26  0.0000000  0  7G24G 7G 9G 4G30G17G 5
 -22584745.15047 -16701618.34546  20924720.4844   20924722.4884
        21.0004         21.2504
  19250350.88744  15077689.23245  23699348.3834   23699347.5744
         7.0004          6.7504
  -6776648.31146  -3964080.96746  22110485.3594   22110489.6134
        15.2504         15.7504
 -13467691.53947 -10398521.50646  21237748.9304   21237750.5004
        21.0004         20.0004
 -16567758.83643 -11170959.36045  23678417.3984   23678419.5314
         5.5004          5.0004
 -15326454.96443 -11123001.80145  24326829.3914   24326839.6374
         5.2504          5.2504
 -21609357.16247 -16764083.19446  21354461.8674   21354464.0354
        21.0004         20.2504
 03 10 30  2 26 30.0000000  0  7G24G 7G 9G 4G30G17G 5
 -22592888.53547 -16707963.80746  20923170.5634   20923172.9064
        20.7504         21.0004
  19356746.08843  15160594.62045  23719595.4384   23719598.9184
         6.7504          6.2504
  -6668706.90646  -3879970.89246  22131025.8054   22131030.2234
        15.2504         15.0004
 -13387342.02247 -10335911.48946  21253038.7274   21253040.5554
        21.0004         20.2504
 -16634375.08643 -11222868.11745  23665740.8054   23665746.0204
         6.5004          6.0004
 -15396901.96343 -11177894.41645  24313423.0634   24313436.7664
         5.0004          5.2504
 -21637775.08647 -16786227.04946  21349054.0004   21349056.2034
        21.0004         20.7504
 03 10 30  2 27  0.0000000  0  7G24G 7G 9G 4G30G17G 5
 -22600559.09347 -16713940.86346  20921711.0784   20921713.5864
        20.7504         21.0004
  19463138.96743  15243498.17245  23739841.5164   23739842.2074
         6.2504          6.2504
  -6560413.33946  -3795586.33946  22151633.3134   22151637.2504
        15.0004         14.7504
 -13306531.39447 -10272942.21046  21268416.8444   21268418.3444
        21.0004         20.0004
 -16700957.23943 -11274750.40145  23653071.1884   23653072.5234
         6.7504          7.0004
 -15467290.77743 -11232741.89645  24300027.8754   24300046.6884
         5.0004          5.0004
 -21665921.77147 -16808159.48846  21343698.0084   21343700.5514
        20.7504         20.5004
 03 10 30  2 27 30.0000000  0  7G24G 7G 9G 4G30G17G 5
 -22607754.05447 -16719547.30746  20920341.8754   20920344.1254
        20.7504         21.0004
  19569530.99443  15326401.13945  23760086.5164   23760090.4304
         5.7504          6.5004
  -6451768.69046  -3710928.18646  22172307.8834   22172311.9614
        15.0004         14.7504
 -13225259.99447 -10209613.82946  21283882.2344   21283883.7114
        20.7504         20.0004
 -16767501.98043 -11326603.42745  23640407.4454   23640412.3554
         6.2504          7.2504
 -15537618.02943 -11287541.27845  24286644.7894   24286655.0944
         6.0004          6.2504
 -21693794.09847 -16829878.12146  21338394.0784   21338396.6094
        20.7504         20.2504
 03 10 30  2 28  0.0000000  0  7G24G 7G 9G 4G30G17G 5
 -22614469.10547 -16724779.72646  20919063.9694   20919066.5704
        20.5004         20.7504
  19675925.53743  15409305.83045  23780332.8364   23780340.1054
         5.5004          5.7504
  -6342772.02146  -3625995.76446  22193048.7664   22193053.6764
        14.5004         14.2504
 -13143526.28347 -10145925.25146  21299435.4774   21299437.3404
        20.7504         20.2504
 -16834003.50643 -11378422.79045  23627754.0164   23627756.3834
         6.0004          7.5004
 -15607877.65544 -11342288.08745  24273273.6094   24273286.3874
         7.2504          7.2504
 -21721385.86147 -16851378.18646  21333143.4144   21333145.7704
        21.0004         20.7504
 03 10 30  2 28 30.0000000  0  7G24G 7G 9G 4G30G17G 5
 -22620711.49247 -16729643.90346  20917876.1094   20917878.5474
        20.2504         21.0004
  19782313.81943  15492205.85344  23800578.2894   23800588.2194
         5.2504          4.7504
  -6233434.16846  -3540797.50246  22213855.5704   22213859.3324
        14.7504         14.7504
 -13061340.41747 -10081884.37546  21315075.0004   21315076.6764
        20.5004         19.7504
 -16900468.06643 -11430213.23545  23615104.5164   23615108.7814
         5.7504          7.5004
 -15678075.73943 -11396986.87645  24259914.5234   24259926.8914
         6.2504          6.7504
 -21748703.38247 -16872664.57146  21327945.0864   21327947.2424
        21.2504         20.7504
 03 10 30  2 29  0.0000000  0  7G24G 7G 9G 4G30G17G 5
 -22626476.12247 -16734135.76346  20916779.2504   20916781.9804
        20.2504         21.2504
  19888700.05743  15575104.01445  23820821.8984   23820823.1884
         5.0004          5.5004
  -6123753.71446  -3455332.30046  22234727.4924   22234731.8404
        14.5004         14.5004
 -12978700.07047 -10017489.24346  21330800.5554   21330802.5004
        20.2504         19.7504
 -16966889.60743 -11481970.24445  23602465.5704   23602467.0594
         6.0004          6.7504
 -15748206.18643 -11451632.96145  24246566.8364   24246578.0904
         5.5004          6.5004
 -21775740.48947 -16893732.48646  21322800.1564   21322802.2664
        21.2504         20.7504
 03 10 30  2 29 30.0000000  0  7G24G 7G 9G 4G30G17G 5
 -22631767.62647 -16738258.95846  20915772.0234   20915774.3674
        20.2504         21.0004
  19995079.08143  15657996.79145  23841066.3364   23841070.0394
         5.5004          6.7504
  -6013738.66946  -3369606.40046  22255662.2894   22255666.6374
        14.2504         14.7504
 -12895612.79247  -9952745.84146  21346611.9924   21346613.8794
        20.2504         19.5004
 -17033271.64943 -11533696.47745  23589833.6254   23589837.5044
         6.2504          7.0004
 -15818271.99343 -11506228.79345  24233235.0164   24233241.9574
         6.7504          6.5004
 -21802500.58647 -16914584.49746  21317707.9924   21317710.2194
        21.2504         20.7504
 03 10 30  2 30  0.0000000  0  7G24G 7G 9G 4G30G17G 5
 -22636585.83647 -16742013.37446  20914855.0944   20914857.6254
        20.2504         21.0004
  20101449.93143  15740883.24345  23861306.6094   23861311.3554
         5.5004          6.5004
  -5903392.25346  -3283622.31946  22276660.3914   22276664.7624
        14.2504         14.2504
 -12812081.24447  -9887656.34546  21362507.2194   21362509.2114
        20.5004         19.5004
 -17099612.51543 -11585390.58845  23577209.2034   23577210.4694
         6.5004          6.0004
 -15888271.81343 -11560773.29045  24219913.6804   24219923.9144
         6.5004          6.5004
 -21828981.78647 -16935219.14646  21312668.6884   21312670.6334
        21.7504         20.7504
 03 10 30  2 30 30.0000000  0  7G24G 7G 9G 4G30G17G 5
 -22640930.13347 -16745398.54346  20914028.4224   20914030.6844
        20.5004         21.2504
  20207812.02643  15823762.77245  23881546.9304   23881552.6484
         5.5004          5.7504
  -5792717.01346  -3197381.94546  22297721.5944   22297725.5554
        14.0004         14.2504
 -12728107.55347  -9822222.30546  21378486.8054   21378488.4104
        20.5004         19.5004
 -17165910.43144 -11637051.30845  23564593.4534   23564597.6254
         7.5004          6.5004
 -15958203.51643 -11615264.71045  24206605.0944   24206615.8674
         6.0004          6.2504
 -21855182.32347 -16955635.11146  21307683.2114   21307685.2154
        21.5004         20.7504
 03 10 30  2 31  0.0000000  0  7G24G 7G 9G 4G30G17G 5
 -22644792.33947 -16748408.03546  20913293.6954   20913295.8634
        20.7504         21.0004
  20314172.26243  15906640.88345  23901787.9924   23901791.7304
         6.0004          6.7504
  -5681708.84446  -3110882.17546  22318845.8054   22318850.1414
        14.0004         14.2504
 -12643686.55747  -9756439.70746  21394551.8674   21394553.7544
        20.5004         19.5004
 -17232156.02444 -11688671.12445  23551986.4384   23551990.1764
         7.5004          7.2504
 -16028057.77943 -11669695.75945  24193309.7584   24193323.0044
         5.7504          7.0004
 -21881093.04647 -16975825.23846  21302752.1954   21302753.9534
        21.7504         21.0004
 03 10 30  2 31 30.0000000  0  7G24G 7G 9G 4G30G17G 5
 -22648171.08747 -16751040.85746  20912650.6094   20912653.0944
        20.7504         21.2504
  20420531.58743  15989518.16345  23922026.6254   23922028.9454
         6.0004          7.2504
  -5570369.55346  -3024124.42746  22340033.1724   22340037.8594
        14.0004         14.2504
 -12558819.61747  -9690309.69446  21410701.6174   21410703.6914
        20.2504         19.7504
 -17298346.89644 -11740248.42045  23539391.3524   23539394.3284
         7.2504          6.7504
 -16097831.48343 -11724064.08645  24180032.3834   24180043.0514
         5.5004          7.0004
 -21906710.76647 -16995787.06746  21297877.3524   21297879.4264
        21.7504         21.2504
 03 10 30  2 32  0.0000000  0  7G24G 7G 9G 4G30G17G 5
 -22651070.46147 -16753300.08846  20912098.9454   20912100.9494
        21.0004         21.2504
  20526884.75043  16072390.76245  23942265.3594   23942269.2624
         6.5004          7.5004
  -5458706.81646  -2937114.67746  22361282.0864   22361287.0434
        14.0004         14.0004
 -12473513.77647  -9623837.67946  21426934.6884   21426936.3984
        20.2504         19.5004
 -17364485.78643 -11791785.14345  23526805.9224   23526810.4224
         6.7504          6.2504
 -16167527.72342 -11778372.03745  24166769.0164   24166779.5664
         4.7504          6.0004
 -21932038.67747 -17015523.06946  21293057.3754   21293059.4844
        22.0004         21.2504
 03 10 30  2 32 30.0000000  0  7G24G 7G 9G 4G30G17G 5
 -22653492.38847 -16755187.29046  20911638.0864   20911640.4884
        20.5004         21.2504
  20633229.08143  16155256.47645  23962502.1094   23962504.8054
         6.7504          7.5004
  -5346725.62046  -2849856.74346  22382591.2114   22382595.9804
        13.7504         14.0004
 -12387773.59847  -9557027.16146  21443250.5864   21443252.0744
        20.2504         19.2504
 -17430573.26143 -11843281.82445  23514229.2034   23514230.5744
         6.5004          7.7504
 -16237146.88743 -11832619.97945  24153520.5084   24153531.7734
         5.5004          5.5004
 -21957077.16347 -17035033.59446  21288292.7584   21288294.8444
        22.2504         21.5004
 03 10 30  2 33  0.0000000  0  7G24G 7G 9G 4G30G17G 5
 -24230849.56147 -17984296.71546  20611476.8984   20611479.0554
        20.7504         21.5004
  19164154.42444  15010522.98245  23682946.1414   23682948.5314
         7.0004          8.5004
  -6809838.45846  -3989944.81046  22104170.2194   22104175.5634
        13.7504         13.7504
 -13877011.62747 -10717472.36046  21159858.1484   21159860.0594
        20.2504         19.2504
 -19072022.74943 -13122333.28645  23201871.4384   23201873.1724
         6.2504          7.2504
 -17882102.72443 -13114403.04945  23840496.9144   23840503.4184
         6.5004          5.7504
 -23557238.13347 -18281912.25646  20983792.3754   20983794.4384
        22.0004         21.5004
 03 10 30  2 33 30.0000000  0  7G24G 7G 9G 4G30G17G 5
 -24232306.40947 -17985431.88046  20611199.3364   20611201.8914
        20.5004         21.2504
  19270488.79044  15093381.10345  23703181.2344   23703185.1374
         7.0004          7.7504
  -6697220.60446  -3902190.79346  22125600.4774   22125605.5514
        13.5004         13.7504
 -13790400.94647 -10649983.45146  21176339.4224   21176341.3674
        20.0004         19.7504
 -19137992.96943 -13173738.55845  23189317.6414   23189319.0704
         6.5004          7.7504
 -17951553.20043 -13168519.63945  23827279.2664   23827285.2774
         5.7504          6.7504
 -23581683.28447 -18300960.46246  20979140.8984   20979143.0084
        22.2504         21.5004
 03 10 30  2 34  0.0000000  0  7G24G 7G 9G 4G30G17G 5
 -24233282.01047 -17986192.04346  20611013.7894   20611016.2154
        20.5004         21.2504
  19376815.63244  15176233.27045  23723413.8524   23723416.1724
         7.2504          8.0004
  -6584290.53046  -3814193.41746  22147090.3054   22147095.6254
        13.2504         13.7504
 -13703360.33547 -10582159.61946  21192902.7424   21192904.5004
        20.0004         19.2504
 -19203903.50243 -13225097.37945  23176774.6094   23176773.9884
         6.5004          7.0004
 -18020918.16943 -13222569.53145  23814077.8524   23814088.6024
         6.0004          6.2504
 -23605830.40047 -18319776.33246  20974545.4924   20974547.3444
        22.0004         21.5004
 03 10 30  2 34 30.0000000  0  7G24G 7G 9G 4G30G17G 5
 -24233771.90847 -17986573.79946  20610920.6024   20610923.1334
        20.5004         21.2504
  19483138.44944  15259082.26945  23743646.4304   23743649.6764
         7.2504          6.7504
  -6471047.25646  -3725952.01946  22168640.0944   22168644.4774
        13.7504         13.5004
 -13615888.04447 -10513999.29446  21209548.1564   21209550.0784
        20.0004         19.5004
 -19269748.48443 -13276404.97645  23164245.6254   23164248.0864
         6.5004          6.7504
 -18090191.76343 -13276548.37945  23800896.3284   23800904.6644
         6.2504          5.7504
 -23629674.28147 -18338355.97646  20970008.2194   20970010.3984
        22.0004         21.7504
 03 10 30  2 35  0.0000000  0  7G24G 7G 9G 4G30G17G 5
 -24233778.96547 -17986579.31946  20610919.1094   20610921.3484
        20.5004         21.2504
  19589453.67443  15341925.20245  23763876.7734   23763882.1174
         6.7504          7.0004
  -6357497.15346  -3637471.50046  22190247.9534   22190252.8984
        13.5004         13.5004
 -13527990.05347 -10445507.35646  21226274.6094   21226276.3444
        20.0004         19.0004
 -19335529.59843 -13327662.90245  23151727.6334   23151732.1684
         6.7504          6.5004
 -18159375.53143 -13330457.14745  23787730.5164   23787739.0514
         6.5004          6.2504
 -23653216.11947 -18356700.23046  20965528.3054   20965530.2274
        22.2504         21.7504
 03 10 30  2 35 30.0000000  0  7G24G 7G 9G 4G30G17G 5
 -24233302.99347 -17986208.41346  20611009.9304   20611012.5084
        20.5004         21.5004
  19695761.12143  15424762.21945  23784106.9384   23784109.9144
         6.5004          7.0004
  -6243643.12946  -3548754.15846  22211914.4454   22211919.2154
        14.0004         13.7504
 -13439668.51446 -10376685.40246  21243081.2664   21243083.1764
        19.7504         19.0004
 -19401244.95344 -13378869.65745  23139222.8444   23139226.1484
         7.5004          7.2504
 -18228467.33344 -13384294.39245  23774583.0944   23774590.9844
         7.0004          6.7504
 -23676453.75447 -18374807.46446  20961106.1174   20961108.1214
        22.5004         21.7504
 03 10 30  2 36  0.0000000  0  7G24G 7G 9G 4G30G17G 5
 -24232346.28147 -17985462.90046  20611191.7504   20611194.1414
        21.0004         21.5004
  19802057.32843  15507590.43445  23804334.2344   23804335.7234
         6.0004          6.7504
  -6129491.37146  -3459804.86946  22233636.5634   22233640.9104
        13.5004         13.5004
 -13350928.78646 -10307537.53146  21259967.8524   21259969.5394
        19.7504         19.0004
 -19466895.42744 -13430025.85545  23126729.4924   23126727.9574
         7.7504          7.0004
 -18297468.64243 -13438061.05445  23761450.3364   23761457.9574
         6.2504          7.2504
 -23699388.47447 -18392678.65046  20956742.0234   20956744.0044
        22.7504         22.0004
 03 10 30  2 36 30.0000000  0  7G24G 7G 9G 4G30G17G 5
 -24230902.79447 -17984338.10046  20611466.7344   20611469.1844
        21.0004         21.5004
  19908347.73243  15590414.20545  23824560.4384   23824564.7274
         5.5004          6.5004
  -6015038.99546  -3370621.32246  22255416.1724   22255421.5164
        13.2504         13.2504
 -13261767.45146 -10238061.11346  21276935.0554   21276936.5084
        19.7504         18.7504
 -19532473.54344 -13481125.63245  23114249.7034   23114252.4344
         7.5004          7.2504
 -18366371.44643 -13491751.05445  23748339.4064   23748348.5164
         6.2504          7.0004
 -23722012.71447 -18410307.89946  20952436.3754   20952438.4024
        22.5004         22.0004
 03 10 30  2 37  0.0000000  0  7G24G 7G 9G 4G30G17G 5
 -24228975.26247 -17982836.09646  20611833.4064   20611835.6914
        21.2504         21.7504
  20014629.06143  15673230.63845  23844785.4614   23844782.7544
         5.0004          6.2504
  -5900291.66246  -3281207.95746  22277252.4534   22277256.9534
        13.5004         13.2504
 -13172189.60346 -10168260.17346  21293981.0164   21293982.5274
        19.7504         18.7504
 -19597979.90344 -13532169.45045  23101784.9384   23101788.4304
         7.2504          7.5004
 -18435176.69543 -13545365.03045  23735244.9694   23735253.8204
         6.0004          7.2504
 -23744327.06047 -18427695.72446  20948190.2974   20948192.1604
        22.5004         21.7504
 03 10 30  2 37 30.0000000  0  7G24G 7G 9G 4G30G17G 5
 -24226565.20947 -17980958.12046  20612292.2344   20612294.6374
        21.0004         21.5004
  20120899.44143  15756038.77545  23865007.7114   23865012.1884
         5.0004          6.0004
  -5785254.23746  -3191568.49546  22299142.6414   22299147.6564
        13.2504         13.5004
 -13082200.29046 -10098138.69446  21311105.5084   21311107.6764
        19.5004         18.5004
 -19663414.96144 -13583157.73745  23089332.8674   23089335.1174
         7.2504          8.0004
 -18503884.55243 -13598903.10845  23722171.1564   23722177.5204
         5.7504          6.2504
 -23766332.25047 -18444842.62646  20944002.8444   20944005.1054
        22.5004         21.5004
 03 10 30  2 38  0.0000000  0  7G24G 7G 9G 4G30G17G 5
 -24223671.24347 -17978703.07846  20612842.8674   20612845.2344
        21.2504         22.0004
  20227159.27343  15838838.60544  23885228.7814   23885233.5514
         5.0004          4.7504
  -5669928.66946  -3101704.53846  22321089.0944   22321094.1804
        13.5004         13.5004
 -12991800.06046 -10027696.87346  21328308.2194   21328309.7544
        19.7504         18.5004
 -19728775.34644 -13634087.79445  23076896.0784   23076899.6764
         7.7504          8.0004
 -18572491.81043 -13652362.82445  23709113.3594   23709119.0664
         6.0004          7.5004
 -23788024.73447 -18461745.86646  20939875.0704   20939877.5204
        22.2504         21.7504
 03 10 30  2 38 30.0000000  0  7G24G 7G 9G 4G30G17G 5
 -24220291.21147 -17976069.26846  20613486.0784   20613488.0124
        21.2504         21.7504
  20333410.56842  15921631.85244  23905447.5864   23905455.7234
         4.7504          4.7504
  -5554315.61746  -3011616.51146  22343090.0784   22343094.6844
        13.5004         13.2504
 -12900989.37746  -9956935.28946  21345588.7504   21345590.2154
        19.2504         18.5004
 -19794057.04645 -13684956.63345  23064472.3444   23064474.9804
         8.7504          8.7504
 -18640994.73643 -13705741.40045  23696078.5634   23696086.1954
         6.0004          7.0004
 -23809400.50147 -18478402.27946  20935807.2274   20935809.1374
        22.5004         22.0004
 03 10 30  2 39  0.0000000  0  7G24G 7G 9G 4G30G17G 5
 -24216425.52847 -17973057.03146  20614221.7504   20614224.1994
        21.2504         21.7504
  20439652.03542  16004417.42144  23925663.8984   23925668.3404
         4.5004          4.7504
  -5438419.21246  -2921307.77146  22365144.2274   22365149.1724
        13.0004         13.0004
 -12809771.84046  -9885856.69446  21362946.8914   21362948.9064
        19.0004         18.2504
 -19859259.02545 -13735763.29245  23052065.0944   23052068.5274
         8.7504          9.0004
 -18709392.24643 -13759037.75245  23683062.8754   23683069.6024
         6.0004          6.7504
 -23830458.69647 -18494811.25246  20931799.9774   20931801.8404
        22.7504         22.2504
 03 10 30  2 39 30.0000000  0  7G24G 7G 9G 4G30G17G 5
 -24212066.99047 -17969660.74546  20615050.7424   20615052.7814
        21.2504         21.7504
  20545890.41242  16087200.57843  23945881.6884   23945893.9614
         4.2504          3.0004
  -5322235.48646  -2830775.11646  22387252.8134   22387256.5984
        12.7504         12.5004
 -12718142.66046  -9814457.36346  21380383.2974   21380385.3134
        19.0004         18.2504
 -19924372.40344 -13786500.89645  23039673.9224   23039675.5984
         7.5004          8.2504
 -18777675.32143 -13812244.95645  23670069.6954   23670077.2934
         6.7504          7.5004
 -23851190.69747 -18510965.99946  20927855.0394   20927857.3244
        22.7504         22.2504
 03 10 30  2 40  0.0000000  0  7G24G 7G 9G 4G30G17G 5
 -24207224.42547 -17965887.32546  20615972.4774   20615974.8204
        21.2504         22.0004
  20652116.36942  16169973.96445  23966095.4774   23966089.8054
         4.2504          5.0004
  -5205776.19946  -2740027.72046  22409414.6724   22409420.0514
        12.5004         12.7504
 -12626113.35246  -9742746.24446  21397895.8284   21397897.6804
        18.7504         18.2504
 -19989404.25144 -13837175.05545  23027299.1564   23027300.1294
         7.2504          7.5004
 -18845851.13543 -13865368.66245  23657094.7274   23657101.1954
         6.7504          7.7504
 -23871603.59347 -18526872.06546  20923970.3984   20923972.4144
        23.0004         22.2504
 03 10 30  2 40 30.0000000  0  7G24G 7G 9G 4G30G17G 5
 -24201894.24247 -17961733.94846  20616987.0084   20616989.1764
        21.0004         21.7504
  20758333.01142  16252740.09845  23986308.3594   23986309.7664
         4.5004          5.2504
  -5089040.91146  -2649065.28246  22431628.4614   22431633.2894
        12.7504         13.0004
 -12533682.74546  -9670722.43346  21415485.0314   21415486.6484
        19.0004         18.5004
 -20054349.05144 -13887781.37745  23014940.3914   23014942.9804
         7.5004          7.0004
 -18913914.29144 -13918404.58545  23644143.4844   23644150.3054
         7.2504          6.5004
 -23891691.97747 -18542525.34546  20920147.8524   20920149.9844
        23.0004         22.2504
 03 10 30  2 41  0.0000000  0  7G24G 7G 9G 4G30G17G 5
 -24196065.80247 -17957192.33446  20618095.9844   20618098.2584
        21.2504         22.0004
  20864550.68142  16335507.11045  24006520.8054   24006522.6094
         4.7504          5.7504
  -4972022.13146  -2557881.97146  22453896.5864   22453901.4264
        12.7504         12.5004
 -12440842.61546  -9598379.45146  21433151.6094   21433153.2274
        18.7504         18.2504
 -20119194.14344 -13938309.95345  23002600.5394   23002601.0084
         7.5004          7.7504
 -18981852.39243 -13971343.20145  23631213.9304   23631223.6484
         6.7504          7.7504
 -23911443.23647 -18557915.91446  20916389.3754   20916390.9924
        23.2504         22.5004
 03 10 30  2 41 30.0000000  0  7G24G 7G 9G 4G30G17G 5
 -24189745.53747 -17952267.44346  20619298.4774   20619300.6564
        21.2504         22.0004
  20970762.66842  16418269.73044  24026732.9384   24026737.9304
         4.7504          4.2504
  -4854729.57346  -2466485.30646  22476216.8674   22476222.1174
        12.5004         12.5004
 -12347602.51046  -9525724.87646  21450894.8524   21450896.6564
        18.7504         18.0004
 -20183944.38544 -13988764.63245  22990279.1414   22990279.8914
         7.5004          7.7504
 -19049670.32943 -14024188.14945  23618309.5554   23618319.3914
         6.7504          7.2504
 -23930862.10447 -18573047.49646  20912694.1254   20912695.9414
        23.2504         22.5004
 03 10 30  2 42  0.0000000  0  7G24G 7G 9G 4G30G17G 5
 -24182942.83047 -17946966.65946  20620593.1414   20620595.1214
        21.2504         22.2504
  21076958.88743  16501020.00745  24046940.1724   24046943.5944
         5.0004          5.0004
  -4737175.88846  -2374885.14246  22498586.7584   22498592.1954
        12.5004         12.2504
 -12253973.99046  -9452767.56846  21468711.6954   21468713.4414
        18.5004         17.7504
 -20248607.09945 -14039151.15245  22977974.2424   22977976.0124
         8.0004          8.0004
 -19117375.48644 -14076945.21245  23605425.2114   23605430.5434
         7.5004          7.0004
 -23949956.79047 -18587926.49746  20909060.2504   20909062.0204
        23.2504         22.7504
 03 10 30  2 42 30.0000000  0  7G24G 7G 9G 4G30G17G 5
 -24175638.23547 -17941274.74246  20621983.2114   20621985.3204
        21.2504         22.0004
  21183158.40843  16583772.92444  24067149.7974   24067155.3404
         5.2504          4.7504
  -4619344.80046  -2283068.81746  22521009.9064   22521015.2274
        12.5004         12.0004
 -12159940.51046  -9379494.76446  21486605.5634   21486607.6604
        18.5004         18.0004
 -20313161.09445 -14089452.85245  22965690.4694   22965692.3674
         8.2504          9.0004
 -19184946.83644 -14129598.11545  23592566.3754   23592573.7504
         7.2504          7.5004
 -23968705.70847 -18602536.02446  20905492.4924   20905494.7774
        23.5004         22.7504
 03 10 30  2 43  0.0000000  0  7G24G 7G 9G 4G30G17G 5
 -24167834.10347 -17935193.60146  20623468.1484   20623470.2464
        21.2504         21.7504
  21289358.42143  16666526.16345  24087358.0394   24087362.9614
         5.5004          5.2504
  -4501241.69546  -2191040.50746  22543483.0164   22543488.6524
        12.2504         12.7504
 -12065506.82446  -9305910.03246  21504575.6334   21504577.7544
        18.5004         17.5004
 -20377606.69945 -14139670.07745  22953426.5634   22953428.4494
         9.0004         10.0004
 -19252384.99744 -14182147.26445  23579733.9384   23579740.5124
         7.7504          8.5004
 -23987109.59747 -18616876.69746  20901990.1094   20901991.8914
        23.5004         22.7504
 03 10 30  2 43 30.0000000  0  7G24G 7G 9G 4G30G17G 5
 -24159532.19947 -17928724.59846  20625048.0084   20625050.3524
        21.2504         22.0004
  21395557.00243  16749278.35445  24107567.9224   24107572.0354
         5.5004          5.7504
  -4382871.65946  -2098804.24646  22566008.9224   22566013.9964
        12.5004         12.5004
 -11970677.28846  -9232016.84546  21522621.0634   21522622.9024
        18.2504         17.5004
 -20441943.70345 -14189802.72045  22941183.3054   22941184.5004
         9.0004          9.5004
 -19319689.71445 -14234592.40845  23566926.3754   23566933.1254
         8.2504          8.0004
 -24005168.25047 -18630948.41746  20898553.8834   20898555.6994
        23.7504         23.0004
 03 10 30  2 44  0.0000000  0  7G24G 7G 9G 4G30G17G 5
 -24150726.78047 -17921863.25346  20626723.8364   20626726.2734
        21.0004         21.7504
  21501759.67543  16832033.63345  24127777.4144   24127781.6684
         5.7504          6.0004
  -4264231.67745  -2006357.60046  22588584.7734   22588590.5394
        11.7504         12.2504
 -11875448.73946  -9157812.75646  21540742.7344   21540744.5044
        18.2504         17.2504
 -20506164.65245 -14239845.14045  22928962.7974   22928964.3324
         8.5004          8.7504
 -19386853.59244 -14286927.88145  23554145.7734   23554151.6454
         7.5004          7.5004
 -24022873.55147 -18644744.65046  20895184.5474   20895186.8444
        23.7504         23.0004
 03 10 30  2 44 30.0000000  0  7G24G 7G 9G 4G30G17G 5
 -24141412.08947 -17914605.03646  20628495.9224   20628498.3484
        21.0004         21.7504
  21607971.52143  16914796.04645  24147988.0314   24147993.8204
         5.7504          6.2504
  -4145319.25745  -1913698.70246  22611212.7894   22611217.9694
        11.7504         12.5004
 -11779818.06646  -9083295.33146  21558940.5084   21558942.1134
        18.2504         17.5004
 -20570261.55645 -14289790.76545  22916764.9304   22916767.1684
         8.0004          8.0004
 -19453868.95644 -14339147.58745  23541392.5084   23541400.2344
         7.5004          7.7504
 -24040219.42147 -18658260.94046  20891883.8594   20891885.6764
        24.0004         23.2504
 03 10 30  2 45  0.0000000  0  7G24G 7G 9G 4G30G17G 5
 -24131592.04847 -17906953.06346  20630364.7814   20630367.2664
        21.2504         22.0004
  21714188.92243  16997562.92245  24168201.2664   24168207.6524
         6.0004          6.2504
  -4026141.07045  -1820832.68146  22633891.6414   22633896.6914
        11.7504         12.5004
 -11683791.44046  -9008469.40946  21577213.5474   21577215.0944
        18.2504         17.5004
 -20634235.99745 -14339640.89345  22904590.7194   22904591.3984
         8.0004          8.2504
 -19520737.66844 -14391252.96945  23528667.3204   23528676.6174
         7.2504          8.2504
 -24057206.87947 -18671497.83146  20888651.2974   20888652.5984
        24.2504         22.7504
 03 10 30  2 45 30.0000000  0  7G24G 7G 9G 4G30G17G 5
 -24121269.61847 -17898909.60246  20632329.0084   20632331.2234
        21.0004         22.2504
  21820408.33443  17080331.27345  24188414.2664   24188413.5164
         6.0004          5.7504
  -3906703.20945  -1727764.30046  22656620.6024   22656626.5204
        11.7504         12.0004
 -11587374.58146  -8933339.39446  21595561.2664   21595563.4104
        18.0004         17.2504
 -20698089.05745 -14389396.39645  22892439.8134   22892441.4884
         8.5004          8.2504
 -19587461.06145 -14443245.16445  23515970.5314   23515976.0514
         8.2504          8.0004
 -24073837.80147 -18684457.05246  20885486.4224   20885488.3204
        24.2504         23.2504
 03 10 30  2 46  0.0000000  0  7G24G 7G 9G 4G30G17G 5
 -24110439.22947 -17890470.36846  20634389.9064   20634392.1454
        21.2504         22.0004
  21926635.40843  17163105.69245  24208628.2974   24208633.6644
         5.7504          5.0004
  -3787003.19845  -1634491.69745  22679399.4064   22679404.5044
        11.7504         11.5004
 -11490564.12646  -8857902.65846  21613983.9304   21613985.5594
        18.2504         17.5004
 -20761813.03845 -14439051.32345  22880313.9924   22880316.5824
         9.2504          8.5004
 -19654031.60544 -14495118.28245  23503302.4384   23503310.2934
         7.7504          8.5004
 -24090103.81947 -18697131.81546  20882390.8054   20882392.4924
        23.7504         23.2504
 03 10 30  2 46 30.0000000  0  7G24G 7G 9G 4G30G17G 5
 -24099101.99647 -17881636.14246  20636547.5474   20636549.7384
        21.2504         22.2504
  22032868.54243  17245884.73545  24228843.9844   24228849.0354
         5.5004          6.2504
  -3667044.95045  -1541017.83146  22702227.1724   22702232.9494
        11.5004         12.0004
 -11393363.88846  -8782162.24646  21632480.4384   21632482.3954
        18.0004         17.5004
 -20825406.83545 -14488604.81645  22868212.7194   22868213.9144
         9.5004         10.0004
 -19720448.55344 -14546871.66245  23490663.3054   23490669.3164
         7.5004          8.0004
 -24106004.59347 -18709521.99446  20879365.2734   20879366.7974
        24.2504         23.2504
 03 10 30  2 47  0.0000000  0  7G24G 7G 9G 4G30G17G 5
 -24087262.55947 -17872410.62546  20638800.4454   20638802.5554
        21.2504         22.2504
  22139103.32243  17328665.05045  24249059.4454   24249063.6644
         5.0004          6.0004
  -3546835.97945  -1447348.61045  22725101.0394   22725106.0664
        11.5004         11.7504
 -11295780.40046  -8706123.18346  21651049.9224   21651051.4224
        18.0004         17.0004
 -20888873.08645 -14538059.00245  22856135.3364   22856136.2274
         9.5004          9.5004
 -19786714.04244 -14598507.09445  23478054.0554   23478060.1954
         7.7504          8.2504
 -24121542.42447 -18721629.38946  20876408.5164   20876410.5204
        24.2504         23.2504
 03 10 30  2 47 30.0000000  0  7G24G 7G 9G 4G30G17G 5
 -24074912.29647 -17862787.05446  20641150.6804   20641152.9884
        21.2504         22.2504
  22245348.07643  17411453.04745  24269276.3984   24269285.0164
         5.0004          5.2504
  -3426370.64045  -1353479.58745  22748024.5474   22748030.3244
        11.0004         11.5004
 -11197807.89646  -8629780.99746  21669693.2894   21669694.7194
        18.0004         17.0004
 -20952200.78545 -14587405.25845  22844084.6484   22844086.3954
         9.0004          9.5004
 -19852818.01844 -14650016.64645  23465474.8754   23465482.1684
         7.7504          8.2504
 -24136707.17947 -18733446.04846  20873522.4304   20873524.3524
        23.7504         23.2504
 03 10 30  2 48  0.0000000  0  7G24G 7G 9G 4G30G17G 5
 -24062056.30547 -17852769.41346  20643596.9534   20643598.9694
        21.2504         22.5004
  22351597.47642  17494244.84445  24289496.5234   24289500.2154
         4.7504          6.2504
  -3305656.93845  -1259417.03745  22770996.9774   22771003.0004
        11.5004         11.5004
 -11099453.90346  -8553141.55746  21688409.5234   21688411.4454
        17.7504         17.2504
 -21015392.83045 -14636645.76945  22832058.9144   22832060.7664
         8.7504          9.0004
 -19918763.56645 -14701402.71345  23452925.9304   23452932.8244
         8.2504          8.0004
 -24151501.92247 -18744974.34946  20870707.2584   20870709.3094
        24.2504         23.5004
 03 10 30  2 48 30.0000000  0  8G24G10G 7G 9G 4G30G17G 5
 -24048695.22047 -17842358.17646  20646139.6954   20646142.0274
        21.2504         22.5004
 -14235542.14951                  24935252.8134
         3.7504
  22457850.83042  17577039.70445  24309714.9304   24309717.2274
         4.2504          5.0004
  -3184698.95445  -1165164.16945  22794013.2504   22794019.5554
        11.0004         10.7504
 -11000721.67346  -8476207.32546  21707197.7664   21707199.1024
        17.7504         17.2504
 -21078448.01245 -14685779.61845  22820060.6804   22820062.7544
         9.0004          9.7504
 -19984549.53145 -14752664.49845  23440406.4694   23440413.6564
         8.2504          8.2504
 -24165925.58447 -18756213.55246  20867962.6414   20867964.5744
        24.0004         23.5004
 03 10 30  2 49  0.0000000  0  8G24G10G 7G 9G 4G30G17G 5
 -24034827.60247 -17831552.22746  20648778.5944   20648780.6564
        21.5004         22.5004
 -14309667.59242                  24921147.2734
         4.2504
  22564109.60942  17659838.65445  24329935.9144   24329939.8874
         4.2504          5.2504
  -3063497.58145  -1070721.61745  22817078.2664   22817083.6914
        11.2504         11.0004
 -10901611.70446  -8398978.77946  21726057.7664   21726059.4304
        17.5004         17.2504
 -21141362.11845 -14734803.58145  22808088.0634   22808091.7774
         9.2504          9.2504
 -20050172.04545 -14803798.92745  23427919.9144   23427927.2074
         8.2504          8.2504
 -24179974.28847 -18767160.58746  20865289.0474   20865291.2274
        23.7504         23.5004
 03 10 30  2 49 30.0000000  0  8G24G10G 7G 9G 4G30G17G 5
 -24020456.36047 -17820353.86746  20651513.4304   20651515.5394
        21.5004         22.5004
 -14383889.51242                  24907024.8134
         4.7504
  22670371.00642  17742639.70445  24350156.1414   24350161.0864
         4.0004          5.2504
  -2942058.81245   -976094.06945  22840187.2194   22840192.4224
        11.0004         11.0004
 -10802129.68646  -8321460.31946  21744988.2194   21744989.8364
        17.5004         16.7504
 -21204135.83745 -14783718.18245  22796142.4534   22796143.8594
         9.0004          8.7504
 -20115632.12045 -14854806.70545  23415463.2664   23415469.8404
         8.2504          8.5004
 -24193649.44547 -18777816.53746  20862686.8364   20862688.8284
        23.7504         23.5004
 03 10 30  2 50  0.0000000  0  8G24G10G 7G 9G 4G30G17G 5
 -24005585.64447 -17808766.31446  20654343.2114   20654345.5664
        21.5004         22.5004
 -14458208.69843                  24892880.7664
         5.5004
  22776630.97542  17825439.62945  24370376.9304   24370384.0594
         4.0004          5.7504
  -2820389.27245   -881286.68045  22863339.6334   22863345.1054
        10.5004         11.0004
 -10702281.39046  -8243656.46346  21763989.1094   21763990.9144
        17.5004         16.5004
 -21266770.53845 -14832524.32945  22784223.3984   22784224.5004
         9.2504          9.2504
 -20180931.73145 -14905689.46345  23403037.5164   23403042.3674
         8.5004          8.7504
 -24206953.06847 -18788183.01846  20860155.2974   20860157.2304
        23.7504         23.5004
 03 10 30  2 50 30.0000000  0  9G24G10G 7G 9G 4G30G 6G17G 5
 -23990217.93947 -17796791.46746  20657267.5394   20657269.3674
        21.5004         22.7504
 -14532625.26943 -11075469.16055  24878720.1724   24878729.0234
         6.0004          6.2504
  22882886.86642  17908236.42943  24390597.2974   24390595.3524
         4.0004          3.2504
  -2698494.64045   -786303.88245  22886535.5004   22886540.2584
        11.0004         11.2504
 -10602072.39246  -8165571.55446  21783058.0944   21783060.0274
        17.0004         16.2504
 -21329266.92845 -14881222.70945  22772330.9534   22772333.4384
         9.0004          9.2504
 -14218315.00252                  25455305.0314
         4.0004
 -20246071.71245 -14956447.78245  23390640.4774   23390647.6294
         8.0004          8.0004
 -24219885.71247 -18798260.37446  20857694.2194   20857696.1994
        24.0004         23.7504
 03 10 30  2 51  0.0000000  0  9G24G10G 7G 9G 4G30G 6G17G 5
 -23974347.05747 -17784424.58546  20660287.7194   20660290.0044
        21.5004         22.5004
 -14607128.86943 -11133523.87245  24864543.0084   24864550.9344
         5.7504          6.0004
  22989144.82442  17991034.77945  24410816.6024   24410818.8874
         4.0004          5.2504
  -2576371.31745   -691142.82045  22909773.7194   22909778.8984
        10.5004         10.7504
 -10501498.45146  -8087202.27946  21802196.7194   21802197.8914
        17.0004         16.5004
 -21391616.45645 -14929806.84545  22760466.1024   22760468.0594
         8.5004          9.2504
 -14269881.10941                  25445491.0394
         3.7504
 -20311043.53345 -15007075.11745  23378275.8834   23378282.8014
         8.0004          8.7504
 -24232438.68347 -18808041.91346  20855305.5394   20855307.6374
        23.7504         23.7504
 03 10 30  2 51 30.0000000  0  9G24G10G 7G 9G 4G30G 6G17G 5
 -23957978.67047 -17771669.99846  20663402.4064   20663404.5514
        21.2504         22.7504
 -14681722.59143 -11191649.00545  24850347.3914   24850360.1094
         5.2504          6.2504
  23095399.21042  18073830.32845  24431036.8754   24431040.0864
         4.2504          6.0004
  -2454028.21345   -595810.61345  22933056.1094   22933062.2154
        11.0004         10.7504
 -10400567.96946  -8008555.17646  21821403.1884   21821404.8284
        17.0004         16.2504
 -21453822.15845 -14978278.72545  22748628.6334   22748630.6254
         8.5004          9.0004
 -14321450.34741                  25435675.9454
         3.0004
 -20375850.89445 -15057574.22145  23365943.7814   23365949.4304
         8.0004          8.7504
 -24244616.47847 -18817531.08046  20852987.9774   20852989.6414
        23.7504         23.5004
 03 10 30  2 52  0.0000000  0  9G24G10G 7G 9G 4G30G 6G17G 5
 -23941114.97447 -17758529.46046  20666611.5784   20666614.1094
        21.2504         22.5004
 -14756405.14242 -11249843.40345  24836136.6564   24836141.0394
         4.5004          5.2504
  23201648.19842  18156621.80545  24451255.3834   24451263.5204
         4.2504          5.2504
  -2331469.96545   -500310.67745  22956378.9924   22956384.9804
        11.5004         11.2504
 -10299284.81346  -7929633.25346  21840676.7424   21840678.0084
        16.7504         16.0004
 -21515883.57745 -15026638.19745  22736818.5864   22736819.8284
         9.2504          8.7504
 -14373023.85041                  25425859.3054
         2.7504
 -20440493.80445 -15107945.18945  23353643.8284   23353650.5314
         8.7504          8.5004
 -24256418.68347 -18826727.65446  20850742.3134   20850744.3524
        24.2504         24.0004
 03 10 30  2 52 30.0000000  0  9G24G10G 7G 9G 4G30G 6G17G 5
 -23923758.26747 -17745004.77246  20669914.4064   20669916.3754
        21.2504         22.5004
 -14831175.76142 -11308106.47044  24821907.7814   24821914.4024
         4.0004          4.7504
  23307889.44342  18239407.20145  24471472.5164   24471474.7544
         4.5004          5.2504
  -2208701.71245   -404647.17945  22979739.6884   22979745.2074
        10.2504         11.2504
 -10197653.68146  -7850440.15546  21860016.4454   21860017.4534
        16.7504         15.7504
 -21577800.86945 -15074885.40545  22725036.3364   22725037.3674
         9.7504          9.5004
 -14197691.89951                  25416043.5394
         2.7504
 -20504972.45545 -15158188.18245  23341374.0554   23341379.2344
         8.7504          8.7504
 -24267845.48047 -18835631.59146  20848567.7034   20848569.4384
        24.0004         23.7504
 03 10 30  2 53  0.0000000  0  9G24G10G 7G 9G 4G30G 6G17G 5
 -23905905.84547 -17731093.80346  20673311.6174   20673313.8444
        21.2504         22.7504
 -14906028.79941 -11366434.08743  24807665.8984   24807672.6724
         2.7504          3.2504
  23414125.84742  18322188.78445  24491687.5634   24491691.3594
         4.7504          5.5004
  -2085723.38945   -308819.95645  23003141.2114   23003147.4104
        10.2504         10.7504
 -10095674.31746  -7770975.72746  21879422.5864   21879424.0164
        16.7504         16.0004
 -21639568.60045 -15123015.98445  22713282.1564   22713284.1724
         9.7504          9.2504
 -14249275.16441                  25406226.9304
         3.5004
 -20569282.16644 -15208299.46945  23329134.0944   23329140.5394
         7.7504          8.5004
 -24278892.14447 -18844239.38346  20846465.6804   20846467.6844
        24.0004         23.7504
 03 10 30  2 53 30.0000000  0  9G24G10G 7G 9G 4G30G 6G17G 5
 -23887562.15247 -17716800.05646  20676802.5164   20676804.9414
        21.5004         22.7504
 -14206265.35951 -11424827.77443  24793406.0944   24793419.3284
         2.2504          3.7504
  23520352.95343  18404963.13144  24511902.9144   24511910.1024
         5.0004          4.7504
  -1962542.45545   -212834.85345  23026584.2974   23026589.3954
        10.7504         10.7504
  -9993353.65846  -7691245.38846  21898893.7974   21898895.4024
        16.7504         15.7504
 -21701188.93445 -15171031.78845  22701556.0704   22701556.6564
        10.0004          9.7504
 -14208015.30051                  25396405.4304
         3.0004
 -20633425.29745 -15258281.03245  23316928.7034   23316934.9964
         8.2504          8.7504
 -24289561.33947 -18852553.02346  20844435.3524   20844437.1334
        24.2504         24.0004
 03 10 30  2 54  0.0000000  0  9G24G10G 7G 9G 4G30G 6G17G 5
 -23868722.06547 -17702119.45746  20680387.5554   20680389.6994
        21.2504         23.0004
 -14236291.42251                  24779132.2504
         3.2504
  23626576.11443  18487734.29043  24532116.8054   24532125.0594
         5.0004          3.7504
  -1839156.21945   -116689.78045  23050062.1724   23050068.0434
        10.7504         10.2504
  -9890688.64746  -7611246.72946  21918430.0944   21918431.5944
        16.7504         15.5004
 -21762654.15245 -15218926.74745  22689859.5634   22689860.9924
         9.7504         10.0004
 -14259608.09841                  25386584.6644
         3.2504
 -20697394.47045 -15308126.95545  23304755.5784   23304761.3444
         8.2504          8.5004
 -24299845.52547 -18860566.70746  20842478.2894   20842480.1764
        24.0004         24.0004
 03 10 30  2 54 30.0000000  0  9G24G10G 7G 9G 4G30G 6G17G 5
 -23849380.88247 -17687048.43246  20684067.8984   20684070.1724
        21.2504         22.7504
 -14311369.42742                  24764845.3914
         4.2504
  23732800.31743  18570506.39544  24552330.2424   24552333.0434
         5.2504          4.7504
  -1715562.98845    -20383.40245  23073581.9534   23073587.2154
        10.5004         10.2504
  -9787676.76846  -7530977.75546  21938032.6804   21938034.4844
        16.5004         15.5004
 -21823956.93545 -15266695.07145  22678194.2344   22678195.9454
        10.0004         10.0004
 -14311197.04341                  25376769.1254
         3.7504
 -20761182.92345 -15357832.07145  23292618.2114   23292623.2154
         9.2504          8.2504
 -24309737.83347 -18868274.98446  20840595.7034   20840597.6374
        23.7504         24.2504
 03 10 30  2 55  0.0000000  0  9G24G10G 7G 9G 4G30G 6G17G 5
 -23829543.86447 -17671591.00746  20687842.7894   20687844.8524
        21.2504         22.5004
 -14386515.92742                  24750545.1724
         4.2504
  23839020.61343                  24572543.0784
         5.0004
  -1591770.35945     76078.36345  23097139.6024   23097145.4734
        10.5004         10.7504
  -9684325.31446  -7450444.12846  21957699.7814   21957701.4224
        16.5004         15.7504
 -21885099.99345 -15314339.04145  22666558.8754   22666561.0554
        10.2504         10.2504
 -14362787.95341                  25366948.6334
         3.5004
 -20824793.52645 -15407398.61645  23280512.1724   23280516.3794
         9.0004          9.5004
 -24319241.62747 -18875680.51646  20838787.3364   20838789.1644
        24.2504         24.0004
 03 10 30  2 55 30.0000000  0  9G24G10G 7G 9G 4G30G 6G17G 5
 -23809215.54747 -17655750.73246  20691711.2504   20691713.4304
        21.5004         22.7504
 -14461732.16942                  24736232.8284
         4.0004
  23945232.58843                  24592754.3754
         5.5004
  -1467785.68445    172689.75145  23120731.3674   23120736.8164
        10.0004         10.2504
  -9580641.04046  -7369651.19146  21977430.5084   21977431.9494
        16.2504         15.7504
 -21946084.99945 -15361859.75245  22654953.6644   22654956.0434
        10.0004         10.0004
 -14414384.58141                  25357126.2344
         3.5004
 -20888228.67645 -15456828.39045  23268441.8284   23268447.9694
         9.7504          9.2504
 -24328359.09947 -18882785.03446  20837052.7114   20837054.5394
        24.2504         24.2504
 03 10 30  2 56  0.0000000  0  9G24G10G 7G 9G 4G30G 6G17G 5
 -23788385.89747 -17639519.83146  20695674.9774   20695676.8634
        21.5004         22.7504
 -14537004.48241                  24721909.7194
         3.0004
  24051446.82043 -11037367.39553  24612965.8754   24612973.1454
         5.2504          3.0004
  -1343601.33145    269456.75545  23144363.9534   23144368.3714
        10.2504         10.7504
  -9476616.07046  -7288592.77646  21997225.2894   21997226.9304
        16.2504         15.5004
 -22006899.37245 -15409247.54745  22643381.4064   22643382.7774
        10.2504          9.7504
 -14465976.36141                  25347308.2504
         3.2504
 -20951476.07645 -15506111.94345  23256405.2034   23256411.4264
         9.5004          9.5004
 -24337078.17247 -18889579.10546  20835393.3134   20835394.9534
        24.2504         24.2504
 03 10 30  2 56 30.0000000  0  9G24G10G 7G 9G 4G30G 6G17G 5
 -23767055.87247 -17622899.06446  20699734.0084   20699736.2584
        21.2504         22.7504
 -14612329.81741                  24707577.2894
         2.7504
  24157662.65243 -10954601.85944  24633179.1254   24633188.7624
         5.0004          4.7504
  -1219220.82245    366376.62845  23168031.7424   23168036.2894
        10.5004          9.2504
  -9372253.32946  -7207271.16746  22017085.1564   22017086.9614
        16.2504         15.2504
 -22067541.01645 -15456500.71245  22631841.3914   22631843.3134
        10.7504         10.2504
 -14517563.33541                  25337490.0474
         3.2504
 -21014534.75545 -15555248.41745  23244405.6484   23244410.8284
         9.5004          9.5004
 -24345397.30247 -18896061.51746  20833810.0084   20833811.9304
        24.2504         24.2504
 03 10 30  2 57  0.0000000  0  9G24G10G 7G 9G 4G30G 6G17G 5
 -23745233.50947 -17605894.62746  20703886.6414   20703888.7854
        21.2504         23.0004
 -14687712.85642                  24693234.3364
         4.2504
  24263872.37543 -10871840.95344  24653390.4694   24653403.0704
         5.0004          4.2504
  -1094654.79745    463441.02245  23191736.5864   23191742.4104
         9.7504         10.2504
  -9267562.81246  -7125694.14046  22037007.0164   22037008.7854
        16.0004         15.5004
 -22128015.27045 -15503623.45945  22620334.4924   22620336.4024
        11.0004         11.0004
 -14569153.01741                  25327667.5864
         3.7504
 -21077409.72245 -15604241.73845  23232442.0234   23232448.7504
         9.7504         10.0004
 -24353322.61247 -18902237.09646  20832302.0784   20832304.1174
        24.2504         24.2504
 03 10 30  2 57 30.0000000  0  9G24G10G 7G 9G 4G30G 6G17G 5
 -23722913.03947 -17588502.02446  20708134.0004   20708136.2274
        21.2504         22.7504
 -14763144.39743                  24678881.1644
         5.0004
  24370081.82442 -10789080.42943  24673601.4534   24673605.8244
         4.7504          3.7504
   -969900.16945    560652.37245  23215475.7344   23215481.3134
         9.7504          9.7504
  -9162541.46346  -7043859.36346  22056991.6094   22056993.3914
        15.7504         15.5004
 -22188314.21345 -15550609.57945  22608859.4694   22608860.5354
        11.0004         10.7504
 -14620739.24041                  25317852.4694
         3.7504
 -21140093.83845 -15653086.36745  23220512.7194   23220518.1804
         9.5004          9.5004
 -24360846.18547 -18908099.64346  20830870.1954   20830871.7774
        24.2504         24.2504
 03 10 30  2 58  0.0000000  0  9G24G10G 7G 9G 4G30G 6G17G 5
 -23700095.86047 -17570722.40746  20712475.9614   20712478.1414
        21.5004         22.7504
 -14838622.78743 -11101333.90254  24664518.3984   24664531.3634
         5.5004          4.7504
  24476289.83842                  24693812.0314
         4.2504
   -844961.08545    658007.50845  23239251.3524   23239256.6604
         9.5004          9.7504
  -9057192.48046  -6961769.22246  22077039.2584   22077040.8404
        15.7504         15.5004
 -22248436.48045 -15597458.16745  22597418.2504   22597420.3484
        11.0004         10.2504
 -14672322.59042                  25308033.9774
         4.0004
 -21202585.90045 -15701781.36345  23208621.5634   23208628.9024
        10.0004          9.7504
 -24367967.37747 -18913648.59946  20829515.0234   20829516.9224
        24.2504         24.5004
 03 10 30  2 58 30.0000000  0  9G24G10G 7G 9G 4G30G 6G17G 5
 -25252201.97747 -18780155.74746  20417119.9384   20417122.1524
        21.2504         23.0004
 -16489567.14843 -12387785.22345  24350355.1254   24350366.4144
         5.0004          5.7504
  23007080.07142                  24414229.9304
         4.2504
  -2295256.32945   -472092.78945  22963269.4844   22963276.4384
         9.7504         10.2504
 -10526935.25446  -8107023.36246  21797356.5474   21797358.3054
        16.0004         15.5004
 -23883801.46945 -16871768.50445  22286218.3204   22286219.4104
        10.7504         10.5004
 -16299325.13542                  24998425.9534
         4.5004
 -22840306.72945 -16977927.38945  22896971.7814   22896977.1954
         9.2504         10.2504
 -25950104.45447 -20146482.69546  20528444.5634   20528446.7544
        24.2504         24.5004
 03 10 30  2 59  0.0000000  0  9G24G10G 7G 9G 4G30G 6G17G 5
 -25228392.48447 -18761602.92246  20421650.6804   20421652.9654
        21.2504         23.0004
 -16565128.85843 -12446665.60545  24335977.6254   24335989.1024
         5.0004          5.5004
  23113285.97342                  24434440.6644
         4.2504
  -2169956.65845   -374456.71545  22987114.0394   22987120.4144
         9.5004          9.5004
 -10420938.59446  -8024428.61146  21817526.7734   21817528.6484
        15.7504         15.5004
 -23943562.38745 -16918335.37945  22274846.4534   22274848.4344
        10.2504          9.7504
 -16350902.41542                  24988607.7114
         4.5004
 -22902409.07645 -17026318.71045  22885155.7114   22885162.3094
        10.0004         10.2504
 -25956414.95147 -20151399.99946  20527243.6024   20527245.2544
        24.2504         24.5004
 03 10 30  2 59 30.0000000  0  9G24G10G 7G 9G 4G30G 6G17G 5
 -25204083.34547 -18742660.76546  20426276.7034   20426279.0124
        21.2504         23.0004
 -16640723.29843 -12505571.62145  24321592.3204   24321602.4024
         6.0004          6.2504
                                  24454650.4064
         3.5004
  -2044476.99745   -276680.41345  23010992.6484   23010998.9184
        10.0004          9.7504
 -10314617.20046  -7941580.74346  21837759.3674   21837761.4414
        15.5004         15.5004
 -24003135.00545 -16964755.61345  22263509.8204   22263512.2114
        10.5004         10.5004
 -16402472.08742                  24978791.9064
         4.2504
 -22964309.38845 -17074552.55845  22873375.3364   22873380.9964
         9.5004         10.0004
 -25962313.48847 -20155996.22746  20526121.4454   20526123.2734
        24.5004         24.7504
 03 10 30  3  0  0.0000000  0  9G24G10G 7G 9G 4G30G 6G17G 5
 -25179279.28947 -18723332.95746  20430996.7814   20430999.1024
        21.2504         23.0004
 -16716351.64043 -12564504.00145  24307202.1644   24307218.5634
         5.0004          5.7504
 -15651536.97141                  24474863.5164
         3.5004
  -1918824.67645   -178769.51645  23034901.9614   23034906.3914
         9.2504         10.2504
 -10207978.40246  -7858485.60346  21858052.0314   21858053.9304
        15.2504         15.0004
 -24062521.28045 -17011030.60245  22252209.6484   22252210.2584
        10.7504         11.2504
 -16454038.17542                  24968979.1564
         4.0004
 -23026010.46845 -17122631.14545  22861634.6644   22861640.9454
         9.7504          9.7504
 -25967802.20047 -20160273.13346  20525076.7114   20525078.9024
        24.2504         24.7504
 03 10 30  3  0 30.0000000  0  8G24G10G 7G 9G 4G30G17G 5
 -25153977.85547 -18703617.59246  20435811.4304   20435813.6914
        21.2504         23.0004
 -16792006.06842 -12623456.25744  24292806.0234   24292819.9144
         4.5004          4.5004
 -15545327.65541                  24495074.2114
         3.5004
  -1792999.40845    -80723.90445  23058846.6174   23058851.4804
         9.2504          9.7504
 -10101021.24746  -7775142.38746  21878405.1724   21878407.3874
        15.0004         15.0004
 -24121715.61445 -17057155.99045  22240944.3674   22240946.7114
        10.7504         11.0004
 -23087507.35645 -17170550.60345  22849931.3524   22849937.1884
         9.7504          9.7504
 -25972876.56547 -20164227.12946  20524111.2194   20524113.3404
        24.5004         24.5004
 03 10 30  3  1  0.0000000  0  9G24G10G 7G 9G 4G30G 6G17G 5
 -25128180.77347 -18683515.96246  20440720.2974   20440722.7584
        21.2504         23.0004
 -16867686.55343 -12682428.66845  24278405.3674   24278420.0664
         5.0004          6.5004
 -15439117.97741                  24515283.8364
         3.0004
  -1667005.59145     17453.02345  23082822.4534   23082827.6214
         9.2504          9.7504
  -9993749.86946  -7691554.32146  21898818.3914   21898820.3244
        15.0004         14.7504
 -24180717.02445 -17103131.10145  22229717.8594   22229719.1374
        11.0004         11.5004
 -15783411.66851                  24949352.9924
         3.2504
 -23148799.18145 -17218310.29545  22838267.1334   22838273.6134
         9.5004          9.7504
 -25977536.26547 -20167858.13846  20523224.3134   20523226.0944
        24.2504         24.5004
 03 10 30  3  1 30.0000000  0  9G24G10G 7G 9G 4G30G 6G17G 5
 -25101890.80047 -18663030.28646  20445723.2814   20445725.7194
        21.2504         22.7504
 -16943391.18943 -12741419.84545  24264000.0004   24264015.0634
         6.2504          7.0004
 -15332910.02641                  24535496.3204
         2.7504
  -1540848.44245    115757.19845  23106830.1724   23106836.6764
         9.2504          9.2504
  -9886168.79046  -7607724.90546  21919290.6334   21919292.4614
        15.0004         14.7504
 -24239525.35345 -17148955.81145  22218526.2034   22218527.7154
        11.0004         11.0004
 -15834961.34941                  24939543.3134
         3.0004
 -23209886.71345 -17265910.88245  22826642.4064   22826648.1604
         9.5004          9.7504
 -25981781.37747 -20171166.00546  20522416.5944   20522418.4574
        24.5004         24.5004
 03 10 30  3  2  0.0000000  0  9G24G10G 7G 9G 4G30G 6G17G 5
 -25075108.38847 -18642160.83946  20450819.9694   20450822.0084
        21.2504         23.0004
 -17019117.65542 -12800428.13245  24249590.6334   24249603.7624
         4.2504          5.5004
 -15226703.94141 -12212555.39053  24555704.5394   24555709.4494
         2.2504          3.5004
  -1414530.70545    214186.55545  23130866.7894   23130873.3404
         9.2504          9.7504
  -9778280.58346  -7523656.21046  21939820.3754   21939822.7194
        14.7504         14.5004
 -24298137.95145 -17194627.90645  22207372.9614   22207373.5944
        11.0004         10.5004
 -15886507.28341                  24929733.9614
         3.2504
 -23270768.15245 -17313350.76745  22815057.0634   22815063.1684
         9.7504          9.5004
 -25985610.50647 -20174149.78246  20521687.8984   20521689.9734
        24.2504         24.5004
 03 10 30  3  2 30.0000000  0  9G24G10G 7G 9G 4G30G 6G17G 5
 -25047831.83547 -18620906.39946  20456010.3984   20456012.5904
        21.2504         22.7504
 -17094859.52041 -12859448.32944  24235177.0634   24235190.1334
         3.5004          4.5004
 -15120497.20641                  24575915.5634
         3.0004
  -1288052.79845    312740.70745  23154935.0554   23154940.4924
         9.2504          9.7504
  -9670085.13446  -7439348.07346  21960409.6254   21960411.9344
        14.5004         14.0004
 -24356550.25145 -17240144.06745  22196257.2814   22196258.8874
        10.7504         10.5004
 -15938046.24841                  24919926.4384
         3.2504
 -23331438.80745 -17360626.46545  22803511.8054   22803517.3954
        10.0004         10.5004
 -25989018.95147 -20176805.75746  20521039.1954   20521040.9884
        24.2504         24.7504
 03 10 30  3  3  0.0000000  0  9G24G10G 7G 9G 4G30G 6G17G 5
 -25020064.95347 -18599269.87246  20461294.2344   20461296.6134
        21.2504         23.0004
 -17170616.84942 -12918480.35645  24220760.5944   24220772.6094
         4.2504          5.2504
 -15014293.09441                  24596124.5944
         3.0004
  -1161421.04945    411414.76745  23179032.4534   23179038.5704
         9.5004          9.2504
  -9561588.21446  -7354804.99846  21981055.7664   21981057.7344
        14.5004         14.5004
 -24414762.75345 -17285504.40145  22185180.0554   22185181.6254
        10.7504         10.7504
 -15989581.63341 -12304107.52254  24910116.7734   24910132.0124
         3.2504          4.7504
 -23391900.55345 -17407739.27745  22792006.4614   22792012.0984
         9.7504          9.7504
 -25992008.46847 -20179135.12446  20520470.1174   20520471.7114
        24.2504         24.2504
 03 10 30  3  3 30.0000000  0  9G24G10G 7G 9G 4G30G 6G17G 5
 -24991805.01547 -18577249.17146  20466671.9144   20466674.0704
        21.5004         23.0004
 -17246383.45142 -12977519.90944  24206343.7274   24206349.4804
         4.2504          4.7504
 -14908088.29641                  24616336.2814
         2.7504
  -1034635.10545    510208.99445  23203158.8284   23203164.4064
         9.2504          9.0004
  -9452789.14446  -7270026.51346  22001759.6024   22001761.1604
        14.2504         14.2504
 -24472769.85945 -17330704.72345  22174141.3204   22174142.8444
        10.7504         11.0004
 -16041110.19241 -12344258.98542  24900311.6804   24900318.8094
         2.7504          2.5004
 -23452147.81345 -17454684.88845  22780540.4614   22780545.2424
        10.0004         10.2504
 -25994574.58547 -20181134.77446  20519982.0394   20519984.2544
        24.2504         24.7504
 03 10 30  3  4  0.0000000  0  9G24G10G 7G 9G 4G30G 6G17G 5
 -24963049.60947 -18554842.35846  20472143.9304   20472146.3094
        21.5004         23.0004
 -17322153.05742 -13036561.48545  24191924.8834   24191942.2664
         4.2504          5.0004
 -14801879.84441                  24636547.0944
         3.2504
   -907695.03745    609123.31245  23227313.5234   23227317.5784
         8.2504          9.0004
  -9343687.51446  -7185012.30546  22022521.0234   22022523.0634
        14.2504         13.7504
 -24530566.33545 -17375740.83145  22163142.8444   22163144.7774
        11.5004         11.2504
 -16092627.19141                  24890505.6414
         3.5004
 -23512176.29445 -17501460.11245  22769117.7894   22769123.6724
        10.0004         10.2504
 -25996712.59747 -20182800.71846  20519575.2664   20519577.4694
        24.5004         24.7504
 03 10 30  3  4 30.0000000  0  9G24G10G 7G 9G 4G30G 6G17G 5
 -24933810.05947 -18532058.27646  20477708.0314   20477710.3164
        21.2504         23.2504
 -17397932.75143 -13095611.13945  24177505.2504   24177511.9414
         5.7504          5.2504
 -14695678.34142 -12259453.60054  24656756.3284   24656758.4144
         4.2504          4.7504
   -780614.08445    708147.40045  23251497.4454   23251503.2344
         9.0004          9.2504
  -9234296.12146  -7099772.20346  22043337.6724   22043339.3594
        14.2504         13.7504
 -24588160.30845 -17420619.32945  22152183.3134   22152184.4144
        11.7504         11.7504
 -16144144.31841                  24880703.6954
         3.7504
 -23571994.69945 -17548071.69345  22757735.8134   22757742.4344
        10.7504         10.7504
 -25998430.84347 -20184139.58946  20519248.3054   20519250.2974
        24.5004         24.5004
 03 10 30  3  5  0.0000000  0  9G24G10G 7G 9G 4G30G 6G17G 5
 -24904079.74647 -18508891.82546  20483365.5634   20483367.8014
        21.2504         23.2504
 -17473712.85242 -13154661.44545  24163085.5634   24163100.9304
         4.7504          5.7504
 -14589476.44542 -12176698.87445  24676966.2424   24676972.8404
         4.5004          5.5004
   -653388.28145    807284.32845  23275708.1644   23275713.7774
         9.2504          9.2504
  -9124610.61046  -7014302.98946  22064210.0314   22064212.0824
        14.2504         13.5004
 -24645541.90145 -17465332.21945  22141263.9534   22141264.4924
        11.7504         11.2504
 -16195653.41341                  24870899.1644
         3.7504
 -23631593.89745 -17594512.41645  22746393.7194   22746399.6724
        10.5004         10.2504
 -25999720.88747 -20185144.80746  20519002.6484   20519004.5594
        24.5004         24.7504
 03 10 30  3  5 30.0000000  0  9G24G10G 7G 9G 4G30G 6G17G 5
 -24873858.02247 -18485342.41146  20489116.5394   20489118.8244
        21.2504         23.2504
 -17549487.82543 -13213707.28545  24148666.1954   24148682.0904
         5.0004          6.0004
 -14483272.74042 -12093942.71444  24697176.7274   24697186.0354
         4.5004          4.0004
   -526019.23845    906532.80045  23299944.7814   23299952.1094
         8.7504          9.5004
  -9014631.94846  -6928605.33646  22085138.1024   22085140.3164
        14.0004         13.7504
 -24702707.56245 -17509876.86345  22130385.5474   22130386.2854
        11.5004         11.2504
 -16247153.30842                  24861099.5084
         4.0004
 -23690971.06845 -17640780.21945  22735094.4304   22735100.7234
        10.7504         10.5004
 -26000580.01447 -20185814.29746  20518839.3204   20518841.2424
        24.7504         24.7504
 03 10 30  3  6  0.0000000  0  9G24G10G 7G 9G 4G30G 6G17G 5
 -24843142.71047 -18461408.40546  20494961.8754   20494964.1954
        21.2504         23.0004
 -17625251.89243 -13272745.08445  24134249.7274   24134258.6724
         6.5004          5.5004
 -14377064.44942 -12011182.88544  24717386.1024   24717392.4304
         4.2504          4.5004
   -398506.89845   1005893.00645  23324210.1954   23324215.0474
         9.2504          9.7504
  -8904359.63146  -6842678.83846  22106122.3134   22106124.6214
        14.0004         13.7504
 -24759651.88245 -17554249.08645  22119549.4694   22119551.5314
        11.5004         11.7504
 -16298640.32542                  24851301.4844
         4.0004
 -23750121.49045 -17686871.44445  22723838.0234   22723843.3204
        10.7504         11.0004
 -26001002.83447 -20186143.81146  20518758.9064   20518760.8164
        24.7504         24.7504
 03 10 30  3  6 30.0000000  0  9G24G10G 7G 9G 4G30G 6G17G 5
 -24811942.28247 -18437096.41346  20500898.5784   20500900.8984
        21.2504         23.0004
 -17701008.67943 -13331776.80445  24119834.2274   24119847.2034
         5.5004          5.7504
 -14270859.19442 -11928425.62945  24737596.6804   24737601.8134
         4.7504          5.5004
   -270861.82545   1105356.62445  23348501.1644   23348507.2934
         9.2504          8.7504
  -8793803.84846  -6756531.53746  22127160.5784   22127162.6414
        14.0004         13.5004
 -24816379.83646 -17598452.67145  22108754.4844   22108755.8444
        12.2504         11.7504
 -16350121.97442 -12314776.54254  24841503.9384   24841511.4184
         4.2504          4.2504
 -23809050.76745 -17732790.28045  22712624.5554   22712630.0864
        11.0004         10.7504
 -26000995.58847 -20186138.16446  20518760.4224   20518762.4024
        24.7504         25.0004
 03 10 30  3  7  0.0000000  0  9G24G10G 7G 9G 4G30G 6G17G 5
 -24780259.08047 -18412408.18346  20506927.7664   20506930.1334
        21.0004         23.0004
 -17776757.52143 -13390802.15345  24105419.3204   24105430.1524
         5.7504          7.2504
 -14164658.87143 -11845672.10645  24757806.1884   24757807.4304
         5.5004          5.0004
   -143088.58945   1204920.12445  23372815.1724   23372820.7974
         8.7504          9.0004
  -8682969.06346  -6670166.74446  22148251.6254   22148253.7584
        14.0004         13.2504
 -24872891.01546 -17642487.36846  22098001.5634   22098002.5594
        12.5004         12.2504
 -16401600.17642 -12354888.63043  24831708.9384   24831715.2544
         4.7504          3.7504
 -23867758.98045 -17778536.87745  22701452.7114   22701458.6054
        10.5004         10.7504
 -26000558.70947 -20185797.74446  20518843.4144   20518845.3364
        24.7504         25.2504
 03 10 30  3  7 30.0000000  0  9G24G10G 7G 9G 4G30G 6G17G 5
 -24748093.22747 -18387343.91946  20513048.5944   20513051.0664
        21.0004         23.0004
 -17852493.90843 -13449817.84345  24091008.0944   24091026.6024
         5.5004          5.2504
 -14058462.31843 -11762921.54245  24778014.3524   24778020.4694
         5.5004          5.0004
    -15189.24645   1304581.94645  23397153.7274   23397160.8094
         8.0004          8.5004
  -8571856.76546  -6583585.84646  22169395.8754   22169397.5514
        13.7504         13.5004
 -24929181.86346 -17686350.39345  22087289.2894   22087290.9184
        12.5004         11.2504
 -16453073.40042 -12394996.88444  24821910.4454   24821914.5004
         4.5004          4.7504
 -23926243.58345 -17824109.13145  22690323.5394   22690327.8984
        11.0004         11.5004
 -25999689.91147 -20185120.74746  20519008.7274   20519010.6254
        24.7504         24.7504
 03 10 30  3  8  0.0000000  0  9G24G10G 7G 9G 4G30G 6G17G 5
 -24715442.65947 -18361901.89746  20519262.2894   20519264.3524
        21.2504         23.0004
 -17928212.53443 -13508819.80845  24076599.6094   24076612.9964
         5.0004          5.5004
 -13952267.16743 -11680172.09144  24798223.5084   24798229.4264
         5.0004          4.7504
    112835.58145   1404341.46145  23421514.7194   23421520.1334
         8.2504          8.5004
  -8460466.83646  -6496788.46146  22190592.2894   22190593.7194
        13.5004         13.2504
 -24985247.65446 -17730037.90145  22076620.4064   22076621.6844
        12.2504         11.7504
 -16504539.02442 -12435099.28244  24812118.4774   24812115.5824
         4.7504          4.0004
 -23984500.24245 -17869503.75345  22679236.7894   22679242.3554
        11.5004         11.2504
 -25998384.84247 -20184103.81846  20519256.9844   20519258.7544
        24.7504         25.0004
 03 10 30  3  8 30.0000000  0  9G24G10G 7G 9G 4G30G 6G17G 5
 -24682306.61547 -18336081.61746  20525567.6804   20525569.8484
        21.2504         23.2504
 -18003907.27243 -13567803.00745  24062195.4614   24062210.9454
         6.7504          6.5004
 -13846071.33442 -11597422.22644  24818431.0474   24818443.1214
         4.7504          4.2504
    240985.01944   1504198.06645  23445900.6724   23445905.9924
         7.7504          8.0004
  -8348799.85146  -6409775.25846  22211841.6254   22211843.6174
        13.2504         12.7504
 -25041083.82546 -17773546.62445  22065994.5554   22065996.1724
        12.0004         11.7504
 -16555994.73242 -12475194.06945  24802325.1804   24802333.7734
         4.5004          5.7504
 -24042525.46645 -17914718.06845  22668195.5704   22668200.3984
        11.2504         11.5004
 -25996639.32647 -20182743.65446  20519589.2734   20519591.0434
        24.5004         25.0004
 03 10 30  3  9  0.0000000  0  9G24G10G 7G 9G 4G30G 6G17G 5
 -24648687.52947 -18309884.92046  20531964.9454   20531967.4884
        21.2504         23.2504
 -18079578.08943 -13626767.95045  24047796.8204   24047805.9304
         5.2504          6.2504
 -13739876.97643 -11514673.02844  24838639.4924   24838641.8834
         5.0004          4.2504
    369253.98844   1604147.85945  23470309.1884   23470314.4964
         7.7504          8.7504
  -8236860.36246  -6322549.66946  22233143.1724   22233144.9304
        13.2504         13.2504
 -25096690.02946 -17816876.10646  22055413.0314   22055414.3444
        12.5004         12.2504
 -16607442.26642 -12515282.47745  24792535.0004   24792539.5124
         4.2504          5.5004
 -24100319.20545 -17959751.93345  22657197.5004   22657202.5634
        11.0004         11.0004
 -25994454.75147 -20181041.39146  20520004.8754   20520006.9614
        24.5004         24.7504
 03 10 30  3  9 30.0000000  0  9G24G10G 7G 9G 4G30G 6G17G 5
 -24614587.65547 -18283313.59346  20538454.2504   20538456.4654
        21.2504         23.0004
 -18155223.75043 -13685714.18145  24033402.4304   24033424.1644
         6.2504          6.0004
 -13633685.23643                  24858846.3284
         5.0004
    497638.61545   1704187.70645  23494743.1564   23494749.9884
         8.7504          8.5004
  -8124651.99546  -6235114.58146  22254495.6644   22254497.4454
        13.2504         12.7504
 -25152064.89446 -17860025.39846  22044875.8054   22044877.4344
        13.2504         12.7504
 -16658882.47442 -12555365.07444  24782745.2894   24782747.9734
         4.5004          4.7504
 -24157881.12845 -18004605.16845  22646242.6954   22646248.4734
        10.7504         11.2504
 -25991830.52747 -20178996.51846  20520504.0704   20520506.0514
        24.2504         24.7504
 03 10 30  3 10  0.0000000  0  9G24G10G 7G 9G 4G30G 6G17G 5
 -24580005.52047 -18256366.51446  20545034.8204   20545037.2704
        21.2504         23.5004
 -18230837.47243 -13744635.94745  24019014.8284   24019034.5904
         5.7504          5.7504
 -13527493.67543                  24879055.5394
         5.0004
    626137.88345   1804316.98445  23519193.9224   23519199.6994
         8.2504          8.7504
  -8012175.30646  -6147470.40346  22275899.4454   22275901.1564
        13.2504         13.0004
 -25207203.61246 -17902990.56246  22034383.6484   22034384.7274
        13.0004         13.0004
 -16710313.20042 -12595440.47045  24772959.2114   24772965.3524
         4.2504          5.0004
 -24215207.57145 -18049274.92945  22635335.2734   22635340.4414
        11.7504         11.5004
 -25988762.80147 -20176606.06146  20521088.0164   20521089.9494
        24.5004         24.7504
 03 10 30  3 10 30.0000000  0  9G24G10G 7G 9G 4G30G 6G17G 5
 -24544940.93647 -18229043.46346  20551707.4534   20551709.6214
        21.2504         23.2504
 -18306411.45943 -13803524.84845  24004634.4454   24004651.3484
         6.2504          5.2504
 -13421301.29042                  24899262.6174
         4.5004
    754750.44745   1904534.49445  23543667.1484   23543672.8914
         8.0004          7.7504
  -7899431.12846  -6059617.77746  22297353.7034   22297355.4144
        13.0004         12.7504
 -25262102.66346 -17945768.97746  22023936.7894   22023937.6094
        12.7504         12.2504
 -16761732.78042 -12635507.04744  24763174.3914   24763177.0634
         4.2504          4.5004
 -24272295.35645 -18093758.79645  22624471.0474   22624476.6134
        11.2504         11.0004
 -25985248.47047 -20173867.60946  20521756.7114   20521758.4924
        24.5004         25.2504
 03 10 30  3 11  0.0000000  0  9G24G10G 7G 9G 4G30G 6G17G 5
 -24509398.92747 -18201348.38646  20558470.7974   20558473.1054
        21.2504         23.2504
 -18381948.17943 -13862384.48143  23990259.8914   23990270.3594
         5.7504          3.5004
 -13315112.14941                  24919469.5634
         3.7504
    883468.84644   2004834.42445  23568160.9694   23568167.3794
         7.7504          8.5004
  -7786426.59846  -5971562.24546  22318857.9304   22318859.6764
        13.2504         12.7504
 -25316764.22946 -17988362.45045  22013534.2504   22013535.1884
        12.7504         11.7504
 -16813145.40142 -12675568.22044  24753388.9064   24753401.8014
         4.2504          4.5004
 -24329147.29845 -18138058.81245  22613652.7344   22613658.4304
        11.5004         11.5004
 -25981290.59247 -20170783.52346  20522509.9844   20522511.8954
        24.7504         25.2504
 03 10 30  3 11 30.0000000  0  9G24G10G 7G 9G 4G30G 6G17G 5
 -24473381.72447 -18173283.03146  20565324.8134   20565327.2504
        21.5004         23.2504
 -15766778.35451 -13921214.45644  23975890.8284   23975909.3364
         3.0004          4.0004
 -13208927.51641                  24939675.8524
         3.2504
   1012288.76144   2105213.51345  23592674.5784   23592680.3674
         7.0004          7.7504
  -7673165.29446  -5883306.64046  22340410.8594   22340413.2734
        13.2504         12.7504
 -25371186.52546 -18030769.45446  22003178.4774   22003180.1644
        13.0004         12.5004
 -16864551.78742 -12715624.84443  24743606.8054   24743607.3674
         4.2504          3.7504
 -24385762.59645 -18182174.42946  22602878.3134   22602883.8324
        11.2504         12.0004
 -25976888.96947 -20167353.64846  20523347.6254   20523349.1954
        24.7504         25.0004
 03 10 30  3 12  0.0000000  0  9G24G10G 7G 9G 4G30G 6G17G 5
 -24436886.31647 -18144845.06046  20572269.6644   20572272.1254
        21.2504         23.0004
 -15842231.88843 -13980009.19245  23961533.8834   23961547.2584
         5.2504          5.2504
 -13102743.74841                  24959881.4224
         3.5004
   1141211.42644   2205672.65745  23617208.8914   23617214.9494
         7.7504          7.7504
  -7559646.11146  -5794850.20246  22362013.1334   22362014.7274
        13.2504         13.0004
 -25425363.45146 -18072985.31446  21992869.2894   21992870.5204
        13.2504         12.7504
 -16915947.99341                  24733824.0084
         3.7504
 -24442136.17045 -18226101.73045  22592150.8204   22592156.3634
        11.2504         11.7504
 -25972038.58247 -20163574.17846  20524270.7734   20524272.3674
        25.0004         25.5004
 03 10 30  3 12 30.0000000  0  9G24G10G 7G 9G 4G30G 6G17G 5
 -24399922.93047 -18116042.40146  20579303.4694   20579305.9304
        21.0004         23.0004
 -15917646.29342                  23947181.5704
         4.0004
 -12996570.15241                  24980083.9454
         3.7504
   1270224.41944   2306202.24545  23641760.1954   23641767.3714
         7.7504          8.2504
  -7445880.68946  -5706201.84846  22383661.6174   22383664.2194
        13.0004         13.2504
 -25479301.67146 -18115015.01446  21982604.4694   21982605.6994
        12.7504         13.0004
 -16967343.08541                  24724044.7424
         3.7504
 -24498275.82545 -18269846.84445  22581468.1094   22581473.8054
        11.2504         11.2504
 -25966746.88047 -20159450.78046  20525277.6024   20525279.4534
        24.7504         25.2504
 03 10 30  3 13  0.0000000  0  9G24G10G 7G 9G 4G30G 6G17G 5
 -24362483.72647 -18086868.96446  20586427.6254   20586429.9924
        21.2504         23.0004
 -15993008.80944                  23932841.7194
         7.0004
 -12890397.38941                  25000289.0704
         3.5004
   1399334.04544   2406807.07145  23666328.6254   23666334.3444
         7.7504          7.7504
  -7331862.50046  -5617356.57346  22405358.8984   22405360.5044
        13.0004         13.0004
 -25532989.86646 -18156849.93146  21972387.9384   21972389.6844
        13.0004         13.0004
 -17018727.50842                  24714267.0394
         4.0004
 -24554170.34245 -18313400.86146  22570831.3364   22570837.0664
        11.5004         12.0004
 -25961003.35447 -20154975.30146  20526370.5474   20526372.4694
        24.7504         25.5004
 03 10 30  3 13 30.0000000  0  9G24G10G 7G 9G 4G30G 6G17G 5
 -24324569.90747 -18057325.73146  20593642.5554   20593644.7704
        21.2504         23.2504
 -16068316.33843                  23918509.2504
         5.7504
 -12784225.59041                  25020495.2344
         2.7504
   1528537.22945   2507484.76145  23690915.7194   23690920.7234
         8.0004          8.0004
  -7217593.98746  -5528316.17046  22427103.3984   22427105.6374
        13.0004         13.2504
 -25586425.64946 -18198488.18346  21962219.9064   21962221.1024
        13.2504         13.0004
 -17070101.32342 -12309358.65055  24704490.3204   24704498.3284
         4.0004          5.2504
 -24609818.08346 -18356762.60846  22560242.5314   22560246.9264
        12.0004         12.5004
 -25954806.59047 -20150146.64546  20527549.7194   20527551.2894
        24.7504         25.5004
 03 10 30  3 14  0.0000000  0  9G24G10G 7G 9G 4G30G 6G17G 5
 -24286184.54247 -18027415.05846  20600946.9614   20600948.9184
        21.0004         23.2504
 -16143567.34645 -12330724.13455  23904189.7734   23904204.9184
        10.0004         10.0004
 -15736510.04051                  25040696.6174
         2.0004
   1657828.57244   2608231.17545  23715518.6174   23715525.2854
         7.5004          7.7504
  -7103080.19146  -5439084.72946  22448894.3364   22448895.9304
        12.7504         12.5004
 -25639608.85246 -18239929.65646  21952098.9534   21952100.0084
        13.2504         12.5004
 -17121466.63442 -12349383.12844  24694715.2424   24694718.0084
         4.2504          4.5004
 -24665220.05845 -18399932.78245  22549699.2584   22549705.1174
        11.7504         11.7504
 -25948157.66647 -20144965.64646  20528814.8984   20528816.7734
        24.5004         25.2504
 03 10 30  3 14 30.0000000  0  9G24G10G 7G 9G 4G30G 6G17G 5
 -24247332.59547 -17997140.80846  20608340.3284   20608342.8014
        21.0004         23.2504
 -16218763.23343 -12389317.32045  23889879.2424   23889897.0004
         6.0004          8.0004
                                  25060895.9924
         1.0004
   1787201.11344   2709040.95645  23740137.7974   23740144.7034
         7.2504          7.5004
  -6988327.51846  -5349667.05146  22470731.1564   22470732.7384
        12.5004         12.5004
 -25692540.94146 -18281175.40446  21942026.5314   21942028.6414
        12.7504         12.5004
 -17172827.39042 -12389404.24644  24684942.4144   24684949.2344
         4.0004          4.5004
 -24720378.67246 -18442913.31446  22539203.1644   22539208.4494
        12.2504         12.2504
 -25941059.36947 -20139434.46946  20530165.6414   20530167.4694
        24.5004         25.0004
 03 10 30  3 15  0.0000000  0  8G24G10G 9G 4G30G 6G17G 5
 -24208007.51847 -17966497.88446  20615823.5634   20615825.9414
        21.0004         23.2504
 -16293892.86245 -12447859.00345  23875582.2894   23875594.6914
         9.5004          8.5004
   1916659.63344   2809917.63345  23764772.4144   23764779.4144
         7.2504          8.0004
  -6873330.83646  -5260059.24246  22492613.8524   22492615.6094
        12.2504         12.0004
 -25745211.79846 -18322217.60746  21932003.7114   21932005.2814
        13.0004         13.2504
 -17224175.32242 -12429415.17345  24675170.1564   24675181.7154
         4.2504          5.0004
 -24775284.77646 -18485697.10046  22528753.9774   22528758.5124
        12.2504         12.2504
 -25933502.61447 -20133546.09946  20531603.6334   20531605.4024
        24.5004         25.2504
 03 10 30  3 15 30.0000000  0  8G24G10G 9G 4G30G 6G17G 5
 -24168219.46847 -17935494.20546  20623394.8754   20623397.2774
        21.0004         23.2504
 -16368961.91442 -12506353.24545  23861295.5554   23861312.3524
         4.2504          6.7504
   2046192.33044   2910852.18945  23789421.9384   23789428.0204
         7.7504          8.0004
  -6758101.23446  -5170269.90645  22514541.8594   22514543.9344
        12.0004         11.7504
 -25797627.99246 -18363061.36346  21922029.1804   21922030.4224
        14.0004         13.2504
 -17275519.32442 -12469423.19844  24665399.7504   24665405.7854
         4.5004          4.2504
 -24829945.57846 -18528289.76246  22518352.5314   22518357.0664
        12.2504         12.7504
 -25925494.75247 -20127306.20846  20533127.6484   20533129.5004
        24.5004         25.2504
 03 10 30  3 16  0.0000000  0  8G24G10G 9G 4G30G 6G17G 5
 -24127964.51247 -17904126.71246  20631055.1094   20631057.4774
        21.0004         23.2504
 -16443961.75444 -12564793.47945  23847023.8754   23847035.5274
         7.0004          7.2504
   2175801.29444   3011846.16345  23814086.0314   23814093.8404
         7.5004          7.0004
  -6642636.77145  -5080297.63846  22536514.3284   22536516.6484
        11.7504         12.0004
 -25849781.97346 -18403700.78546  21912104.9224   21912105.7304
        14.0004         13.2504
 -17326854.22842 -12509424.06345  24655632.3364   24655639.4654
         4.7504          5.5004
 -24884354.75346 -18570686.40346  22507999.3594   22508004.0234
        12.7504         12.7504
 -25917029.60747 -20120709.97746  20534738.2814   20534740.0984
        24.5004         25.0004
 03 10 30  3 16 30.0000000  0  8G24G10G 9G 4G30G 6G17G 5
 -24087244.42747 -17872396.78546  20638803.9844   20638806.3404
        21.2504         23.5004
 -15766681.55051                  23832762.7424
         3.0004
   2305482.78443   3112896.53645  23838762.2424   23838767.6914
         6.7504          7.7504
  -6526940.58745  -4990144.86445  22558530.1024   22558532.3404
        11.7504         11.5004
 -25901672.12946 -18444134.65446  21902229.9534   21902231.1484
        13.5004         13.0004
 -17378180.39043 -12549418.15445  24645863.9774   24645866.4494
         5.2504          5.7504
 -24938511.29746 -18612886.17746  22497692.5474   22497697.0944
        12.7504         12.5004
 -25908106.14447 -20113756.64346  20536436.3834   20536438.2234
        24.5004         25.2504
 03 10 30  3 17  0.0000000  0  8G24G10G 9G 4G30G 6G17G 5
 -24046062.47647 -17840306.97446  20646640.9924   20646643.3244
        21.5004         23.2504
 -15841537.53041                  23818517.2114
         3.7504
   2435231.58344   3213999.41245  23863454.7274   23863462.1134
         7.7504          7.7504
  -6411017.22345  -4899814.93346  22580589.9844   22580592.2584
        11.5004         12.0004
 -25953298.28046 -18484362.82346  21892406.1094   21892406.9064
        14.0004         13.5004
 -17429499.75942 -12589406.96445  24636097.6644   24636104.6414
         4.7504          6.2504
 -24992416.01646 -18654889.75846  22487435.8204   22487439.6994
        12.7504         12.2504
 -25898725.81847 -20106447.27246  20538221.6804   20538223.5664
        24.5004         25.0004
 03 10 30  3 17 30.0000000  0  8G24G10G 9G 4G30G 6G17G 5
 -24004415.61947 -17807854.89046  20654565.9384   20654568.1994
        21.5004         23.2504
 -15916313.99543                  23804287.1414
         6.2504
   2565049.31843   3315156.07845  23888158.1564   23888166.5164
         6.7504          7.5004
  -6294864.98545  -4809306.73545  22602692.4304   22602695.4414
        11.5004         11.5004
 -26004653.63846 -18524380.02046  21882633.2274   21882634.7974
        14.5004         13.5004
                                  24626332.7974
         4.7504
 -25046063.16146 -18696692.69346  22477226.5164   22477230.6054
        13.0004         12.7504
 -25888883.16247 -20098777.67246  20540094.3754   20540096.0984
        24.7504         25.2504
 03 10 30  3 18  0.0000000  0  8G24G10G 9G 4G30G 6G17G 5
 -23962303.43747 -17775040.22546  20662579.5784   20662581.7814
        21.5004         23.5004
 -15991004.88043                  23790074.3754
         6.0004
   2694934.64443   3416365.31945  23912873.4454   23912880.4924
         6.2504          7.7504
  -6178484.67845  -4718620.79845  22624839.1254   22624840.7424
        11.5004         11.7504
 -26055733.88546 -18564182.74446  21872913.0864   21872913.9414
        14.7504         13.7504
 -15803783.72543                  24616573.0634
         5.0004
 -25099448.95746 -18738291.83146  22467067.3754   22467071.6644
        13.0004         13.0004
 -25878574.72547 -20090745.13246  20542056.1484   20542057.8954
        24.5004         25.2504
 03 10 30  3 18 30.0000000  0  8G24G10G 9G 4G30G 6G17G 5
 -23919742.46347 -17741875.80846  20670678.8834   20670680.9694
        21.7504         23.5004
 -16065621.83345                  23775874.0004
         8.2504
   2824869.05643   3517612.93545  23937599.0634   23937603.4574
         6.5004          7.7504
  -6061894.20245  -4627771.06245  22647025.7974   22647027.6724
        11.5004         11.5004
 -26106552.39546 -18603781.69646  21863243.2194   21863244.1564
        14.2504         13.5004
 -15855080.77743                  24606810.6644
         5.0004
 -25152587.81946 -18779698.65546  22456955.7894   22456960.2424
        13.2504         12.7504
 -25867814.81847 -20082360.77746  20544103.6024   20544105.2664
        24.5004         25.2504
 03 10 30  3 19  0.0000000  0  8G24G10G 9G 4G30G 6G17G 5
 -23876729.62347 -17708359.31046  20678863.8204   20678866.0944
        21.5004         23.5004
 -16140158.37545                  23761690.2424
         9.2504
   2954853.98844   3618899.79745  23962334.7274   23962339.5434
         7.0004          7.5004
  -5945091.84645  -4536756.36245  22669252.0164   22669254.7344
        11.5004         11.7504
 -26157101.78846 -18643170.78546  21853623.2894   21853624.7664
        14.5004         13.5004
 -15906375.24643 -12291986.55955  24597049.8594   24597053.7034
         5.5004          5.0004
 -25205473.90446 -18820908.47746  22446891.6174   22446896.3634
        13.0004         12.7504
 -25856597.66347 -20073620.11446  20546238.0394   20546239.7734
        24.2504         25.2504
 03 10 30  3 19 30.0000000  0  8G24G10G 9G 4G30G 6G17G 5
 -23833262.96747 -17674489.18446  20687135.4614   20687137.7114
        21.7504         23.5004
 -16214608.38044 -12304996.94155  23747521.4384   23747532.9844
         7.2504          7.7504
   3084889.66243   3720226.23745  23987079.5554   23987085.5664
         6.7504          7.0004
  -5828077.16845  -4445576.17345  22691519.9534   22691521.7584
        11.5004         11.2504
 -26207377.04146 -18682346.32346  21844056.7814   21844058.0004
        15.0004         14.5004
 -15957663.93043 -12331951.46044  24587289.1174   24587295.3164
         5.2504          4.7504
 -25258102.51546 -18861917.65146  22436875.5314   22436879.6094
        12.7504         12.7504
 -25844919.36047 -20064520.12246  20548460.4384   20548462.2774
        24.2504         25.5004
 03 10 30  3 20  0.0000000  0  8G24G10G 9G 4G30G 6G17G 5
 -23789348.37947 -17640270.04246  20695491.7584   20695494.1254
        21.7504         23.5004
 -16288972.88445 -12362942.72045  23733370.6024   23733380.6254
         8.2504          8.7504
   3214968.44044   3821586.15945  24011833.1414   24011839.0704
         7.2504          7.7504
  -5710857.13245  -4354235.95145  22713826.2114   22713827.7814
        11.7504         11.5004
 -26257380.20346 -18721309.82646  21834541.2194   21834542.3794
        14.7504         14.7504
 -16008951.29443 -12371915.50644  24577530.3134   24577530.5824
         5.0004          4.5004
 -25310477.00946 -18902728.83546  22426909.6414   22426914.5164
        12.7504         13.0004
 -25832783.17547 -20055063.34646  20550769.8754   20550771.6914
        24.5004         25.2504
 03 10 30  3 20 30.0000000  0  8G24G10G 9G 4G30G 6G17G 5
 -23744992.09447 -17605706.71446  20703932.7194   20703935.0164
        21.5004         23.5004
 -16363252.83843 -12420822.75745  23719234.6414   23719250.9694
         6.2504          7.2504
   3345082.47143   3922973.68245  24036592.8524   24036598.9104
         6.7504          7.2504
  -5593439.11545  -4262741.54245  22736170.2424   22736173.1024
        11.7504         11.7504
 -26307113.69446 -18760063.17646  21825077.2584   21825078.6524
        14.5004         14.0004
 -16060241.88743 -12411881.82545  24567769.0704   24567769.0704
         5.0004          5.0004
 -25362600.65246 -18943344.49246  22416991.3594   22416996.5984
        12.7504         13.2504
 -25820193.06647 -20045252.84246  20553165.7034   20553167.6604
        24.2504         25.5004
 03 10 30  3 21  0.0000000  0  8G24G10G 9G 4G30G 6G17G 5
 -23700199.86647 -17570803.68846  20712456.3984   20712458.4494
        21.2504         23.5004
 -16437449.12443 -12478637.37245  23705114.8524   23705127.2774
         5.5004          8.0004
   3475224.20744   4024382.80445  24061358.6804   24061365.3014
         7.5004          6.5004
  -5475829.77045  -4171097.90645  22758550.5864   22758552.9884
        11.7504         11.5004
 -26356579.51946 -18798607.91146  21815663.6334   21815664.5944
        14.0004         13.2504
 -16111539.92542 -12451854.14545  24558006.8834   24558009.2624
         4.7504          5.5004
 -25414476.33746 -18983766.83046  22407118.9304   22407123.5944
        12.7504         13.0004
 -25807151.89847 -20035090.88846  20555647.1884   20555648.9454
        24.2504         25.5004
 03 10 30  3 21 30.0000000  0  8G24G10G 9G 4G30G 6G17G 5
 -23654967.43147 -17535557.63946  20721063.8134   20721066.1214
        21.2504         23.2504
 -16511553.71345 -12536380.70345  23691014.1724   23691023.5394
         8.0004          7.5004
   3605396.60143   4125815.74245  24086127.4614   24086136.0664
         6.7504          7.2504
  -5358026.51845  -4079303.19845  22780967.9144   22780969.3204
        11.5004         11.5004
 -26405769.82846 -18836938.02346  21806303.3284   21806304.2774
        14.5004         13.7504
 -16162839.77143 -12491827.77745  24548244.0234   24548251.4574
         5.2504          5.2504
 -25466097.42446 -19023990.89546  22397295.3914   22397299.3164
        13.0004         13.5004
 -25793653.33147 -20024572.53146  20558215.9144   20558217.9304
        24.0004         25.2504
 03 10 30  3 22  0.0000000  0  7G24G10G 9G 4G30G17G 5
 -23609307.13647 -17499978.18446  20729752.5394   20729754.8834
        21.2504         23.2504
 -16585574.74642 -12594059.33145  23676926.4844   23676939.1454
         4.5004          6.5004
   3735585.56144   4227261.61145  24110902.5864   24110907.7544
         7.0004          7.0004
  -5240042.73745  -3987367.85245  22803419.2974   22803421.5704
        11.2504         11.7504
 -26454693.20646 -18875060.12346  21796993.2734   21796994.7384
        14.5004         14.0004
 -25517473.30246 -19064023.95346  22387518.8054   22387523.1054
        12.7504         13.7504
 -25779707.31247 -20013705.51446  20560869.7894   20560871.6884
        24.2504         25.2504
 03 10 30  3 22 30.0000000  0  8G24G10G 9G 4G30G 6G17G 5
 -23563224.76947 -17464069.86446  20738521.7344   20738524.1954
        21.2504         23.2504
 -16659512.69443 -12651673.62745  23662858.2114   23662868.8794
         6.0004          7.5004
   3865783.70344   4328714.58745  24135679.7034   24135685.3874
         7.7504          6.5004
  -5121885.21045  -3895297.04345  22825904.3284   22825906.6844
        11.2504         11.5004
 -26503351.42046 -18912975.59146  21787734.1724   21787735.9534
        14.7504         14.5004
 -15793552.03052                  24528712.7894
         4.7504
 -25568607.15346 -19103868.42446  22377788.0084   22377793.0824
        13.2504         13.7504
 -25765317.05647 -20002492.30946  20563608.5164   20563610.3324
        24.5004         25.2504
 03 10 30  3 23  0.0000000  0  8G24G10G 9G 4G30G 6G17G 5
 -23516712.92047 -17427826.83346  20747372.8364   20747375.3204
        21.2504         23.2504
 -16733356.09943 -12709214.34445  23648806.8284   23648817.5664
         6.7504          6.2504
   3995996.63444   4430179.16645  24160457.5234   24160463.6764
         7.2504          6.5004
  -5003548.19545  -3803086.42345  22848422.7274   22848425.1414
        11.0004         11.0004
 -26551733.72546 -18950676.09146  21778527.1414   21778528.6414
        14.7504         14.7504
 -15844889.03142                  24518943.1884
         4.7504
 -25619488.84346 -19143516.44746  22368105.8674   22368111.0124
        13.5004         14.0004
 -25750472.56247 -19990925.14946  20566433.0084   20566434.6844
        24.2504         25.2504
 03 10 30  3 23 30.0000000  0  8G24G10G 9G 4G30G 6G17G 5
 -23469772.35647 -17391249.77046  20756305.1884   20756307.6134
        21.2504         23.2504
 -16807099.47943 -12766677.17045  23634772.3754   23634789.1484
         5.0004          6.0004
   4126222.20943   4531653.57945  24185237.8364   24185241.9144
         6.2504          6.7504
  -4885033.25145  -3710737.10645  22870975.4144   22870977.8164
        10.7504         11.2504
 -26599836.90146 -18988159.07846  21769373.8594   21769374.9844
        15.0004         14.2504
 -15896233.09742 -12284001.18255  24509172.5864   24509174.3554
         4.7504          5.2504
 -25670116.44946 -19182966.38346  22358471.9144   22358476.2854
        14.0004         14.2504
 -25735172.35747 -19979002.91846  20569344.6804   20569346.6134
        24.2504         25.2504
 03 10 30  3 24  0.0000000  0  8G24G10G 9G 4G30G 6G17G 5
 -23422409.18147 -17354343.40646  20765317.9064   20765320.3794
        21.2504         23.2504
 -16880743.15643 -12824061.35145  23620759.0314   23620768.8554
         5.7504          5.7504
   4256453.09043   4633132.00145  24210021.1804   24210026.3014
         5.7504          7.0004
  -4766347.38645  -3618254.64445  22893560.4224   22893563.0354
        10.5004         11.2504
 -26647663.18946 -19025426.33846  21760272.4774   21760273.1804
        14.5004         14.2504
 -15947588.66042 -12324018.37445  24499399.2734   24499399.8594
         4.5004          6.0004
 -25720493.04146 -19222220.82046  22348885.6884   22348890.2584
        13.5004         14.0004
 -25719419.91647 -19966728.27246  20572342.1884   20572344.0274
        24.0004         25.2504
