     2.10           OBSERVATION DATA    G (GPS)             RINEX VERSION / TYPE
teqc  2007Feb5      UNAVCO Archive Ops  20070321 07:49:47UTCPGM / RUN BY / DATE
Solaris 5.10|UltraSparc IIIi|cc -xarch=v9 SC5.8|=+-|*Sparc  COMMENT
BIT 2 OF LLI FLAGS DATA COLLECTED UNDER A/S CONDITION       COMMENT
GARL                                                        MARKER NAME
49721S001                                                   MARKER NUMBER
Davis, Jim          Harvard-Smithsonian CfA                 OBSERVER / AGENCY
3609A14796          TRIMBLE 4000SSI     7.19B               REC # / TYPE / VERS
0220062100          TRM29659.00     SCIS                    ANT # / TYPE
 -2384509.0615 -4239524.8940  4114370.6286                  APPROX POSITION XYZ
        0.0884        0.0000        0.0000                  ANTENNA: DELTA H/E/N
     1     1                                                WAVELENGTH FACT L1/2
     7    L1    L2    C1    P2    P1    S1    S2            # / TYPES OF OBSERV
    30.0000                                                 INTERVAL
RINEX file created by UNAVCO GPS Archive.                   COMMENT
For more information contact archive@unavco.org             COMMENT
Monument ID: 11764                                          COMMENT
UNAVCO 4-char name:   GARL                                  COMMENT
4-char name from Log or data file: GARL                     COMMENT
Monument location: 40.416527 -119.355457 1640.2266          COMMENT
Visit ID: 59421                                             COMMENT
                                                            COMMENT
GARL-BRGN-NV1996                                            COMMENT
                                                            COMMENT
End of DB comments                                          COMMENT
 SNR is mapped to RINEX snr flag value [1-9]                COMMENT
  L1: 3 -> 1; 8 -> 5; 40 -> 9                               COMMENT
  L2: 1 -> 1; 5 -> 5; 60 -> 9                               COMMENT
  2003    10    29     0     0   30.0000000     GPS         TIME OF FIRST OBS
                                                            END OF HEADER
 03 10 29  0  0 30.0000000  0  8G28G 9G 4G 8G 7G26G29G11
  31079605.04657  24599886.40556  21719913.4534   21719917.8594
        22.2504         18.5004
  -2738517.32356  -1649263.69256  22478144.8204   22478151.8674
        13.0004         12.2504
  -1771369.16555  -1325216.83055  23324537.7974   23324545.1374
         9.5004          8.7504
  52420899.26054  41180284.11655  23443723.0004   23443731.8984
         7.7504          8.5004
   9164175.27857   7185335.41056  20621906.0004   20621911.1214
        24.7504         25.5004
  21387372.29255  17049920.29555  23169601.9064   23169608.8014
        11.5004         10.2504
  28047309.13655  22016654.93555  23563711.8834   23563719.9614
         9.0004          8.2504
  25019822.26453  19403931.40955  24772136.1024   24772142.2424
         5.5004          5.5004
 03 10 29  0  1  0.0000000  0  8G28G 9G 4G 8G 7G26G29G11
  31204099.24747  24696894.84446  21743603.8594   21743608.1024
        22.0004         18.7504
  -2743314.13746  -1653001.36046  22477231.8364   22477239.4454
        13.2504         12.2504
  -1794552.88645  -1343281.88745  23320126.1094   23320131.7584
         9.5004          9.0004
  52608143.69745  41326188.69845  23479355.3134   23479364.6684
         8.7504          8.0004
   9260231.75347   7260184.61446  20640185.0634   20640190.4654
        24.7504         25.2504
  21536889.49845  17166427.13845  23198052.4224   23198059.7274
        11.0004         10.2504
  28207827.47745  22141734.03045  23594255.4534   23594263.2274
         8.2504          8.2504
  25173140.69743  19523400.20944  24801311.3524   24801322.6174
         5.2504          4.7504
 03 10 29  0  1 30.0000000  0  8G28G 9G 4G 8G 7G26G29G11
  31328792.42247  24794058.32346  21767332.2424   21767336.6844
        22.0004         18.7504
  -2747775.94046  -1656478.01646  22476383.3984   22476390.0904
        14.0004         12.0004
  -1817564.59645  -1361212.87045  23315747.2584   23315757.3524
        10.0004          9.2504
  52795584.36145  41472246.14745  23515023.4844   23515033.4264
         8.7504          9.0004
   9356657.55947   7335321.60346  20658533.9924   20658539.2304
        24.7504         25.5004
  21686742.51545  17283195.65745  23226569.4304   23226577.2974
        11.0004         10.2504
  28368556.84145  22266977.48445  23624843.5864   23624851.7114
         9.0004          8.7504
  25326814.73443  19643146.21244  24830554.4304   24830564.1254
         5.0004          4.7504
 03 10 29  0  2  0.0000000  0  8G28G 9G 4G 8G 7G26G29G11
  31453675.42247  24891369.72446  21791096.7814   21791101.2584
        22.0004         18.5004
  -2751909.06546  -1659698.53046  22475596.7664   22475602.4494
        14.5004         12.5004
  -1840409.85745  -1379014.23045  23311399.5164   23311408.8364
         9.7504          9.5004
  52983209.98945  41618447.81445  23550727.1564   23550736.2424
         8.0004          7.7504
   9453442.34147   7410738.31046  20676951.7584   20676956.8554
        25.0004         25.5004
  21836919.74345  17400216.78545  23255147.4534   23255154.6994
        11.0004         10.5004
  28529484.82644  22392375.81745  23655464.0784   23655473.4574
         7.2504          7.7504
  25480833.14143  19763160.48745  24859862.1414   24859869.5274
         5.0004          5.2504
 03 10 29  0  2 30.0000000  0  8G28G 9G 4G 8G 7G26G29G11
  31578761.19647  24988839.12446  21814900.0314   21814904.1684
        22.0004         18.5004
  -2755698.23346  -1662651.06346  22474875.5554   22474880.7464
        14.5004         12.0004
  -1863072.62245  -1396673.38145  23307086.7344   23307095.5274
        10.0004          9.5004
  53171031.78945  41764802.31745  23586469.2584   23586477.9104
         8.7504          9.0004
   9550597.60247   7486443.70046  20695439.6954   20695445.0744
        25.0004         25.2504
  21987430.76245  17517498.03245  23283788.8754   23283796.6024
        11.0004         10.2504
  28690621.30544  22517936.50845  23686129.5864   23686137.2894
         7.7504          7.7504
  25635206.60543  19883451.40244  24889239.5864   24889245.1174
         5.0004          4.7504
 03 10 29  0  3  0.0000000  0  8G28G 9G 4G 8G 7G26G29G11
  30128629.70847  23858866.51346  21538949.1094   21538953.9614
        22.0004         18.2504
  -4334564.85646  -2892936.68846  22174427.3834   22174432.6334
        13.5004         12.0004
  -3460974.42345  -2641791.50945  23003016.1334   23003025.9224
        10.2504          9.2504
  51783629.72145  40683709.61745  23322455.5084   23322464.8754
        10.5004          9.2504
   8072701.56147   6334836.38746  20414205.5634   20414210.7664
        24.7504         25.2504
  20562854.02945  16407438.14845  23012701.6334   23012709.3134
        11.0004         10.5004
  27276544.62744  21416058.44545  23417040.8594   23417049.2424
         7.5004          7.0004
  24214514.17842  18776418.35544  24618892.4614   24618903.3874
         4.7504          4.5004
 03 10 29  0  3 30.0000000  0  8G28G 9G 4G 8G 7G26G29G11
  30254109.33847  23956642.80546  21562826.9844   21562831.4384
        21.7504         18.0004
  -4337669.80646  -2895356.05946  22173835.7194   22173842.5784
        13.7504         12.2504
  -3483274.22345  -2659167.80845  22998772.5944   22998781.5164
        11.5004         10.0004
  51971825.68745  40830355.65945  23358267.6804   23358276.5434
         9.2504          8.5004
   8170582.55947   6411107.29446  20432831.6484   20432836.8404
        24.7504         25.2504
  20714012.84545  16525224.15445  23041465.8284   23041473.3324
        10.7504          9.7504
  27438077.60945  21541928.13045  23447780.7584   23447788.6254
         8.0004          7.2504
  24369579.61642  18897248.44744  24648399.6254   24648410.7154
         4.7504          4.7504
 03 10 29  0  4  0.0000000  0  8G28G 9G 4G 8G 7G26G29G11
  30379790.50247  24054576.15046  21586743.4304   21586748.1414
        21.7504         18.2504
  -4340424.12346  -2897502.21546  22173312.0944   22173318.6684
        14.5004         12.5004
  -3505383.01746  -2676395.26045  22994565.8284   22994573.4734
        13.0004         10.7504
  52160210.28945  40977148.72145  23394116.9144   23394127.2664
         9.7504          8.7504
   8268829.08247   6487663.01646  20451527.3834   20451532.7034
        24.7504         25.2504
  20865495.68945  16643262.64345  23070292.5394   23070300.7114
        10.5004         10.2504
  27599808.86643  21667952.37245  23478554.9614   23478565.5704
         6.7504          6.7504
  24524992.38442  19018349.19544  24677974.4384   24677978.7624
         4.5004          4.2504
 03 10 29  0  4 30.0000000  0  8G28G 9G 4G 8G 7G26G29G11
  30505667.07047  24152661.74646  21610696.9844   21610701.8594
        21.5004         18.2504
  -4342831.47546  -2899377.99846  22172853.8134   22172859.6254
        14.7504         12.5004
  -3527303.66146  -2693476.12445  22990394.1564   22990402.0944
        12.2504         10.0004
  52348775.47245  41124082.47645  23430000.3754   23430009.2974
         9.5004          8.0004
   8367433.94247   6564497.96746  20470290.9694   20470296.3714
        24.7504         25.2504
  21017293.54545  16761546.58345  23099178.0554   23099184.9494
        10.7504         10.0004
  27761729.09743  21794123.76645  23509367.4534   23509377.9694
         6.5004          6.2504
  24680744.46142  19139714.46245  24707611.7424   24707622.3984
         4.5004          5.5004
 03 10 29  0  5  0.0000000  0  8G28G 9G 4G 8G 7G26G29G11
  30631739.85647  24250900.24946  21634687.4924   21634692.5084
        21.5004         18.0004
  -4344888.50246  -2900980.78646  22172462.4844   22172468.1334
        14.7504         12.5004
  -3549032.23745  -2710407.30245  22986258.8524   22986267.8204
        10.2504          9.2504
  52537520.16545  41271156.12345  23465916.4144   23465928.1724
         8.0004          6.5004
   8466396.39147   6641611.55846  20489123.3524   20489128.4844
        24.7504         25.5004
  21169404.32745  16880074.39445  23128124.4064   23128131.4184
        10.5004          9.7504
  27923836.27644  21920440.95245  23540215.2894   23540223.8134
         7.7504          6.5004
  24836834.33442  19261342.77745  24737315.2344   24737322.1054
         4.5004          5.0004
 03 10 29  0  5 30.0000000  0  8G28G 9G 4G 8G 7G26G29G11
  30758011.48947  24349293.69046  21658716.6884   21658721.4344
        21.2504         17.5004
  -4346589.99046  -2902306.60746  22172138.6884   22172145.7114
        14.5004         13.0004
  -3570562.89745  -2727184.21845  22982161.6254   22982171.2034
         9.5004          8.5004
  52726444.70545  41418369.91345  23501868.0084   23501876.8714
         9.7504          7.2504
   8565717.91147   6719004.94546  20508023.4064   20508028.5164
        24.7504         25.5004
  21321827.69745  16998845.75445  23157129.6564   23157137.0664
        10.7504          9.7504
  28086129.79145  22046903.21945  23571100.2274   23571109.8054
         8.0004          6.7504
  24993262.32142  19383234.61645  24767081.4224   24767096.2034
         4.5004          5.0004
 03 10 29  0  6  0.0000000  0  8G28G 9G 4G 8G 7G26G29G11
  30884484.87647  24447844.35146  21682783.5234   21682788.1414
        21.5004         17.7504
  -4347930.37146  -2903350.97446  22171883.6564   22171890.2074
        14.5004         13.0004
  -3591889.73645  -2743802.30245  22978102.4144   22978111.9454
         9.2504          8.2504
  52915550.08345  41565724.66445  23537853.6724   23537858.0664
         8.7504          5.2504
   8665399.83847   6796679.16546  20526992.2894   20526997.4224
        24.7504         25.2504
  21474563.60745  17117860.64445  23186194.2344   23186202.9574
        10.7504         10.0004
  28248609.51244  22173510.68545  23602017.8524   23602028.2274
         7.0004          6.5004
  25150028.93142  19505390.49845  24796915.5634   24796925.5864
         4.7504          5.0004
 03 10 29  0  6 30.0000000  0  8G28G 9G 4G 8G 7G26G29G11
  31011151.97947  24546545.95746  21706887.3834   21706892.1294
        21.2504         17.5004
  -4348915.09946  -2904118.24146  22171696.1024   22171702.8524
        15.0004         13.5004
  -3613017.20045  -2760265.08545  22974082.2034   22974090.5984
        10.0004          8.2504
  53104826.01943  41713212.27944  23573870.5554   23573874.0594
         5.0004          4.5004
   8765432.87447   6874626.98146  20546027.8524   20546033.0554
        24.7504         25.2504
  21627600.89545  17237110.38145  23215316.5944   23215323.1454
        10.5004          9.7504
  28411264.39844  22300254.57745  23632971.4924   23632983.3324
         7.2504          7.2504
  25307124.02542  19627802.21344  24826809.5234   24826814.8914
         4.5004          4.7504
 03 10 29  0  7  0.0000000  0  8G28G 9G 4G 8G 7G26G29G11
  31138018.77147  24645403.16046  21731029.5084   21731034.3714
        21.2504         17.5004
  -4349535.54446  -2904601.63146  22171578.0864   22171584.2504
        15.7504         13.5004
  -3633936.17245  -2776565.39845  22970102.1644   22970109.6214
        10.7504          8.0004
  53294276.75843  41860835.98345  23609922.1174   23609931.4384
         5.5004          5.5004
   8865821.91047   6952852.19746  20565131.3984   20565136.4844
        24.7504         25.2504
  21780942.84145  17356597.54245  23244495.8674   23244504.2624
        10.2504         10.0004
  28574097.69445  22427137.49945  23663959.9144   23663967.1844
         8.0004          7.2504
  25464551.15542  19750472.77644  24856766.3364   24856774.8954
         4.7504          4.7504
 03 10 29  0  7 30.0000000  0  8G28G 9G 4G 8G 7G26G29G11
  31265088.23747  24744418.29446  21755210.1484   21755214.6604
        21.0004         17.5004
  -4349786.63746  -2904797.24946  22171529.9534   22171535.4734
        15.7504         13.5004
  -3654640.83745  -2792698.71045  22966161.6484   22966171.0864
        10.0004          8.2504
  53483902.73943  42008596.35345  23646008.0784   23646018.1844
         6.7504          7.0004
   8966568.12747   7031355.73946  20584302.8914   20584307.9654
        24.7504         25.2504
  21934589.07945  17476321.78945  23273734.2114   23273742.1134
        10.5004          9.0004
  28737108.21944  22554158.55045  23694976.8204   23694985.7774
         7.2504          7.0004
  25622311.27842  19873402.69544  24886786.5394   24886792.3164
         4.7504          4.5004
 03 10 29  0  8  0.0000000  0  8G28G 9G 4G 8G 7G26G29G11
  31392352.22447  24843585.00846  21779427.7274   21779432.3554
        21.2504         17.5004
  -4349673.92846  -2904709.36146  22171551.4064   22171557.0084
        15.0004         13.0004
  -3675136.24645  -2808668.94545  22962261.1564   22962270.3594
        10.0004          8.5004
  53673693.67645  42156485.22145  23682124.0474   23682135.2544
         8.2504          8.2504
   9067662.00647   7110130.17946  20603540.1414   20603545.3204
        24.7504         25.0004
  22088528.37645  17596274.38945  23303026.8984   23303035.1644
         9.7504          8.5004
  28900285.10244  22681309.20745  23726028.7664   23726039.4924
         7.0004          7.2504
  25780393.64043  19996583.83344  24916869.3284   24916877.0784
         5.0004          4.7504
 03 10 29  0  8 30.0000000  0  8G28G 9G 4G 8G 7G26G29G11
  31519815.58547  24942907.06946  21803683.1884   21803687.6644
        21.0004         17.2504
  -4349189.74646  -2904332.03646  22171643.3914   22171649.1914
        15.0004         13.2504
  -3695413.71845  -2824469.38545  22958402.7274   22958410.1374
        11.5004          9.7504
  53863652.76445  42304505.11045  23718272.0704   23718282.3284
        11.0004         10.5004
   9169107.45447   7189178.57246  20622844.6724   20622849.6884
        24.7504         25.2504
  22242762.99545  17716457.07945  23332377.0784   23332384.8404
        10.0004          9.0004
  29063630.87644  22808591.46345  23757113.3134   23757121.8714
         7.2504          6.5004
  25938801.28343  20120018.44943  24947012.9454   24947014.8794
         5.0004          3.2504
 03 10 29  0  9  0.0000000  0  8G28G 9G 4G 8G 7G26G29G11
  31647480.47247  25042386.17246  21827977.1484   21827981.8134
        21.0004         17.0004
  -4348329.45346  -2903661.61246  22171807.5864   22171813.0474
        15.7504         13.7504
  -3715468.26745  -2840096.07645  22954585.8594   22954593.8094
        11.7504         10.5004
  54053780.05745  42452656.09845  23754452.3284   23754461.7664
        11.7504         11.0004
   9270904.85647   7268501.22246  20642215.9454   20642221.0084
        24.7504         25.2504
  22397291.80445  17836869.06345  23361783.6414   23361791.6604
        10.0004          9.7504
  29227144.06444  22936004.17445  23788228.1884   23788238.5044
         7.0004          6.0004
  26097533.82343  20243706.25545  24977218.6644   24977226.3324
         5.0004          5.0004
 03 10 29  0  9 30.0000000  0  8G28G 9G 4G 8G 7G26G29G11
  31775350.78047  25142025.33746  21852309.8834   21852314.2424
        20.7504         16.7504
  -4347086.60846  -2902693.14746  22172043.6954   22172050.1414
        16.2504         14.2504
  -3735292.76646  -2855543.56345  22950813.3284   22950822.0274
        13.0004         10.7504
  54244077.08945  42600939.32145  23790665.1724   23790673.5084
        10.5004          9.7504
   9373057.19147   7348100.43546  20661655.2274   20661660.4304
        25.0004         25.2504
  22552115.84045  17957511.03145  23391246.4534   23391255.6214
        10.0004          9.2504
  29390825.36544  23063547.91845  23819375.1174   23819385.7734
         7.2504          7.0004
  26256592.72243  20367648.47544  25007484.8134   25007485.4224
         5.0004          4.5004
 03 10 29  0 10  0.0000000  0  8G28G 9G 4G 8G 7G26G29G11
  31903424.46547  25241822.98446  21876681.5474   21876686.1524
        20.5004         17.0004
  -4345460.99746  -2901426.38646  22172352.8914   22172358.8554
        16.0004         13.7504
  -3754885.97746  -2870810.80245  22947084.8524   22947092.8834
        13.5004         11.0004
  54434539.91345  42749351.76145  23826908.5704   23826917.6334
         8.0004          8.0004
   9475560.80747   7427973.38046  20681160.8914   20681166.1294
        24.7504         25.0004
  22707230.09045  18078379.21745  23420760.9924   23420768.7074
         9.5004          9.2504
  29554669.94343  23191218.83145  23850553.4224   23850558.5314
         6.2504          6.0004
  26415973.69242  20491841.41543  25037813.0234   25037818.6604
         4.7504          3.7504
 03 10 29  0 10 30.0000000  0  8G28G 9G 4G 8G 7G26G29G11
  32031696.65947  25341775.31446  21901091.0704   21901095.4064
        20.7504         16.7504
  -4343454.74346  -2899863.01146  22172734.7664   22172740.0274
        15.5004         13.5004
  -3774249.61446  -2885899.17445  22943400.6484   22943409.1484
        14.2504         11.7504
  54625161.69343  42897888.01945  23863182.3674   23863190.7854
         6.2504          7.0004
   9578409.49647   7508115.20846  20700732.0474   20700737.2274
        24.7504         25.0004
  22862626.61345  18199467.26745  23450335.2584   23450342.1174
        10.7504          9.0004
  29718669.94444  23319010.92145  23881762.2664   23881770.8594
         7.0004          7.2504
  26575669.61342  20616279.94744  25068203.8914   25068213.2234
         4.7504          4.0004
 03 10 29  0 11  0.0000000  0  8G28G 9G 4G 8G 7G26G29G11
  32160168.58647  25441883.27546  21925538.4064   21925542.8014
        20.2504         16.7504
  -4341064.22946  -2898000.25746  22173189.6564   22173196.3954
        15.5004         13.5004
  -3793379.27246  -2900805.23745  22939759.5394   22939766.9734
        12.7504         10.5004
  54815941.38142  43046547.26745  23899485.1094   23899496.9494
         4.0004          5.7504
   9681602.95547   7588525.69346  20720369.2114   20720374.4734
        24.7504         25.2504
  23018303.67145  18320773.98745  23479958.0944   23479965.4924
        10.0004          9.0004
  29882823.17143  23446922.36145  23912999.3754   23913009.0124
         6.7504          7.2504
  26735679.57642                  25098652.3594
         4.7504
 03 10 29  0 11 30.0000000  0  8G28G 9G 4G 8G 7G26G29G11
  32288838.32947  25542145.38846  21950023.2114   21950027.6524
        20.2504         16.5004
  -4338288.63646  -2895837.38246  22173717.8204   22173723.3754
        15.7504         13.7504
  -3812273.61445  -2915527.91045  22936164.4064   22936171.6174
        11.5004         10.5004
  -1543593.64651  43195327.81743  23935820.2114   23935834.6994
         3.7504          3.5004
   9785138.12247   7669202.44146  20740071.2194   20740076.4804
        24.7504         25.2504
  23174256.26245  18442295.39145  23509636.5784   23509643.6954
        10.0004          9.0004
  30047125.01843  23574949.57345  23944264.3594   23944275.2624
         6.7504          6.2504
  26895999.18242                  25129157.8594
         4.7504
 03 10 29  0 12  0.0000000  0  8G28G 9G 4G 8G 7G26G29G11
  32417709.87847  25642564.74046  21974547.2274   21974551.3404
        20.5004         16.5004
  -4335121.51146  -2893369.49046  22174319.9534   22174326.4224
        15.7504         14.0004
  -3830925.65245  -2930061.80545  22932614.3674   22932622.4924
        11.0004         10.5004
  -1428911.04353  43344227.39642  23972183.7424   23972185.9924
         6.0004          2.7504
   9889017.35047   7750147.28946  20759838.9224   20759844.0784
        24.5004         25.0004
  23330485.32345  18564032.22245  23539365.2504   23539372.6254
        10.0004          9.2504
  30211576.33144  23703093.32945  23975560.3284   23975568.5704
         7.0004          7.2504
  27056630.20042                  25159726.7974
         4.7504
 03 10 29  0 12 30.0000000  0  8G28G 9G 4G 8G 7G26G29G11
  32546779.23047  25743138.24546  21999107.9534   21999112.3484
        20.2504         16.5004
  -4331564.55646  -2890597.76446  22174996.7584   22175003.4734
        15.7504         14.0004
  -3849336.02545  -2944407.39945  22929111.2344   22929119.5594
        11.2504         10.2504
  -1237671.87445                  24008576.3914
         9.2504
   9993235.25547   7831356.04446  20779671.0634   20779676.3244
        24.7504         25.0004
  23486983.76045  18685978.92345  23569145.0164   23569153.1054
         9.7504          8.5004
  30376169.33743  23831347.41745  24006879.2664   24006887.7774
         6.2504          7.0004
  27217566.33942                  25190352.0394
         4.7504
 03 10 29  0 13  0.0000000  0  8G28G 9G 4G 8G 7G26G29G11
  31100627.40947  24616266.66346  21723914.4614   21723919.2074
        20.0004         16.5004
  -5903038.27746  -4115122.69446  21875955.2814   21875961.9024
        16.0004         14.0004
  -5442925.45245  -4186165.20345  22625860.0314   22625868.0164
        10.0004         10.0004
  -2621702.02345                  23745203.5864
         8.7504
   8522370.81647   6685227.90046  20499774.7344   20499780.1024
        24.7504         25.0004
  22068330.63245  17580534.81045  23299185.5864   23299193.1134
         9.5004          9.2504
  28965483.72743  22732111.74645  23738435.4454   23738442.7854
         6.7504          6.2504
  25803387.18042                  24921242.7814
         4.7504
 03 10 29  0 13 30.0000000  0  8G28G 9G 4G 8G 7G26G29G11
  31230091.08846  24717147.42546  21748550.4844   21748555.2424
        19.7504         16.0004
  -5898695.24946  -4111738.45046  21876782.0944   21876788.3404
        16.2504         14.0004
  -5460844.23245  -4200127.76445  22622450.4614   22622457.3204
        11.0004          9.7504
  -2430171.03445  -2395493.33055  23781650.7194   23781660.9064
         8.2504          7.5004
   8627260.82947   6766960.37146  20519734.7814   20519740.0204
        24.7504         24.7504
  22225357.53745  17702893.32045  23329066.2504   23329073.2624
         9.7504          8.2504
  29130351.00943  22860579.52745  23769809.0784   23769820.3444
         6.5004          6.7504
  25964925.04542                  24951981.6644
         4.5004
 03 10 29  0 14  0.0000000  0  8G28G 9G 4G 8G 7G26G29G11
  31359762.59646  24818190.13346  21773226.2974   21773230.6214
        19.7504         16.0004
  -5893944.79646  -4108036.77046  21877685.7034   21877692.1954
        15.7504         14.0004
  -5478501.70845  -4213886.69745  22619090.3754   22619097.1844
        11.7504          9.0004
  -2238486.58245  -2246128.96445  23818127.2194   23818137.4414
         8.0004          7.2504
   8732495.47847   6848961.39146  20539760.0944   20539765.2734
        24.7504         25.0004
  22382654.85745  17825462.55145  23358999.9454   23359007.8484
         9.7504          8.5004
  29295361.05343  22989158.62445  23801208.1484   23801218.6054
         6.0004          7.0004
  26126770.86342                  24982779.7114
         4.5004
 03 10 29  0 14 30.0000000  0  8G28G 9G 4G 8G 7G26G29G11
  31489626.64246  24919382.87046  21797938.5554   21797943.2544
        19.7504         16.0004
  -5888799.46546  -4104027.37246  21878664.9844   21878671.3014
        15.7504         14.2504
  -5495910.11546  -4227451.58445  22615777.5944   22615783.8754
        12.5004          9.7504
  -2046666.08445  -2096658.62645  23854629.8204   23854640.3364
         8.0004          7.7504
   8838058.01947   6931217.91046  20559847.8754   20559853.0904
        24.7504         25.0004
  22540204.17045  17948228.13745  23388979.8754   23388987.7664
         9.5004          9.0004
  29460495.73943  23117834.83845  23832633.7814   23832641.4734
         6.2504          6.0004
  26288907.21842                  25013634.0084
         4.2504
 03 10 29  0 15  0.0000000  0  8G28G 9G 4G 8G 7G26G29G11
  31619694.73146  25020734.60046  21822689.8364   21822694.3484
        19.7504         16.2504
  -5883245.63246  -4099699.63946  21879722.2034   21879728.1564
        16.5004         14.5004
  -5513054.64746  -4240810.82545  22612515.2114   22612523.4654
        12.7504         10.7504
  -1854700.14643  -1947074.89345  23891159.9304   23891170.1884
         6.2504          7.0004
   8943958.35947   7013737.64946  20580000.0864   20580005.1374
        24.7504         25.0004
  22698013.88045  18071196.63145  23419011.2894   23419018.5944
        10.0004          8.7504
  29625763.68743  23246614.88145  23864081.6644   23864091.2894
         6.0004          6.2504
  26451343.01942                  25044543.3594
         4.2504
 03 10 29  0 15 30.0000000  0  8G28G 9G 4G 8G 7G26G29G11
  31749965.35646  25122244.15646  21847479.6174   21847484.7384
        19.7504         16.2504
  -5877282.22346  -4095052.77046  21880856.4454   21880861.7424
        16.7504         14.5004
  -5529933.87246  -4253963.35745  22609302.5944   22609310.4734
        12.2504         10.7504
  -1662592.43441  -1797380.81245  23927716.7894   23927727.4104
         3.2504          5.2504
   9050193.75447   7096518.46946  20600216.0944   20600221.2384
        24.7504         24.7504
  22856079.43345  18194364.46445  23449089.4924   23449097.0904
         9.5004          8.7504
  29791160.02443  23375494.93845  23895558.3134   23895567.1414
         6.7504          6.2504
  26614074.63642                  25075509.5784
         4.2504
 03 10 29  0 16  0.0000000  0  8G28G 9G 4G 8G 7G26G29G11
  31880436.12746  25223909.65746  21872306.9614   21872311.8014
        19.5004         16.2504
  -5870909.16046  -4090086.69346  21882068.9614   21882074.5044
        16.2504         14.5004
  -5546546.75645  -4266908.33845  22606140.8524   22606149.2114
        11.7504         11.2504
  -1470347.39543  -1647579.73545  23964300.2424   23964309.7274
         6.5004          7.2504
   9156760.38447   7179557.38946  20620495.0234   20620500.2154
        24.7504         24.7504
  23014395.39145  18317727.46745  23479215.4224   23479224.8594
         9.2504          9.0004
  29956679.28243  23504470.84645  23927056.6024   23927067.1644
         6.7504          5.7504
  26777097.46141                  25106532.3284
         3.7504
 03 10 29  0 16 30.0000000  0  8G28G 9G 4G 8G 7G26G29G11
  32011103.41746  25325728.30246  21897172.1884   21897177.0634
        19.5004         16.0004
  -5864127.49646  -4084802.22546  21883359.8524   21883365.5944
        16.2504         14.2504
  -5562893.78746  -4279646.12245  22603031.1254   22603039.2734
        13.0004         11.0004
  -1277970.78944  -1497676.06845  24000908.2274   24000918.6844
         7.7504          8.0004
   9263653.15047   7262850.45246  20640836.2034   20640841.3594
        24.7504         25.0004
  23172955.25445  18441280.48045  23509388.7584   23509396.2384
         9.7504          8.2504
  30122314.90043  23633537.36145  23958573.7734   23958579.3164
         5.7504          5.5004
  26940405.19541                  25137609.9774
         3.7504
 03 10 29  0 17  0.0000000  0  8G28G 9G 4G 8G 7G26G29G11
  32141973.52246  25427704.97646  21922076.1254   21922081.3164
        19.2504         15.7504
  -5856928.76646  -4079192.79846  21884729.6334   21884735.9844
        17.7504         15.2504
  -5578965.70346  -4292169.56445  22599972.0234   22599980.1604
        12.5004         10.7504
  -1085458.51543  -1347666.67645  24037542.3524   24037556.5704
         6.7504          5.7504
   9370876.84047   7346401.36546  20661240.1484   20661245.4804
        24.7504         25.0004
  23331761.99545  18565025.89845  23539609.6024   23539616.3164
         9.5004          8.2504
  30288070.14643  23762697.09145  23990118.1564   23990130.4414
         6.2504          6.0004
  27104001.82142                  25168739.2664
         4.0004
 03 10 29  0 17 30.0000000  0  8G28G 9G 4G 8G 7G26G29G11
  32273044.56246  25529838.21046  21947018.0634   21947022.9384
        19.0004         16.0004
  -5849312.22446  -4073257.73846  21886179.2194   21886184.3054
        18.0004         15.5004
  -5594761.16946  -4304477.61645  22596966.1484   22596973.0204
        12.7504         11.5004
   -892814.62743  -1197554.59943  24074201.1644   24074216.0634
         5.5004          3.5004
   9478428.10047   7430207.53346  20681706.6024   20681711.9104
        24.7504         25.0004
  23490810.70845  18688959.87345  23569875.2344   23569884.4144
         9.2504          8.5004
  30453939.78443  23891945.97345  24021681.3524   24021691.9734
         5.5004          6.7504
  27267883.00241                  25199926.6644
         3.5004
 03 10 29  0 18  0.0000000  0  8G28G 9G 4G 8G 7G26G29G11
  32404315.43046  25632127.15946  21971998.1334   21972002.4104
        19.2504         16.0004
  -5841276.65746  -4066996.20946  21887708.0864   21887713.3484
        17.0004         14.7504
  -5610278.14846  -4316568.63945  22594014.2664   22594021.7934
        13.5004         11.7504
   -700042.42644  -1047342.73045  24110884.0784   24110893.9264
         7.0004          6.2504
   9586304.48947   7514267.04646  20702234.4614   20702239.9804
        24.7504         24.5004
  23650096.98045  18813078.92145  23600185.1174   23600194.1804
         8.7504          8.7504
  30619919.64843  24021280.69845  24053264.8444   24053271.7154
         5.5004          5.5004
  27432045.11141                  25231163.1644
         3.2504
 03 10 29  0 18 30.0000000  0  8G28G 9G 4G 8G 7G26G29G11
  32535777.45646  25734565.07746  21997014.6884   21997019.8324
        18.7504         16.0004
  -5832828.34746  -4060413.04446  21889315.5864   21889321.0594
        17.0004         15.2504
  -5625522.07346  -4328446.87845  22591113.2584   22591120.7274
        14.0004         11.7504
   -507152.49545   -897039.10845  24147590.5474   24147601.4264
         8.0004          6.7504
   9694495.90247   7598572.03146  20722822.8284   20722828.0314
        24.7504         24.5004
  23809609.45145  18937374.23245  23630538.8834   23630546.9964
         8.2504          7.7504
  30785998.39343  24150692.50745  24084866.8444   24084878.7194
         5.0004          6.5004
  27596477.07141                  25262454.2974
         3.2504
 03 10 29  0 19  0.0000000  0  8G28G 9G 4G 8G 7G26G29G11
  32667442.70646  25837161.32246  22022069.5634   22022073.9924
        18.5004         15.7504
  -5823952.85146  -4053497.05246  21891004.6174   21891010.8404
        17.7504         15.7504
  -5640477.69746  -4340100.47745  22588266.7814   22588274.9304
        13.0004         11.0004
   -314135.06443   -746636.11045  24184321.0944   24184331.7034
         6.7504          5.7504
   9803012.96947   7683130.77546  20743473.2114   20743478.5434
        24.7504         24.5004
  23969357.05945  19061852.81845  23660938.3674   23660947.2074
         9.0004          8.5004
  30952184.74443  24280188.15445  24116493.9694   24116506.0554
         6.0004          7.2504
  27761188.64941                  25293797.2344
         3.0004
 03 10 29  0 19 30.0000000  0  8G28G 9G 4G 8G 7G26G29G11
  32799312.00746  25939916.58446  22047163.8984   22047168.5164
        18.5004         15.5004
  -5814646.89246  -4046245.60446  21892775.4304   21892781.8984
        18.0004         16.0004
  -5655141.05146  -4351526.33445  22585476.6174   22585484.0164
        13.5004         11.2504
   -120991.35842   -596134.71245  24221074.7584   24221083.0474
         4.5004          5.0004
   9911854.95647   7767942.70146  20764184.7424   20764190.0274
        24.7504         24.5004
  24129337.33545  19186512.62145  23691383.8594   23691391.0354
         9.2504          8.5004
  31118476.38443  24409765.88245  24148138.8984   24148153.1414
         6.0004          6.2504
  27926178.29041                  25325194.7504
         2.7504
 03 10 29  0 20  0.0000000  0  8G28G 9G 4G 8G 7G26G29G11
  32931381.55246  26042827.87646  22072295.4454   22072300.3204
        18.2504         15.7504
  -5804911.56246  -4038659.59146  21894628.1414   21894634.3874
        17.2504         15.2504
  -5669512.90446  -4362725.05945  22582741.2504   22582748.1564
        13.5004         11.2504
     72272.93242   -445539.36044  24257852.3834   24257859.5704
         4.5004          4.5004
  10021016.78247   7853003.85446  20784957.4844   20784962.8284
        24.7504         24.5004
  24289543.67345  19311348.62845  23721869.5554   23721878.2544
         9.0004          8.2504
  31284866.80343  24539420.53745  24179801.2504   24179811.4614
         5.7504          5.5004
                                  25356643.4534
         2.7504
 03 10 29  0 20 30.0000000  0  8G28G 9G 4G 8G 7G26G29G11
  33063646.97246  26145891.78746  22097464.7974   22097469.4964
        18.5004         15.2504
  -5794748.91446  -4030740.55746  21896561.5314   21896566.7814
        17.0004         14.5004
  -5683594.25146  -4373697.41245  22580061.8054   22580068.3324
        13.5004         11.0004
    265650.92243   -294855.50345  24294651.2734   24294661.1564
         5.7504          5.5004
  10130492.47547   7938309.57746  20805790.4694   20805795.6724
        24.7504         24.2504
  24449968.52045  19436354.89545  23752397.0394   23752405.0704
         8.7504          8.2504
  31451348.34443  24669146.17645  24211485.4384   24211501.8244
         6.7504          5.7504
                                  25388139.6414
         2.7504
 03 10 29  0 21  0.0000000  0  8G28G 9G 4G 8G 7G26G29G11
  33196114.16946  26249112.93846  22122672.5554   22122677.3364
        18.2504         15.0004
  -5784150.95146  -4022482.37246  21898578.6174   21898584.4884
        18.0004         15.5004
  -5697376.38346  -4384436.60045  22577439.0084   22577445.8404
        14.0004         11.0004
    459146.38043   -144080.02145  24331472.3284   24331481.0514
         6.2504          6.7504
  10240286.59147   8023863.42246  20826683.3754   20826688.7194
        24.5004         24.2504
  24610614.52645  19561533.44945  23782967.8204   23782976.5664
         9.0004          8.5004
  31617923.92343  24798945.20244  24243182.5784   24243188.6024
         5.7504          4.7504
                                  25419691.1094
         2.5004
 03 10 29  0 21 30.0000000  0  8G28G 9G 4G 8G 7G26G29G11
  33328782.12246  26352490.52346  22147918.7344   22147923.4344
        18.2504         15.5004
  -5773116.20646  -4013883.83346  21900678.3984   21900684.1414
        18.0004         16.2504
  -5710856.85046  -4394940.71945  22574873.8444   22574880.9384
        14.2504         11.2504
    652756.40543      6784.71845  24368315.1094   24368325.5084
         6.0004          7.0004
  10350396.54347   8109663.36746  20847636.5634   20847641.7544
        24.5004         24.2504
  24771477.76245  19686881.29445  23813579.9614   23813588.6374
         9.2504          8.5004
  31784589.57543  24928814.22845  24274898.2424   24274909.8714
         5.5004          6.0004
                                  25451291.4774
         2.5004
 03 10 29  0 22  0.0000000  0  8G28G 9G 4G 8G 7G26G29G11
  33461649.22346  26456023.27946  22173202.9454   22173208.1254
        18.2504         15.7504
  -5761643.68546  -4004944.17246  21902861.1564   21902867.4964
        17.5004         16.5004
  -5724034.33546  -4405208.76746  22572366.1804   22572373.3794
        14.5004         12.0004
    846477.18943    157735.75845  24405178.3834   24405186.7194
         6.0004          6.7504
  10460819.38947   8195707.13446  20868649.1484   20868654.5864
        24.5004         24.2504
  24932553.57845  19812394.85245  23844230.1174   23844238.2544
         8.7504          8.2504
  31951340.43843  25058749.77745  24306628.6094   24306641.7384
         5.0004          5.7504
  -2990062.42741                  25482941.4454
         2.7504
 03 10 29  0 22 30.0000000  0  8G28G 9G 4G 8G 7G26G29G11
  33594715.18946  26559711.00046  22198523.9144   22198528.8594
        18.0004         15.2504
  -5749731.68746  -3995662.00646  21905128.2034   21905134.0984
        17.5004         15.5004
  -5736906.11046  -4415238.60845  22569916.4774   22569923.9104
        14.7504         11.7504
   1040306.17443    308771.01845  24442063.4064   24442076.4774
         6.7504          5.5004
  10571553.13447   8281993.15146  20889721.2814   20889726.7074
        24.2504         24.0004
  25093838.27545  19938071.09745  23874922.7814   23874931.4454
         9.0004          7.7504
  32118172.91643  25188748.94644  24338377.7424   24338381.3634
         5.5004          4.7504
  -2823479.94241                  25514640.6804
         2.5004
 03 10 29  0 23  0.0000000  0  6G28G 9G 4G 8G 7G26
  32152569.76046  25435961.27246  21924092.9144   21924097.8014
        17.7504         15.0004
  -7312792.07046  -5213631.10046  21607687.3594   21607692.6684
        17.7504         15.2504
  -7324884.03846  -5652623.87046  22267734.6644   22267741.2734
        14.7504         12.0004
   -341166.99844   -767701.88545  24179177.8524   24179191.1214
         7.7504          6.0004
   9107185.41047   7140927.38246  20611061.5004   20611066.8444
        24.5004         24.2504
  23679919.70345  18836316.25145  23605863.2814   23605871.1024
         9.0004          7.7504
 03 10 29  0 23 30.0000000  0  7G28G 9G 4G 8G 7G26G29
  32286039.02846  25539963.25646  21949491.0864   21949495.7854
        18.0004         15.0004
  -7299988.16746  -5203653.99146  21610124.2974   21610129.2304
        18.0004         16.0004
  -7337129.23846  -5662165.46945  22265403.1484   22265410.3484
        13.5004         11.5004
   -147122.55544   -616498.49945  24216103.2034   24216117.1174
         7.7504          5.2504
   9218542.35247   7227699.01046  20632251.8364   20632257.0984
        24.2504         24.0004
  23841618.84745  18962315.49845  23636631.6564   23636639.9924
         8.2504          8.2504
  -4598231.94853                  24102124.5084
         5.0004
 03 10 29  0 24  0.0000000  0  7G28G 9G 4G 8G 7G26G29
  32419710.68046  25644122.95046  21974928.4224   21974933.3204
        18.2504         15.2504
  -7286733.98446  -5193325.99546  21612646.1024   21612651.6564
        18.0004         16.2504
  -7349055.79746  -5671458.73746  22263133.7584   22263141.0984
        14.2504         12.2504
     47027.30643   -465213.03544  24253048.8364   24253061.2274
         6.7504          4.5004
   9330209.46347   7314712.32646  20653501.6174   20653506.9964
        24.2504         23.7504
  24003521.38745  19088473.18045  23667441.9144   23667450.4844
         8.7504          8.2504
  -4431162.76943                  24133918.4304
         5.0004
 03 10 29  0 24 30.0000000  0  7G28G 9G 4G 8G 7G26G29
  32553578.03146  25748435.11646  22000402.5474   22000407.1994
        18.2504         14.5004
  -7273033.78746  -5182650.46846  21615253.0634   21615258.8054
        18.2504         17.0004
  -7360667.13746  -5680506.41746  22260924.3524   22260931.4694
        14.0004         12.0004
    241273.67843   -313852.44244  24290013.3444   24290026.2274
         5.7504          4.2504
   9442178.58447   7401960.98246  20674808.5634   20674813.9304
        24.2504         24.2504
  24165617.59044  19214781.77745  23698287.5084   23698296.7814
         7.7504          7.5004
  -4264027.06442  -3656753.94655  24165719.5164   24165727.5234
         4.5004          5.2504
 03 10 29  0 25  0.0000000  0  7G28G 9G 4G 8G 7G26G29
  32687642.42146  25852900.84046  22025913.7584   22025919.0084
        17.7504         14.7504
  -7258884.08046  -5171624.66946  21617945.6804   21617951.8204
        18.0004         16.5004
  -7371959.05846  -5689305.18946  22258775.8834   22258783.5044
        14.5004         12.2504
    435615.97543   -162417.07845  24326995.1484   24327005.0554
         5.0004          5.5004
   9554449.81847   7489445.04146  20696172.8834   20696178.2624
        24.2504         24.0004
  24327905.62844  19341239.84545  23729169.0084   23729177.4024
         7.7504          7.0004
  -4096826.15042  -3526467.63944  24197539.4454   24197550.5004
         4.7504          4.5004
 03 10 29  0 25 30.0000000  0  8G28G 9G 4G 8G 7G26G 5G29
  32821903.97946  25957520.17946  22051463.2734   22051468.5594
        18.0004         14.2504
  -7244282.42846  -5160246.70846  21620724.4384   21620730.4494
        18.0004         15.5004
  -7382928.14046  -5697852.39146  22256688.0474   22256695.0354
        14.7504         12.5004
    630051.84242    -10908.90644  24363994.9384   24364005.8284
         4.7504          4.7504
   9667021.43547   7577163.17046  20717594.6884   20717599.8324
        24.2504         24.0004
  24490382.54445  19467845.13245  23760089.3524   23760100.3244
         8.0004          7.0004
  -4736820.58552                  25170955.1254
         4.0004
  -3929563.34443  -3396133.26445  24229371.0164   24229376.6524
         5.7504          6.0004
 03 10 29  0 26  0.0000000  0  8G28G 9G 4G 8G 7G26G 5G29
  32956368.02346  26062297.33846  22077050.7894   22077056.3554
        17.7504         14.5004
  -7229221.20046  -5148510.63746  21623590.2894   21623596.0204
        18.5004         16.5004
  -7393566.07246  -5706141.56146  22254663.8914   22254671.0204
        15.2504         12.5004
    824584.85742    140675.12444  24401013.5084   24401023.9884
         4.5004          4.7504
   9779897.48147   7665118.51446  20739074.3204   20739079.7114
        24.5004         24.0004
  24653050.57845  19594599.28845  23791043.4924   23791053.5744
         8.0004          8.2504
                                  25168325.4304
         3.0004
  -3762236.08442  -3265748.49444  24261210.8834   24261216.2854
         4.7504          4.5004
 03 10 29  0 26 30.0000000  0  8G28G 9G 4G 8G 7G26G 5G29
  33091032.78346  26167230.87146  22102676.7814   22102681.5864
        17.7504         14.2504
  -7213700.01046  -5136416.15746  21626543.8834   21626549.3914
        18.7504         16.7504
  -7403871.78046  -5714171.85546  22252702.3204   22252708.6844
        14.7504         12.7504
   1019210.54342    292331.22445  24438050.5864   24438060.3984
         4.5004          5.5004
   9893074.55247   7753308.42246  20760611.3364   20760616.4224
        24.2504         23.7504
  24815904.68245  19721498.45045  23822033.1954   23822042.9614
         8.0004          7.5004
                                  25165697.0944
         3.0004
  -3594849.37043  -3135317.71545  24293063.4694   24293076.0944
         5.5004          5.2504
 03 10 29  0 27  0.0000000  0  8G28G 9G 4G 8G 7G26G 5G29
  33225892.99946  26272316.70146  22128339.8984   22128345.0434
        17.5004         14.2504
  -7197721.66246  -5123965.48046  21629584.7424   21629590.9064
        18.7504         17.0004
  -7413847.11046  -5721944.71146  22250804.2114   22250810.8554
        15.2504         12.7504
   1213921.84643    444054.14045  24475102.2424   24475111.2704
         5.0004          5.2504
  10006546.11147   7841727.80146  20782204.2584   20782209.4734
        24.2504         23.7504
  24978936.66644  19848536.21745  23853057.4614   23853065.0474
         7.5004          7.7504
  -4728567.02251                  25163063.0004
         3.2504
  -3427411.29142  -3004846.64045  24324924.5314   24324935.0824
         4.2504          5.5004
 03 10 29  0 27 30.0000000  0  8G28G 9G 4G 8G 7G26G 5G29
  33360954.97946  26377559.76146  22154041.3914   22154046.6174
        17.7504         14.2504
  -7181277.51546  -5111151.77246  21632713.3524   21632719.0824
        18.5004         16.7504
  -7423482.86146  -5729452.95046  22248970.4534   22248977.6884
        15.2504         13.0004
   1408722.91943    595846.92245  24512172.7274   24512184.5784
         6.0004          6.0004
  10120317.00247   7930380.41946  20803853.9844   20803859.5044
        24.2504         23.5004
  25142149.72744  19975715.09245  23884114.9304   23884121.8594
         7.5004          7.0004
  -4742428.86542                  25160429.3134
         4.7504
  -3259918.66343  -2874333.18645  24356802.6414   24356815.2074
         6.2504          5.0004
 03 10 29  0 28  0.0000000  0  8G28G 9G 4G 8G 7G26G 5G29
  33496213.26246  26482955.79046  22179780.0164   22179785.1604
        17.5004         14.0004
  -7164370.78746  -5097977.64946  21635930.6094   21635936.2234
        19.0004         16.5004
  -7432781.35046  -5736698.40546  22247200.3524   22247206.9494
        15.2504         12.7504
   1603606.00443    747703.66245  24549257.8984   24549269.7154
         6.2504          6.5004
  10234380.07247   8019260.71046  20825559.4924   20825564.9064
        24.2504         23.7504
  25305535.39344  20103028.43045  23915206.9224   23915215.2814
         7.7504          7.2504
  -4756315.33743                  25157787.4064
         5.5004
  -3092379.96542  -2743783.72945  24388679.9774   24388691.1134
         4.5004          5.2504
 03 10 29  0 28 30.0000000  0  8G28G 9G 4G 8G 7G26G 5G29
  33631673.15346  26588508.90046  22205556.9844   22205562.5274
        16.7504         14.2504
  -7146993.86446  -5084437.14646  21639237.4144   21639243.0164
        19.2504         17.0004
  -7441734.36846  -5743674.67246  22245496.9384   22245503.6294
        15.7504         12.7504
   1798574.44743    899626.90345  24586358.5864   24586371.6914
         6.7504          6.5004
  10348739.21547   8108371.70246  20847321.3444   20847326.7234
        24.2504         23.5004
  25469095.80345  20230477.95445  23946333.2734   23946340.8594
         8.5004          7.0004
  -4770221.02143                  25155138.3524
         5.7504
  -2924792.82842  -2613196.69744  24420574.0004   24420586.3094
         4.7504          4.5004
 03 10 29  0 29  0.0000000  0  8G28G 9G 4G 8G 7G26G 5G29
  33767336.68146  26694220.69846  22231373.5474   22231378.7154
        16.7504         14.0004
  -7129142.75746  -5070527.15546  21642634.6094   21642639.8484
        19.5004         17.2504
  -7450336.66746  -5750377.65146  22243859.2584   22243866.4344
        14.7504         12.5004
   1993627.96743   1051616.45845  24623476.5164   24623484.6294
         6.7504          6.7504
  10463395.03547   8197713.87746  20869139.6804   20869145.2814
        24.0004         23.5004
  25632829.83344  20358062.75045  23977488.4144   23977497.9224
         7.5004          7.5004
  -4784142.86843  -3686778.86055  25152488.7344   25152494.8984
         6.0004          5.5004
  -2757158.34142  -2482572.57645  24452472.7424   24452481.5234
         4.7504          5.2504
 03 10 29  0 29 30.0000000  0  8G28G 9G 4G 8G 7G26G 5G29
  33903203.45146  26800090.87846  22257227.7114   22257233.2664
        16.5004         13.7504
  -7110815.39646  -5056246.04546  21646121.9384   21646127.0234
        19.5004         17.0004
  -7458585.65446  -5756805.30846  22242290.3364   22242297.1684
        15.7504         13.0004
   2188764.19543   1203670.51845  24660608.7894   24660622.6334
         6.2504          6.0004
  10578345.73947   8287285.83346  20891014.0944   20891019.7194
        24.2504         23.7504
  25796734.02645  20485780.12445  24008681.2734   24008690.5234
         8.7504          7.5004
  -4798080.80543  -3697639.57645  25149837.7034   25149848.6524
         6.2504          6.0004
  -2589479.62742  -2351914.16045  24484382.4924   24484393.1724
         4.7504          5.0004
 03 10 29  0 30  0.0000000  0  8G28G 9G 4G 8G 7G26G 5G29
  34039279.25446  26906123.90146  22283122.5004   22283127.5164
        16.5004         13.5004
  -7092003.85546  -5041587.65946  21649702.0084   21649707.4454
        19.7504         17.0004
  -7466472.56646  -5762950.86646  22240788.9694   22240796.3444
        15.7504         13.5004
   2383986.69343   1355791.71545  24697759.2194   24697773.2034
         6.0004          5.7504
  10693595.49047   8377090.81346  20912945.3444   20912950.8984
        24.2504         23.5004
  25960811.20844  20613632.34945  24039901.8284   24039909.6374
         7.5004          7.0004
  -4812028.62243  -3708507.97345  25147182.2034   25147191.4304
         6.2504          6.2504
  -2421754.21042  -2221219.30145  24516296.6644   24516308.0704
         4.0004          5.0004
 03 10 29  0 30 30.0000000  0  8G28G 9G 4G 8G 7G26G 5G29
  34175558.47446  27012315.44246  22309055.4304   22309060.7734
        16.2504         13.5004
  -7072711.44746  -5026554.57946  21653372.9614   21653378.4344
        19.5004         17.0004
  -7473999.89446  -5768816.22546  22239357.4534   22239363.9454
        16.2504         13.2504
   2579287.74443   1507974.20144  24734924.1174   24734933.7664
         5.2504          4.5004
  10809137.45547   8467123.48946  20934932.2584   20934937.6954
        24.2504         23.5004
  26125052.78144  20741612.61645  24071158.4064   24071165.6994
         7.7504          7.2504
  -4825991.17643  -3719387.81745  25144525.8054   25144534.9024
         6.0004          6.7504
  -2253990.33242  -2090494.43845  24548224.8984   24548241.4144
         4.5004          5.0004
 03 10 29  0 31  0.0000000  0  8G28G 9G 4G 8G 7G26G 5G29
  34312050.09046  27118672.51546  22335028.9224   22335033.7854
        16.2504         13.5004
  -7052927.10246  -5011138.16146  21657137.8524   21657143.2544
        19.7504         17.0004
  -7481155.88546  -5774392.22846  22237994.3204   22238001.3914
        15.0004         13.2504
   2774674.08642   1660223.11044  24772105.3984   24772115.7504
         4.5004          4.0004
  10924978.71647   8557389.39046  20956976.1644   20956981.7664
        24.2504         23.5004
  26289464.35645  20869725.37045  24102444.3674   24102452.5984
         8.2504          7.5004
  -4839958.95243  -3730271.68845  25141866.6094   25141876.4104
         5.5004          5.5004
  -2086182.34143  -1959735.13744  24580157.4064   24580168.3094
         5.2504          4.0004
 03 10 29  0 31 30.0000000  0  8G28G 9G 4G 8G 7G26G 5G29
  34448752.83746  27225194.08746  22361042.7114   22361047.6094
        16.0004         13.2504
  -7032649.77246  -4995337.61046  21660996.3054   21661001.5204
        19.7504         17.0004
  -7487938.62346  -5779677.38646  22236704.6174   22236711.1684
        16.0004         13.5004
   2970142.47542   1812535.84243  24809303.0474   24809312.8484
         4.0004          3.2504
  11041116.91047   8647886.66346  20979076.5864   20979081.9884
        24.2504         23.5004
  26454041.79644  20997967.37945  24133760.7034   24133769.0274
         7.2504          7.2504
  -4853932.86142  -3741160.21244  25139208.0164   25139213.8754
         4.5004          4.7504
  -1918334.16042  -1828944.61145  24612095.8444   24612104.0044
         4.5004          5.5004
 03 10 29  0 32  0.0000000  0  8G28G 9G 4G 8G 7G26G 5G29
  34585658.41546  27331873.72046  22387094.9844   22387100.5164
        16.2504         13.5004
  -7011885.65246  -4979157.73246  21664947.2584   21664952.4264
        19.5004         17.2504
  -7494353.40646  -5784675.81946  22235482.8754   22235489.5904
        15.5004         13.5004
   3165682.40041                  24846512.3284
         3.0004
  11157542.15747   8738607.62646  21001231.6954   21001237.1684
        24.2504         23.2504
  26618773.57845  21126329.64145  24165110.8134   24165117.3054
         8.0004          7.0004
  -4867920.57642  -3752059.71844  25136546.8594   25136558.1484
         4.0004          4.2504
  -1750457.12942  -1698131.61344  24644042.4774   24644056.6484
         4.5004          4.7504
 03 10 29  0 32 30.0000000  0  8G28G 9G 4G 8G 7G26G 5G29
  34722777.54946  27438719.74846  22413187.6174   22413193.0204
        16.0004         13.5004
  -6990621.78847  -4962588.45446  21668994.0164   21668999.4414
        20.0004         17.5004
  -7500386.38146  -5789376.77646  22234335.3204   22234342.2854
        16.2504         13.5004
   3361302.48141                  24883737.1024
         2.5004
  11274263.71747   8829559.47646  21023442.7424   21023448.0274
        24.2504         23.2504
  26783667.59844  21254818.30145  24196485.9064   24196492.4344
         7.5004          7.2504
  -4881910.24841                  25133882.9774
         3.2504
  -1582543.33642  -1567290.00245  24675995.4144   24676007.8054
         4.7504          5.0004
 03 10 29  0 33  0.0000000  0  8G28G 9G 4G 8G 7G26G 5G29
  33284686.36646  26318129.18546  22139528.3134   22139533.9494
        16.0004         13.2504
  -8544283.70747  -6173234.07046  21373341.7114   21373346.8204
        20.2504         18.0004
  -9081463.34946  -7021384.71946  21933466.1884   21933473.2584
        17.0004         14.5004
  -6190782.38851                  24621183.9774
         2.0004
   9815855.60047   7693137.55446  20745917.1094   20745922.5474
        24.2504         23.0004
  25373297.62044  20155828.55345  23928102.9534   23928113.4344
         7.5004          7.0004
  -6471330.33141                  24831427.0554
         2.7504
  -2990018.82742  -2664024.30644  24408162.5474   24408179.4494
         4.5004          4.2504
 03 10 29  0 33 30.0000000  0  7G28G 9G 4G 8G 7G26G29
  33422216.15246  26425295.19146  22165698.9144   22165704.1644
        15.7504         13.2504
  -8522030.26947  -6155893.70046  21377576.6484   21377582.0044
        20.2504         17.7504
  -9086740.31146  -7025496.57646  21932462.0004   21932468.4694
        16.7504         13.7504
                                  24658436.1884
         1.2504
   9933148.82147   7784534.85546  20768237.2114   20768242.6954
        24.0004         23.0004
  25538490.18644  20284549.86445  23959538.6564   23959548.9844
         7.5004          7.0004
  -2822057.16242  -2533145.46444  24440123.4304   24440136.8404
         4.7504          4.7504
 03 10 29  0 34  0.0000000  0  6G28G 9G 4G 7G26G29
  33559954.34846  26532623.60346  22191910.0004   22191915.1684
        15.7504         13.0004
  -8499275.91646  -6138162.99346  21381906.2504   21381911.7464
        19.7504         17.2504
  -9091631.86146  -7029308.09346  21931531.0394   21931537.7194
        16.2504         13.5004
  10050728.91747   7876155.70046  20790611.9064   20790617.2384
        24.0004         23.0004
  25703830.53844  20413386.34645  23991003.0704   23991015.0634
         7.2504          6.5004
  -2654072.87343  -2402248.95843  24472092.7274   24472102.4454
         5.0004          3.5004
 03 10 29  0 34 30.0000000  0  7G28G 9G 4G 7G26G 5G29
  33697904.63646  26640117.29146  22218161.5314   22218166.4654
        16.0004         13.2504
  -8476014.76447  -6120037.39346  21386332.8674   21386338.0944
        20.2504         17.7504
  -9096131.32446  -7032814.08046  21930675.1884   21930681.6214
        17.5004         14.5004
  10168597.87347   7968001.63146  20813041.8754   20813047.3014
        24.0004         23.0004
  25869319.01044  20542338.18745  24022493.4534   24022503.2304
         7.2504          7.2504
                                  24823424.4304
         3.7504
  -2486065.17242  -2271334.01844  24504060.8754   24504074.5554
         4.5004          4.0004
 03 10 29  0 35  0.0000000  0  7G28G 9G 4G 7G26G 5G29
  33836064.47746  26747774.27646  22244452.1174   22244457.0984
        15.7504         13.5004
  -8452246.99547  -6101517.02746  21390856.0004   21390861.4614
        20.5004         18.2504
  -9100238.14346  -7036014.14046  21929893.1804   21929899.5784
        17.0004         13.7504
  10286751.95047   8060069.72946  20835525.7114   20835531.2074
        23.7504         22.5004
  26034950.46544  20671401.55645  24054013.7344   24054023.5474
         7.0004          6.5004
  -6315230.31943                  24820759.7504
         5.0004
  -2318039.30542  -2140405.09944  24536035.0234   24536036.9224
         4.2504          4.7504
 03 10 29  0 35 30.0000000  0  7G28G 9G 4G 7G26G 5G29
  33974430.60346  26855591.98946  22270782.1334   22270787.4184
        15.2504         13.2504
  -8427973.94647  -6082602.93446  21395474.5394   21395480.0474
        20.5004         18.2504
  -9103952.64846  -7038908.49046  21929186.0944   21929192.7154
        16.5004         13.7504
  10405186.34347   8152356.26246  20858063.0474   20858068.5084
        24.2504         23.0004
  26200718.35943  20800571.10245  24085555.5084   24085565.5084
         6.7504          7.0004
  -6329254.02743                  24818091.3284
         6.5004
  -2150001.80742  -2009467.26044  24568015.0864   24568026.6804
         4.5004          4.5004
 03 10 29  0 36  0.0000000  0  7G28G 9G 4G 7G26G 5G29
  34113005.11746  26963572.08846  22297152.3524   22297157.9884
        15.5004         12.7504
  -8403191.53947  -6063291.93646  21400190.2894   21400196.0904
        20.0004         18.0004
  -9107269.85746  -7041493.23346  21928554.6254   21928560.6954
        16.2504         13.5004
  10523901.54347   8244861.60246  20880653.8594   20880659.2034
        24.2504         23.0004
  26366621.87344  20929846.40345  24117128.6644   24117138.4304
         7.2504          6.7504
  -6343280.96144  -4916229.82554  24815422.4454   24815428.7384
         7.5004          4.0004
  -1981953.47942  -1878520.74444  24599993.3834   24600004.1214
         4.7504          4.5004
 03 10 29  0 36 30.0000000  0  7G28G 9G 4G 7G26G 5G29
  34251787.61746  27071714.25446  22323561.7194   22323567.2154
        15.5004         13.2504
  -8377898.13447  -6043582.75746  21405003.3674   21405008.9224
        20.2504         17.7504
  -9110187.35246  -7043766.52046  21928000.3524   21928006.6684
        17.0004         14.0004
  10642895.66147   8337584.29046  20903297.5784   20903303.2274
        24.0004         22.7504
  26532657.30544  21059224.49645  24148722.5634   24148732.7154
         7.2504          7.0004
  -6357309.92445  -4927161.42745  24812752.0394   24812758.7774
         8.0004          5.5004
  -1813897.29741                  24631971.2274
         3.7504
 03 10 29  0 37  0.0000000  0  7G28G 9G 4G 7G26G 5G29
  34390770.30146  27180012.41146  22350009.4924   22350015.0824
        15.7504         13.0004
  -8352099.15647  -6023479.63846  21409913.0554   21409918.4224
        20.5004         18.0004
  -9112709.81946  -7045731.97546  21927519.6094   21927525.3284
        16.5004         13.5004
  10762159.70847   8430517.30646  20925992.8444   20925998.3404
        23.7504         22.5004
  26698814.14643  21188697.18045  24180341.1564   24180349.7034
         6.5004          6.2504
  -6371348.34245  -4938100.41645  24810080.7894   24810091.6684
         8.2504          7.2504
  -1645844.20041                  24663947.7664
         3.7504
 03 10 29  0 37 30.0000000  0  7G28G 9G 4G 7G26G 5G29
  34529958.03546  27288470.34346  22376495.8284   22376500.6564
        15.7504         13.2504
  -8325787.85447  -6002977.29646  21414920.0394   21414925.3714
        20.7504         18.5004
  -9114829.44346  -7047383.57246  21927116.1644   21927122.1294
        16.7504         13.7504
  10881697.08047   8523663.29846  20948740.0084   20948745.4344
        23.7504         22.7504
  26865094.13343  21318265.86145  24211984.0634   24211994.4264
         6.5004          6.7504
  -6385390.82644  -4949042.61945  24807407.7584   24807419.1644
         7.5004          7.0004
  -1477791.98241                  24695930.6094
         3.7504
 03 10 29  0 38  0.0000000  0  8G28G 9G 4G24G 7G26G 5G29
  34669343.51146  27397082.36646  22403020.5084   22403025.5474
        15.7504         13.2504
  -8298969.56147  -5982079.90246  21420023.2114   21420028.6844
        21.0004         18.2504
  -9116550.86946  -7048724.86546  21926788.9064   21926795.1764
        17.0004         14.0004
  -6313520.68052                  24491437.1564
         4.7504
  11001498.75047   8617015.23846  20971537.3914   20971542.8524
        23.5004         22.2504
  27031486.76143  21447922.22745  24243647.6254   24243660.3794
         6.7504          7.2504
  -6399443.88043  -4959993.00245  24804734.1884   24804745.4184
         6.5004          8.0004
  -1309750.83941                  24727908.6564
         3.7504
 03 10 29  0 38 30.0000000  0  8G28G 9G 4G24G 7G26G 5G29
  34808930.39046  27505851.33846  22429582.7734   22429587.6254
        15.5004         12.5004
  -8271638.63347  -5960783.05446  21425224.1254   21425229.2114
        21.2504         18.5004
  -9117867.33446  -7049750.61646  21926537.9454   21926544.6484
        17.0004         14.5004
  -6345810.85443                  24485293.7504
         5.5004
  11121567.09047   8710574.96546  20994385.9064   20994391.3794
        23.5004         22.2504
  27197992.68444  21577666.97845  24275334.3054   24275343.1684
         7.2504          5.7504
  -6413503.01643  -4970948.15345  24802058.4224   24802068.1294
         5.5004          7.2504
  -1141720.20042                  24759887.2034
         4.2504
 03 10 29  0 39  0.0000000  0  8G28G 9G 4G24G 7G26G 5G29
  34948719.23646  27614777.67346  22456183.3984   22456188.4964
        15.5004         13.0004
  -8243792.18147  -5939084.49146  21430523.0944   21430528.3914
        21.0004         18.5004
  -9118775.34446  -7050458.07246  21926365.5234   21926372.0274
        18.2504         14.5004
  -6378086.65143                  24479150.7424
         5.7504
  11241901.33847   8804341.90046  21017284.5234   21017290.0434
        23.5004         22.2504
  27364609.74944  21707498.23645  24307039.5784   24307048.5944
         7.2504          6.0004
  -6427566.74542  -4981906.84245  24799382.1174   24799394.9304
         4.2504          6.2504
   -973702.20742                  24791854.9614
         4.2504
 03 10 29  0 39 30.0000000  0  8G28G 9G 4G24G 7G26G 5G29
  35088699.84746  27723853.45046  22482821.0084   22482826.0354
        15.2504         12.7504
  -8215438.73147  -5916990.85846  21435918.7584   21435924.2304
        21.2504         18.7504
  -9119282.26746  -7050853.01446  21926269.1024   21926275.2894
        17.7504         14.2504
  -6410356.49943  -4930515.32655  24473009.6174   24473024.5864
         6.2504          6.2504
  11362489.56147   8898306.73546  21040231.6954   21040237.2624
        23.5004         22.2504
  27531324.25443  21837405.48545  24338762.9384   24338774.2384
         6.7504          6.2504
  -6441644.92741  -4992876.77645  24796704.2344   24796714.3754
         3.5004          6.2504
   -805710.25343                  24823829.8134
         5.0004
 03 10 29  0 40  0.0000000  0  8G28G 9G 4G24G 7G26G 5G29
  35228883.40646  27833087.34846  22509497.0314   22509502.4574
        15.2504         12.5004
  -8186565.02447  -5894491.84546  21441412.9534   21441418.0744
        21.5004         18.7504
  -9119374.21346  -7050924.57146  21926251.3674   21926257.8134
        18.0004         15.0004
  -6442605.67244  -4955644.22345  24466872.5394   24466883.2894
         7.2504          6.0004
  11483341.70447   8992477.22546  21063229.0944   21063234.7424
        23.2504         22.0004
  27698144.69843  21967395.22045  24370508.9304   24370518.6134
         6.5004          6.5004
                                  24794023.1254
         2.2504
   -637735.60143  -4823147.60855  24855792.1644   24855807.2274
         5.2504          5.2504
 03 10 29  0 40 30.0000000  0  8G28G 9G 4G24G 7G26G 5G29
  35369263.58246  27942474.45046  22536210.5704   22536216.2774
        15.0004         12.5004
  -8157175.48347  -5871590.87146  21447005.6884   21447011.0784
        21.0004         18.7504
  -9119054.54346  -7050675.38346  21926312.2584   21926318.4344
        18.5004         14.7504
  -6474837.85243  -4980759.91545  24460739.2504   24460751.9694
         6.2504          6.7504
  11604450.06047   9086847.35746  21086275.5084   21086281.2384
        23.2504         22.2504
  27865061.74543  22097460.26545  24402270.1484   24402281.3674
         6.0004          6.5004
  -6304028.16751                  24791339.6564
         2.2504
   -469787.06142                  24887751.3444
         4.5004
 03 10 29  0 41  0.0000000  0  8G28G 9G 4G24G 7G26G 5G29
  35509835.53346  28052011.00146  22562960.5944   22562965.9024
        15.0004         12.5004
  -8127272.92947  -5848290.16046  21452695.6094   21452700.9304
        21.0004         18.7504
  -9118325.38046  -7050107.13146  21926450.2734   21926457.2274
        17.5004         14.5004
  -6507055.68243  -5005864.35945  24454607.7114   24454623.7464
         6.0004          5.2504
  11725808.21047   9181412.13246  21109369.2274   21109374.7584
        23.5004         22.0004
  28032067.49243  22227594.41545  24434052.8284   24434062.5124
         6.5004          7.0004
  -6318128.98641                  24788658.3594
         3.7504
   -301873.03242                  24919704.6484
         4.2504
 03 10 29  0 41 30.0000000  0  8G28G 9G 4G24G 7G26G 5G29
  35650606.62146  28161702.74446  22589748.9304   22589755.2464
        14.7504         12.0004
  -8096847.83147  -5824582.25446  21458485.5394   21458491.1174
        21.2504         19.0004
  -9117176.37246  -7049211.73346  21926669.2664   21926675.6054
        17.7504         14.7504
  -6539248.51542  -5030949.37445  24448481.7034   24448494.4924
         4.7504          5.2504
  11847422.09647   9276176.18646  21132511.3364   21132517.0904
        23.5004         22.2504
  28199166.31643  22357801.16745  24465850.4224   24465861.3364
         6.2504          5.7504
  -6332233.61843                  24785975.8834
         5.0004
   -133988.88742                  24951652.6724
         4.5004
 03 10 29  0 42  0.0000000  0  8G28G 9G 4G24G 7G26G 5G29
  35791578.02746  28271550.55245  22616574.2034   22616579.4534
        14.2504         11.5004
  -8065897.23147  -5800464.87446  21464375.3984   21464380.7194
        21.2504         18.7504
  -9115603.43446  -7047985.96746  21926968.3524   21926975.0784
        17.7504         14.7504
  -6571412.22241  -5056011.76543  24442360.6334   24442377.4184
         3.7504          3.7504
  11969291.67347   9371139.47846  21155702.5004   21155707.9614
        23.5004         22.2504
  28366356.42543  22488079.00545  24497667.3834   24497675.3914
         6.5004          5.2504
  -6346339.80243  -4917727.29455  24783290.7584   24783303.5824
         6.2504          6.2504
     33864.38041                  24983591.7734
         3.7504
 03 10 29  0 42 30.0000000  0  8G28G 9G 4G24G 7G26G 5G29
  35932747.51546  28381552.69345  22643438.3284   22643444.5634
        14.2504         11.5004
  -8034421.58247  -5775938.36246  21470364.4614   21470369.9574
        20.7504         18.2504
  -9113605.97946  -7046429.44046  21927348.4924   21927355.0204
        18.5004         16.0004
  -6603546.29041                  24436245.0394
         3.5004
  12091413.19547   9466299.09146  21178941.5864   21178947.1994
        23.7504         22.0004
  28533632.57643  22618423.87845  24529498.1484   24529512.4494
         6.5004          6.2504
  -6360449.40344  -4928721.68145  24780606.8054   24780617.0514
         7.2504          5.7504
    201681.27941                  25015523.7664
         3.5004
 03 10 29  0 43  0.0000000  0  8G28G 9G 4G24G 7G26G 5G29
  36074098.33546  28491696.17845  22670336.5234   22670341.3284
        14.5004         11.5004
  -8002435.65047  -5751014.22546  21476451.4384   21476456.8634
        21.0004         18.7504
  -9111197.98646  -7044552.99646  21927806.6174   21927812.6524
        18.0004         15.0004
  -6635664.75042                  24430133.1564
         4.2504
  12213768.48047   9561640.85746  21202224.7974   21202230.2934
        23.5004         22.0004
  28700975.04743  22748820.38645  24561342.0944   24561354.0394
         6.2504          5.7504
  -6374578.18343  -4939730.90545  24777916.8674   24777932.5164
         6.7504          5.0004
    369442.19242  -4788398.58453  25047448.9384   25047464.1884
         4.0004          3.2504
 03 10 29  0 43 30.0000000  0  8G28G 9G 4G24G 7G26G 5G29
  34640228.52246  27374395.00245  22397480.1954   22397486.1724
        14.2504         11.5004
  -9545342.94547  -6953279.62646  21182846.1174   21182851.3324
        21.5004         19.0004
 -10683783.31746  -8269944.09846  21628553.5784   21628560.1054
        18.7504         15.2504
  -8243172.81943                  24124234.2344
         5.7504
  10760953.44947   8429577.18546  20925763.2974   20925768.6994
        23.2504         22.0004
  27292979.63643  21651680.91845  24293409.0864   24293418.4884
         6.5004          6.0004
  -7964132.68543  -6178344.61945  24475434.8204   24475447.7034
         6.5004          5.0004
  -1038256.83241                  24779574.6414
         3.7504
 03 10 29  0 44  0.0000000  0  8G28G 9G 4G24G 7G26G 5G29
  34781966.51246  27484840.16145  22424451.8984   22424456.7034
        13.7504         11.2504
  -9512306.14347  -6927536.62546  21189132.7504   21189138.0124
        21.5004         18.5004
 -10680521.53246  -8267402.36646  21629174.3834   21629180.6884
        18.7504         15.5004
  -8275227.56644                  24118134.3594
         7.2504
  10883796.37347   8525298.92846  20949139.7424   20949145.2384
        23.5004         21.7504
  27460470.28443  21782192.94345  24325281.9224   24325293.5164
         6.2504          5.5004
  -7978273.35743  -6189363.22344  24472743.9304   24472747.2344
         5.2504          4.7504
   -870591.59241                  24811481.3134
         3.7504
 03 10 29  0 44 30.0000000  0  7G28G 9G 4G24G 7G26G 5
  34923898.03246  27595436.11045  22451460.7504   22451466.0944
        13.5004         11.0004
  -9478741.09747  -6901382.01146  21195519.7664   21195525.2504
        21.2504         18.5004
 -10676828.48946  -8264524.60646  21629877.1564   21629884.0394
        19.2504         15.7504
  -8307245.78344  -6139662.00155  24112041.5084   24112052.2344
         7.7504          6.5004
  11006881.10547   8621209.09046  20972561.8984   20972567.3594
        23.5004         21.5004
  27628030.51343  21912759.13745  24357167.2734   24357176.4184
         6.2504          7.2504
  -7992418.15342  -6200384.93545  24470052.0704   24470060.3014
         4.5004          5.5004
 03 10 29  0 45  0.0000000  0  8G28G 9G 4G24G 7G26G 5G29
  35066023.90446  27706183.49445  22478506.3984   22478511.9654
        13.2504         11.5004
  -9444645.33147  -6874813.84646  21202007.7504   21202013.2234
        21.5004         18.7504
 -10672700.86346  -8261308.17846  21630661.9454   21630668.1214
        18.2504         15.5004
  -8339224.01744  -6164579.86745  24105955.8674   24105968.8094
         7.2504          7.0004
  11130206.89747   8717307.09546  20996030.1174   20996035.6134
        23.2504         21.7504
  27795658.21643  22043377.94045  24389066.8594   24389079.8014
         5.7504          6.0004
  -8006566.03942  -6211409.09245  24467358.0784   24467367.7034
         4.5004          5.2504
  -7782161.56652                  24875263.8204
         4.2504
 03 10 29  0 45 30.0000000  0  8G28G 9G 4G24G 7G26G 5G29
  35208334.73746  27817075.02145  22505586.4694   22505592.1764
        12.7504         10.7504
  -9410026.32147  -6847837.95946  21208595.6024   21208601.0274
        22.0004         19.0004
 -10668145.29746  -8257758.31346  21631528.8834   21631534.2624
        18.5004         15.7504
  -8371168.81443  -6189471.61745  24099878.0084   24099891.1024
         6.7504          6.7504
  11253763.16647   8813584.69746  21019542.0234   21019547.8364
        23.2504         21.5004
  27963341.09843  22174039.70345  24420975.1334   24420988.5314
         6.2504          5.7504
  -8020725.27642  -6222442.03645  24464665.9384   24464678.6684
         4.7504          6.0004
  -7614668.27643                  24907137.0944
         5.0004
 03 10 29  0 46  0.0000000  0  8G28G 9G 4G24G 7G26G 5G29
  35350838.98846  27928117.22945  22532704.6174   22532709.7624
        13.0004         11.2504
  -9374873.70847  -6820446.28046  21215284.8754   21215290.3484
        21.5004         19.0004
 -10663150.60546  -8253866.28046  21632479.6484   21632485.5204
        19.5004         15.5004
  -8403069.21243  -6214328.77245  24093805.6024   24093817.3014
         5.7504          6.0004
  11377556.96547   8910047.37146  21043099.0944   21043104.6374
        23.2504         21.2504
  28131084.59743  22304748.78745  24452897.6724   24452908.5634
         6.5004          5.7504
  -8034887.11243  -6233477.06645  24461969.3984   24461979.9144
         5.2504          5.7504
  -7447235.40742                  24938997.2194
         4.2504
 03 10 29  0 46 30.0000000  0  8G28G 9G 4G24G 7G26G 5G29
  35493532.81746  28039307.18845  22559857.8594   22559863.2734
        12.7504         11.0004
  -9339189.70947  -6792640.52946  21222075.3674   21222080.6644
        21.5004         19.2504
 -10657717.92646  -8249632.97346  21633513.6644   21633519.3244
        18.7504         15.5004
  -8434925.87242  -6239151.92445  24087743.5234   24087753.4064
         4.7504          6.2504
  11501582.76547   9006690.82546  21066700.5634   21066706.2814
        23.2504         21.5004
  28298881.83143  22435499.60745  24484826.4384   24484831.0784
         6.2504          5.7504
  -8049054.09743  -6244516.09045  24459273.9844   24459284.0084
         6.2504          5.7504
  -7279869.24741                  24970845.0784
         3.5004
 03 10 29  0 47  0.0000000  0  8G28G 9G 4G24G 7G26G 5G29
  35636414.30546  28150643.34645  22587048.0314   22587052.6724
        13.0004         10.7504
  -9302974.20647  -6764420.60846  21228966.8204   21228972.3164
        21.5004         19.5004
 -10651846.18846  -8245057.51646  21634630.5234   21634636.4414
        18.2504         15.5004
  -8466737.87742  -6263940.21244  24081689.7504   24081696.0664
         4.5004          4.2504
  11625837.53447   9103512.71146  21090345.3524   21090350.9884
        23.2504         21.2504
  28466727.96443  22566288.56445  24516767.8204   24516776.4024
         6.5004          6.5004
  -8063227.04643  -6255559.85045  24456576.1024   24456582.7584
         6.7504          6.2504
  -7112574.71741                  25002680.3204
         3.5004
 03 10 29  0 47 30.0000000  0  8G28G 9G 4G24G 7G26G 5G29
  35779469.43946  28262114.84845  22614270.2114   22614275.8364
        13.2504         11.2504
  -9266239.45547  -6735796.09146  21235957.3054   21235962.7664
        21.5004         19.0004
 -10645546.80046  -8240148.86446  21635829.3054   21635835.0474
        18.5004         16.0004
  -8498516.44943  -6288702.37645  24075641.8444   24075653.0864
         5.0004          6.0004
  11750305.83247   9200500.97846  21114030.9614   21114036.3874
        23.0004         21.2504
  28634606.37243  22697102.84345  24548714.9144   24548727.7154
         6.2504          6.5004
  -8077419.38344  -6266618.63045  24453876.3834   24453887.4614
         7.0004          7.0004
  -6945368.54541                  25034498.5634
         3.7504
 03 10 29  0 48  0.0000000  0  8G28G 9G 4G24G 7G26G 5G29
  35922730.76646  28373746.97645  22641532.0234   22641537.6134
        13.0004         11.0004
  -9228950.88147  -6706740.02146  21243053.0164   21243058.4884
        21.7504         19.2504
 -10638784.45446  -8234879.45646  21637116.4614   21637122.6254
        19.0004         16.0004
  -8530225.80943  -6313410.70545  24069608.7734   24069621.1644
         5.7504          6.0004
  11875019.11847   9297680.14346  21137763.0314   21137768.5514
        23.2504         21.5004
  28802546.79543  22827965.25445  24580671.2974   24580686.3594
         5.7504          6.0004
  -8091597.33644  -6277666.34945  24451178.2344   24451185.6214
         7.0004          5.2504
  -6778220.64941                  25066306.9454
         3.7504
 03 10 29  0 48 30.0000000  0  8G28G 9G 4G24G 7G26G 5G29
  36066173.58746  28485520.56945  22668828.3284   22668833.4024
        13.2504         11.2504
  -9191132.03147  -6677270.75546  21250249.6094   21250255.1524
        21.5004         19.2504
 -10631581.29446  -8229266.54246  21638486.6174   21638493.1334
        18.2504         15.7504
  -8561888.35343  -6338082.60645  24063582.5394   24063597.5204
         6.2504          5.7504
  11999950.91347   9395029.57646  21161536.7814   21161542.6294
        23.2504         21.0004
  28970521.00943  22958854.12645  24612637.7664   24612650.0044
         6.5004          6.0004
  -8105785.08143  -6288721.64745  24448478.0944   24448487.5784
         6.5004          6.0004
  -6611158.48541                  25098097.7344
         3.2504
 03 10 29  0 49  0.0000000  0  8G28G 9G 4G24G 7G26G 5G29
  36209799.51846  28597436.80445  22696159.9144   22696165.6804
        13.5004         11.2504
  -9152779.41247  -6647385.56546  21257547.9304   21257553.3204
        21.7504         19.5004
 -10623933.06846  -8223306.82246  21639941.6644   21639948.0514
        18.5004         15.7504
  -8593499.23943  -6362714.11245  24057567.9144   24057579.1914
         6.0004          6.5004
  12125101.63447   9492549.59446  21185352.5704   21185358.2304
        23.2504         21.2504
  29138528.01343  23089768.43245  24644608.7894   24644620.3134
         6.0004          6.2504
  -8119980.14343  -6299782.62045  24445775.6484   24445786.1884
         5.5004          5.2504
  -6444183.13641                  25129874.2344
         3.2504
 03 10 29  0 49 30.0000000  0  8G28G 9G 4G24G 7G26G 5G29
  36353611.28846  28709497.85845  22723526.3674   22723532.8364
        13.2504         11.2504
  -9113888.38647  -6617080.83246  21264948.6564   21264953.9534
        22.0004         19.7504
 -10615834.18146  -8216995.90646  21641483.1724   21641488.7154
        19.5004         16.2504
  -8625052.79044  -6387301.13245  24051563.1954   24051575.2234
         7.7504          5.7504
  12250472.66047   9590241.28246  21209209.5314   21209215.1454
        23.0004         21.2504
  29306567.90943  23220708.48345  24676585.0864   24676597.4304
         5.2504          5.0004
  -8134178.48142  -6310845.96644  24443074.0784   24443087.0314
         4.7504          4.7504
  -6277294.61741                  25161630.8754
         3.7504
 03 10 29  0 50  0.0000000  0  8G28G 9G 4G24G 7G26G 5G29
  36497596.44046  28821694.06945  22750925.6724   22750930.9924
        13.5004         11.5004
  -9074469.80247  -6586365.02146  21272449.6094   21272454.6844
        22.2504         19.7504
 -10607294.34047  -8210341.43446  21643108.6484   21643114.4614
        20.0004         16.0004
  -8656558.69343  -6411850.92045  24045566.9304   24045573.8834
         6.7504          5.5004
  12376050.27147   9688093.94746  21233106.1334   21233112.1454
        22.7504         20.7504
  29474625.20943  23351661.99045  24708564.4694   24708576.6254
         5.2504          5.5004
  -8148391.57142  -6321921.05445  24440368.7814   24440384.3364
         4.2504          5.7504
  -6110507.94643                  25193369.3284
         5.0004
 03 10 29  0 50 30.0000000  0  8G28G 9G 4G24G 7G26G 5G29
  36641759.93646  28934029.19845  22778358.9304   22778363.6884
        12.7504         11.0004
  -9034517.29247  -6555233.17146  21280052.2734   21280057.5004
        22.0004         19.5004
 -10598306.41647  -8203337.78846  21644818.9924   21644824.4774
        20.2504         16.0004
  -8688009.12144  -6436357.59945  24039583.1174   24039594.9694
         7.2504          5.5004
  12501837.75747   9786110.15246  21257042.9924   21257048.8634
        22.7504         20.7504
  29642701.61043  23482630.33645  24740549.1414   24740559.8914
         5.5004          5.7504
  -8162613.78842  -6333002.95343  24437663.4844   24437661.0824
         4.5004          3.0004
  -5943821.24143  -6029772.98454  25225089.2424   25225097.3444
         6.2504          4.7504
 03 10 29  0 51  0.0000000  0  8G28G 9G 4G24G 7G26G 5G29
  36786101.78146  29046503.32745  22805825.9224   22805831.9804
        12.7504         11.2504
  -8994028.91147  -6523683.75746  21287756.8674   21287762.1764
        22.0004         19.5004
 -10588867.53647  -8195982.75546  21646614.7584   21646620.2194
        20.5004         16.5004
  -8719401.24844  -6460818.73745  24033608.6644   24033618.5944
         7.5004          6.5004
  12627834.09847   9884289.09246  21281018.9454   21281024.7584
        22.2504         20.7504
  29810794.61343  23613611.78544  24772536.5084   24772545.2664
         5.2504          4.5004
  -8176844.07843  -6344091.50445  24434955.1414   24434967.5084
         5.0004          6.2504
  -5777236.71743  -5899967.25145  25256789.7664   25256806.5514
         5.5004          5.2504
 03 10 29  0 51 30.0000000  0  8G28G 9G 4G24G 7G26G 5G29
  36930623.35746  29159117.44545  22833328.4454   22833335.6334
        13.0004         11.5004
  -8953001.66447  -6491714.45046  21295564.3054   21295569.8364
        22.2504         20.0004
 -10578973.76347  -8188273.26046  21648497.3674   21648503.0044
        20.0004         16.5004
  -8750730.71844  -6485231.00045  24027646.6254   24027660.3404
         7.2504          7.0004
  12754039.29947   9982630.79146  21305035.1724   21305040.8914
        22.2504         20.7504
  29978902.61743  23744604.82145  24804526.0394   24804540.9264
         5.0004          5.5004
  -8191080.05043  -6355184.26845  24432246.8284   24432254.5314
         5.5004          6.2504
  -5610755.64642  -5770242.06744  25288470.5704   25288486.3594
         4.5004          4.5004
 03 10 29  0 52  0.0000000  0  8G28G 9G 4G24G 7G26G 5G29
  37075319.38946  29271867.57645  22860862.8834   22860868.8014
        12.7504         11.5004
  -8911439.12347  -6459328.04246  21303473.3594   21303478.5514
        22.7504         20.0004
 -10568627.66647  -8180211.29346  21650466.1804   21650471.6054
        20.0004         16.5004
  -8781999.73543  -6509596.24345  24021695.8984   24021707.2584
         6.7504          7.2504
  12880446.74347  10081130.07746  21329089.6334   21329095.4574
        22.2504         20.7504
  30147017.59543  23875603.35145  24836516.9454   24836525.8094
         5.2504          5.2504
  -8205326.10443  -6366284.86445  24429535.6484   24429543.1884
         5.7504          6.5004
  -5444385.86742  -5640603.68544  25320130.3364   25320146.2544
         4.5004          4.5004
 03 10 29  0 52 30.0000000  0  8G28G 9G 4G24G 7G26G 5G29
  37220183.03246  29384748.30745  22888429.1174   22888434.1094
        12.5004         11.0004
  -8869346.50247  -6426528.57546  21311483.1644   21311488.4844
        22.2504         19.7504
 -10557833.43947  -8171800.14546  21652519.9454   21652525.6054
        20.0004         16.7504
  -8813212.05143  -6533917.16345  24015755.8284   24015768.6994
         5.5004          7.0004
  13007048.33247  10179780.64946  21353181.0944   21353186.9414
        22.2504         20.5004
  30315129.99243  24006599.71745  24868508.2974   24868518.0274
         5.5004          5.0004
  -8219588.15643  -6377398.04145  24426821.9844   24426832.1024
         6.2504          6.7504
  -5278136.60341                  25351765.6484
         3.2504
 03 10 29  0 53  0.0000000  0  7G28G 9G 4G24G 7G26G 5
  37365219.08546  29497763.33845  22916029.5234   22916036.5594
        12.5004         11.0004
  -8826717.57247  -6393311.20646  21319595.6094   21319600.9884
        22.2504         19.5004
 -10546583.91247  -8163034.21746  21654660.8674   21654666.7504
        20.5004         16.7504
  -8844360.08343  -6558188.06645  24009827.9064   24009836.7584
         5.5004          6.5004
  13133847.53247  10278585.19746  21377310.4384   21377316.0044
        22.5004         20.5004
  30483241.53943  24137595.53345  24900499.3524   24900508.1684
         5.5004          5.5004
  -8233860.44343  -6388519.13745  24424106.2424   24424116.7114
         6.7504          6.2504
 03 10 29  0 53 30.0000000  0  7G28G 9G 4G24G 7G26G 5
  35935006.18846  28383311.71045  22643869.2194   22643874.5164
        12.2504         10.7504
 -10358975.27747  -7587278.23346  21028016.3054   21028021.2034
        22.5004         20.0004
 -12110302.17547  -9381515.90546  21357095.0864   21357101.0164
        20.5004         17.5004
 -10450868.32744  -7810012.31645  23704121.1414   23704128.9024
         7.2504          7.2504
  11685421.05647   9149941.17946  21101683.9304   21101689.4264
        22.7504         20.5004
  29075928.81643  23040988.05245  24632697.7664   24632706.2304
         5.7504          6.0004
  -9823568.33743  -7627252.45345  24121593.1254   24121596.9694
         6.5004          6.2504
 03 10 29  0 54  0.0000000  0  7G28G 9G 4G24G 7G26G 5
  36080379.72946  28496589.77145  22671532.4144   22671538.9884
        12.0004         10.0004
 -10315276.08547  -7553226.89346  21036331.9694   21036337.3954
        22.2504         20.0004
 -12098141.37647  -9372039.88646  21359409.4924   21359414.8594
        21.5004         17.5004
 -10481886.58945  -7834182.12545  23698217.6254   23698230.1454
         8.0004          7.5004
  11812604.13047   9249044.85546  21125886.1884   21125892.0824
        22.2504         20.2504
  29244022.90743  23171970.32744  24664684.4144   24664698.1054
         5.5004          4.5004
  -9837864.85343  -7638392.45245  24118873.6254   24118883.8834
         6.2504          6.2504
 03 10 29  0 54 30.0000000  0  7G28G 9G 4G24G 7G26G 5
  36225921.56845  28609998.95845  22699227.6884   22699233.1254
        11.5004         10.2504
 -10271040.03547  -7518757.22046  21044749.9454   21044755.1724
        22.2504         20.2504
 -12085521.87947  -9362206.45446  21361811.0474   21361816.4024
        21.5004         17.5004
 -10512836.23845  -7858298.41345  23692327.9924   23692339.5514
         8.5004          6.5004
  11939976.70647   9348296.18846  21150124.2814   21150129.6604
        22.0004         20.5004
  29412103.54743  23302941.97845  24696667.6884   24696676.7274
         5.5004          5.2504
  -9852172.70943  -7649541.24845  24116151.0394   24116158.2384
         6.2504          5.5004
 03 10 29  0 55  0.0000000  0  7G28G 9G 4G24G 7G26G 5
  36371634.81945  28723541.70245  22726956.1254   22726961.5164
        11.5004         10.2504
 -10226262.24147  -7483865.41046  21053270.7814   21053275.8794
        22.5004         20.2504
 -12072437.72047  -9352010.94246  21364300.5164   21364306.1884
        21.5004         18.2504
 -10543710.97245  -7882356.49945  23686452.6954   23686462.4734
         8.2504          5.5004
  12067540.72047   9447696.70446  21174398.8914   21174404.8204
        22.0004         20.0004
  29580171.37443  23433903.71445  24728650.8364   24728664.8094
         5.5004          5.0004
  -9866487.74243  -7660695.77945  24113426.0394   24113436.6254
         6.2504          6.0004
 03 10 29  0 55 30.0000000  0  7G28G 9G 4G24G 7G26G 5
  36517510.19845  28837210.79645  22754715.5004   22754722.3204
        11.2504          9.7504
 -10180950.37247  -7448557.44546  21061893.4144   21061898.6054
        22.7504         20.2504
 -12058895.79247  -9341458.71846  21366877.1414   21366882.9774
        21.5004         18.0004
 -10574516.96044  -7906360.94445  23680590.8054   23680598.6024
         7.7504          6.5004
  12195285.76447   9547238.28046  21198708.1094   21198713.8874
        22.2504         20.0004
  29748214.02643  23564845.85045  24760627.6484   24760638.2704
         5.0004          6.2504
  -9880817.70843  -7671861.82845  24110699.1254   24110711.6454
         6.7504          5.0004
 03 10 29  0 56  0.0000000  0  7G28G 9G 4G24G 7G26G 5
  36663550.39845  28951008.30745  22782506.4064   22782512.9924
        11.5004          9.7504
 -10135100.33347  -7412830.12846  21070618.1724   21070623.5984
        22.2504         20.2504
 -12044890.88747  -9330545.74246  21369542.2424   21369547.3164
        21.7504         18.0004
 -10605249.30244  -7930307.94645  23674742.2344   23674748.8794
         7.2504          6.5004
  12323213.07947   9646921.88846  21223051.7344   21223057.3014
        22.0004         20.2504
  29916231.45843  23695768.32945  24792602.1414   24792613.4654
         5.5004          5.0004
  -9895159.05844  -7683036.88045  24107969.5234   24107977.8714
         7.2504          5.7504
 03 10 29  0 56 30.0000000  0  7G28G 9G 4G24G 7G26G 5
  36809753.51645  29064932.75545  22810327.6094   22810332.6724
        11.7504         10.0004
 -10088712.70047  -7376683.89046  21079445.5474   21079451.0204
        22.2504         20.2504
 -12030422.50947  -9319271.63046  21372295.6094   21372301.0474
        21.2504         18.0004
 -10635906.44744  -7954196.33145  23668908.0554   23668918.2424
         7.2504          7.2504
  12451319.33447   9746744.93946  21247429.6334   21247435.3054
        22.0004         20.0004
  30084218.84842  23826667.44845  24824568.1484   24824580.7734
         4.7504          5.5004
  -9909512.98944  -7694221.65145  24105237.9694   24105244.6484
         7.7504          5.2504
 03 10 29  0 57  0.0000000  0  7G28G 9G 4G24G 7G26G 5
  36956116.92346  29178982.11445  22838179.8284   22838185.0664
        12.0004         10.2504
 -10041788.54347  -7340119.58346  21088374.5394   21088379.9654
        22.2504         20.2504
 -12015490.60747  -9307636.32046  21375136.9454   21375142.0434
        21.2504         18.0004
 -10666487.78844  -7978025.68345  23663087.5164   23663098.5004
         7.5004          8.0004
  12579600.82947   9846704.52246  21271840.8364   21271846.3324
        22.0004         20.0004
  30252171.20642  23957539.12644  24856529.7974   24856546.2304
         4.5004          4.7504
  -9923880.76545  -7705417.21745  24102504.6564   24102513.3204
         8.0004          5.7504
 03 10 29  0 57 30.0000000  0  7G28G 9G 4G24G 7G26G 5
  37102645.91246  29293160.53545  22866063.8134   22866068.1724
        12.5004         10.2504
  -9994321.24047  -7303132.06046  21097407.5634   21097412.6134
        23.0004         20.5004
 -12000087.79047  -9295634.05946  21378067.9224   21378072.8794
        21.5004         18.0004
 -10696985.17643  -8001789.65545  23657283.8914   23657293.2814
         6.7504          6.5004
  12708061.67647   9946803.86146  21296286.2114   21296292.2234
        22.0004         19.7504
  30420090.66542  24088385.32944  24888482.7584   24888489.9694
         4.7504          4.7504
  -9938255.93845  -7716618.60245  24099768.8444   24099775.7504
         8.0004          7.0004
 03 10 29  0 58  0.0000000  0  7G28G 9G 4G24G 7G26G 5
  37249333.42446  29407462.42745  22893977.5704   22893983.9694
        12.5004         10.2504
  -9946316.44847  -7265725.71246  21106542.5784   21106547.8754
        22.7504         20.5004
 -11984218.22547  -9283268.10546  21381087.5944   21381093.0084
        21.5004         17.7504
 -10727402.78443  -8025491.54445  23651495.1644   23651505.5634
         6.2504          6.5004
  12836693.63947  10047036.56946  21320764.1484   21320769.5864
        22.0004         20.0004
  30587967.54842  24219198.31445  24920428.1884   24920431.9264
         4.2504          5.2504
  -9952644.50244  -7727830.34045  24097029.9614   24097039.7384
         7.5004          7.5004
 03 10 29  0 58 30.0000000  0  7G28G 9G 4G24G 7G26G 5
  37396176.65846  29521885.67945  22921920.6174   22921926.9104
        12.2504          9.5004
  -9897775.32847  -7227901.44046  21115779.5864   21115785.0824
        22.5004         20.5004
 -11967882.54547  -9270538.94346  21384196.1024   21384201.1764
        21.7504         17.7504
 -10757740.55143  -8049131.17945  23645720.9454   23645732.0594
         5.5004          6.0004
  12965492.65647  10147399.42746  21345273.5474   21345279.0664
        22.0004         20.2504
  30755796.43242                  24952364.6804
         4.0004
  -9967048.06544  -7739053.77245  24094289.6954   24094297.4104
         7.2504          6.7504
 03 10 29  0 59  0.0000000  0  7G28G 9G 4G24G 7G26G 5
  37543172.99446  29636428.28345  22949893.3054   22949898.4264
        12.5004         10.0004
  -9848699.33247  -7189660.38146  21125118.3524   21125123.6724
        23.0004         20.7504
 -11951081.13247  -9257446.87646  21387393.3984   21387398.9774
        22.0004         17.7504
 -10787998.13743  -8072708.28045  23639963.9304   23639974.5634
         5.7504          5.5004
  13094454.67547  10247889.31246  21369814.5314   21369820.2734
        22.0004         19.7504
  30923571.73042                  24984293.2274
         4.7504
  -9981468.32343  -7750290.16645  24091544.9384   24091552.2074
         6.5004          7.0004
 03 10 29  0 59 30.0000000  0  7G28G 9G 4G24G 7G26G 5
  37690325.04245  29751092.19645  22977895.1174   22977901.5984
        11.7504          9.5004
  -9799084.42547  -7150999.39546  21134559.9694   21134565.1254
        23.0004         20.7504
 -11933809.04447  -9243988.05246  21390680.0554   21390685.5984
        21.7504         18.2504
 -10818170.11845  -8096218.66545  23634222.9844   23634234.1684
         8.2504          8.0004
  13223580.99647  10348507.22746  21394386.3984   21394392.1294
        22.0004         20.0004
  31091293.41043                  25016208.5634
         5.0004
  -9995901.70143  -7761536.82545  24088798.7734   24088809.4184
         6.2504          7.0004
 03 10 29  1  0  0.0000000  0  7G28G 9G 4G24G 7G26G 5
  37837631.30346  29865876.22645  23005926.7344   23005932.1844
        12.0004          9.7504
  -9748930.73647  -7111918.58246  21144103.7344   21144108.7384
        22.7504         20.7504
 -11916065.02547  -9230161.47846  21394056.5234   21394062.0204
        21.5004         18.2504
 -10848254.51545  -8119660.84345  23628498.1414   23628507.7544
         9.7504          9.0004
  13352869.34547  10449251.39046  21418989.0234   21418994.7664
        21.7504         19.7504
  31258957.38943                  25048116.2894
         5.0004
 -10010348.47243  -7772793.93545  24086049.2194   24086058.8794
         6.0004          5.2504
 03 10 29  1  0 30.0000000  0  7G28G 9G 4G24G 7G26G 5
  37985090.76645  29980779.66645  23033987.0234   23033992.9064
        11.0004          9.5004
  -9698238.05147  -7072417.76946  21153750.3444   21153755.4774
        23.0004         20.7504
 -11897847.85847  -9215966.23546  21397523.2424   21397528.5744
        21.7504         18.2504
 -10878249.41545  -8143033.33045  23622789.4694   23622799.4694
         9.5004          9.7504
  13482317.15547  10550119.81346  21443622.0474   21443627.8014
        21.7504         19.5004
  31426559.96242                  25080008.8364
         4.5004
 -10024808.18543  -7784061.05745  24083298.0164   24083306.8914
         6.2504          6.0004
 03 10 29  1  1  0.0000000  0  7G28G 9G 4G24G 7G26G 5
  38132702.82045  30095802.03245  23062076.6484   23062082.3674
        11.0004          9.2504
  -9647005.48147  -7032496.26646  21163499.6884   21163504.8094
        22.7504         20.7504
 -11879155.81147  -9201400.93946  21401080.2664   21401085.3524
        21.5004         18.2504
 -10908152.68545  -8166334.38545  23617098.7814   23617110.9264
         8.0004          8.0004
  13611922.82047  10651111.23446  21468285.1334   21468290.6414
        21.5004         19.7504
  31594097.67043                  25111890.7974
         5.7504
 -10039279.91043  -7795337.61545  24080543.4534   24080553.1024
         6.7504          6.2504
 03 10 29  1  1 30.0000000  0  7G28G 9G 4G24G 7G26G 5
  38280458.89745  30210936.61745  23090194.1254   23090199.6684
        11.0004         10.0004
  -9595240.44947  -6992159.85846  21173350.2504   21173355.5824
        22.7504         20.5004
 -11859995.43747  -9186470.70746  21404725.9534   21404731.4264
        21.2504         18.2504
 -10937969.81743  -8189568.27845  23611425.4304   23611436.8364
         6.7504          7.2504
  13741676.35647  10752217.88346  21492976.6024   21492982.4734
        21.5004         19.2504
  31761559.29943  -7348209.99454  25143757.6334   25143765.2664
         5.7504          4.0004
 -10053771.69244  -7806629.77145  24077786.2814   24077797.3244
         7.2504          6.5004
 03 10 29  1  2  0.0000000  0  7G28G 9G 4G24G 7G26G 5
  38428361.25645  30326185.16545  23118338.6804   23118343.6604
        11.0004         10.2504
  -9542939.12247  -6951405.55746  21183302.4064   21183307.7274
        22.7504         21.0004
 -11840361.72847  -9171171.65146  21408462.1644   21408467.7894
        21.2504         18.2504
 -10967695.60644  -8212731.08245  23605768.3674   23605775.8134
         7.2504          6.7504
  13871579.05847  10853440.77246  21517696.3284   21517702.0824
        21.5004         19.5004
  31928944.48843                  25175609.7734
         5.0004
 -10068279.92144  -7817934.80845  24075025.6094   24075035.1764
         7.5004          7.7504
 03 10 29  1  2 30.0000000  0  7G28G 9G 4G24G 7G26G 5
  38576417.41645  30441553.54945  23146512.6564   23146519.8554
        10.0004          9.2504
  -9490093.19447  -6910226.90746  21193358.9064   21193364.1684
        23.2504         20.7504
 -11820245.12447  -9155496.31446  21412290.4224   21412296.1644
        21.2504         18.2504
 -10997319.77844  -8235814.70545  23600130.0864   23600137.6484
         7.7504          7.0004
  14001637.08947  10954784.68846  21542445.2894   21542451.0314
        21.2504         19.2504
  32096258.00043                  25207448.3594
         5.0004
 -10082795.95344  -7829245.84145  24072262.4534   24072270.9654
         7.7504          7.7504
 03 10 29  1  3  0.0000000  0  7G28G 9G 4G24G 7G26G 5
  38724617.01345  30557033.73645  23174714.2034   23174720.8364
        10.0004          9.7504
  -9436711.45747  -6868630.72946  21203517.0004   21203522.1914
        22.7504         20.2504
 -11799653.74047  -9139451.02246  21416208.4924   21416214.1644
        21.5004         18.5004
 -11026849.28744  -8258824.56145  23594511.1174   23594518.8324
         7.7504          7.5004
  14131839.01447  11056240.72146  21567221.7664   21567227.3674
        21.0004         19.2504
  32263486.79243                  25239271.8754
         5.5004
 -10097329.01944  -7840570.14645  24069497.7664   24069509.0434
         7.7504          8.0004
 03 10 29  1  3 30.0000000  0  7G28G 9G 4G24G 7G26G 5
  38872964.45545  30672629.09645  23202943.8914   23202950.3014
         9.7504          9.2504
  -9382788.21947  -6826612.60546  21213778.4454   21213783.6254
        23.2504         20.7504
 -11778580.87747  -9123030.54346  21420218.5784   21420223.9694
        21.7504         18.5004
 -11056277.00943  -8281755.08745  23588910.2974   23588917.6604
         6.7504          7.2504
  14262188.03847  11157811.37446  21592026.5634   21592032.6684
        21.0004         19.0004
  32430632.80043  -7257072.87554  25271077.9224   25271087.8754
         5.0004          4.7504
 -10111873.30744  -7851903.25945  24066728.6804   24066738.1294
         7.5004          8.2504
 03 10 29  1  4  0.0000000  0  7G28G 9G 4G24G 7G26G 5
  37446040.16745  29560740.01545  22931409.4064   22931415.3834
         9.7504          9.0004
 -10903745.01047  -8011773.72446  20924350.0234   20924355.1094
        23.2504         21.0004
 -13332447.96047 -10333836.00946  21124527.5784   21124532.8874
        22.0004         18.7504
 -12661025.37843  -9532208.11445  23283536.7734   23283547.3594
         6.7504          7.2504
  12817263.04147  10031895.80246  21317066.4924   21317071.9184
        21.0004         19.0004
  31022274.50742  -8354495.04045  25003075.8364   25003090.4414
         4.0004          5.5004
 -11701852.60045  -9090848.03945  23764166.8364   23764173.9414
         8.0004          8.0004
 03 10 29  1  4 30.0000000  0  7G28G 9G 4G24G 7G26G 5
  37594676.12545  29676560.22045  22959693.8054   22959699.9104
         9.7504          9.5004
 -10848742.32247  -7968914.47246  20934816.3594   20934821.6684
        23.0004         21.0004
 -13310412.18947 -10316665.21546  21128720.5784   21128725.8164
        22.0004         19.0004
 -12690247.06145  -9554978.09145  23277976.9454   23277986.3714
         8.0004          8.2504
  12947895.98847  10133687.69946  21341925.0704   21341930.7424
        21.0004         18.7504
  31189239.99342                  25034849.0394
         4.0004
 -11716422.47945  -9102201.06345  23761393.7344   23761402.0594
         8.2504          8.2504
 03 10 29  1  5  0.0000000  0  7G28G 9G 4G24G 7G26G 5
  37743453.55845  29792490.63045  22988005.0944   22988011.6804
         9.2504          8.5004
 -10793201.28947  -7925635.72146  20945385.6174   20945390.6564
        23.0004         21.0004
 -13287894.84347 -10299119.16746  21133005.9454   21133011.1374
        22.2504         18.7504
 -12719364.41845  -9577666.80345  23272435.8444   23272446.2304
         9.0004          8.7504
  13078666.29847  10235586.64446  21366810.0784   21366815.6684
        21.0004         18.7504
  31356108.23542                  25066603.8984
         4.5004
 -11731006.27045  -9113564.91545  23758618.4694   23758627.6374
         8.5004          7.7504
 03 10 29  1  5 30.0000000  0  7G28G 9G 4G24G 7G26G 5
  37892373.93945  29908532.45245  23016344.0084   23016350.4654
         9.5004          9.2504
 -10737119.20247  -7881935.38346  20956057.8444   20956062.9414
        23.2504         21.0004
 -13264891.99747 -10281194.81246  21137382.8204   21137388.0124
        22.2504         18.7504
 -12748372.72845  -9600270.51345  23266915.7504   23266925.0004
         9.5004          9.0004
  13209574.24347  10337592.82146  21391720.8594   21391726.6134
        21.0004         18.5004
  31522878.18542                  25098337.9454
         4.0004
 -11745601.04845  -9124937.39645  23755840.9924   23755849.3984
         8.5004          7.7504
 03 10 29  1  6  0.0000000  0  7G28G 9G 4G24G 7G26G 5
  38041432.42845  30024681.92745  23044709.2974   23044715.1454
         9.5004          8.7504
 -10680499.41947  -7837816.05346  20966832.1174   20966837.3444
        23.0004         21.2504
 -13241406.12047 -10262894.06546  21141852.3914   21141857.5234
        22.5004         18.7504
 -12777273.37945  -9622790.32645  23261416.3524   23261425.8834
         9.7504          9.0004
  13340614.15747  10439701.84346  21416656.7274   21416662.3284
        20.7504         18.5004
  31689542.88441                  25130052.8834
         3.0004
 -11760210.54945  -9136321.26045  23753060.3914   23753068.1644
         8.2504          6.5004
 03 10 29  1  6 30.0000000  0  7G28G 9G 4G24G 7G26G 5
  38190632.69145  30140941.79045  23073100.2274   23073108.0474
         9.2504          8.7504
 -10623337.50347  -7793274.26646  20977709.7034   20977714.9304
        23.0004         20.7504
 -13217431.83947 -10244212.74946  21146414.2734   21146419.4414
        23.0004         19.2504
 -12806060.15445  -9645221.39545  23255938.9694   23255945.7894
        10.0004          8.5004
  13471788.29847  10541915.45746  21441618.3984   21441623.6844
        21.0004         18.2504
  31856102.97141                  25161751.3984
         3.7504
 -11774830.07445  -9147712.95645  23750278.6644   23750287.0824
         8.0004          7.2504
 03 10 29  1  7  0.0000000  0  7G28G 9G 4G24G 7G26G 5
  38339968.75445  30257307.54245  23101518.5784   23101525.6604
         9.5004          8.2504
 -10565638.10047  -7748313.66946  20988689.5394   20988694.6604
        23.2504         21.0004
 -13192972.44047 -10225153.41646  21151068.4454   21151073.7774
        22.2504         19.2504
 -12834735.51545  -9667565.67845  23250481.9774   23250490.3594
        10.0004          9.0004
  13603089.63147  10644228.18246  21466604.5474   21466610.3954
        20.7504         18.5004
  32022549.93042                  25193423.0004
         4.2504
 -11789463.78344  -9159115.73345  23747494.1564   23747502.0824
         7.5004          7.0004
 03 10 29  1  7 30.0000000  0  7G28G 9G 4G24G 7G26G 5
  38489440.52845  30373779.01145  23129962.5164   23129967.9654
         9.7504          8.7504
 -10507400.39647  -7702933.61946  20999771.5164   20999776.5664
        23.0004         20.7504
 -13168026.29747 -10205714.80646  21155815.4384   21155820.6174
        22.7504         19.0004
 -12863297.11845  -9689821.31945  23245045.2894   23245052.7344
         8.2504          9.0004
  13734517.17847  10746639.26246  21491614.3364   21491619.9024
        21.0004         18.5004
  32188881.24942  -8532732.67554  25225075.4694   25225086.4414
         4.0004          4.2504
 -11804110.55444  -9170528.64045  23744706.1174   23744713.9144
         7.2504          7.2504
 03 10 29  1  8  0.0000000  0  7G28G 9G 4G24G 7G26G 5
  38639044.01745  30490353.13245  23158430.9924   23158436.6174
        10.5004          8.7504
 -10448627.28447  -7657136.35746  21010955.9144   21010961.0124
        23.0004         20.7504
 -13142595.08247 -10185898.20446  21160654.8524   21160659.8094
        23.0004         19.2504
 -12891745.61045  -9711988.79345  23239632.1174   23239638.9384
         9.0004          8.5004
  13866065.91247  10849144.77146  21516647.1254   21516652.5744
        20.5004         18.7504
  32355090.40741  -8403219.34244  25256704.8754   25256718.1094
         3.7504          4.2504
 -11818773.03444  -9181953.78445  23741915.6094   23741925.2464
         7.5004          7.5004
 03 10 29  1  8 30.0000000  0  7G28G 9G 4G24G 7G26G 5
  38788780.90345  30607031.21345  23186924.9064   23186930.5314
        10.7504          7.7504
 -10389316.05447  -7610919.79146  21022242.5784   21022247.5944
        23.2504         20.7504
 -13116675.27447 -10165700.88446  21165587.3444   21165592.4304
        23.2504         19.5004
 -12920076.27245  -9734064.46645  23234241.6804   23234248.8674
         9.7504          8.7504
  13997736.26747  10951745.05646  21541703.0164   21541708.6294
        20.2504         18.2504
  32521176.29542  -8273802.12343  25288309.8134   25288308.8524
         4.0004          3.0004
 -11833448.68745  -9193389.16945  23739123.5084   23739131.5744
         8.0004          7.5004
 03 10 29  1  9  0.0000000  0  7G28G 9G 4G24G 7G26G 5
  38938645.50345  30723808.81645  23215443.1334   23215448.3714
        10.7504          9.2504
 -10329471.22347  -7564287.42346  21033630.6254   21033635.5824
        23.2504         21.2504
 -13090270.17047 -10145125.41546  21170612.1954   21170617.0474
        23.2504         19.7504
 -12948291.82045  -9756050.43145  23228871.7664   23228878.8364
         9.0004          8.0004
  14129521.47547  11054434.82546  21566780.8984   21566786.6644
        20.2504         18.2504
  32687131.03743  -8144486.84043  25319892.2034   25319902.2854
         5.5004          3.0004
 -11848141.30745  -9204837.85945  23736327.4694   23736335.5474
         8.2504          8.2504
 03 10 29  1  9 30.0000000  0  7G28G 9G 4G24G 7G26G 5
  39088647.02645  30840693.09045  23243987.2034   23243992.9344
        10.7504          8.2504
 -10269082.78647  -7517231.46746  21045121.7584   21045126.6914
        23.2504         21.2504
 -13063368.81447 -10124163.25546  21175731.1804   21175736.1724
        23.7504         19.7504
 -12976380.07644  -9777937.23445  23223525.5004   23223533.1914
         7.7504          8.2504
  14261429.74247  11157220.49546  21591882.0474   21591887.6374
        20.0004         18.2504
  32852961.06642  -8015268.80645  25351446.6414   25351459.3484
         4.7504          5.5004
 -11862840.55345  -9216291.61345  23733530.0554   23733538.0634
         8.5004          7.5004
 03 10 29  1 10  0.0000000  0  7G28G 9G 4G24G 7G26G 5
  39238782.25445  30957681.55845  23272557.0554   23272563.4064
        10.2504          9.2504
 -10208152.91347  -7469753.61246  21056716.3364   21056721.3404
        23.2504         21.0004
 -13035971.98147 -10102815.02046  21180944.7584   21180949.6094
        23.7504         20.2504
 -13004340.88345  -9799724.71545  23218204.7584   23218212.0744
         8.0004          7.5004
  14393456.93047  11260098.82646  21617006.1804   21617012.0394
        20.0004         18.2504
  33018660.96642  -7886152.16943  25382979.8834   25382991.1254
         4.0004          3.0004
 -11877548.14145  -9227751.92645  23730730.8594   23730737.6454
         8.0004          5.7504
 03 10 29  1 10 30.0000000  0  7G28G 9G 4G24G 7G26G 5
  39389048.40545  31074772.05745  23301151.8524   23301156.7274
        10.0004          8.7504
 -10146683.48247  -7421855.32446  21068413.5084   21068418.3014
        23.0004         20.7504
 -13008080.69447 -10081081.47946  21186252.0474   21186257.2384
        23.7504         20.0004
 -13032174.17945  -9821412.86945  23212909.4384   23212915.0394
         9.2504          8.0004
  14525599.11147  11363066.77046  21642152.1484   21642158.0084
        20.2504         18.0004
  33184225.40941  -7757141.37343  25414483.3834   25414493.5594
         3.7504          3.0004
 -11892265.51844  -9239219.88845  23727930.3984   23727938.2894
         7.7504          7.5004
 03 10 29  1 11  0.0000000  0  7G28G 9G 4G24G 7G26G 5
  39539438.60945  31191959.21945  23329769.9384   23329775.9964
         9.7504          8.2504
 -10084680.59547  -7373541.35246  21080212.2814   21080217.2384
        23.2504         21.2504
 -12979700.00247 -10058966.59246  21191652.9064   21191658.0044
        23.7504         20.2504
 -13059883.95845  -9843004.76745  23207635.7814   23207642.6134
         9.2504          8.7504
  14657848.33647  11466118.12246  21667318.4224   21667323.8014
        20.2504         18.0004
  33349644.93742                  25445964.9844
         4.5004
 -11906998.05544  -9250699.61745  23725126.2504   23725134.3874
         7.7504          7.5004
 03 10 29  1 11 30.0000000  0  7G28G 9G 4G24G 7G26G 5
  39689951.99245  31309242.31545  23358411.8984   23358419.2154
         9.5004          8.5004
 -10022143.56747  -7324811.17146  21092112.6644   21092117.7504
        23.2504         21.2504
 -12950828.30147 -10036469.09646  21197146.7584   21197151.5984
        23.5004         20.2504
 -13087467.37645  -9864498.17245  23202385.7114   23202394.3054
         9.2504          8.7504
  14790203.16947  11569251.76846  21692504.4694   21692510.3524
        20.2504         18.0004
  33514916.40542                  25477415.6564
         4.7504
 -11921745.15145  -9262190.69145  23722319.8134   23722327.2114
         8.0004          8.0004
 03 10 29  1 12  0.0000000  0  7G28G 9G 4G24G 7G26G 5
  39840597.71745  31426628.62645  23387078.9534   23387086.9734
         9.0004          8.2504
  -9959062.98047  -7275657.43446  21104116.5004   21104121.4224
        23.5004         21.2504
 -12921454.96447 -10013580.71646  21202736.1024   21202741.2464
        23.5004         20.2504
 -13114912.94045  -9885884.16245  23197163.3914   23197172.2664
         9.7504          9.2504
  14922671.15647  11672473.58046  21717712.3984   21717718.1054
        20.2504         17.7504
  33680046.16241                  25508839.6954
         3.7504
 -11936496.94045  -9273685.41045  23719513.0704   23719520.4924
         8.5004          8.2504
 03 10 29  1 12 30.0000000  0  7G28G 9G 4G24G 7G26G 5
  39991372.53045  31544115.46045  23415769.9844   23415776.0904
         9.0004          7.7504
  -9895441.10247  -7226081.91046  21116223.3834   21116228.3524
        23.0004         21.0004
 -12891581.03847  -9990302.27846  21208420.7114   21208425.8914
        23.2504         20.2504
 -13142220.76145  -9907162.82545  23191967.3834   23191977.3364
        10.7504          9.5004
  15055248.35447  11775780.49746  21742941.0004   21742946.9654
        20.0004         17.5004
  33845028.79441                  25540234.4924
         3.5004
 -11951254.43945  -9285184.62445  23716704.1254   23716712.7424
         9.0004          9.0004
 03 10 29  1 13  0.0000000  0  7G28G 9G 4G24G 7G26G 5
  40142276.48245  31661702.85645  23444486.1804   23444492.7194
         8.0004          8.0004
  -9831276.97247  -7176083.86546  21128433.3364   21128438.3754
        23.2504         21.0004
 -12861204.47147  -9966632.15946  21214201.2814   21214206.3204
        23.5004         20.5004
 -13169387.57145  -9928331.67145  23186797.7974   23186804.9144
        11.2504          9.0004
  15187933.75646  11879171.69446  21768189.9384   21768195.7504
        19.7504         17.5004
  34009861.83342                  25571601.0864
         4.0004
 -11966016.25245  -9296687.16345  23713895.9144   23713903.9694
         9.5004          9.0004
 03 10 29  1 13 30.0000000  0  7G28G 9G 4G24G 7G26G 5
  40293306.27745  31779388.40545  23473227.5234   23473232.9734
         8.5004          7.7504
  -9766573.14747  -7125665.26946  21140745.9614   21140750.6254
        23.2504         21.2504
 -12830327.06847  -9942571.78246  21220076.9694   21220081.9844
        23.5004         20.5004
 -13196413.54345  -9949390.69345  23181653.9224   23181661.3444
        10.0004          9.2504
  15320723.10546  11982643.93346  21793459.0314   21793464.7854
        19.5004         17.5004
  34174539.59642                  25602936.8984
         4.2504
 -11980784.35845  -9308194.65945  23711084.6884   23711093.0594
         9.5004          8.2504
 03 10 29  1 14  0.0000000  0  7G28G 9G 4G24G 7G26G 5
  40444460.01944  31897170.46845  23501989.9694   23501996.0634
         7.5004          7.2504
  -9701330.50347  -7074826.81946  21153161.4384   21153166.4534
        23.2504         21.2504
 -12798948.44147  -9918120.83846  21226048.1484   21226052.8364
        23.7504         20.5004
 -13223297.69545  -9970339.17745  23176537.9454   23176548.5664
         9.0004          8.7504
  15453613.65546  12086195.01946  21818747.0944   21818752.6954
        19.5004         17.2504
  34339057.79342                  25634243.0704
         4.0004
 -11995559.15345  -9319707.34645  23708273.2504   23708280.4614
         8.7504          8.0004
 03 10 29  1 14 30.0000000  0  7G28G 9G 4G24G 7G26G 5
  39020324.24145  30787454.27645  23230986.2424   23230991.4574
         8.7504          8.0004
 -11210964.53147  -8251164.99146  20865887.3754   20865892.3204
        23.0004         21.2504
 -14342484.26847 -11120875.96646  20932323.1414   20932328.0514
        23.7504         20.5004
 -14825455.84845 -11218773.93545  22871657.4454   22871665.6414
         9.2504          9.2504
  14011190.24346  10962228.72246  21544263.5554   21544269.4734
        19.5004         17.0004
 -12510249.87551                  25365730.1644
         3.2504
 -13585758.22945 -10558823.37045  23405667.7664   23405678.3164
         8.2504          7.7504
 03 10 29  1 15  0.0000000  0  7G28G 9G 4G24G 7G26G 5
  39171731.09844  30905433.54845  23259797.4534   23259805.5904
         7.7504          7.0004
 -11144636.97347  -8199481.15846  20878509.2584   20878514.3554
        23.2504         21.2504
 -14310092.48047 -11095635.54546  20938486.9844   20938491.7074
        23.7504         20.7504
 -14852041.19645 -11239489.62445  22866598.0864   22866606.0234
         9.7504          9.2504
  14144285.33046  11065939.16446  21569590.7344   21569596.4774
        19.5004         17.2504
 -12346052.51241                  25396972.7504
         2.7504
 -13600536.84445 -10570339.08245  23402855.9454   23402864.4224
         8.7504          8.0004
 03 10 29  1 15 30.0000000  0  7G28G 9G 4G24G 7G26G 5
  39323257.26745  31023505.93445  23288632.7974   23288638.5744
         9.0004          8.0004
 -11077773.10447  -8147379.40846  20891232.7734   20891237.7774
        23.0004         21.2504
 -14277198.73247 -11070003.99546  20944745.9614   20944750.9184
        23.2504         20.5004
 -14878479.93945 -11260091.10145  22861567.7894   22861575.7854
        10.5004         10.0004
  14277474.21046  11169722.69546  21594935.4614   21594940.9104
        19.5004         17.2504
 -12182026.45842                  25428188.3674
         4.5004
 -13615322.19545 -10581859.96945  23400042.7194   23400051.1134
         9.5004          9.0004
 03 10 29  1 16  0.0000000  0  7G28G 9G 4G24G 7G26G 5
  39474895.85544  31141665.82045  23317487.8594   23317493.0514
         7.7504          7.5004
 -11010379.13247  -8094864.59446  20904057.4064   20904062.4924
        23.0004         21.2504
 -14243807.97047 -11043985.16046  20951100.5004   20951105.2934
        23.7504         20.5004
 -14904776.45945 -11280581.73345  22856563.8914   22856573.1294
        10.7504         10.2504
  14410748.90046  11273573.09746  21620296.8674   21620302.2344
        19.5004         17.2504
 -12018181.02942  -9782518.02554  25459367.2274   25459382.5824
         4.7504          4.2504
 -13630119.69445 -10593390.40345  23397226.3284   23397234.3834
         9.2504          9.2504
 03 10 29  1 16 30.0000000  0  7G28G 9G 4G24G 7G26G 5
  39626652.61945  31259917.86445  23346366.3984   23346371.5204
         8.2504          7.5004
 -10942448.51047  -8041931.61246  20916983.9774   20916989.1914
        23.0004         21.0004
 -14209912.76947 -11017573.24446  20957550.5394   20957555.2034
        24.0004         21.2504
 -14930921.47345 -11300954.28845  22851587.5784   22851596.0664
         9.5004         10.2504
  14544114.14446  11377494.05746  21645675.4454   21645680.5084
        19.2504         17.2504
 -11854512.63541  -9654984.44145  25490511.8524   25490524.7464
         3.7504          5.2504
 -13644922.48545 -10604924.88745  23394409.8054   23394417.6374
         8.5004          9.2504
 03 10 29  1 17  0.0000000  0  7G28G 9G 4G24G 7G26G 5
  39778528.53045  31378262.64945  23375267.9454   23375274.6374
         8.0004          7.7504
 -10873979.51547  -7988579.11846  20930013.4224   20930018.4614
        23.2504         21.2504
 -14175510.36147 -10990766.11546  20964096.9064   20964101.8054
        23.5004         20.7504
 -14956910.79645 -11321205.54645  22846642.7584   22846650.2154
        10.7504         10.0004
  14677570.18446  11481485.76446  21671071.1484   21671076.7274
        19.2504         16.7504
 -11691022.80041  -9527589.97644  25521622.4844   25521640.9804
         2.7504          4.5004
 -13659727.38844 -10616461.03145  23391592.1414   23391600.9924
         7.7504          8.2504
 03 10 29  1 17 30.0000000  0  7G28G 9G 4G24G 7G26G 5
  39930522.93345  31496699.80645  23404191.1884   23404198.4224
         8.0004          8.5004
 -10804972.11247  -7934807.09046  20943145.1334   20943149.9024
        23.2504         21.5004
 -14140599.62347 -10963562.87946  20970740.4924   20970745.3554
        23.7504         20.5004
 -14982741.93445 -11341333.56745  22841726.5474   22841733.9104
        11.0004         10.0004
  14811115.43546  11585546.99046  21696484.2034   21696489.8164
        19.2504         16.7504
                                  25552700.2424
         2.7504
 -13674533.76545 -10627998.39345  23388774.2584   23388782.0664
         8.0004          8.5004
 03 10 29  1 18  0.0000000  0  6G28G 9G 4G24G 7G 5
  40082628.86945  31615223.88445  23433136.2664   23433143.3484
         8.0004          8.2504
 -10735432.58347  -7880620.40846  20956378.2194   20956383.5164
        23.0004         21.2504
 -14105185.69147 -10935967.55246  20977479.0474   20977483.9804
        23.5004         20.7504
 -15008418.90145 -11361341.43745  22836840.3444   22836848.3164
        11.0004         10.2504
  14944742.19346  11689671.72546  21721912.6564   21721918.1644
        19.2504         16.7504
 -13689347.63945 -10639541.54445  23385954.7424   23385962.4574
         8.2504          8.2504
 03 10 29  1 18 30.0000000  0  6G28G 9G 4G24G 7G 5
  40234849.50145  31733837.29745  23462102.8754   23462108.6054
         9.0004          8.5004
 -10665357.15447  -7826016.15246  20969713.1174   20969718.0274
        23.2504         21.2504
 -14069263.69547 -10907976.31346  20984314.8444   20984319.5904
        23.7504         21.0004
 -15033935.53945 -11381224.41145  22831984.5004   22831993.0944
        10.5004          9.5004
  15078452.73346  11793861.74346  21747356.5784   21747362.2504
        19.2504         16.7504
 -13704163.21045 -10651086.04945  23383135.7814   23383145.3834
         9.0004          8.5004
 03 10 29  1 19  0.0000000  0  6G28G 9G 4G24G 7G 5
  40387194.97845  31852548.09245  23491093.0944   23491097.4414
         8.5004          8.0004
 -10594735.22347  -7770986.05746  20983152.1334   20983157.1374
        23.2504         21.2504
 -14032821.78447 -10879579.96746  20991249.4064   20991254.1054
        23.5004         20.7504
 -15059278.50945 -11400972.02645  22827160.9534   22827168.9844
         9.5004          9.7504
  15212256.34546  11898124.29346  21772818.8754   21772824.5824
        19.2504         17.0004
 -13718969.04245 -10662622.97445  23380318.5084   23380325.9414
         9.2504          9.2504
 03 10 29  1 19 30.0000000  0  6G28G 9G 4G24G 7G 5
  40539650.48345  31971344.51245  23520105.3754   23520111.0004
         9.5004          9.0004
 -10523580.76947  -7715540.99646  20996691.9304   20996697.0394
        23.0004         21.5004
 -13995873.13847 -10850788.75246  20998280.4614   20998285.3954
        23.5004         21.0004
 -15084459.47445 -11420593.37445  22822370.1724   22822377.4654
        11.5004          9.7504
  15346137.19246  12002447.01046  21798295.4064   21798301.6054
        19.0004         16.7504
 -13733778.15245 -10674162.47845  23377500.2034   23377507.1684
         9.2504          8.5004
 03 10 29  1 20  0.0000000  0  6G28G 9G 4G24G 7G 5
  40692218.42245  32090228.59245  23549137.1724   23549141.7894
        10.0004          8.2504
 -10451890.97247  -7659678.78946  21010334.1024   21010339.0824
        23.0004         21.2504
 -13958413.80947 -10821599.60346  21005408.6024   21005413.3834
        23.5004         20.7504
 -15109473.16445 -11440084.43745  22817610.2974   22817617.7194
        11.0004         10.5004
  15480097.03046  12106831.31146  21823787.3134   21823792.8444
        18.7504         16.7504
 -13748587.34245 -10685702.03645  23374681.5864   23374689.0434
         8.7504          8.2504
 03 10 29  1 20 30.0000000  0  6G28G 9G 4G24G 7G 5
  40844897.05345  32209198.98645  23578191.1564   23578197.2624
         8.7504          7.2504
 -10379667.19747  -7603400.49946  21024077.8444   21024083.0004
        23.0004         21.5004
 -13920443.90747 -10792012.60246  21012634.2274   21012639.2074
        23.7504         21.0004
 -15134318.26945 -11459444.11945  22812881.0004   22812889.4534
         9.7504          9.5004
  15614133.09546  12211274.99246  21849293.4844   21849299.3324
        18.5004         16.5004
 -13763396.21345 -10697241.34545  23371864.4224   23371872.0314
         9.2504          8.2504
 03 10 29  1 21  0.0000000  0  6G28G 9G 4G24G 7G 5
  40997690.77045  32328258.96145  23607266.9534   23607272.2034
         9.7504          8.0004
 -10306904.45847  -7546702.23346  21037924.0864   21037929.0904
        23.0004         21.5004
 -13881957.46847 -10762023.12046  21019957.6094   21019962.2504
        23.2504         20.7504
 -15158987.30545 -11478666.56545  22808187.6414   22808195.7894
        11.2504         10.0004
  15748249.02846  12315780.92946  21874814.5554   21874820.2034
        18.2504         16.5004
 -13778198.85245 -10708775.75745  23369047.2194   23369055.2624
         9.7504          9.0004
 03 10 29  1 21 30.0000000  0  6G28G 9G 4G24G 7G 5
  41150596.74945  32447406.45745  23636364.5394   23636369.2274
         9.2504          7.5004
 -10233604.97447  -7489585.72946  21051872.6484   21051877.6174
        23.2504         21.7504
 -13842955.56647 -10731631.97346  21027379.4774   21027383.8594
        23.5004         21.0004
 -15183479.72045 -11497751.43045  22803525.7664   22803534.0084
        11.7504         11.0004
  15882441.22446  12420346.27746  21900350.4304   21900356.0904
        18.2504         16.2504
 -13792996.23445 -10720306.09745  23366231.5784   23366240.7584
        10.0004          9.5004
 03 10 29  1 22  0.0000000  0  6G28G 9G 4G24G 7G 5
  41303615.07043  32566641.48544  23665481.5164   23665482.8524
         6.5004          4.5004
 -10159767.97647  -7432050.38446  21065923.1954   21065928.1524
        23.2504         21.5004
 -13803436.41647 -10700837.77946  21034899.8204   21034904.8134
        23.5004         20.7504
 -15207792.53546 -11516696.32345  22798901.1564   22798909.0474
        13.5004         11.0004
  16016709.22846  12524970.69646  21925901.1334   21925906.6644
        18.2504         16.2504
 -13807786.40245 -10731830.83845  23363416.8364   23363424.6454
        10.0004          9.2504
 03 10 29  1 22 30.0000000  0  6G28G 9G 4G24G 7G 5
  41456735.99445  32685956.48845  23694620.0704   23694626.7154
         8.2504          6.5004
 -10085403.21847  -7374103.80146  21080074.4534   21080079.4104
        23.5004         21.7504
 -13763408.45847 -10669647.10646  21042516.9844   21042522.0354
        23.7504         21.0004
 -15231932.64045 -11535506.67545  22794305.1564   22794312.5554
        10.7504         10.2504
  16151042.13246  12629645.69446  21951463.9064   21951469.6484
        18.2504         16.2504
 -13822577.82545 -10743356.52845  23360602.2424   23360608.8874
         9.7504          9.2504
 03 10 29  1 23  0.0000000  0  6G28G 9G 4G24G 7G 5
  41609965.11044  32805355.81945  23723778.7274   23723784.2934
         7.2504          5.7504
 -10010504.35147  -7315741.03346  21094327.3674   21094332.0554
        23.5004         21.5004
 -13722864.34747 -10638054.25146  21050231.9614   21050236.4844
        23.5004         21.2504
 -15255890.67045 -11554175.10545  22789747.2504   22789755.0594
        11.7504         10.0004
  16285444.90446  12734375.13746  21977039.5784   21977044.4884
        18.0004         16.0004
 -13837363.29145 -10754877.54945  23357788.0164   23357795.2384
         9.5004          9.0004
 03 10 29  1 23 30.0000000  0  6G28G 9G 4G24G 7G 5
  41763305.01743  32924841.47745  23752958.1094   23752966.0824
         5.2504          5.0004
  -9935068.32847  -7256959.70146  21108682.1414   21108687.1094
        23.5004         21.7504
 -13681800.09147 -10606056.07646  21058046.2504   21058050.6684
        23.5004         21.0004
 -15279661.28946 -11572697.51945  22785223.3984   22785228.6254
        12.5004         11.0004
  16419919.47746  12839160.52846  22002629.3674   22002634.8754
        18.0004         16.2504
 -13852138.01845 -10766390.23845  23354977.3674   23354985.0004
         9.5004          9.5004
 03 10 29  1 24  0.0000000  0  6G28G 9G 4G24G 7G 5
  41916745.82543  33044405.66345  23782157.7664   23782160.0634
         6.2504          5.2504
  -9859105.01347  -7197767.49146  21123137.3674   21123142.3244
        23.2504         21.5004
 -13640224.20247 -10573659.22746  21065957.7734   21065962.8954
        23.5004         21.0004
 -15303251.48445 -11591079.35545  22780734.0474   22780741.4574
        11.7504         10.7504
  16554455.01146  12943993.41546  22028230.7504   22028236.0474
        17.7504         15.7504
 -13866910.58445 -10777901.21245  23352165.4694   23352172.3874
        10.0004         10.0004
 03 10 29  1 24 30.0000000  0  6G28G 9G 4G24G 7G 5
  42070283.20743  33164045.23745  23811373.9534   23811376.4844
         6.2504          6.2504
  -9782618.15647  -7138167.32746  21137692.5084   21137697.5004
        23.2504         21.7504
 -13598139.49347 -10540865.90046  21073966.4844   21073971.1954
        23.7504         21.2504
 -15326662.42945 -11609321.48445  22776279.3444   22776286.5204
        11.7504         11.0004
  16689046.57446  13048869.97046  22053842.4844   22053848.0984
        17.7504         15.7504
 -13881683.25645 -10789412.26045  23349354.6094   23349364.0124
        10.2504         10.2504
 03 10 29  1 25  0.0000000  0  6G28G 9G 4G24G 7G 5
  40648500.08143  32056162.24345  23540817.6564   23540824.4304
         6.0004          6.2504
 -11281026.96147  -8305758.58746  20852554.8524   20852559.7734
        23.2504         21.7504
 -15130965.04247 -11735275.36646  20782279.2194   20782283.9414
        23.7504         21.2504
 -16925314.14446 -12855023.95245  22472065.6094   22472073.3954
        12.2504         10.7504
  15248275.68546  11926191.37446  21779672.9614   21779678.2584
        17.7504         15.7504
 -15471877.11045 -12028524.23845  23046750.0234   23046758.0904
        10.0004          9.7504
 03 10 29  1 25 30.0000000  0  6G28G 9G 4G24G 7G 5
  40802237.30343  32175957.47545  23570073.5084   23570078.9574
         6.2504          6.2504
 -11203485.20147  -8245336.42246  20867310.4924   20867315.3444
        23.2504         21.5004
 -15087851.52747 -11701680.37746  20790483.4224   20790487.9454
        23.7504         21.5004
 -16948350.56246 -12872974.27146  22467682.3674   22467689.6134
        12.5004         12.0004
  15382983.80246  12031158.75746  21805307.2034   21805312.8984
        17.5004         15.5004
 -15486638.77345 -12040026.69445  23043940.8524   23043950.0434
         9.2504          9.7504
 03 10 29  1 26  0.0000000  0  6G28G 9G 4G24G 7G 5
  40956068.89845  32295826.16945  23599346.8204   23599351.3204
         8.5004          7.5004
 -11125420.80147  -8184507.01546  20882165.4774   20882170.4344
        23.0004         21.5004
 -15044226.90847 -11667687.12346  20798784.8754   20798789.6804
        24.0004         21.5004
 -16971200.63046 -12890779.38445  22463333.3204   22463341.0594
        12.2504         11.0004
  15517743.62246  12136166.41846  21830951.0474   21830956.3204
        17.5004         15.5004
 -15501397.10245 -12051526.56945  23041132.5474   23041141.0124
         9.5004         10.2504
 03 10 29  1 26 30.0000000  0  6G28G 9G 4G24G 7G 5
  41109990.58045  32415765.13545  23628636.9614   23628644.0904
         8.2504          7.7504
 -11046838.02647  -8123273.66546  20897119.3134   20897123.9304
        23.0004         21.5004
 -15000093.96947 -11633297.76246  20807183.1724   20807187.7774
        24.5004         21.5004
 -16993865.54746 -12908440.20546  22459020.7664   22459029.1604
        13.0004         12.0004
  15652550.31446  12241210.61846  21856603.7194   21856609.2384
        17.5004         15.0004
 -15516154.72845 -12063025.87845  23038323.7034   23038331.8284
        10.2504          9.7504
 03 10 29  1 27  0.0000000  0  6G28G 9G 4G24G 7G 5
  41264009.62045  32535780.03345  23657945.7114   23657950.8204
         8.0004          7.0004
 -10967729.42247  -8061630.58946  20912173.1254   20912177.9414
        23.0004         21.5004
 -14955444.39947 -11598505.84246  20815679.7664   20815684.0664
        24.5004         21.7504
 -17016335.11546 -12925948.81146  22454745.2584   22454753.2664
        13.5004         12.5004
  15787410.06846  12346296.15646  21882266.5474   21882272.0554
        17.2504         15.2504
 -15530903.32045 -12074518.15345  23035517.9774   23035525.8204
        11.0004         10.7504
 03 10 29  1 27 30.0000000  0  6G28G 9G 4G24G 7G 5
  41418121.30545  32655867.03645  23687272.5004   23687277.2814
         8.2504          9.2504
 -10888099.40047  -7999581.21246  20927326.2424   20927331.0824
        23.2504         21.5004
 -14910281.63347 -11563314.02446  20824273.8204   20824278.3794
        24.2504         21.7504
 -17038611.02446 -12943306.52845  22450505.3594   22450513.3914
        12.7504         11.7504
  15922317.71946  12451419.03246  21907938.8754   21907944.0664
        17.2504         15.2504
 -15545645.79945 -12086005.63745  23032712.0864   23032719.0864
        10.7504         10.5004
 03 10 29  1 28  0.0000000  0  6G28G 9G 4G24G 7G 5
  41572326.53045  32776026.88745  23716617.0474   23716623.8554
         9.0004          9.0004
 -10807946.58347  -7937124.46946  20942578.7894   20942583.6294
        22.7504         21.2504
 -14864603.08347 -11527720.29246  20832965.9384   20832970.5314
        24.5004         22.0004
 -17060688.68746 -12960509.75245  22446304.0474   22446312.1134
        12.5004         11.5004
  16057273.63646  12556579.51046  21933619.8284   21933625.2774
        17.2504         15.5004
 -15560378.73645 -12097485.69845  23029908.2584   23029915.9024
        10.5004          9.7504
 03 10 29  1 28 30.0000000  0  6G28G 9G 4G24G 7G 5
  41726620.96845  32896256.30845  23745977.8364   23745985.0824
         9.2504          8.5004
 -10727275.12047  -7874263.57346  20957930.2424   20957935.1764
        23.0004         21.5004
 -14818412.01047 -11491727.19546  20841755.9304   20841760.3244
        24.5004         21.7504
 -17082569.67246 -12977559.72746  22442140.7274   22442148.2304
        13.2504         12.0004
  16192272.76346  12661773.65446  21959309.5944   21959314.8204
        17.0004         15.0004
 -15575104.98945 -12108960.53745  23027105.9304   23027113.3984
        10.7504         10.0004
 03 10 29  1 29  0.0000000  0  6G28G 9G 4G24G 7G 5
  41881002.70643  33016553.77845  23775355.6644   23775361.8524
         6.2504          5.7504
 -10646086.80647  -7810999.94146  20973379.9774   20973384.8754
        23.0004         21.5004
 -14771709.02547 -11455335.19946  20850643.1564   20850647.8444
        24.5004         21.7504
 -17104252.84646 -12994455.57846  22438013.8054   22438021.1564
        12.7504         12.2504
  16327312.47346  12766999.42246  21985006.7194   21985012.0274
        17.0004         15.2504
 -15589824.58845 -12120430.22645  23024304.5554   23024311.1054
        10.5004          9.5004
 03 10 29  1 29 30.0000000  0  6G28G 9G 4G24G 7G 5
  42035475.47443  33136922.16744  23804751.2814   23804755.1724
         6.2504          4.7504
 -10564377.85847  -7747330.62046  20988928.5004   20988933.3634
        23.2504         21.7504
 -14724489.03747 -11418540.35946  20859628.4924   20859633.1454
        24.2504         22.0004
 -17125731.58646 -13011192.10445  22433926.4454   22433933.9844
        12.2504         11.5004
  16462396.03846  12872259.37046  22010712.2114   22010717.8714
        16.7504         15.0004
 -15604531.66145 -12131890.12645  23021505.9224   23021512.4614
        10.2504          8.7504
 03 10 29  1 30  0.0000000  0  6G28G 9G 4G24G 7G 5
  42190045.34145  33257366.22545  23834164.9924   23834170.7704
         9.0004          8.7504
 -10482141.90047  -7683250.64946  21004577.4304   21004582.2464
        23.0004         21.5004
 -14676744.67847 -11381336.91346  20868714.0314   20868718.4144
        24.2504         22.0004
 -17146996.66946 -13027762.15346  22429880.3984   22429887.4344
        13.5004         12.0004
  16597528.68146  12977557.53146  22036427.0474   22036432.2974
        16.5004         14.5004
 -15619218.52645 -12143334.29245  23018710.7894   23018716.6844
        10.0004         10.0004
 03 10 29  1 30 30.0000000  0  6G28G 9G 4G24G 7G 5
  42344706.97643  33377881.72545  23863595.3834   23863601.6524
         6.7504          8.0004
 -10399384.31347  -7618764.20446  21020325.9224   21020330.7034
        23.2504         21.5004
 -14628480.29747 -11343728.25146  20877898.5084   20877903.3244
        24.2504         22.0004
 -17168050.24246 -13044167.42046  22425873.4614   22425879.8364
        14.0004         12.2504
  16732704.55546  13082889.39146  22062150.0634   22062155.6764
        16.2504         14.7504
 -15633888.94845 -12154765.68545  23015918.5314   23015926.3404
         9.7504          9.7504
 03 10 29  1 31  0.0000000  0  6G28G 9G 4G24G 7G 5
  42499448.57741  33498459.40144  23893039.4614   23893047.4344
         2.2504          4.0004
 -10316116.82047  -7553880.43646  21036170.8364   21036175.7114
        22.7504         21.2504
 -14579706.57147 -11305722.71346  20887179.7974   20887184.3324
        24.5004         22.0004
 -17188901.33246 -13060414.90746  22421905.2664   22421912.1604
        13.2504         12.0004
  16867911.17946  13188245.17346  22087879.0864   22087884.2894
        16.2504         14.7504
 -15648552.47045 -12166191.63145  23013127.9694   23013136.5044
         9.7504         10.5004
 03 10 29  1 31 30.0000000  0  6G28G 9G 4G24G 7G 5
  42654275.91344  33619104.19943  23922505.5394   23922508.7384
         7.7504          3.7504
 -10232333.34347  -7488594.59346  21052114.4774   21052119.1414
        23.0004         21.0004
 -14530416.11747 -11267314.51146  20896559.3204   20896563.4804
        24.5004         22.2504
 -17209540.67946 -13076497.37546  22417977.6334   22417984.5864
        13.2504         12.0004
  17003153.93546  13293629.14446  22113615.0784   22113620.6804
        16.2504         14.2504
 -15663201.30445 -12177606.16345  23010341.1804   23010348.0744
        10.5004         10.0004
 03 10 29  1 32  0.0000000  0  6G28G 9G 4G24G 7G 5
  42809194.41945  33739820.06745  23951984.9614   23951990.6094
         8.2504          7.2504
 -10148028.47847  -7422902.47946  21068157.0394   21068162.1374
        22.7504         21.5004
 -14480602.50447 -11228498.66546  20906038.5864   20906043.0984
        24.5004         22.2504
 -17229960.14046 -13092408.51846  22414092.5704   22414099.1564
        14.5004         12.2504
  17138437.82246  13399045.15046  22139358.7584   22139364.1484
        16.0004         14.5004
 -15677827.97045 -12189003.43945  23007557.4614   23007564.1054
        10.7504         10.0004
 03 10 29  1 32 30.0000000  0  6G28G 9G 4G24G 7G 5
  42964200.12642  33860603.69745  23981481.1804   23981487.8244
         4.0004          6.0004
 -10063206.30647  -7356807.26246  21084297.8984   21084302.7624
        22.5004         21.2504
 -14430268.71947 -11189277.48946  20915616.6334   20915621.1684
        24.5004         22.2504
 -17250160.50346 -13108148.95446  22410248.2114   22410254.6334
        14.0004         12.5004
  17273757.98546  13504489.42546  22165109.4144   22165114.8984
        16.0004         14.2504
 -15692434.54545 -12200385.11645  23004777.4224   23004785.3014
        11.0004         10.5004
 03 10 29  1 33  0.0000000  0  6G28G 9G 4G24G 7G 5
  43119291.07743  33981453.41945  24010995.2814   24010999.1374
         5.0004          5.0004
  -9977868.85047  -7290310.52446  21100537.0234   21100541.9574
        22.7504         21.2504
 -14379415.78947 -11149651.77646  20925293.7894   20925298.3244
        24.7504         22.2504
 -17270140.88246 -13123717.95646  22406445.6254   22406451.8014
        13.5004         12.2504
  17409111.81346  13609959.92646  22190866.2974   22190872.2274
        16.0004         14.2504
 -15707021.77845 -12211751.65245  23002002.2814   23002008.4924
        10.7504          9.5004
 03 10 29  1 33 30.0000000  0  6G28G 9G 4G24G 7G 5
  43274462.89945  34102366.66544  24040522.7734   24040530.2544
         9.0004          4.2504
  -9892020.00347  -7223415.29946  21116873.9774   21116878.9224
        23.0004         21.2504
 -14328046.52947 -11109623.73546  20935068.8914   20935073.2974
        24.5004         22.2504
 -17289902.09746 -13139116.18446  22402685.1334   22402692.3554
        14.5004         12.5004
  17544494.90646  13715453.24646  22216629.0634   22216634.4184
        15.7504         14.0004
 -15721591.36045 -12223104.49445  22999228.9924   22999236.1564
        10.0004         10.0004
 03 10 29  1 34  0.0000000  0  6G28G 9G 4G24G 7G 5
  43429717.67745  34223344.80944  24070066.8754   24070073.0744
         9.0004          4.2504
  -9805657.81247  -7156120.06946  21133307.9304   21133312.4884
        23.0004         21.2504
 -14276157.99647 -11069191.06046  20944943.1174   20944947.4654
        24.5004         22.5004
 -17309439.17046 -13154339.77846  22398967.6254   22398975.2114
        14.7504         12.5004
  17679908.43446  13820970.28246  22242396.9144   22242402.2584
        16.0004         14.2504
 -15736139.23945 -12234440.37445  22996461.0084   22996468.8164
        10.5004         10.5004
 03 10 29  1 34 30.0000000  0  6G28G 9G 4G24G 7G 5
  43585062.93743  34344392.96145  24099626.9064   24099632.7424
         6.0004          6.0004
  -9718774.65047  -7088418.88246  21149841.1644   21149846.0164
        23.0004         21.5004
 -14223741.74847 -11028347.17846  20954917.2814   20954921.6414
        24.5004         22.5004
 -17328741.44346 -13169380.39846  22395294.0474   22395300.3054
        14.0004         12.5004
  17815359.57746  13926516.63146  22268172.4774   22268178.5004
        15.7504         14.2504
 -15750655.93845 -12245751.96845  22993698.0704   22993705.3634
        11.0004         10.2504
 03 10 29  1 35  0.0000000  0  6G28G 9G 4G24G 7G 5
  43740497.33942  34465510.52945  24129204.7584   24129209.7974
         4.7504          6.7504
  -9631372.15847  -7020313.03046  21166473.6804   21166478.3674
        23.2504         21.5004
 -14170797.91047 -10987092.18546  20964991.9844   20964996.2624
        24.7504         22.5004
 -17347807.49146 -13184236.94046  22391666.1334   22391672.4384
        14.7504         12.7504
  17950846.51846  14032090.87946  22293954.4144   22293959.7464
        15.5004         14.2504
 -15765141.08146 -12257039.00845  22990942.5234   22990949.2154
        12.5004         11.2504
 03 10 29  1 35 30.0000000  0  6G28G 9G 4G24G 7G 5
  43896015.36744  34586693.28545  24158800.9144   24158807.3714
         7.7504          7.2504
  -9543455.77047  -6951806.73546  21183203.0474   21183207.7114
        23.0004         21.2504
 -14117331.08547 -10945429.66346  20975166.6484   20975171.1484
        24.7504         22.5004
 -17366639.33746 -13198910.99946  22388081.9304   22388089.1994
        14.0004         13.2504
  18086363.31746  14137688.39746  22319742.4534   22319748.1024
        15.5004         13.7504
 -15779598.29746 -12268304.25746  22988191.6254   22988198.7664
        13.5004         12.2504
 03 10 29  1 36  0.0000000  0  6G28G 9G 4G24G 7G 5
  42476200.74845  33480344.24145  23888618.5234   23888625.9924
         8.0004          7.2504
 -11030444.30347  -8110499.07046  20900238.7424   20900243.8164
        22.7504         21.2504
 -15638759.83847 -12130958.50646  20685648.2114   20685652.4414
        25.0004         22.7504
 -18960656.50846 -14441002.18246  22084750.5314   22084757.2114
        14.0004         12.7504
  16646492.34746  13015711.03346  22045744.1564   22045749.9804
        15.5004         14.2504
 -17369446.89446 -13507147.20646  22685653.4694   22685659.8794
        13.2504         12.5004
 03 10 29  1 36 30.0000000  0  6G28G 9G 4G24G 7G 5
  42631882.36543  33601654.69244  23918243.3524   23918243.7734
         6.5004          4.5004
 -10941504.33647  -8041195.18446  20917163.5784   20917168.2544
        23.0004         21.2504
 -15584247.76247 -12088481.50746  20696021.6174   20696026.0474
        24.7504         22.5004
 -18979015.42646 -14455307.71446  22081257.1884   22081264.7384
        14.5004         13.2504
  16782063.57646  13121350.97046  22071542.7194   22071547.5944
        15.5004         14.0004
 -17383844.65346 -13518366.12545  22682913.1174   22682920.0124
        12.5004         11.7504
 03 10 29  1 37  0.0000000  0  6G28G 9G 4G24G 7G 5
  42787644.26142  33723027.71043  23947883.2344   23947884.0314
         4.2504          3.5004
 -10852054.38847  -7971493.90246  20934185.1334   20934190.0554
        22.5004         21.2504
 -15529213.12447 -12045597.31546  20706494.0084   20706498.3324
        24.5004         22.5004
 -18997134.49046 -14469426.36146  22077809.4384   22077816.1994
        15.0004         14.0004
  16917659.72146  13227010.33446  22097345.9614   22097351.5984
        15.5004         13.7504
 -17398211.89746 -13529561.23845  22680178.7814   22680185.2274
        12.7504         11.7504
 03 10 29  1 37 30.0000000  0  6G28G 9G 4G24G 7G 5
  42943486.61242  33844463.13045  23977539.1644   23977547.0664
         4.0004          5.0004
 -10762094.49347  -7901395.26846  20951303.9454   20951308.6914
        22.5004         21.2504
 -15473654.74347 -12002305.01946  20717066.4384   20717070.7734
        24.7504         22.5004
 -19015010.36646 -14483355.49846  22074407.1254   22074413.6644
        14.7504         13.5004
  17053280.80546  13332689.10946  22123153.8674   22123158.8714
        15.2504         13.7504
 -17412545.64346 -13540730.29845  22677451.7034   22677458.3594
        12.7504         11.7504
 03 10 29  1 38  0.0000000  0  6G28G 9G 4G24G 7G 5
  43099412.84143  33965964.02445  24007212.1644   24007219.6214
         5.5004          6.5004
 -10671621.27147  -7830896.63746  20968520.3984   20968525.3324
        22.5004         21.2504
 -15417568.37147 -11958601.29646  20727739.4844   20727743.6684
        24.7504         22.7504
 -19032636.70946 -14497090.18746  22071053.1954   22071060.1844
        14.2504         13.2504
  17188929.61646  13438389.51846  22148966.6884   22148972.1374
        15.2504         13.5004
 -17426840.57246 -13551869.06945  22674730.9924   22674737.6604
        12.5004         11.5004
 03 10 29  1 38 30.0000000  0  6G28G 9G 4G24G 7G 5
  43255420.11943  34087528.13145  24036898.6954   24036906.9734
         6.5004          6.5004
 -10580637.56347  -7760000.22646  20985833.9924   20985838.8324
        22.7504         21.2504
 -15360955.84747 -11914487.58746  20738512.1884   20738516.4654
        24.5004         22.7504
 -19050013.30946 -14510630.28146  22067746.0704   22067752.9774
        14.5004         13.7504
  17324603.10146  13544109.14046  22174784.5314   22174790.3204
        15.2504         13.5004
 -17441097.74746 -13562978.41445  22672017.0314   22672023.8524
        12.5004         11.0004
 03 10 29  1 39  0.0000000  0  6G28G 9G 4G24G 7G 5
  43411504.47743  34209152.27245  24066601.0634   24066607.3914
         6.2504          5.5004
 -10489147.67347  -7688709.38646  21003243.6174   21003248.5744
        22.5004         21.2504
 -15303820.61847 -11869966.57946  20749384.7664   20749389.1484
        24.7504         22.5004
 -19067141.30546 -14523976.64846  22064486.6884   22064494.1804
        14.5004         13.5004
  17460296.70146  13649844.42846  22200606.0864   22200611.5944
        15.2504         13.2504
 -17455318.66946 -13574059.52245  22669311.0004   22669317.0474
        13.0004         11.2504
 03 10 29  1 39 30.0000000  0  6G28G 9G 4G24G 7G 5
  43567669.96542  34330839.69144  24096317.7194   24096322.6414
         4.7504          4.5004
 -10397148.00447  -7617021.31246  21020750.9614   21020755.6954
        23.2504         21.5004
 -15246157.55347 -11825034.27046  20760357.8594   20760362.1024
        25.0004         22.7504
 -19084013.69846 -14537123.84146  22061276.2584   22061283.5514
        15.2504         14.0004
  17596014.08446  13755598.24046  22226432.3284   22226437.5084
        15.0004         13.0004
 -17469496.82846 -13585107.31545  22666613.2504   22666619.4384
        12.7504         11.2504
 03 10 29  1 40  0.0000000  0  6G28G 9G 4G24G 7G 5
  43723910.63642  34452585.67243  24126049.3284   24126056.0434
         4.7504          3.7504
 -10304644.71747  -7544940.82046  21038353.6174   21038358.5164
        22.7504         21.2504
 -15187972.05447 -11779694.86946  20771429.8914   20771434.3444
        25.0004         23.0004
 -19100633.34946 -14550074.11146  22058113.2584   22058120.5634
        15.0004         13.7504
  17731748.86446  13861365.61846  22252261.2584   22252266.6134
        15.0004         13.2504
 -17483636.68246 -13596125.24645  22663922.2974   22663928.2974
        12.7504         11.2504
 03 10 29  1 40 30.0000000  0  6G28G 9G 4G24G 7G 5
  43880232.23643                  24155797.2734
         6.2504
 -10211632.00047  -7472463.36546  21056053.7894   21056058.3594
        23.0004         21.2504
 -15129257.10147 -11733942.90846  20782603.1094   20782607.3634
        25.2504         22.7504
 -19116991.35146 -14562820.50646  22055000.0864   22055006.8484
        14.7504         13.7504
  17867506.66046  13967150.93646  22278095.5474   22278101.1134
        14.7504         13.2504
 -17497730.31746 -13607107.14845  22661240.3364   22661247.2774
        12.7504         11.2504
 03 10 29  1 41  0.0000000  0  6G28G 9G 4G24G 7G 5
  44036630.46944                  24185558.2814
         7.5004
 -10118114.62647  -7399592.66346  21073849.2664   21073854.0234
        23.0004         21.5004
 -15070016.44247 -11687781.29846  20793876.3054   20793880.5474
        25.2504         23.0004
 -19133089.20246 -14575364.16246  22051936.4064   22051942.6414
        15.5004         14.0004
  18003282.66446  14072950.43546  22303932.9384   22303938.4224
        14.7504         12.7504
 -17511779.72446 -13618054.55845  22658566.4454   22658572.8794
        12.5004         11.7504
 03 10 29  1 41 30.0000000  0  6G28G 9G 4G24G 7G 5
  44193105.51545 -12259743.87055  24215334.2424   24215341.6884
         8.2504          7.0004
 -10024092.78547  -7326328.88046  21091741.3834   21091746.0124
        23.0004         21.2504
 -15010249.31247 -11641209.45846  20805249.2344   20805253.6054
        24.7504         23.0004
 -19148923.58246 -14587702.54146  22048923.8444   22048930.9734
        16.0004         14.5004
  18139076.79146  14178764.05646  22329773.9144   22329779.6214
        14.7504         13.2504
 -17525782.40346 -13628965.57445  22655901.8054   22655908.0864
        12.7504         11.5004
 03 10 29  1 42  0.0000000  0  6G28G 9G 4G24G 7G 5
  44349665.01344 -12137749.38245  24245127.0234   24245131.9104
         7.7504          5.5004
  -9929559.13347  -7252666.27446  21109730.0314   21109734.7544
        22.7504         21.0004
 -14949947.14247 -11594220.69846  20816724.3054   20816728.4654
        24.7504         23.0004
 -19164484.00946 -14599827.42946  22045962.8054   22045968.9454
        16.0004         13.5004
  18274896.30846  14284597.46046  22355619.4694   22355624.5554
        14.7504         13.0004
 -17539728.50746 -13639832.52045  22653247.7274   22653254.3594
        12.7504         11.7504
 03 10 29  1 42 30.0000000  0  6G28G 9G 4G24G 7G 5
  44506308.56843 -12015689.52744  24274934.7344   24274944.6294
         6.0004          4.7504
  -9834514.36147  -7178605.40046  21127816.4844   21127821.0904
        22.7504         21.0004
 -14889109.65647 -11546814.81246  20828301.4454   20828305.7814
        24.7504         22.7504
 -19179767.61246 -14611736.66746  22043054.1094   22043060.8014
        16.2504         14.2504
  18410740.49546  14390450.09546  22381469.7734   22381475.4224
        14.5004         13.0004
 -17553616.32946 -13650654.01345  22650604.7034   22650610.3754
        12.5004         11.7504
 03 10 29  1 43  0.0000000  0  6G28G 9G 4G24G 7G 5
  44663021.94642 -11893575.10044  24304756.3674   24304757.9264
         4.5004          4.7504
  -9738972.99547  -7104157.56646  21145997.5704   21146002.3164
        22.5004         20.7504
 -14827750.53647 -11499002.45846  20839977.5634   20839981.6644
        24.7504         23.0004
 -19194785.68846 -14623438.94346  22040196.0394   22040202.0864
        16.5004         14.2504
  18546594.86146  14496310.65746  22407322.4224   22407327.6254
        14.5004         13.2504
 -17567458.00546 -13661439.61645  22647970.6884   22647977.3914
        12.5004         11.5004
 03 10 29  1 43 30.0000000  0  6G28G 9G 4G24G 7G 5
  44819814.10442 -11771399.52745  24334593.0864   24334602.9224
         4.7504          5.0004
  -9642926.57847  -7029316.18546  21164274.6724   21164279.5474
        22.2504         21.2504
 -14765860.04947 -11450776.05146  20851754.7344   20851759.0474
        24.7504         22.7504
 -19209526.16546 -14634924.94546  22037391.1884   22037397.5634
        16.5004         14.5004
  18682468.06946  14602185.88946  22433177.7424   22433183.2504
        14.2504         12.7504
 -17581242.33446 -13672180.48246  22645347.5164   22645354.3754
        12.7504         12.5004
 03 10 29  1 44  0.0000000  0  6G28G 9G 4G24G 7G 5
  44976684.46443 -11649162.87644  24364444.3594   24364442.1334
         5.7504          4.5004
  -9546376.05647  -6954082.00646  21182647.2274   21182651.8204
        22.2504         21.0004
 -14703438.01647 -11402135.45646  20863633.3054   20863637.4304
        25.0004         23.0004
 -19223986.55646 -14646192.69446  22034639.7894   22034646.0944
        16.2504         14.7504
  18818359.32746  14708075.19546  22459036.7424   22459042.3914
        14.0004         13.0004
 -17594967.78146 -13682875.49146  22642735.7344   22642742.1564
        13.0004         12.5004
 03 10 29  1 44 30.0000000  0  6G28G 9G 4G24G 7G 5
  45133620.00843 -11526875.36744  24394308.4694   24394314.4454
         6.2504          4.7504
  -9449334.94747  -6878465.54346  21201113.5394   21201118.2504
        22.2504         20.7504
 -14640496.96147 -11353090.43046  20875610.4144   20875614.7384
        24.7504         22.7504
 -19238177.34646 -14657250.33946  22031939.2274   22031945.8484
        16.0004         14.7504
  18954255.28146  14813968.16546  22484896.7814   22484901.9144
        14.0004         13.2504
 -17608644.84746 -13693532.79046  22640132.8444   22640138.1524
        13.7504         12.5004
 03 10 29  1 45  0.0000000  0  6G28G 9G 4G24G 7G 5
  45290623.09043 -11404535.22145  24424184.0704   24424188.7114
         6.2504          6.0004
  -9351801.35347  -6802465.32946  21219673.7974   21219678.2974
        22.2504         21.2504
 -14577033.96847 -11303638.69446  20887687.1094   20887691.1054
        25.0004         22.7504
 -19252092.92646 -14668093.52846  22029290.9614   22029296.9144
        16.7504         14.5004
  19090157.91346  14919866.33646  22510758.7274   22510764.0124
        14.2504         13.0004
 -17622268.85146 -13704148.75946  22637539.9614   22637545.9734
        13.7504         12.2504
 03 10 29  1 45 30.0000000  0  6G28G 9G 4G24G 7G 5
  45447700.30243 -11282137.33745  24454075.1414   24454084.2034
         5.2504          6.0004
  -9253769.03647  -6726076.49746  21238328.5944   21238333.3754
        22.2504         21.0004
 -14513041.83247 -11253774.64846  20899864.2734   20899868.3874
        24.7504         23.0004
 -19265723.45546 -14678714.66446  22026696.5314   22026703.1644
        16.2504         14.5004
  19226073.97246  15025774.95446  22536622.5634   22536627.7304
        14.2504         13.2504
 -17635830.63946                  22634959.4384
        13.2504
 03 10 29  1 46  0.0000000  0  6G28G 9G 4G24G 7G 5
  45604856.60541 -11159677.93445  24483981.9224   24483984.9694
         3.7504          5.5004
  -9155233.76447  -6649295.74946  21257079.2734   21257084.1604
        22.2504         21.0004
 -14448515.12447 -11203494.05346  20912143.5084   20912147.6564
        25.0004         23.0004
 -19279061.57946 -14689107.86346  22024159.2194   22024165.6524
        16.7504         15.2504
  19362007.75646  15131697.40646  22562490.1174   22562495.8714
        14.2504         13.2504
 -17649323.69546                  22632391.2894
        13.5004
 03 10 29  1 46 30.0000000  0  6G28G 9G 4G24G 7G 5
                                  24513901.0314
         2.5004
  -9056207.17847  -6572132.16946  21275923.6484   21275928.5594
        22.5004         21.0004
 -14383464.59947 -11152805.28646  20924522.1094   20924526.3164
        25.0004         22.7504
 -19292115.39346 -14699279.54346  22021674.6724   22021680.9064
        16.7504         14.7504
  19497947.86946  15237624.78646  22588358.0004   22588364.2584
        14.0004         12.5004
 -17662756.54346 -12277740.24456  22629835.3674   22629841.2154
        13.5004         12.2504
 03 10 29  1 47  0.0000000  0  6G28G 9G 4G24G 7G 5
 -15665056.00751                  24543832.8134
         2.7504
  -8956677.48247  -6494576.54246  21294862.8364   21294867.9694
        21.7504         20.7504
 -14317877.53947 -11101698.43746  20937003.0004   20937007.3134
        25.0004         23.2504
 -19304869.69046 -14709217.84546  22019247.1804   22019252.5354
        17.2504         15.0004
  19633906.31946  15343566.45646  22614230.5474   22614236.3244
        14.0004         12.5004
 -17676114.79146 -12288149.19346  22627293.0004   22627300.0004
        13.0004         12.2504
 03 10 29  1 47 30.0000000  0  6G28G 9G 4G24G 7G 5
 -17083084.15042                  24273991.9304
         4.0004
 -10432059.49447  -7644224.85746  21014107.0474   21014111.8754
        22.2504         20.7504
 -15827168.67847 -12277769.41246  20649793.9614   20649797.9454
        25.0004         23.0004
 -20892739.59646 -15946518.99646  21717085.3754   21717092.1374
        16.2504         14.7504
  18194469.87846  14221927.68846  22340314.7584   22340319.5394
        14.2504         12.5004
 -19264814.48546 -13526096.86446  22324973.7664   22324980.3634
        13.5004         12.5004
 03 10 29  1 48  0.0000000  0  6G28G 9G 4G24G 7G 5
 -16925624.15443 -13466789.75455  24303955.6724   24303960.6414
         5.2504          5.2504
 -10331529.72147  -7565889.95446  21033237.4774   21033242.2464
        22.0004         20.5004
 -15760511.09547 -12225828.38846  20662478.8754   20662483.0234
        24.7504         23.2504
 -20904890.33546 -15955986.97346  21714773.4304   21714779.9694
        16.7504         15.0004
  18330460.36746  14327894.33446  22366192.6414   22366197.9964
        14.2504         12.7504
 -19278021.44846 -13536387.90146  22322460.2504   22322465.7464
        14.2504         12.2504
 03 10 29  1 48 30.0000000  0  6G28G 9G 4G24G 7G 5
 -16768102.65643 -13344045.77645  24333930.5314   24333937.4264
         6.2504          6.2504
 -10230516.93047  -7487178.67846  21052459.6334   21052464.3324
        22.2504         20.7504
 -15693333.86547 -12173482.44346  20675262.1884   20675266.2894
        25.0004         23.0004
 -20916751.29146 -15965229.12746  21712516.9384   21712522.7734
        18.0004         15.2504
  18466450.19346  14433860.48146  22392070.1644   22392075.5554
        13.7504         12.5004
 -19291165.05946 -13546629.56746  22319959.1414   22319964.9774
        14.5004         12.5004
 03 10 29  1 49  0.0000000  0  6G28G 9G 4G24G 7G 5
 -16610512.90243 -13221248.52645  24363919.8134   24363923.8324
         6.7504          6.2504
 -10129014.95147  -7408086.21446  21071774.6884   21071779.4804
        22.2504         20.7504
 -15625630.01547 -12120726.14346  20688145.9614   20688150.1684
        25.0004         23.0004
 -20928312.96546 -15974238.14746  21710316.0234   21710321.9064
        17.0004         14.7504
  18602446.04746  14539831.27845  22417949.8914   22417955.2234
        13.5004         11.7504
 -19304236.51046 -13556815.03046  22317471.6174   22317478.1454
        14.5004         13.0004
 03 10 29  1 49 30.0000000  0  6G28G 9G 4G24G 7G 5
 -16452853.26243 -13098396.83345  24393921.6564   24393927.0124
         6.7504          6.5004
 -10027023.03247  -7328611.97246  21091182.9454   21091187.9024
        22.0004         20.7504
 -15557397.36647 -12067557.78946  20701129.7584   20701133.9304
        24.7504         23.2504
 -20939570.41046 -15983010.06646  21708173.4144   21708178.6994
        17.5004         15.2504
  18738449.23946  14645807.83846  22443830.1254   22443835.8674
        13.2504         12.0004
 -19317231.74146 -13566941.08746  22314999.0474   22315005.5274
        14.5004         13.2504
 03 10 29  1 50  0.0000000  0  6G28G 9G 4G24G 7G 5
 -16295121.30743 -12975488.75244  24423936.6254   24423941.3834
         6.7504          4.2504
  -9924539.15847  -7248754.39546  21110685.2424   21110690.1054
        22.0004         21.0004
 -15488633.13847 -12013975.22146  20714215.4064   20714219.3554
        25.2504         23.0004
 -20950518.57546 -15991541.02846  21706090.2034   21706096.9304
        17.0004         15.5004
  18874462.06146  14751791.86546  22469712.5004   22469718.5944
        13.0004         12.0004
 -19330146.28346 -13577004.23546  22312541.1174   22312546.7544
        14.7504         12.7504
 03 10 29  1 50 30.0000000  0  6G28G 9G 4G24G 7G 5
 -16137318.52543 -12852525.54945  24453965.3594   24453969.1564
         6.5004          5.7504
  -9821565.47247  -7168515.14246  21130280.5864   21130285.3444
        22.2504         21.0004
 -15419338.56647 -11959979.38946  20727401.5864   20727405.3834
        25.0004         23.0004
 -20961155.99746 -15999829.79446  21704066.1484   21704072.6174
        17.5004         15.7504
  19010483.02546  14857782.26945  22495596.5864   22495602.7154
        13.0004         11.5004
 -19342979.02046 -13587003.66046  22310098.8524   22310104.7704
        14.7504         13.0004
 03 10 29  1 51  0.0000000  0  6G28G 9G 4G24G 7G 5
 -15979442.05943 -12729504.82444  24484008.3914   24484013.6644
         6.0004          4.7504
  -9718099.89747  -7087892.60146  21149969.1804   21149973.9494
        22.0004         20.5004
 -15349510.46147 -11905567.81846  20740689.3524   20740693.3714
        25.0004         23.0004
 -20971476.69546 -16007871.79346  21702101.7194   21702108.3284
        17.0004         15.5004
  19146514.92846  14963781.16645  22521482.5784   22521488.3554
        12.7504         11.2504
 -19355724.32746 -13596934.94246  22307673.6254   22307679.9534
        14.7504         13.0004
 03 10 29  1 51 30.0000000  0  6G28G 9G 4G24G 7G 5
 -15821495.35243 -12606429.56243  24514064.8054   24514080.7934
         5.5004          3.5004
  -9614146.43547  -7006889.88246  21169750.8754   21169755.6804
        22.0004         21.0004
 -15279151.69947 -11850742.75146  20754078.3594   20754082.5434
        25.0004         23.2504
 -20981481.05446 -16015667.28846  21700197.9774   21700204.2934
        17.5004         15.5004
  19282554.15946  15069785.80845  22547369.6094   22547375.6334
        12.5004         11.7504
 -19368383.55346 -13606799.17246  22305264.7344   22305270.7234
        15.0004         13.7504
 03 10 29  1 52  0.0000000  0  6G28G 9G 4G24G 7G 5
 -15663484.56142 -12483304.19443  24544132.9384   24544137.6134
         4.7504          3.7504
  -9509711.84947  -6925512.25446  21189624.1254   21189628.9304
        22.0004         20.7504
 -15208268.30547 -11795508.88046  20767566.8054   20767570.8484
        25.0004         23.2504
 -20991172.59246 -16023219.01446  21698353.8444   21698360.1844
        18.2504         16.2504
  19418594.51946  15175791.29945  22573257.5554   22573262.8404
        12.5004         11.7504
 -19380960.42946 -13616599.22146  22302870.9064   22302877.1764
        15.0004         13.5004
 03 10 29  1 52 30.0000000  0  6G28G 9G 4G24G 7G 5
 -15505408.14842 -12360127.72143  24574214.2584   24574214.3874
         4.2504          3.5004
  -9404795.23947  -6843759.03046  21209589.1334   21209593.7854
        22.0004         20.7504
 -15136858.39447 -11739864.72746  20781155.3834   20781159.4614
        25.0004         23.0004
 -21000547.10546 -16030523.67146  21696569.4304   21696575.2774
        17.7504         15.7504
  19554637.41046  15281798.75445  22599145.8674   22599151.3524
        12.5004         11.5004
 -19393451.23246 -13626332.20846  22300494.2344   22300500.3754
        15.2504         13.7504
 03 10 29  1 53  0.0000000  0  7G28G 9G 4G24G30G 7G 5
 -15347263.24641                  24604307.8984
         3.7504
  -9299394.85847  -6761628.83746  21229646.0554   21229650.9184
        22.0004         20.5004
 -15064918.97247 -11683807.97946  20794845.1644   20794848.9614
        25.0004         23.2504
 -21009598.99346 -16037576.97746  21694847.2894   21694853.1374
        18.5004         16.5004
 -17355478.93651                  25035082.7584
         3.0004
  19690685.56146  15387810.33545  22625034.9064   22625040.5664
        12.5004         11.5004
 -19405850.47446 -13635993.80046  22298134.8054   22298140.9574
        14.7504         13.5004
 03 10 29  1 53 30.0000000  0  7G28G 9G 4G24G30G 7G 5
 -15189051.28641                  24634414.8914
         3.0004
  -9193512.82447  -6679123.33246  21249795.0864   21249799.5744
        22.2504         20.7504
 -14992451.20647 -11627339.52546  20808635.1954   20808639.1214
        25.0004         23.0004
 -21018326.45446 -16044377.46646  21693186.6484   21693192.6024
        18.7504         16.2504
 -17389308.53541                  25028648.0784
         3.7504
  19826737.52446  15493824.86845  22650924.7034   22650929.3094
        12.5004         11.5004
 -19418156.67546 -13645582.94146  22295792.4224   22295798.9494
        14.2504         13.0004
 03 10 29  1 54  0.0000000  0  7G28G 9G 4G24G30G 7G 5
 -15030770.71341                  24664534.0634
         2.7504
  -9087148.13847  -6596241.73046  21270035.1804   21270039.7274
        22.0004         20.5004
 -14919453.35547 -11570458.01846  20822526.1724   20822530.2624
        25.2504         23.2504
 -21026725.04946 -16050921.70346  21691588.0554   21691593.6804
        18.5004         16.2504
 -17423247.83142                  25022188.1024
         4.2504
  19962794.94046  15599843.63845  22676815.2734   22676820.9454
        12.5004         11.5004
 -19430366.02146 -13655096.59446  22293469.3284   22293475.0704
        14.7504         13.5004
 03 10 29  1 54 30.0000000  0  7G28G 9G 4G24G30G 7G 5
 -17303231.87751                  24694667.8594
         2.2504
  -8980310.15047  -6512991.31846  21290365.7194   21290370.6524
        22.0004         20.5004
 -14845933.52247 -11513169.77546  20836516.6644   20836520.7074
        25.2504         23.5004
 -21034800.43546 -16057214.08946  21690050.7974   21690056.4574
        18.5004         16.2504
 -17457303.57842                  25015706.5394
         4.7504
  20098849.24246  15705860.00445  22702705.9534   22702710.9804
        12.5004         11.7504
 -19442484.68146 -13664539.55046  22291162.5784   22291167.4774
        15.0004         13.2504
 03 10 29  1 55  0.0000000  0  7G28G 9G 4G24G30G 7G 5
                                  24724807.9534
         2.0004
  -8872992.62347  -6429367.23946  21310787.6644   21310792.2114
        22.2504         20.5004
 -14771884.57747 -11455469.23546  20850607.4774   20850611.2974
        25.0004         23.5004
 -21042542.65946 -16063246.86246  21688578.2894   21688584.3134
        18.7504         16.7504
 -17491466.62843                  25009204.8754
         5.5004
  20234907.45046  15811879.42045  22728597.1174   22728602.1214
        12.5004         11.0004
 -19454503.00446 -13673904.36446  22288876.0004   22288881.6844
        15.7504         13.7504
 03 10 29  1 55 30.0000000  0  7G28G 9G 4G24G30G 7G 5
                                  24754964.5084
         1.5004
  -8765195.69947  -6345369.60746  21331300.7894   21331305.1374
        22.2504         20.5004
 -14697305.36447 -11397355.50446  20864799.3284   20864803.3014
        24.7504         23.2504
 -21049948.29646 -16069017.36246  21687168.7734   21687174.2344
        18.5004         16.5004
 -17525734.16543                  25002684.1954
         5.7504
  20370970.42746  15917902.54045  22754488.6254   22754494.5554
        12.2504         11.2504
 -19466417.58546 -13683188.32046  22286608.1954   22286613.9844
        16.2504         14.5004
 03 10 29  1 56  0.0000000  0  6G 9G 4G24G30G 7G 5
  -8656915.76347  -6260995.60046  21351905.7194   21351910.3954
        22.0004         20.5004
 -14622191.69147 -11338825.30446  20879092.6254   20879096.6804
        24.5004         23.0004
 -21057010.29646 -16074520.11546  21685824.1414   21685830.0234
        18.2504         16.2504
 -17560100.22343                  24996144.4384
         5.5004
  20507042.36446  16023932.62645  22780382.1254   22780387.1414
        12.2504         11.0004
 -19478222.28546 -13692386.66646  22284362.2894   22284367.6684
        16.0004         14.7504
 03 10 29  1 56 30.0000000  0  6G 9G 4G24G30G 7G 5
  -8548151.71747  -6176244.36846  21372602.7274   21372607.3914
        22.2504         20.2504
 -14546541.52347 -11279877.06846  20893488.8524   20893492.7774
        25.0004         23.2504
 -21063723.79646 -16079751.29546  21684546.9144   21684552.8204
        18.5004         16.7504
 -17594560.69743                  24989585.9844
         5.5004
  20643125.24346  16129971.26945  22806277.6334   22806282.1334
        12.5004         11.2504
 -19489912.03046 -13701495.43146  22282137.9304   22282143.9654
        16.0004         14.2504
 03 10 29  1 57  0.0000000  0  6G 9G 4G24G30G 7G 5
  -8438906.04847  -6091117.83946  21393391.7974   21393396.6604
        22.0004         20.7504
 -14470356.23247 -11220511.84846  20907986.2034   20907989.9774
        25.0004         23.2504
 -21070087.64346 -16084710.00446  21683335.8914   21683341.8324
        19.2504         17.0004
 -17629115.41142 -13504498.03454  24983011.3204   24983022.1414
         4.7504          4.2504
  20779217.61146  16236017.30045  22832175.7504   22832181.3874
        12.2504         11.2504
 -19501486.04546 -13710514.02946  22279935.0474   22279940.8364
        15.7504         14.5004
 03 10 29  1 57 30.0000000  0  6G 9G 4G24G30G 7G 5
  -8329186.42547  -6005622.00246  21414270.6334   21414275.1914
        22.0004         20.2504
 -14393642.48347 -11160734.84346  20922584.4694   20922588.2894
        25.0004         23.2504
 -21076105.56546 -16089399.18946  21682190.3834   21682196.0554
        19.2504         17.0004
 -17663769.00542 -13531500.56442  24976416.2194   24976423.6414
         4.0004          2.7504
  20915312.62446  16342065.36845  22858073.4614   22858078.9224
        12.2504         11.0004
 -19512948.16446 -13719445.39546  22277753.8204   22277759.7274
        15.7504         14.5004
 03 10 29  1 58  0.0000000  0  6G 9G 4G24G30G 7G 5
  -8218991.75247  -5919755.98946  21435239.8134   21435244.7814
        21.7504         20.2504
 -14316398.52147 -11100544.69146  20937283.1804   20937287.2704
        25.0004         23.0004
 -21081773.02146 -16093815.27546  21681112.0554   21681117.3984
        19.2504         16.7504
 -17698517.53941                  24969803.8594
         3.2504
  21051412.39946  16448117.15845  22883972.3524   22883977.9884
        12.2504         10.7504
 -19524294.04846 -13728286.20446  22275594.4694   22275600.0944
        16.0004         14.5004
 03 10 29  1 58 30.0000000  0  6G 9G 4G24G30G 7G 5
  -8108315.71647  -5833514.90046  21456300.6644   21456305.1764
        21.7504         20.5004
 -14238616.53047 -11039935.30146  20952085.0004   20952088.7034
        25.0004         23.0004
 -21087079.76846 -16097950.29246  21680101.9064   21680107.6604
        19.2504         17.0004
 -17733351.61141                  24963174.1884
         3.0004
  21187524.38846  16554178.47145  22909873.7194   22909878.7344
        12.0004         11.0004
 -19535513.76046 -13737028.70946  22273459.8444   22273465.3754
        16.7504         14.7504
 03 10 29  1 59  0.0000000  0  6G 9G 4G24G30G 7G 5
  -9572580.95947  -6974500.76946  21177660.3204   21177664.9734
        21.5004         20.2504
 -15735719.66247 -12206509.11846  20667195.4064   20667199.2974
        25.0004         23.0004
 -22667449.06947 -17329406.77546  21379367.7114   21379372.9614
        20.0004         17.5004
 -19343695.71941                  24656736.7344
         2.7504
  19748227.61245  15432648.52945  22635984.3524   22635988.9804
        11.7504         10.7504
 -21122030.77946 -14973275.62046  21971555.6024   21971561.1214
        17.5004         15.0004
 03 10 29  1 59 30.0000000  0  6G 9G 4G24G30G 7G 5
  -9460956.28147  -6887520.47246  21198901.5784   21198906.1724
        21.5004         20.0004
 -15656873.62547 -12145070.60346  20682199.4144   20682203.0704
        25.2504         23.2504
 -22672038.08946 -17332982.52646  21378494.0394   21378499.6764
        19.2504         17.0004
 -19378706.28641                  24650074.4844
         3.2504
  19884352.61145  15538719.94545  22661888.1804   22661894.7194
        11.7504         11.2504
 -21133002.38946 -14981824.79746  21969466.9774   21969471.9104
        17.5004         15.0004
 03 10 29  2  0  0.0000000  0  6G 9G 4G24G30G 7G 5
  -9348857.84647  -6800171.01346  21220233.5314   21220238.2074
        21.7504         20.0004
 -15577494.82747 -12083216.95046  20697304.4924   20697308.4064
        25.0004         23.0004
 -22676262.97246 -17336274.51546  21377690.3594   21377695.7854
        19.7504         17.2504
 -19413801.22141                  24643395.0634
         3.7504
  20020485.05645  15644797.23745  22687793.2424   22687798.3404
        11.5004         11.0004
 -21143845.07246 -14990273.51846  21967403.6644   21967409.1484
        16.7504         15.2504
 03 10 29  2  0 30.0000000  0  6G 9G 4G24G30G 7G 5
  -9236276.77647  -6712445.47846  21241656.7344   21241661.3634
        21.2504         20.0004
 -15497573.36347 -12020940.43346  20712513.1174   20712517.0784
        25.0004         23.2504
 -22680111.24547 -17339273.05246  21376958.1094   21376963.3954
        20.2504         18.0004
 -19448968.54542                  24636704.0314
         4.5004
  20156634.75845  15750887.91945  22713701.2664   22713707.4184
        11.5004         10.7504
 -21154546.61646 -14998612.26146  21965366.8984   21965371.9264
        16.2504         15.0004
 03 10 29  2  1  0.0000000  0  6G 9G 4G24G30G 7G 5
  -9123221.59047  -6624350.49846  21263170.4064   21263174.9304
        21.2504         19.7504
 -15417116.87547 -11958247.01646  20727823.2814   20727827.2544
        25.0004         23.2504
 -22683587.67647 -17341981.84446  21376295.8444   21376301.3054
        20.0004         18.0004
 -19484213.60943                  24629997.2734
         5.0004
  20292794.62345  15856986.49345  22739612.2274   22739618.6954
        11.5004         10.7504
 -21165111.47046 -15006844.47646  21963356.6804   21963361.7194
        17.0004         15.5004
 03 10 29  2  1 30.0000000  0  6G 9G 4G24G30G 7G 5
  -9009691.49247  -6535885.45546  21284774.4144   21284779.3134
        21.2504         19.5004
 -15336123.46647 -11895135.22146  20743235.8284   20743239.7664
        25.0004         23.2504
 -22686687.69946 -17344397.32546  21375706.0864   21375711.0664
        19.7504         17.7504
 -19519532.61743 -14733035.87054  24623275.5474   24623287.3874
         5.5004          4.7504
  20428966.47545  15963094.46145  22765525.4064   22765530.9964
        11.5004         10.7504
 -21175535.41746 -15014966.91946  21961373.1254   21961378.3874
        18.0004         15.7504
 03 10 29  2  2  0.0000000  0  6G 9G 4G24G30G 7G 5
  -8895686.95347  -6447050.72146  21306468.9304   21306473.3714
        21.5004         19.7504
 -15254592.70747 -11831604.71046  20758750.4844   20758754.3524
        25.0004         23.0004
 -22689408.15747 -17346517.04246  21375188.2424   21375193.3984
        20.0004         17.7504
 -19554922.65243 -14760612.21745  24616541.1254   24616545.9884
         6.2504          5.2504
  20565151.12445  16069212.34545  22791440.0944   22791446.0474
        11.2504         10.7504
 -21185815.31646 -15022977.12446  21959417.1644   21959421.8164
        18.0004         15.2504
 03 10 29  2  2 30.0000000  0  6G 9G 4G24G30G 7G 5
  -8781213.55247  -6357850.64246  21328252.1094   21328256.5274
        21.2504         19.7504
 -15172529.41647 -11767659.24246  20774366.6884   20774370.3554
        25.2504         23.5004
 -22691751.05846 -17348342.55546  21374742.4144   21374748.0164
        19.7504         17.5004
 -19590386.47943 -14788246.24145  24609792.1024   24609800.9534
         6.7504          6.2504
  20701343.99145  16175336.69345  22817356.8054   22817362.3014
        11.2504         10.5004
 -21195953.04746 -15030876.53846  21957487.6254   21957492.6644
        17.0004         15.0004
 03 10 29  2  3  0.0000000  0  6G 9G 4G24G30G 7G 5
  -8666272.08947  -6268285.83646  21350124.9304   21350129.3484
        21.5004         19.5004
 -15089933.43547 -11703298.68746  20790084.2894   20790088.1094
        25.0004         23.2504
 -22693713.28946 -17349871.45146  21374368.7194   21374374.0984
        19.5004         17.5004
 -19625921.35543 -14815935.55845  24603029.8594   24603038.7344
         6.7504          5.5004
  20837545.56745  16281467.81345  22843274.6724   22843279.5234
        11.0004         10.2504
 -21205945.38246 -15038662.65546  21955586.1334   21955590.9264
        17.0004         15.2504
 03 10 29  2  3 30.0000000  0  6G 9G 4G24G30G 7G 5
  -8550868.55847  -6178360.97146  21372085.3204   21372089.5984
        21.2504         19.5004
 -15006809.93447 -11638527.07746  20805902.1564   20805905.9064
        25.0004         23.2504
 -22695296.95746 -17351105.35946  21374067.3674   21374072.7934
        19.7504         17.5004
 -19661530.40944 -14843682.78945  24596254.0004   24596259.9884
         7.0004          5.7504
  20973750.98445  16387601.91345  22869193.6254   22869198.4064
        10.7504         10.0004
 -21215794.53946 -15046337.22246  21953711.9064   21953716.9924
        17.7504         15.5004
 03 10 29  2  4  0.0000000  0  6G 9G 4G24G30G 7G 5
  -8434992.27947  -6088067.75046  21394136.1174   21394140.7814
        21.2504         19.5004
 -14923147.23547 -11573335.31746  20821822.3594   20821826.3674
        25.0004         23.2504
 -22696487.85447 -17352033.21946  21373840.8754   21373846.3954
        20.0004         17.7504
 -19697199.59643 -14871476.80145  24589466.5784   24589477.2464
         6.2504          6.5004
  21109972.40045  16493748.46345  22895116.2584   22895121.6724
        10.7504          9.7504
 -21225486.71446 -15053889.46146  21951867.2194   21951872.0354
        18.0004         15.7504
 03 10 29  2  4 30.0000000  0  6G 9G 4G24G30G 7G 5
  -8318643.65347  -5997406.45146  21416276.3054   21416280.5944
        21.2504         19.5004
 -14838944.85447 -11507723.02946  20837845.8444   20837849.5824
        25.0004         23.2504
 -22697282.38947 -17352652.22746  21373689.7734   21373695.0944
        20.2504         17.7504
 -19732925.81943 -14899315.17345  24582667.9064   24582669.5354
         5.5004          5.0004
  21246210.69345  16599908.18745  22921040.8674   22921046.4924
        10.7504          9.5004
 -21235018.00246 -15061316.33246  21950053.2274   21950058.6054
        17.7504         16.2504
 03 10 29  2  5  0.0000000  0  6G 9G 4G24G30G 7G 5
  -8201827.41847  -5906380.78746  21438505.3834   21438510.1644
        20.7504         19.5004
 -14754206.34847 -11441692.98346  20853971.0474   20853974.9734
        25.2504         23.2504
 -22697681.56247 -17352963.16546  21373613.6484   21373618.8284
        20.5004         18.2504
 -19768710.43643 -14927199.16043  24575858.0864   24575860.3364
         5.0004          3.7504
  21382462.65945  16706078.54745  22946968.7584   22946974.9924
        10.7504         10.5004
 -21244389.33046 -15068618.54346  21948269.9924   21948275.1254
        17.0004         16.2504
 03 10 29  2  5 30.0000000  0  6G 9G 4G24G30G 7G 5
  -8084545.29347  -5814992.09046  21460823.6954   21460828.4184
        21.0004         19.5004
 -14668932.91147 -11375246.09846  20870197.8364   20870201.6094
        25.2504         23.2504
 -22697683.57847 -17352964.63246  21373612.8834   21373617.8284
        20.2504         18.5004
 -19804552.20342 -14955127.52244  24569036.7974   24569044.6294
         4.5004          4.7504
  21518727.46245  16812258.92145  22972899.3204   22972905.7424
        10.7504          9.7504
 -21253599.04546 -15075794.82846  21946517.1954   21946522.5744
        17.2504         15.5004
 03 10 29  2  6  0.0000000  0  6G 9G 4G24G30G 7G 5
  -7966806.76447  -5723247.76346  21483228.6024   21483232.9384
        21.0004         19.2504
 -14583133.06647 -11308389.03546  20886524.8834   20886528.7734
        25.2504         23.2504
 -22697294.02747 -17352660.97446  21373686.8284   21373692.3244
        20.5004         18.2504
 -19840456.96442 -14983105.26945  24562204.1724   24562215.4614
         4.5004          5.0004
  21654997.18445  16918443.17345  22998830.5944   22998835.4224
        10.7504          9.7504
 -21262652.51446 -15082849.37346  21944794.4384   21944799.5354
        17.5004         15.5004
 03 10 29  2  6 30.0000000  0  6G 9G 4G24G30G 7G 5
  -7848599.10347  -5631137.87646  21505722.7274   21505727.1094
        20.5004         19.0004
 -14496793.32147 -11241111.26546  20902955.1024   20902958.6054
        25.2504         23.0004
 -22696496.60947 -17352039.51346  21373838.7974   21373844.0704
        21.0004         18.5004
 -19876408.80842 -15011119.32744  24555363.1024   24555368.6334
         4.2504          4.0004
  21791285.88545  17024642.15745  23024765.6954   23024771.3914
        10.7504          9.7504
 -21271532.89346 -15089769.04346  21943103.9844   21943108.2504
        17.7504         15.0004
 03 10 29  2  7  0.0000000  0  6G 9G 4G24G30G 7G 5
  -7729928.32247  -5538667.11046  21528304.9534   21528309.6414
        20.2504         19.0004
 -14409918.63047 -11173416.65546  20919486.4694   20919490.2304
        25.0004         23.0004
 -22695293.57047 -17351101.97646  21374067.8054   21374073.0904
        21.0004         18.5004
 -19912410.10942 -15039172.24344  24548511.5394   24548519.7114
         4.2504          4.5004
  21927589.06345  17130852.44745  23050703.5554   23050708.5594
        11.0004         10.0004
 -21280242.17346 -15096555.39746  21941446.9534   21941451.6994
        17.7504         16.0004
 03 10 29  2  7 30.0000000  0  6G 9G 4G24G30G 7G 5
  -7610802.61346  -5445841.86346  21550973.4924   21550978.3204
        19.7504         19.0004
 -14322516.24947 -11105310.86546  20936118.4384   20936122.1054
        25.2504         23.5004
 -22693688.94447 -17349851.51746  21374372.6564   21374377.3554
        20.7504         18.5004
 -19948465.67542 -15067267.23845  24541649.8834   24541655.8364
         4.5004          5.0004
  22063900.06045  17237068.84645  23076642.3524   23076647.3444
        11.0004         10.2504
 -21288785.11546 -15103212.12246  21939821.5474   21939826.6564
        18.2504         16.2504
 03 10 29  2  8  0.0000000  0  6G 9G 4G24G30G 7G 5
  -7491217.90847  -5352658.95546  21573730.2734   21573734.7854
        20.0004         19.0004
 -14234581.39847 -11036790.15346  20952852.1094   20952855.8364
        25.2504         23.0004
 -22691675.34647 -17348282.37746  21374756.1254   21374761.4224
        20.5004         18.7504
 -19984567.93242 -15095398.57444  24534780.1094   24534777.5204
         4.7504          4.5004
  22200224.26145  17343295.51945  23102583.9454   23102587.5554
        11.0004         10.0004
 -21297153.69746 -15109732.97646  21938228.6414   21938233.5274
        18.7504         16.7504
 03 10 29  2  8 30.0000000  0  7G 9G 4G24G30G 7G17G 5
  -7371172.86146  -5259117.34146  21596573.8134   21596578.2304
        19.7504         18.7504
 -14146111.73947 -10967852.70946  20969687.2344   20969690.9264
        25.2504         23.2504
 -22689247.57447 -17346390.50146  21375218.2114   21375223.3444
        21.2504         18.7504
 -20020711.96742                  24527901.3594
         4.7504
  22336564.64145  17449534.81945  23128527.8134   23128533.1564
        10.7504         10.0004
 -18943029.13253                  25236719.5554
         5.0004
 -21305342.19246 -15116113.51046  21936670.5394   21936675.2274
        18.7504         16.7504
 03 10 29  2  9  0.0000000  0  7G 9G 4G24G30G 7G17G 5
  -7250669.15146  -5165218.32346  21619504.8834   21619509.4414
        19.7504         18.5004
 -14057108.14247 -10898499.21246  20986624.0554   20986627.6524
        25.5004         23.2504
 -22686403.18047 -17344173.99846  21375759.3444   21375764.6644
        21.0004         18.7504
 -20056895.93443                  24521015.9304
         5.0004
  22472921.07645  17555786.59045  23154476.2664   23154481.0594
        10.7504          9.7504
 -18983768.92043                  25228966.6094
         6.0004
 -21313348.52646 -15122352.11446  21935146.7584   21935151.7154
        18.5004         16.0004
 03 10 29  2  9 30.0000000  0  7G 9G 4G24G30G 7G17G 5
  -7129705.48546  -5070960.90246  21642523.4224   21642528.0744
        19.7504         18.7504
 -13967568.52047 -10828728.03346  21003662.8134   21003666.5044
        25.2504         23.2504
 -22683137.45047 -17341629.16846  21376380.2584   21376385.4844
        21.2504         19.0004
 -20093114.94543                  24514123.7814
         5.0004
  22609296.35145  17662053.03645  23180427.7194   23180434.0124
        10.5004          9.5004
 -19024540.48443 -14743910.87555  25221207.3754   25221217.3634
         6.5004          6.2504
 -21321167.29046 -15128444.55746  21933658.8594   21933663.6994
        18.5004         16.5004
 03 10 29  2 10  0.0000000  0  7G 9G 4G24G30G 7G17G 5
  -7008292.35546  -4976353.24646  21665627.2894   21665631.6254
        19.7504         18.7504
 -13877502.34547 -10758546.54746  21020801.8674   21020805.4654
        25.5004         23.5004
 -22679457.01547 -17338761.20046  21377080.8364   21377085.4184
        20.7504         19.0004
 -20129375.76143 -14753805.83154  24507224.2664   24507227.3954
         5.7504          4.2504
  22745681.53945  17768327.25745  23206380.8524   23206388.0864
        10.0004          9.7504
 -19065349.91643 -14775710.27945  25213441.0554   25213452.0044
         5.5004          6.2504
 -21328804.62846 -15134395.61846  21932205.3204   21932210.3014
        19.2504         16.7504
 03 10 29  2 10 30.0000000  0  7G 9G 4G24G30G 7G17G 5
  -6886420.89746  -4881388.46246  21688818.8524   21688823.5514
        19.7504         18.7504
 -13786900.17047 -10687947.40846  21038042.9924   21038046.6604
        25.5004         23.2504
 -22675349.29547 -17335560.27846  21377862.1884   21377866.9694
        21.2504         19.2504
 -20165666.32243 -14782083.92245  24500318.9534   24500325.4344
         6.0004          5.2504
  22882087.19145  17874617.38245  23232337.6094   23232342.9064
         9.7504          9.7504
 -19106184.47741 -14807529.21644  25205670.2114   25205675.3914
         3.7504          4.7504
 -21336248.25746 -15140195.73946  21930788.9454   21930793.7974
        19.5004         16.7504
 03 10 29  2 11  0.0000000  0  7G 9G 4G24G30G 7G17G 5
  -8339510.75046  -6013666.25146  21412305.3444   21412309.9964
        19.7504         18.5004
 -15271181.70247 -11844530.37946  20755593.2114   20755596.7504
        25.2504         23.0004
 -24246234.03247 -18559626.21046  21078932.7894   21078937.5234
        21.5004         19.2504
 -21777407.77943 -16037986.11045  24193612.8984   24193620.9534
         6.2504          5.5004
  21443095.42245  16753325.08445  22958507.2194   22958512.5274
         9.5004          9.2504
 -20722464.99641 -16066968.45344  24898102.4384   24898122.9024
         2.5004          4.0004
 -22918917.37946 -16373444.30246  21629617.2894   21629621.7194
        19.2504         17.0004
 03 10 29  2 11 30.0000000  0  7G 9G 4G24G30G 7G17G 5
  -8216735.53147  -5917997.23146  21435668.4144   21435672.8914
        20.0004         18.7504
 -15179517.34847 -11773103.56646  20773036.4454   20773039.9494
        25.2504         23.0004
 -24241272.99947 -18555760.37746  21079876.9224   21079881.6804
        21.5004         19.2504
 -21813759.10243 -16066311.43545  24186695.0004   24186703.4414
         6.7504          6.0004
  21579533.79945  16859640.72445  22984469.8204   22984476.6414
         9.2504          9.7504
 -20487275.50451                  24890321.6414
         3.0004
 -22925973.30546 -16378942.32646  21628274.1254   21628278.8244
        19.2504         16.5004
 03 10 29  2 12  0.0000000  0  7G 9G 4G24G30G 7G17G 5
  -8093514.47846  -5821980.80646  21459116.5314   21459121.1374
        19.7504         18.7504
 -15087326.66147 -11701266.62646  20790579.7034   20790583.2304
        25.2504         23.2504
 -24235885.55347 -18551562.27146  21080901.7974   21080906.4844
        21.5004         19.2504
 -21850141.38643 -16094660.95145  24179771.8134   24179778.6334
         6.7504          7.5004
  21715984.99145  16965966.33045  23010435.7894   23010441.2974
         9.0004          9.5004
 -20528184.49741                  24882537.6254
         3.7504
 -22932834.90947 -16384288.93946  21626968.7194   21626973.1374
        20.0004         17.2504
 03 10 29  2 12 30.0000000  0  7G 9G 4G24G30G 7G17G 5
  -7969850.30047  -5725619.09046  21482649.2584   21482654.1094
        20.0004         18.7504
 -14994611.97447 -11629021.37146  20808222.6954   20808226.3524
        25.0004         23.0004
 -24230071.26147 -18547031.55446  21082008.4224   21082013.2504
        22.0004         19.5004
 -21886553.86343 -16123033.97545  24172842.8594   24172851.4534
         6.2504          7.2504
  21852447.68145  17072300.88745  23036403.0554   23036409.8874
         8.7504          8.5004
 -20569116.68942 -15959863.28754  24874748.6644   24874760.2704
         4.7504          4.0004
 -22939501.71447 -16389483.74746  21625699.8204   21625704.2504
        20.0004         17.2504
 03 10 29  2 13  0.0000000  0  7G 9G 4G24G30G 7G17G 5
  -7845743.54347  -5628912.51446  21506265.8754   21506270.2464
        20.0004         18.7504
 -14901372.69147 -11556367.34146  20825965.5554   20825969.2704
        25.2504         22.7504
 -24223826.45547 -18542165.37546  21083196.5704   21083201.3164
        21.5004         19.5004
 -21922993.13543 -16151427.84745  24165908.4694   24165915.9264
         5.2504          6.2504
  21988923.41045  17178645.59345  23062374.5474   23062380.8404
         9.0004          9.2504
 -20610067.96642 -15991773.39444  24866955.7814   24866960.6564
         4.7504          4.0004
 -22945969.43347 -16394523.43546  21624468.5704   21624473.1764
        20.0004         17.5004
 03 10 29  2 13 30.0000000  0  7G 9G 4G24G30G 7G17G 5
  -7721211.66546  -5531874.66746  21529963.5394   21529967.7814
        19.7504         18.7504
 -14807625.59747 -11483317.60946  20843805.1094   20843808.7894
        25.2504         22.7504
 -24217164.73247 -18536974.32046  21084464.0944   21084469.0164
        21.7504         19.7504
 -21959472.85942 -16179853.27644  24158965.9534   24158975.4384
         4.0004          4.7504
  22125396.31845  17284988.12745  23088343.5554   23088349.0864
         8.7504          8.7504
 -20651051.65843                  24859156.2894
         5.2504
 -22952251.73947 -16399418.63546  21623273.3284   21623277.8634
        20.2504         17.2504
 03 10 29  2 14  0.0000000  0  7G 9G 4G24G30G 7G17G 5
  -7596264.37546  -5434513.11946  21553739.9384   21553744.6724
        19.2504         18.5004
 -14713379.42347 -11409878.98846  20861739.3204   20861742.8014
        25.2504         23.0004
 -24210092.23847 -18531463.19146  21085809.7664   21085814.7464
        21.5004         19.5004
 -21995999.11741 -16208314.80444  24152014.5234   24152028.2624
         3.2504          4.2504
  22261858.37145  17391322.16545  23114312.5944   23114318.7704
         9.0004          8.7504
 -20692073.08843                  24851351.3914
         5.2504
 -22958353.43247 -16404173.10946  21622112.2344   21622116.5824
        20.5004         18.0004
 03 10 29  2 14 30.0000000  0  7G 9G 4G24G30G 7G17G 5
  -7470881.69846  -5336812.31146  21577599.7734   21577604.0984
        19.5004         18.2504
 -14618613.64647 -11336035.47546  20879772.6564   20879775.9734
        25.2504         23.0004
 -24202585.51247 -18525613.68946  21087238.4064   21087243.2234
        22.0004         19.7504
 -22032548.17242 -16236794.33544  24145059.4694   24145060.2894
         4.2504          4.2504
  22398331.22145  17497664.64945  23140281.9774   23140289.0594
         9.5004          8.7504
 -20733107.91243 -15969458.01755  24843542.2194   24843555.9224
         5.2504          5.7504
 -22964251.03847 -16408768.54846  21620989.8054   21620994.1884
        20.2504         18.0004
 03 10 29  2 15  0.0000000  0  7G 9G 4G24G30G 7G17G 5
  -7345075.91846  -5238781.80746  21601539.7894   21601544.3014
        19.0004         18.5004
 -14523339.44947 -11261795.79446  20897902.8284   20897906.3794
        25.0004         22.7504
 -24194652.86647 -18519432.30446  21088747.8914   21088752.6024
        21.7504         19.7504
 -22069128.42643 -16265298.15645  24138098.2424   24138105.7814
         5.7504          5.7504
  22534804.48145  17604007.47545  23166252.8914   23166258.3754
         9.5004          8.7504
 -20774164.21343 -16001449.83144  24835728.5314   24835739.3164
         5.0004          4.2504
 -22969952.13647 -16413210.85346  21619905.0084   21619909.7544
        20.2504         18.2504
 03 10 29  2 15 30.0000000  0  7G 9G 4G24G30G 7G17G 5
  -7218834.75946  -5140412.04746  21625562.6564   21625567.0164
        19.2504         17.7504
 -14427543.81547 -11187149.81046  20916131.8674   20916135.3954
        25.0004         22.7504
 -24186278.16247 -18512906.46546  21090341.4774   21090346.1524
        21.7504         19.7504
 -22105723.42943 -16293813.57245  24131134.8914   24131140.8794
         6.7504          5.0004
  22671292.41345  17710361.69545  23192224.2894   23192228.4734
         9.7504          9.2504
 -20815225.02142 -16033444.83244  24827914.8674   24827919.8834
         4.0004          4.0004
 -22975440.61747 -16417487.49546  21618860.3364   21618865.0004
        20.7504         18.5004
 03 10 29  2 16  0.0000000  0  7G 9G 4G24G30G 7G17G 5
  -7092175.11946  -5041716.20046  21649665.0864   21649669.3874
        18.7504         17.7504
 -14331242.99147 -11112110.16146  20934457.2344   20934460.6564
        24.7504         23.0004
 -24177474.27047 -18506046.19546  21092016.6804   21092021.3324
        21.7504         19.5004
 -22142346.49344 -16322350.77845  24124165.8914   24124180.3674
         7.2504          5.5004
  22807779.96045  17816715.63145  23218197.6024   23218202.7344
         9.7504          9.0004
 -20856302.81542 -16065453.22744  24820097.9694   24820108.5664
         4.0004          4.0004
 -22980728.66147 -16421607.95346  21617853.9384   21617858.4264
        20.5004         18.2504
 03 10 29  2 16 30.0000000  0  7G 9G 4G24G30G 7G17G 5
  -6965096.06646  -4942693.52446  21673847.3914   21673852.3834
        19.0004         18.0004
 -14234434.97647 -11036675.30946  20952879.1174   20952882.5164
        24.7504         23.0004
 -24168236.62747 -18498847.93846  21093774.3834   21093778.8364
        21.7504         20.0004
 -22178992.41144 -16350905.92143  24117192.2034   24117204.0084
         7.2504          3.5004
  22944269.95245  17923071.50545  23244171.2034   23244175.9734
         9.7504          9.0004
 -20897392.18741 -16097470.74144  24812277.5634   24812284.3594
         3.5004          4.7504
 -22985811.05347 -16425568.17246  21616886.6954   21616891.0904
        20.2504         18.0004
 03 10 29  2 17  0.0000000  0  7G 9G 4G24G30G 7G17G 5
  -6837605.05446  -4843349.86646  21698108.1804   21698112.7974
        19.2504         17.7504
 -14137126.79347 -10960850.71346  20971396.4614   20971400.0124
        24.7504         22.5004
 -24158569.34947 -18491314.90346  21095614.0634   21095618.5394
        22.2504         20.0004
 -22215665.16643 -16379482.03745  24110213.0554   24110217.7774
         6.7504          6.0004
  23080756.42445  18029424.59645  23270143.7424   23270148.5944
         9.7504          9.2504
 -20938496.56941 -16129499.77344  24804455.2194   24804468.2194
         3.5004          4.5004
 -22990691.34147 -16429370.90746  21615957.9534   21615962.2774
        20.5004         18.2504
 03 10 29  2 17 30.0000000  0  7G 9G 4G24G30G 7G17G 5
  -6709704.59146  -4743687.12846  21722446.7194   21722451.0784
        19.0004         18.0004
 -14039319.97347 -10884637.57446  20990008.3834   20990011.7584
        24.7504         22.5004
 -24148471.14747 -18483446.08046  21097535.3754   21097540.1214
        21.7504         20.0004
 -22252363.24043 -16408077.84345  24103229.5084   24103238.3714
         6.0004          5.7504
  23217238.86845  18135774.54945  23296115.1094   23296119.7734
         9.7504          8.7504
 -20979613.60542 -16161538.67944  24796631.4384   24796644.0514
         4.2504          4.2504
 -22995367.44947 -16433014.54146  21615068.2584   21615072.3834
        21.0004         18.5004
 03 10 29  2 18  0.0000000  0  7G 9G 4G24G30G 7G17G 5
  -6581394.21946  -4643704.98546  21746863.2734   21746867.9024
        18.7504         17.5004
 -13941013.48147 -10808035.07246  21008715.4924   21008718.9264
        24.7504         22.2504
 -24137937.56447 -18475238.00846  21099539.8204   21099544.4024
        22.0004         20.2504
 -22289081.81643 -16436689.41845  24096240.8834   24096245.4184
         5.0004          5.5004
  23353719.87845  18242123.42045  23322086.3054   23322091.9774
         9.7504          8.2504
 -21020738.46043 -16193583.69645  24788805.9534   24788817.5474
         5.7504          5.0004
 -22999834.85647 -16436495.55946  21614217.8674   21614222.0984
        21.0004         18.5004
 03 10 29  2 18 30.0000000  0  7G 9G 4G24G30G 7G17G 5
  -6452684.60046  -4543411.74746  21771355.8914   21771360.1914
        18.7504         17.7504
 -13842216.56647 -10731050.42546  21027515.8524   21027519.2624
        24.7504         22.2504
 -24126975.43147 -18466695.98746  21101626.0084   21101630.8244
        22.0004         20.2504
 -22325827.52542 -16465322.35245  24089248.8914   24089258.9614
         4.7504          5.5004
  23490190.83745  18348464.42945  23348056.1024   23348063.1484
         9.5004          8.2504
 -21061877.22443 -16225639.60445  24780977.1094   24780984.1214
         6.2504          5.5004
 -23004099.53547 -16439818.60446  21613406.3984   21613410.8524
        20.7504         18.2504
 03 10 29  2 19  0.0000000  0  7G 9G 4G24G30G 7G17G 5
  -6323574.29246  -4442806.28346  21795924.8444   21795929.0164
        19.0004         17.5004
 -13742927.50847 -10653682.28946  21046410.0784   21046413.5234
        24.7504         22.5004
 -24115580.06747 -18457816.39246  21103794.3364   21103799.0124
        22.0004         20.5004
 -22362595.08143 -16493972.17545  24082253.2114   24082258.6604
         5.0004          6.0004
  23626654.96445  18454800.12645  23374023.9064   23374030.0704
         9.5004          8.5004
 -21103024.08943 -16257701.85045  24773147.2424   24773153.5234
         6.5004          5.5004
 -23008155.32947 -16442978.88546  21612634.4064   21612638.9304
        21.2504         18.7504
 03 10 29  2 19 30.0000000  0  7G 9G 4G24G30G 7G17G 5
  -6194068.63946  -4341892.75246  21820568.9924   21820573.1174
        19.5004         17.5004
 -13643151.06547 -10575934.37846  21065396.8284   21065400.2034
        24.5004         22.2504
 -24103752.66047 -18448600.14746  21106044.9224   21106049.3754
        22.0004         20.5004
 -22399385.78743 -16522640.09445  24075251.3524   24075259.0554
         5.5004          5.2504
  23763108.81445  18561127.82545  23399990.7814   23399996.7114
         9.0004          7.7504
 -21144179.81543 -16289771.06145  24765315.9924   24765325.4534
         6.2504          5.7504
 -23012003.82547 -16445977.65846  21611902.2034   21611906.5044
        21.7504         19.2504
 03 10 29  2 20  0.0000000  0  7G 9G 4G24G30G 7G17G 5
  -6064169.73146  -4240672.79746  21845287.6414   21845292.1884
        19.2504         17.7504
 -13542888.29747 -10497807.50846  21084475.8984   21084479.3554
        24.5004         22.2504
 -24091491.61547 -18439045.99446  21108378.1884   21108382.8054
        22.5004         20.5004
 -22436197.44043 -16551324.29145  24068245.2974   24068248.8244
         6.0004          6.2504
  23899552.38445  18667447.49145  23425955.3754   23425960.1334
         8.7504          8.0004
 -21185342.08643 -16321845.26844  24757481.6564   24757484.7504
         5.2504          4.5004
 -23015642.24447 -16448812.72546  21611209.7274   21611214.2624
        21.0004         19.0004
 03 10 29  2 20 30.0000000  0  7G 9G 4G24G30G 7G17G 5
  -5933868.05046  -4139138.99446  21870083.4924   21870087.8984
        19.0004         17.7504
 -13442128.97147 -10419293.71446  21103649.9774   21103653.3164
        24.5004         22.2504
 -24078783.71447 -18429143.65046  21110795.8054   21110800.2704
        22.0004         20.5004
 -22473016.52143 -16580014.23445  24061239.8054   24061243.7664
         6.2504          5.7504
  24035997.23645  18773768.17545  23451919.5864   23451924.9654
         8.5004          7.7504
 -21226496.72842                  24749651.3524
         4.5004
 -23019056.90947 -16451473.43046  21610559.4694   21610563.9574
        21.0004         19.0004
 03 10 29  2 21  0.0000000  0  7G 9G 4G24G30G 7G17G 5
  -5803176.53646  -4037301.41046  21894952.7194   21894957.0784
        18.5004         17.5004
 -13340885.26847 -10340402.49246  21122915.8444   21122919.3134
        24.2504         22.0004
 -24065638.51547 -18418900.54946  21113297.2894   21113301.7664
        22.2504         20.5004
 -22509851.95143 -16608717.00645  24054229.5554   24054238.1024
         6.5004          5.7504
  24172432.38045  18880081.27645  23477882.4304   23477887.1994
         8.2504          8.2504
 -21267652.23441                  24741817.1414
         3.7504
 -23022256.47447 -16453966.53546  21609950.8524   21609955.6564
        21.5004         19.2504
 03 10 29  2 21 30.0000000  0  7G 9G 4G24G30G 7G17G 5
  -5672091.38546  -3935157.11446  21919897.8594   21919902.4064
        18.7504         17.5004
 -13239152.95547 -10261130.52346  21142274.6254   21142278.2234
        24.2504         22.0004
 -24052048.65247 -18408310.95846  21115883.6564   21115888.5084
        22.2504         20.5004
 -22546695.63143 -16637426.05045  24047218.9454   24047227.6914
         6.7504          6.2504
  24308863.64845  18986391.37445  23503844.1884   23503848.6884
         8.0004          8.2504
 -21308800.36341                  24733987.2584
         3.7504
 -23025232.24747 -16456285.26746  21609384.6174   21609389.2344
        22.0004         19.7504
 03 10 29  2 22  0.0000000  0  7G 9G 4G24G30G 7G17G 5
  -5540613.36646  -3832706.67446  21944916.7344   21944921.0234
        18.5004         17.2504
 -13136931.64847 -10181477.52546  21161727.0944   21161730.4574
        24.5004         21.7504
 -24038010.72547 -18397372.23146  21118554.7814   21118559.2234
        22.7504         20.7504
 -22583544.09043 -16666138.89445  24040206.7344   24040209.4534
         6.7504          6.2504
  24445292.56344  19092699.60045  23529806.0084   23529810.2854
         7.5004          7.2504
 -21349937.03442 -15973757.06454  24726160.0394   24726173.6844
         4.2504          4.2504
 -23027980.56847 -16458426.76446  21608861.5784   21608866.1254
        21.7504         19.5004
 03 10 29  2 22 30.0000000  0  7G 9G 4G24G30G 7G17G 5
  -5408753.09946  -3729958.40146  21970010.1024   21970014.2384
        19.2504         17.2504
 -13034231.49947 -10101451.40546  21181270.1414   21181273.5164
        24.5004         22.0004
 -24023531.83547 -18386089.88546  21121309.9614   21121314.4024
        23.0004         20.7504
 -22620403.93243 -16694860.64645  24033191.5704   24033195.5664
         6.0004          5.5004
  24581710.36544  19198999.25945  23555765.0634   23555769.5394
         7.5004          7.5004
 -21391068.31243 -16005807.01245  24718333.1804   24718342.3014
         5.0004          5.2504
 -23030507.45347 -16460395.69646  21608380.5944   21608385.3164
        21.7504         19.5004
 03 10 29  2 23  0.0000000  0  7G 9G 4G24G30G 7G17G 5
  -5276502.48046  -3626905.92946  21995176.0234   21995179.8674
        18.5004         17.2504
 -12931043.46647 -10021045.11046  21200906.0944   21200909.6094
        24.5004         22.0004
 -24008600.16047 -18374454.74246  21124151.8754   21124156.0704
        23.2504         21.0004
 -22657262.98343 -16723581.59445  24026177.3524   24026184.7504
         5.0004          5.5004
  24718127.25144  19305298.08545  23581723.7424   23581729.4144
         7.2504          7.5004
 -21432181.53643 -16037843.07645  24710509.4614   24710519.9534
         6.0004          6.2504
 -23032800.75947 -16462182.62946  21607944.3204   21607948.6914
        22.2504         19.7504
 03 10 29  2 23 30.0000000  0  7G 9G 4G24G30G 7G17G 5
  -6719284.59646  -4751151.71246  21720623.2664   21720627.5434
        18.5004         17.0004
 -14402790.94347 -11167861.29046  20920841.8524   20920845.4144
        24.5004         22.0004
 -25568638.83147 -19590069.21246  20827285.8284   20827290.1294
        23.0004         21.2504
 -24269545.48342 -17979905.32744  23719368.9614   23719374.8674
         4.5004          4.5004
  23279122.51044  18183995.72845  23307890.7504   23307897.1724
         7.5004          8.0004
 -23048700.77343 -17297468.16945  24402894.6724   24402904.2974
         6.0004          6.5004
 -24610283.30647 -17691389.75346  21307759.1724   21307763.4614
        22.2504         19.7504
 03 10 29  2 24  0.0000000  0  7G 9G 4G24G30G 7G17G 5
  -6586267.85846  -4647502.28246  21745935.5704   21745940.0354
        18.2504         16.7504
 -14298639.71947 -11086704.44946  20940661.1644   20940664.5394
        24.2504         21.7504
 -25552804.97947 -19577731.06146  20830298.7424   20830303.0904
        23.0004         21.0004
 -24306404.35343 -18008626.25645  23712355.6644   23712361.2194
         5.2504          6.0004
  23415529.62844  18290286.98745  23333848.0864   23333852.7854
         7.5004          8.0004
 -23089778.56842 -17329476.60045  24395077.2584   24395085.6054
         4.7504          6.2504
 -24612109.67347 -17692812.82946  21307411.3834   21307416.0944
        21.7504         19.7504
 03 10 29  2 24 30.0000000  0  7G 9G 4G24G30G 7G17G 5
  -6452866.45146  -4543553.10146  21771321.3754   21771325.9924
        17.7504         16.7504
 -14194004.24247 -11005170.27446  20960572.4454   20960575.8444
        24.5004         22.0004
 -25536513.10547 -19565036.01946  20833399.0944   20833403.4184
        23.2504         21.2504
 -24343255.21043 -18037340.92545  23705343.3134   23705349.1374
         6.0004          6.5004
  23551936.57544  18396578.10145  23359805.1024   23359811.1254
         7.5004          7.7504
 -23130830.20441 -17361464.48844  24387265.1254   24387276.9184
         3.2504          4.5004
 -24613694.35147 -17694047.57246  21307109.9774   21307114.8284
        22.0004         19.7504
 03 10 29  2 25  0.0000000  0  7G 9G 4G24G30G 7G17G 5
  -6319090.35546  -4439311.97046  21796778.1254   21796782.2384
        17.5004         16.5004
 -14088893.70647 -10923265.92046  20980574.2974   20980577.6484
        24.5004         22.0004
 -25519769.21947 -19551988.75146  20836585.2664   20836589.7774
        23.0004         21.5004
 -24380103.64643 -18066053.71245  23698330.5634   23698334.8404
         6.7504          6.2504
  23688335.80345  18502863.23045  23385761.9694   23385768.0634
         8.0004          8.7504
 -23171860.84642 -17393435.97345  24379457.0234   24379464.9614
         4.7504          6.0004
 -24615042.71947 -17695098.16746  21306853.1254   21306857.3204
        22.2504         20.0004
 03 10 29  2 25 30.0000000  0  7G 9G 4G24G30G 7G17G 5
  -6184930.70146  -4334771.95246  21822307.4924   21822311.2664
        17.7504         16.7504
 -13983298.65847 -10840984.02346  21000668.6254   21000672.2464
        24.2504         22.0004
 -25502561.02347 -19538579.69246  20839859.6724   20839864.0314
        23.2504         21.2504
 -24416936.24644 -18094754.29045  23691321.9454   23691326.9734
         7.0004          6.7504
  23824738.31945  18609150.89845  23411718.2734   23411723.3714
         8.0004          8.5004
 -23212856.80943 -17425380.56245  24371656.8834   24371666.5554
         6.7504          6.2504
 -24616141.18447 -17695954.03946  21306644.1174   21306648.0664
        22.2504         20.0004
 03 10 29  2 26  0.0000000  0  7G 9G 4G24G30G 7G17G 5
  -6050399.61146  -4229942.51546  21847908.0084   21847912.6844
        17.7504         16.7504
 -13877230.25147 -10758333.28746  21020852.4614   21020855.8954
        24.2504         21.5004
 -25484896.94747 -19524815.40946  20843221.1724   20843225.4384
        23.2504         21.2504
 -24453761.09043 -18123448.69045  23684315.2974   23684322.5904
         6.7504          6.0004
  23961134.11745  18715433.37345  23437673.1954   23437678.3754
         8.0004          7.7504
 -23253825.73543 -17457304.13345  24363860.1644   24363871.4414
         6.0004          5.5004
 -24616997.05647 -17696620.86646  21306481.3594   21306485.5204
        22.7504         20.2504
 03 10 29  2 26 30.0000000  0  7G 9G 4G24G30G 7G17G 5
  -5915487.60046  -4124816.23646  21873580.6484   21873585.4884
        17.0004         16.7504
 -13770678.67147 -10675306.04946  21041128.8284   21041131.9104
        24.2504         21.7504
 -25466763.96647 -19510685.72846  20846671.4384   20846675.6564
        23.2504         21.5004
 -24490564.13043 -18152126.18245  23677310.5084   23677314.2234
         6.5004          6.7504
  24097535.08245  18821719.85645  23463629.1884   23463633.8284
         8.2504          8.5004
 -23294753.43443 -17489195.51244  24356070.7664   24356077.1414
         5.0004          4.7504
 -24617596.61247 -17697087.95346  21306367.1254   21306371.4614
        23.0004         20.5004
 03 10 29  2 27  0.0000000  0  7G 9G 4G24G30G 7G17G 5
  -5780204.54846  -4019400.84846  21899324.5004   21899329.4104
        17.2504         16.2504
 -13663652.89347 -10591909.31346  21061494.9774   21061498.3054
        24.2504         21.7504
 -25448168.24947 -19496195.49346  20850210.1644   20850214.4184
        23.0004         21.5004
 -24527350.97544 -18180791.07745  23670310.5554   23670316.4384
         7.2504          6.5004
  24233933.40945  18928004.27145  23489585.3284   23489590.1094
         8.7504          8.5004
 -23335645.28543 -17521059.01245  24348289.3134   24348296.0744
         5.2504          5.2504
 -24617945.00647 -17697359.34446  21306300.7734   21306304.8404
        22.7504         20.5004
 03 10 29  2 27 30.0000000  0  7G 9G 4G24G30G 7G17G 5
  -5644550.82546  -3913696.63046  21925138.5164   21925142.8524
        17.5004         16.2504
 -13556152.75547 -10508142.94446  21081951.5474   21081954.9454
        24.0004         21.7504
 -25429106.70747 -19481342.26746  20853837.5554   20853842.0904
        23.2504         21.5004
 -24564117.79145 -18209440.31845  23663314.1564   23663319.7464
         8.0004          6.0004
  24370330.99145  19034288.11345  23515541.5634   23515546.9534
         8.7504          8.7504
 -23376496.98743 -17552891.07345  24340515.4304   24340520.9264
         6.2504          6.5004
 -24618038.12147 -17697431.79946  21306282.9064   21306287.1954
        22.7504         20.0004
 03 10 29  2 28  0.0000000  0  7G 9G 4G24G30G 7G17G 5
  -5508529.46146  -3807705.94346  21951021.7194   21951026.2424
        17.2504         16.5004
 -13448180.30547 -10424008.55046  21102497.8674   21102501.1954
        24.0004         21.2504
 -25409578.76747 -19466125.61946  20857553.3054   20857557.5944
        23.2504         21.5004
 -24600862.91245 -18238072.76845  23656321.3444   23656323.8404
         8.0004          6.7504
  24506727.04345  19140570.76245  23541496.3524   23541502.9964
         8.7504          8.2504
 -23417306.39743 -17584690.24045  24332749.1884   24332755.9964
         5.7504          6.2504
 -24617874.30147 -17697304.05346  21306314.1804   21306318.5864
        23.0004         20.5004
 03 10 29  2 28 30.0000000  0  7G 9G 4G24G30G 7G17G 5
  -5372140.27146  -3701428.61846  21976976.1804   21976980.8674
        17.5004         16.0004
 -13339735.04947 -10339505.73746  21123134.5784   21123137.9064
        23.7504         21.5004
 -25389580.54447 -19450542.51946  20861358.8054   20861362.9064
        23.2504         21.5004
 -24637581.79943 -18266684.75845  23649333.3364   23649337.9534
         6.7504          5.7504
  24643124.22545  19246854.29545  23567452.1884   23567459.0204
         8.7504          9.0004
 -23458069.12443 -17616453.09945  24324991.5554   24324996.4654
         5.5004          5.0004
 -24617448.85847 -17696972.43446  21306394.7344   21306399.0824
        23.0004         20.5004
 03 10 29  2 29  0.0000000  0  7G 9G 4G24G30G 7G17G 5
  -5235384.58646  -3594865.72246  22002999.5314   22003004.2664
        17.2504         16.5004
 -13230817.51147 -10254634.91446  21143860.9614   21143864.0554
        23.7504         21.2504
 -25369110.07747 -19434591.44046  20865254.4534   20865258.5314
        23.5004         21.7504
 -24674271.07543 -18295273.53645  23642350.5314   23642354.2584
         5.0004          5.7504
  24779523.55145  19353139.52245  23593407.6024   23593413.6254
         8.7504          8.0004
 -23498781.38543 -17648176.51945  24317245.2034   24317252.0354
         6.2504          6.2504
 -24616758.10747 -17696434.08746  21306526.2734   21306530.4344
        23.0004         20.7504
 03 10 29  2 29 30.0000000  0  7G 9G 4G24G30G 7G17G 5
  -5098269.29646  -3488022.61146  22029092.6414   22029097.2464
        17.5004         16.2504
 -13121433.72347 -10169400.77646  21164675.7664   21164679.1174
        23.7504         21.2504
 -25348170.51947 -19418274.83146  20869239.1024   20869242.9924
        23.5004         22.0004
 -24710933.32643 -18323841.36445  23635374.4694   23635379.5784
         5.0004          5.2504
  24915920.36445  19459422.79645  23619363.4694   23619368.4964
         8.2504          7.5004
 -23539445.44443 -17679862.40645  24309506.0084   24309515.8794
         5.5004          5.7504
 -24615804.63547 -17695691.02046  21306707.6804   21306711.8054
        23.2504         20.7504
 03 10 29  2 30  0.0000000  0  7G 9G 4G24G30G 7G17G 5
  -4960802.72546  -3380905.77846  22055251.0394   22055255.3284
        17.0004         16.2504
 -13011591.50447 -10083809.42646  21185577.7344   21185581.1334
        23.5004         21.2504
 -25326766.44547 -19401596.26746  20873312.1724   20873316.2734
        23.5004         21.7504
 -24747572.35543 -18352390.98345  23628402.2734   23628412.1914
         6.2504          5.0004
  25052308.78045  19565699.53745  23645316.8364   23645323.5864
         8.0004          7.0004
 -23580065.08543 -17711513.74645  24301776.0084   24301784.7894
         5.2504          6.0004
 -24614591.64247 -17694745.73046  21306938.3054   21306942.4184
        23.5004         21.0004
 03 10 29  2 30 30.0000000  0  7G 9G 4G24G30G 7G17G 5
  -4822973.34946  -3273506.23546  22081479.3204   22081484.1724
        17.2504         16.0004
 -12901278.53847  -9997851.25846  21206569.8914   21206573.0554
        23.5004         21.0004
 -25304882.81847 -19384544.02646  20877476.0944   20877479.9964
        23.2504         22.0004
 -24784171.99744 -18380910.04645  23621437.6954   23621446.3484
         7.5004          6.2504
  25188702.65344  19671980.49045  23671271.8284   23671275.3794
         7.7504          6.7504
 -23620623.73343 -17743117.49745  24294059.1254   24294066.8524
         5.7504          6.5004
 -24613102.70647 -17693585.42246  21307221.7194   21307225.9024
        23.7504         21.2504
 03 10 29  2 31  0.0000000  0  7G 9G 4G24G30G 7G17G 5
  -4684791.94846  -3165832.38646  22107774.6254   22107778.9384
        17.0004         16.0004
 -12790505.31047  -9911534.44346  21227649.2584   21227652.5394
        23.5004         21.0004
 -25282526.82447 -19367123.70346  20881730.3674   20881734.6094
        23.5004         21.7504
 -24820738.75944 -18409403.48145  23614479.5864   23614484.9884
         7.7504          6.2504
  25325093.21344  19778258.89245  23697226.0314   23697229.6294
         7.2504          6.5004
 -23661127.74743 -17774678.69845  24286349.6564   24286354.8134
         5.7504          5.7504
 -24611344.75447 -17692215.49546  21307556.0164   21307560.0594
        23.5004         21.5004
 03 10 29  2 31 30.0000000  0  7G 9G 4G24G30G 7G17G 5
  -4546250.16146  -3057877.72346  22134137.8204   22134141.5234
        17.0004         16.0004
 -12679262.58147  -9824851.77546  21248817.8204   21248821.0904
        23.2504         20.7504
 -25259686.85347 -19349326.25646  20886076.7344   20886080.9654
        23.5004         22.0004
 -24857259.58644 -18437861.00645  23607529.1334   23607535.9534
         7.2504          7.5004
  25461491.50143  19884543.30345  23723180.8674   23723184.2424
         6.7504          6.7504
 -23701564.14043 -17806187.28445  24278655.5314   24278658.0514
         5.5004          5.7504
 -24609304.08847 -17690625.26946  21307944.2274   21307948.3164
        23.2504         21.2504
 03 10 29  2 32  0.0000000  0  7G 9G 4G24G30G 7G17G 5
  -4407370.58946  -2949659.84446  22160565.1954   22160569.3794
        16.2504         15.5004
 -12567572.12347  -9737820.23746  21270072.0234   21270075.2934
        23.2504         20.7504
 -25236381.96547 -19331166.54246  20890511.2894   20890515.2504
        23.2504         21.7504
 -24893752.48143 -18466296.80445  23600585.3834   23600591.6994
         6.7504          7.2504
  25597877.39243  19990818.01345  23749136.3054   23749140.7344
         6.2504          6.0004
 -23741950.33443 -17837656.64445  24270969.8674   24270979.1054
         6.2504          7.0004
 -24606998.72247 -17688828.79146  21308383.0634   21308387.1054
        23.5004         21.2504
 03 10 29  2 32 30.0000000  0  7G 9G 4G24G30G 7G17G 5
  -4268140.87446  -2841169.13446  22187060.7034   22187064.6174
        16.7504         15.7504
 -12455421.07347  -9650429.78946  21291413.6724   21291416.8834
        23.2504         20.7504
 -25212596.11447 -19312632.05046  20895037.3594   20895041.7424
        23.0004         21.7504
 -24930200.40843 -18494697.54545  23593648.1644   23593653.1094
         6.5004          7.2504
  25734265.60343  20097094.58145  23775088.2424   23775091.8054
         6.0004          6.0004
 -23782269.31444 -17869073.75045  24263298.0554   24263303.2464
         7.7504          6.2504
 -24604411.48247 -17686812.67446  21308875.3284   21308879.3364
        23.7504         21.5004
 03 10 29  2 33  0.0000000  0  7G 9G 4G24G30G 7G17G 5
  -4128559.28646  -2732404.22346  22213621.5634   22213625.7934
        16.2504         15.2504
 -12342806.89747  -9562678.47146  21312843.3834   21312847.1214
        22.7504         20.5004
 -25188323.98147 -19293718.64046  20899656.3284   20899660.7584
        23.2504         21.7504
 -24966597.01144 -18523058.35545  23586722.4304   23586729.8054
         7.0004          7.0004
  25870660.44643  20203376.30345  23801043.6804   23801049.8674
         6.0004          5.7504
 -23822514.20544 -17900433.14245  24255639.1884   24255648.2154
         7.5004          6.7504
 -24601536.45747 -17684572.30746  21309422.3444   21309426.4804
        24.0004         21.7504
 03 10 29  2 33 30.0000000  0  7G 9G 4G24G30G 7G17G 5
  -3988631.15146  -2623369.26646  22240248.8754   22240253.3874
        16.0004         15.5004
 -12229734.58647  -9474570.14846  21334360.1564   21334363.4264
        23.0004         20.5004
 -25163567.44047 -19274427.76846  20904367.1564   20904371.3164
        23.0004         22.0004
 -25002943.01044 -18551379.66645  23579805.6724   23579811.4734
         7.2504          6.7504
  26007058.86343  20309660.82945  23826999.7424   23827004.0314
         5.7504          6.2504
 -23862686.08943 -17931735.55045  24247994.5704   24248003.5984
         6.5004          6.5004
 -24598373.53447 -17682107.60646  21310024.0004   21310027.9384
        24.0004         21.5004
 03 10 29  2 34  0.0000000  0  7G 9G 4G24G30G 7G17G 5
  -3848361.41846  -2514068.14346  22266941.5474   22266946.0354
        16.2504         15.2504
 -12116208.10047  -9386107.92446  21355963.6254   21355966.7774
        23.0004         20.2504
 -25138328.07947 -19254760.67446  20909170.0554   20909174.2734
        23.0004         22.0004
 -25039238.67044 -18579661.78545  23572899.2274   23572902.4614
         7.5004          5.5004
  26143458.58243  20415946.33345  23852955.2814   23852963.3714
         6.0004          5.7504
 -23902784.85444 -17962981.03345  24240363.2424   24240369.7584
         7.2504          7.0004
 -24594922.75847 -17679418.60446  21310680.6334   21310684.5124
        24.2504         21.7504
 03 10 29  2 34 30.0000000  0  7G 9G 4G24G30G 7G17G 5
  -3707752.73846  -2404502.91046  22293698.2344   22293702.8754
        16.0004         15.2504
 -12002229.58447  -9297293.47546  21377652.9614   21377656.5234
        23.0004         20.5004
 -25112605.03247 -19234716.68446  20914064.8594   20914068.8674
        23.0004         22.0004
 -25075481.98445 -18607903.21445  23566002.0944   23566008.2814
         8.2504          6.7504
  26279859.34443  20522232.62345  23878912.0784   23878916.4614
         6.2504          6.5004
 -23942808.28044 -17994167.87545  24232747.1174   24232752.3094
         7.5004          6.5004
 -24591182.31947 -17676503.90146  21311392.3134   21311396.0394
        24.2504         21.7504
 03 10 29  2 35  0.0000000  0  7G 9G 4G24G30G 7G17G 5
  -3566809.02646  -2294676.59946  22320519.1954   22320523.6484
        16.0004         15.2504
 -11887802.46947  -9208129.45946  21399427.7424   21399431.2934
        23.0004         20.7504
 -25086398.99347 -19214296.33546  20919051.8834   20919055.8444
        23.5004         22.0004
 -25111672.12645 -18636103.19845  23559115.5554   23559120.4654
         8.5004          7.5004
  26416259.62143  20628518.53545  23904868.2344   23904873.9064
         6.5004          6.7504
 -23982755.52844 -18025295.36345  24225144.5704   24225151.9574
         7.0004          7.0004
 -24587151.37447 -17673362.82446  21312159.5864   21312163.4064
        24.5004         22.0004
 03 10 29  2 35 30.0000000  0  7G 9G 4G24G30G 7G17G 5
  -3425532.97446  -2184591.31546  22347402.8444   22347406.3714
        15.7504         15.2504
 -11772929.00347  -9118617.64446  21421287.2894   21421290.4774
        23.0004         20.5004
 -25059709.35147 -19193499.16146  20924130.6804   20924134.5944
        23.5004         22.2504
 -25147807.33645 -18664260.31445  23552238.8364   23552245.5164
         8.2504          6.7504
  26552659.15843  20734803.96945  23930823.7194   23930828.5944
         6.7504          7.2504
 -24022624.79443 -18056362.00545  24217556.6334   24217562.5984
         6.2504          7.0004
 -24582828.24147 -17669994.07446  21312982.1564   21312986.0004
        24.5004         21.7504
 03 10 29  2 36  0.0000000  0  7G 9G 4G24G30G 7G17G 5
  -4859341.50046  -3301844.68346  22074557.7584   22074562.0594
        15.7504         14.7504
 -13233026.02147 -10256355.55346  21143440.1884   21143443.7274
        22.7504         20.2504
 -26607953.01147 -20399922.73046  20629509.6954   20629513.5864
        23.5004         22.2504
 -26759305.56544 -19919973.05645  23245580.7034   23245585.2034
         7.5004          7.2504
  25113643.29344  19613492.91845  23656988.0234   23656992.8874
         7.2504          7.2504
 -25637833.84143 -19314966.22545  23910192.5314   23910199.8134
         6.5004          6.5004
 -26153629.28047 -18893994.81346  21014068.4454   21014072.2074
        24.7504         22.2504
 03 10 29  2 36 30.0000000  0  7G 9G 4G24G30G 7G17G 5
  -4717404.79946  -3191244.61046  22101567.6804   22101572.0394
        15.7504         14.7504
 -13117261.43747 -10166149.35446  21165469.3204   21165472.4614
        23.0004         20.5004
 -26580289.34747 -20378366.57946  20634773.9064   20634777.9734
        23.2504         22.2504
 -26795320.54044 -19948036.53445  23238727.1644   23238732.8134
         7.5004          7.0004
  25250044.90044  19719779.93445  23682944.6644   23682948.4964
         7.5004          8.0004
 -25677536.16643 -19345902.84745  23902637.2974   23902643.4144
         5.7504          5.7504
 -26148710.46847 -18890161.90546  21015004.5554   21015008.2344
        24.7504         22.2504
 03 10 29  2 37  0.0000000  0  7G 9G 4G24G30G 7G17G 5
  -4575141.22846  -3080389.84446  22128639.7114   22128644.0704
        15.5004         14.5004
 -13001053.92147 -10075598.00946  21187583.1334   21187586.4144
        23.0004         20.5004
 -26552137.00447 -20356429.63846  20640130.8834   20640134.9024
        23.2504         22.0004
 -26831271.75244 -19976050.26945  23231885.4304   23231891.3134
         7.2504          7.2504
  25386448.00544  19826068.10145  23708901.5634   23708906.8714
         7.7504          7.7504
 -25717151.02943 -19376771.32945  23895100.0474   23895101.1724
         6.0004          6.0004
 -26143490.02647 -18886093.95546  21015997.7504   21016001.3594
        25.0004         22.5004
 03 10 29  2 37 30.0000000  0  7G 9G 4G24G30G 7G17G 5
  -4432556.18246  -2969284.57646  22155772.5004   22155776.9884
        15.2504         14.5004
 -12884408.24547  -9984705.24546  21209779.7034   21209783.0554
        22.5004         20.2504
 -26523497.94247 -20334113.43446  20645580.4304   20645584.4264
        23.2504         22.2504
 -26867159.56344 -20004014.65045  23225056.3204   23225061.7114
         7.2504          7.2504
  25522849.74745  19932355.17445  23734856.6334   23734862.7154
         8.0004          8.2504
 -25756679.14144 -19407572.26545  23887577.3914   23887582.4184
         7.2504          6.7504
 -26137968.39047 -18881791.31946  21017048.4774   21017052.1804
        25.0004         22.2504
 03 10 29  2 38  0.0000000  0  7G 9G 4G24G30G 7G17G 5
  -4289655.09146  -2857933.04046  22182965.9614   22182970.2274
        15.2504         14.5004
 -12767329.20347  -9893474.80946  21232059.5474   21232062.6764
        22.7504         20.5004
 -26494374.22147 -20311419.57346  20651122.7504   20651126.8524
        23.2504         22.2504
 -26902984.81644 -20031930.19445  23218238.5784   23218245.3524
         7.2504          6.5004
  25659247.28745  20038638.99845  23760813.1174   23760818.9184
         8.2504          7.7504
 -25796120.87044 -19438305.80845  23880071.5634   23880078.2894
         7.2504          6.5004
 -26132146.64047 -18877254.82746  21018156.4534   21018160.3204
        25.0004         22.5004
 03 10 29  2 38 30.0000000  0  7G 9G 4G24G30G 7G17G 5
  -4146436.39046  -2746334.00946  22210219.2894   22210223.5204
        15.5004         14.7504
 -12649814.95147  -9801905.23746  21254421.3984   21254424.3984
        22.5004         20.2504
 -26464761.34147 -20288344.55146  20656757.7584   20656761.7544
        23.2504         22.2504
 -26938741.26744 -20059792.27645  23211434.1024   23211441.8054
         7.2504          6.7504
  25795644.61245  20144922.68045  23786768.4694   23786772.5474
         8.0004          8.0004
 -25835470.19843 -19468967.40845  23872583.5944   23872589.8524
         6.7504          6.5004
 -26126018.33747 -18872479.46146  21019322.6334   21019326.4414
        25.0004         22.5004
 03 10 29  2 39  0.0000000  0  7G 9G 4G24G30G 7G17G 5
  -4002906.98446  -2634492.87146  22237531.6174   22237535.7544
        15.2504         14.2504
 -12531871.32947  -9710001.09246  21276865.5084   21276868.8244
        22.5004         20.2504
 -26434662.22847 -20264890.64546  20662485.6414   20662489.8714
        23.2504         22.2504
 -26974430.72544 -20087602.06145  23204642.4144   23204644.9694
         7.5004          6.2504
  25932037.53144  20251202.88945  23812723.5084   23812730.1644
         7.7504          7.2504
 -25874729.04343 -19499558.44245  23865112.5164   23865117.3324
         6.7504          5.7504
 -26119585.67147 -18867466.93346  21020546.4924   21020550.1954
        25.0004         23.0004
 03 10 29  2 39 30.0000000  0  7G 9G 4G24G30G 7G17G 5
  -3859064.28146  -2522407.60246  22264904.9844   22264909.1094
        15.7504         14.5004
 -12413495.31247  -9617760.02346  21299391.7734   21299394.8914
        22.2504         19.7504
 -26404071.20947 -20241053.44246  20668306.7344   20668310.7304
        23.2504         22.5004
 -27010045.82945 -20115353.98645  23197865.6094   23197869.7584
         8.2504          7.0004
  26068431.34144  20357483.82845  23838678.5234   23838685.3674
         7.5004          7.2504
 -25913889.60144 -19530072.92145  23857661.4454   23857668.2304
         7.5004          6.7504
 -26112840.65447 -18862211.00846  21021829.8834   21021833.8094
        25.2504         22.7504
 03 10 29  2 40  0.0000000  0  7G 9G 4G24G30G 7G17G 5
  -3714907.94546  -2410077.95946  22292336.3364   22292340.2974
        15.2504         14.5004
 -12294685.93547  -9525181.27446  21322000.2114   21322003.1884
        22.2504         19.7504
 -26372984.91547 -20216830.30546  20674222.5004   20674226.5314
        23.7504         22.5004
 -27045581.50345 -20143043.99345  23191104.0394   23191110.5664
         8.7504          7.2504
  26204828.87643  20463767.64245  23864634.0084   23864637.1724
         6.7504          6.7504
 -25952946.85144 -19560506.90145  23850227.8984   23850235.9414
         7.7504          7.7504
 -26105778.50347 -18856707.97946  21023173.9614   21023177.6764
        25.5004         22.7504
 03 10 29  2 40 30.0000000  0  7G 9G 4G24G30G 7G17G 5
  -3570447.71646  -2297511.50346  22319826.4144   22319830.6454
        15.0004         14.2504
 -12175452.50447  -9432272.09946  21344689.5944   21344692.7584
        22.2504         20.0004
 -26341409.40847 -20192225.96546  20680230.9774   20680235.0904
        23.7504         22.7504
 -27081042.61145 -20170675.90345  23184354.8284   23184359.4924
         8.2504          6.7504
  26341222.98743  20570048.76645  23890588.1334   23890593.0784
         6.2504          6.2504
 -25991905.91843 -19590864.43545  23842812.8524   23842818.3244
         6.7504          7.0004
 -26098404.34447 -18850961.82146  21024576.9844   21024580.7814
        25.2504         23.0004
 03 10 29  2 41  0.0000000  0  7G 9G 4G24G30G 7G17G 5
  -3425681.56246  -2184706.66946  22347374.8054   22347379.0234
        15.2504         14.5004
 -12055792.29247  -9339030.37346  21367460.3444   21367463.3204
        22.0004         19.5004
 -26309339.23147 -20167236.17346  20686333.6564   20686337.3954
        23.7504         22.7504
 -27116422.01045 -20198244.14245  23177622.8284   23177626.9654
         8.0004          7.7504
  26477618.52643  20676330.96545  23916543.2504   23916546.6844
         6.0004          6.0004
 -26030759.50844 -19621139.70845  23835420.8914   23835427.7854
         7.2504          7.0004
 -26090710.48747 -18844966.55746  21026041.0864   21026044.6254
        25.2504         22.7504
 03 10 29  2 41 30.0000000  0  7G 9G 4G24G30G 7G17G 5
  -3280611.06246  -2071664.66746  22374980.8834   22374984.5514
        15.0004         14.2504
 -11935706.22847  -9245456.81146  21390311.9304   21390315.0704
        22.0004         19.7504
 -26276773.06847 -20141859.90046  20692530.9304   20692534.6914
        23.5004         22.5004
 -27151716.39745 -20225746.07845  23170905.8444   23170910.7544
         8.0004          8.5004
  26614016.49843  20782615.17445  23942499.7344   23942507.3094
         5.7504          7.0004
 -26069504.46744 -19651330.33145  23828047.3364   23828054.4414
         7.0004          8.0004
 -26082694.17547 -18838720.02046  21027566.5864   21027570.3714
        25.2504         23.0004
 03 10 29  2 42  0.0000000  0  7G 9G 4G24G30G 7G17G 5
  -3135240.40946  -1958388.81746  22402643.7504   22402647.3714
        15.2504         14.2504
 -11815197.90747  -9151554.21846  21413244.0474   21413247.0124
        22.0004         19.5004
 -26243711.82847 -20116097.84846  20698821.8754   20698825.8134
        23.7504         23.0004
 -27186925.29245 -20253181.41945  23164206.3754   23164211.4494
         8.7504          9.0004
  26750415.27143  20888899.87645  23968455.9614   23968463.0904
         5.7504          6.0004
 -26108140.17143 -19681435.78145  23820694.6254   23820701.9414
         6.5004          7.0004
 -26074354.59647 -18832221.58746  21029153.5234   21029157.1804
        25.5004         22.7504
 03 10 29  2 42 30.0000000  0  7G 9G 4G24G30G 7G17G 5
  -2989571.02746  -1844880.15146  22430363.9774   22430367.9614
        15.0004         14.0004
 -11694268.45247  -9057323.45946  21436255.9694   21436258.9694
        21.5004         19.5004
 -26210153.89647 -20089948.76546  20705207.7894   20705211.7854
        23.7504         22.7504
 -27222045.27445 -20280547.50845  23157523.4924   23157527.4884
         9.7504          9.2504
  26886816.09943  20995186.26745  23994411.3984   23994415.1134
         5.2504          5.5004
 -26146663.27543 -19711453.49245  23813361.2584   23813368.8094
         5.7504          7.5004
 -26065688.32547 -18825468.59146  21030802.5474   21030805.9104
        25.5004         23.0004
 03 10 29  2 43  0.0000000  0  7G 9G 4G24G30G 7G17G 5
  -2843607.64546  -1731142.42946  22458139.1954   22458143.0394
        14.5004         14.0004
 -11572921.96847  -8962767.74946  21459347.1564   21459350.3324
        21.5004         19.5004
 -26176100.46947 -20063413.58546  20711687.9454   20711691.7774
        24.0004         23.0004
 -27257075.87545 -20307843.97245  23150857.2274   23150861.5514
         9.7504          9.0004
  27023216.99043  21101472.68845  24020366.6024   24020366.6954
         5.2504          6.0004
 -26185073.52044 -19741383.30545  23806053.9694   23806060.4734
         7.0004          7.2504
 -26056695.60147 -18818461.22146  21032513.7974   21032517.7584
        25.2504         23.0004
 03 10 29  2 43 30.0000000  0  7G 9G 4G24G30G 7G17G 5
  -2697346.62746  -1617172.76446  22485970.9224   22485974.3914
        14.2504         13.5004
 -11451154.04947  -8867883.64846  21482519.0784   21482522.2664
        21.2504         19.5004
 -26141544.65647 -20036486.93546  20718263.8054   20718267.9654
        24.0004         23.0004
 -27292008.61745 -20335064.22745  23144209.3524   23144213.8984
         8.7504          8.0004
  27159624.16642  21207763.96245  24046324.4304   24046332.4024
         4.7504          5.2504
 -26223362.38344 -19771218.52645  23798768.1724   23798773.6094
         7.5004          7.5004
 -26047367.71747 -18811192.69146  21034288.5004   21034292.1914
        25.5004         23.0004
 03 10 29  2 44  0.0000000  0  7G 9G 4G24G30G 7G17G 5
  -2550796.05846  -1502977.48946  22513859.0784   22513863.2624
        14.2504         13.7504
 -11328972.39147  -8772677.14046  21505769.2814   21505772.7734
        21.2504         19.2504
 -26106491.22047 -20009172.53446  20724934.1174   20724937.7274
        23.7504         22.7504
 -27326846.67345 -20362210.58045  23137579.2274   23137583.9494
         8.0004          7.0004
  27296032.36342  21314056.13645  24072282.9614   24072286.6174
         4.7504          5.0004
 -26261533.03345 -19800961.64345  23791505.5864   23791511.4344
         8.0004          8.0004
 -26037708.09347 -18803665.65346  21036126.7034   21036130.3244
        25.5004         23.2504
 03 10 29  2 44 30.0000000  0  7G 9G 4G24G30G 7G17G 5
  -2403954.69046  -1388555.61446  22541802.2584   22541806.0084
        14.2504         13.7504
 -11206375.15247  -8677146.81246  21529098.7114   21529101.9694
        21.5004         19.0004
 -26070936.16047 -19981467.25146  20731700.0394   20731703.8834
        23.5004         23.0004
 -27361583.77045 -20389278.33345  23130969.5784   23130974.5704
         8.5004          7.7504
  27432445.41243  21420352.00344  24098240.6094   24098245.3914
         5.0004          4.7504
 -26299579.29444 -19830607.85745  23784263.1094   23784269.5664
         7.5004          7.7504
 -26027709.96647 -18795874.85546  21038029.4694   21038032.8444
        26.0004         23.5004
 03 10 29  2 45  0.0000000  0  7G 9G 4G24G30G 7G17G 5
  -2256830.14446  -1273913.07346  22569799.1484   22569803.1914
        14.2504         14.0004
 -11083369.16047  -8581297.96346  21552506.1564   21552509.5084
        21.2504         18.7504
 -26034883.73447 -19953374.41446  20738560.3754   20738564.2194
        23.7504         22.7504
 -27396222.29645 -20416269.27545  23124377.8914   23124383.3284
         8.5004          7.5004
  27568858.67043  21526648.09544  24124199.6024   24124198.2304
         5.5004          4.7504
 -26337503.92544 -19860159.21145  23777047.0164   23777052.5004
         7.7504          6.7504
 -26017376.69647 -18787822.90646  21039995.6414   21039999.0864
        26.2504         23.5004
 03 10 29  2 45 30.0000000  0  7G 9G 4G24G30G 7G17G 5
  -2109422.50846  -1159049.95946  22597850.3134   22597853.9804
        14.2504         13.5004
 -10959954.32647  -8485130.53046  21575991.0234   21575994.6804
        21.0004         18.7504
 -25998330.93147 -19924891.66846  20745516.2734   20745520.1644
        23.7504         23.0004
 -27430757.56145 -20443179.78245  23117805.2734   23117809.8324
         8.2504          7.7504
  27705274.52343  21632946.24345  24150159.1644   24150165.4804
         5.7504          6.0004
 -26375301.98444 -19889612.07745  23769854.1724   23769860.3954
         7.7504          8.0004
 -26006702.97447 -18779505.66646  21042026.8134   21042030.2934
        26.2504         23.5004
 03 10 29  2 46  0.0000000  0  7G 9G 4G24G30G 7G17G 5
  -1961727.66446  -1043963.04846  22625955.3914   22625959.9024
        14.0004         13.2504
 -10836125.78647  -8388640.73846  21599554.6954   21599558.1054
        21.0004         18.5004
 -25961270.32947 -19896013.24446  20752568.5704   20752572.3444
        23.7504         23.0004
 -27465180.24545 -20470002.49145  23111255.1954   23111261.0664
         9.0004          8.5004
  27841699.95643  21739251.71545  24176118.5164   24176131.6454
         5.7504          5.5004
 -26412964.63044 -19918959.30345  23762686.4454   23762692.2934
         7.7504          8.0004
 -25995679.97147 -18770916.26746  21044124.4144   21044127.8134
        26.0004         23.5004
 03 10 29  2 46 30.0000000  0  7G 9G 4G24G30G 7G17G 5
  -1813755.82846   -928660.29546  22654113.4924   22654117.8754
        14.0004         13.5004
 -10711893.16547  -8291836.06946  21623195.4144   21623198.8014
        21.0004         18.7504
 -25923709.07847 -19866744.68746  20759716.3674   20759720.1644
        24.0004         23.0004
 -27499495.64345 -20496741.68645  23104725.1954   23104730.2234
         9.2504          9.0004
  27978127.57143  21845558.99245  24202081.0704   24202086.8834
         5.7504          6.0004
 -26450497.14145 -19948205.18345  23755544.8364   23755550.3094
         8.5004          7.2504
 -25984313.41847 -18762059.15846  21046287.4064   21046290.9104
        26.2504         23.7504
 03 10 29  2 47  0.0000000  0  7G 9G 4G24G30G 7G17G 5
  -1665502.33346   -813138.06046  22682324.9304   22682328.6454
        14.2504         13.5004
 -10587251.39347  -8194712.59546  21646913.8444   21646917.0084
        20.7504         18.7504
 -25885639.36247 -19837079.94746  20766960.5394   20766964.4184
        23.7504         23.0004
 -27533694.19845 -20523389.78545  23098216.8594   23098221.4884
        10.2504         10.0004
  28114564.47143  21951873.51645  24228043.8204   24228048.8594
         6.2504          6.5004
 -26487890.10845 -19977342.37845  23748430.1564   23748436.8484
         8.5004          8.0004
 -25972593.56647 -18752926.76246  21048517.5164   21048520.9734
        26.2504         24.0004
 03 10 29  2 47 30.0000000  0  7G 9G 4G24G30G 7G17G 5
  -1516963.17446   -697393.24946  22710591.4774   22710596.1294
        14.0004         12.7504
 -10462195.95047  -8097266.77546  21670711.3204   21670714.3444
        20.5004         18.2504
 -25847054.42647 -19807013.72346  20774303.2424   20774306.9924
        23.7504         23.0004
 -27567766.73445 -20549939.68345  23091733.7974   23091737.4414
        10.0004          9.5004
  28251017.42043  22058200.48745  24254009.8754   24254013.5434
         6.2504          6.2504
 -26525134.58645 -20006363.83645  23741342.8284   23741350.1214
         8.7504          8.0004
 -25960511.81847 -18743512.36046  21050816.6644   21050820.1334
        26.5004         23.7504
 03 10 29  2 48  0.0000000  0  7G 9G 4G24G30G 7G17G 5
  -1368148.59546   -581433.80846  22738909.3204   22738913.3634
        13.5004         13.0004
 -10336736.38647  -7999506.05546  21694585.5784   21694589.2814
        20.5004         18.2504
 -25807961.07747 -19776551.33846  20781742.2034   20781745.8244
        23.7504         23.0004
 -27601718.56245 -20576395.52145  23085272.4144   23085276.1054
         9.7504          9.0004
  28387479.28843  22164534.44945  24279977.2424   24279984.6524
         6.5004          5.7504
 -26562235.70945 -20035273.59145  23734281.8284   23734286.9264
         9.2504          8.5004
 -25948072.99047 -18733819.72146  21053183.6954   21053187.0704
        26.7504         24.0004
 03 10 29  2 48 30.0000000  0  7G 9G 4G24G30G 7G17G 5
  -2794464.84046  -1692849.04946  22467490.0474   22467494.8524
        13.2504         13.0004
 -11786279.07547  -9129019.81346  21418746.6174   21418749.8164
        20.5004         18.5004
 -27343766.10847 -20973282.49546  20489488.1724   20489492.0634
        23.5004         23.0004
 -29210956.57645 -21830347.14445  22779044.3674   22779048.3524
         9.2504          7.7504
  26948546.08743  21043287.90045  24006157.8524   24006161.3674
         6.5004          6.0004
 -28174601.09445 -21291662.00545  23427458.5394   23427465.3714
         8.7504          8.7504
 -27510683.07147 -19951437.92046  20755828.8984   20755832.0864
        27.0004         24.2504
 03 10 29  2 49  0.0000000  0  7G 9G 4G24G30G 7G17G 5
  -2645087.55646  -1576451.14546  22495916.1024   22495919.8054
        13.5004         12.7504
 -11659997.77247  -9030618.78246  21442777.1174   21442780.5164
        20.2504         18.0004
 -27303635.07747 -20942011.53046  20497124.8524   20497128.7194
        23.7504         23.2504
 -29244639.20645 -21856593.22145  22772634.4844   22772639.2544
         9.0004          8.7504
  27085045.87143  21149651.29145  24032132.8674   24032139.2544
         6.7504          7.2504
 -28211389.06645 -21320327.75945  23420457.3054   23420462.2504
         8.5004          7.5004
 -27497503.88147 -19941168.37546  20758336.6484   20758339.9654
        27.2504         24.2504
 03 10 29  2 49 30.0000000  0  7G 9G 4G24G30G 7G17G 5
  -2495434.35646  -1459838.24746  22524393.6954   22524398.6884
        13.2504         13.0004
 -11533310.30347  -8931901.26146  21466884.8834   21466887.7774
        20.5004         18.2504
 -27262986.35047 -20910337.15946  20504860.3524   20504864.1724
        23.7504         23.0004
 -29278185.35045 -21882732.95445  22766251.1804   22766256.0904
         9.7504          8.7504
  27221563.25543  21256028.55445  24058111.7734   24058116.3554
         6.7504          7.0004
 -28248018.58645 -21348870.06345  23413487.2734   23413491.2814
         8.2504          8.0004
 -27483952.79947 -19930609.04446  20760915.3284   20760918.6094
        27.2504         24.2504
 03 10 29  2 50  0.0000000  0  7G 9G 4G24G30G 7G17G 5
  -2345510.85546  -1343014.72146  22552923.3524   22552927.2664
        12.7504         13.2504
 -11406222.07747  -8832871.46446  21491069.2424   21491072.2424
        20.5004         18.0004
 -27221822.56547 -20878261.44846  20512693.2504   20512697.0354
        23.7504         23.2504
 -29311595.39945 -21908766.65545  22759893.6414   22759898.9024
        10.2504          9.5004
  27358095.35943  21362417.19945  24084092.8364   24084097.9694
         6.5004          7.0004
 -28284490.57045 -21377289.61245  23406546.5634   23406551.3914
         9.2504          9.0004
 -27470030.58247 -19919760.51746  20763564.4384   20763567.8244
        27.0004         24.5004
 03 10 29  2 50 30.0000000  0  7G 9G 4G24G30G 7G17G 5
  -2195311.54746  -1225976.28946  22581504.9924   22581509.4344
        13.0004         12.5004
 -11278726.91847  -8733524.57546  21515330.5784   21515333.8364
        20.2504         18.0004
 -27180135.04347 -20845777.62846  20520625.8204   20520629.6174
        23.7504         23.2504
 -29344858.87445 -21934686.12645  22753563.0704   22753566.0594
        10.5004          9.7504
  27494650.42143  21468823.72345  24110078.7584   24110083.6334
         6.5004          6.2504
 -28320794.54245 -21405578.26345  23399638.0234   23399643.1804
         9.0004          8.5004
 -27455726.85647 -19908614.70546  20766286.6094   20766289.9144
        27.2504         24.2504
 03 10 29  2 51  0.0000000  0  7G 9G 4G24G30G 7G17G 5
  -2044847.99146  -1108731.94646  22610138.5084   22610143.3484
        13.0004         12.5004
 -11150835.61447  -8633869.00646  21539667.6024   21539670.8014
        20.2504         17.7504
 -27137932.40047 -20812892.41446  20528656.9454   20528660.7664
        23.7504         23.5004
 -29377981.99445 -21960496.22645  22747260.2894   22747264.0164
        10.7504         10.5004
  27631219.80643  21575241.49945  24136067.2424   24136071.8714
         5.7504          6.2504
 -28356937.06645 -21433741.09745  23392759.7894   23392763.1884
         8.5004          8.5004
 -27441048.31247 -19897176.83246  20769079.6564   20769082.9264
        27.2504         24.7504
 03 10 29  2 51 30.0000000  0  8G10G 9G 4G24G30G 7G17G 5
 -25206718.60051                  24864422.3284
         3.0004
  -1894118.72446   -991280.53846  22638820.5234   22638824.9064
        12.5004         12.2504
 -11022546.42547  -8533903.39546  21564079.9614   21564083.0204
        20.0004         18.2504
 -27095210.19347 -20779602.33946  20536786.9144   20536790.7704
        24.0004         23.5004
 -29410958.20045 -21986191.79845  22740985.0234   22740989.4064
        10.2504         10.2504
  27767807.80843  21681673.57245  24162058.6024   24162064.9534
         5.7504          6.2504
 -28392911.87245 -21461773.27545  23385914.6254   23385919.5944
         9.0004          8.2504
 -27425988.56347 -19885441.92146  20771945.2974   20771948.6254
        27.0004         24.5004
 03 10 29  2 52  0.0000000  0  8G10G 9G 4G24G30G 7G17G 5
 -25250264.86241                  24856136.1254
         3.5004
  -1743122.44346   -873621.09246  22667553.7974   22667557.6644
        12.7504         12.5004
 -10893857.49247  -8433626.29646  21588568.8914   21588571.7384
        20.0004         17.7504
 -27051964.06647 -20745904.02346  20545016.0704   20545019.6914
        24.0004         23.5004
 -29443781.01045 -22011767.87145  22734738.4064   22734743.3524
         9.7504          9.7504
  27904418.62443  21788123.62245  24188053.6024   24188058.2074
         5.5004          6.5004
 -28428712.53745 -21489669.76145  23379100.4924   23379105.9184
         8.5004          8.5004
 -27410541.46647 -19873405.17546  20774884.8444   20774888.3484
        27.0004         24.5004
 03 10 29  2 52 30.0000000  0  8G10G 9G 4G24G30G 7G17G 5
 -25293902.41642                  24847830.0784
         4.0004
  -1591870.34846   -755762.30746  22696336.8134   22696340.9024
        12.2504         12.0004
 -10764779.43447  -8333045.99246  21613131.7814   21613134.5704
        20.0004         18.0004
 -27008202.54047 -20711804.09946  20553343.7504   20553347.5004
        24.2504         23.5004
 -29476456.39145 -22037228.99545  22728521.1174   22728526.7304
        10.2504          9.5004
  28041043.95443  21894584.84245  24214053.7274   24214058.2274
         5.0004          5.0004
 -28464345.50245 -21517435.49145  23372320.8984   23372325.4694
         9.0004          8.7504
 -27394713.32647 -19861071.51646  20777896.7114   20777900.0864
        27.0004         24.7504
 03 10 29  2 53  0.0000000  0  8G10G 9G 4G24G30G 7G17G 5
 -25337622.84842 -19641598.98155  24839511.6644   24839513.7624
         4.5004          5.0004
  -1440359.61446   -637701.99546  22725167.8524   22725171.3914
        12.5004         12.2504
 -10635309.09747  -8232160.00346  21637768.6884   21637772.0394
        20.0004         18.0004
 -26963920.13947 -20677298.28846  20561770.3984   20561773.8324
        24.2504         23.5004
 -29508976.51745 -22062569.22545  22722332.2274   22722336.6454
        10.2504          9.2504
  28177689.01542  22001061.57645  24240056.8204   24240061.5904
         4.7504          5.5004
 -28499803.28745 -21545064.80045  23365572.8444   23365576.9344
         9.5004          8.7504
 -27378496.44447 -19848434.93846  20780982.7734   20780986.1134
        26.7504         24.5004
 03 10 29  2 53 30.0000000  0  8G10G 9G 4G24G30G 7G17G 5
 -25381425.56243 -19675730.79243  24831176.1484   24831181.8444
         5.5004          3.7504
  -1288595.56146   -519444.25446  22754047.7814   22754051.4384
        12.5004         12.0004
 -10505451.09046  -8130971.93546  21662479.9844   21662483.1484
        19.7504         18.0004
 -26919119.15547 -20642388.39846  20570295.6724   20570299.1414
        24.2504         23.7504
 -29541341.41145 -22087788.44145  22716173.7664   22716177.3164
        10.2504          9.0004
  28314351.69242  22107551.93745  24266062.6334   24266066.2894
         4.5004          5.7504
 -28535086.20845 -21572557.82145  23358859.0474   23358864.3444
         9.7504          8.2504
 -27361891.53047 -19835495.99946  20784142.2274   20784145.8834
        26.7504         24.5004
 03 10 29  2 54  0.0000000  0  9G10G 9G 4G24G30G 7G 6G17G 5
 -25425315.34643 -19709930.56145  24822824.0864   24822828.6804
         6.0004          6.2504
  -1136589.03046   -400997.60146  22782973.3054   22782977.3364
        12.5004         12.7504
 -10375215.77646  -8029489.85246  21687263.2194   21687266.6994
        19.7504         17.5004
 -26873807.42747 -20607080.51746  20578918.2344   20578921.6914
        24.2504         23.5004
 -29573556.72045 -22112891.11845  22710043.5394   22710045.3554
        10.5004          9.7504
  28451023.92242  22214049.79644  24292069.8134   24292073.5274
         4.5004          4.5004
 -25210241.89852                  25393723.2344
         4.2504
 -28570200.10445 -21599919.16845  23352176.9844   23352182.8674
         9.2504          8.7504
 -27344904.23247 -19822259.10146  20787375.0784   20787378.5354
        26.7504         24.7504
 03 10 29  2 54 30.0000000  0  9G10G 9G 4G24G30G 7G 6G17G 5
 -25469287.81343 -19744194.69245  24814456.5634   24814466.1414
         6.5004          6.5004
   -984341.86945   -282363.44945  22811945.0394   22811949.7384
        11.7504         11.2504
 -10244604.56646  -7927714.87246  21712117.3364   21712120.4064
        19.2504         17.5004
 -26827983.85247 -20571373.80446  20587638.0394   20587641.5434
        24.2504         23.5004
 -29605619.00845 -22137874.59545  22703941.5864   22703944.8794
        10.5004          9.2504
  28587706.96942  22320556.09745  24318078.7344   24318085.6294
         4.2504          5.5004
 -25231375.06642                  25389700.0474
         4.2504
 -28605141.70245 -21627146.19545  23345528.0084   23345532.9654
         9.2504          8.7504
 -27327531.51547 -19808721.87946  20790680.8524   20790684.3794
        26.7504         24.7504
 03 10 29  2 55  0.0000000  0  9G10G 9G 4G24G30G 7G 6G17G 5
 -25513336.74243 -19778518.45245  24806074.7194   24806079.5704
         6.7504          6.7504
   -831853.39046   -163541.22246  22840963.4614   22840967.3984
        12.5004         12.5004
 -10113616.30146  -7825646.06846  21737043.5864   21737046.5984
        19.2504         17.2504
 -26781645.00447 -20535265.57446  20596455.9774   20596459.2344
        24.0004         23.5004
 -29637522.48145 -22162734.21845  22697869.7194   22697873.9614
         9.5004          9.7504
  28724404.07842  22427073.31044  24344092.0554   24344097.7384
         4.2504          4.7504
 -25252494.31842                  25385679.0704
         4.0004
 -28639905.72645 -21654234.90945  23338911.6564   23338915.4654
         9.0004          8.5004
 -27309768.13347 -19794880.24046  20794061.1804   20794064.4734
        27.0004         24.7504
 03 10 29  2 55 30.0000000  0  9G10G 9G 4G24G30G 7G 6G17G 5
 -25557465.36343 -19812904.27545  24797676.3284   24797683.6564
         6.2504          6.7504
   -679132.99045    -44538.29446  22870024.0704   22870028.5124
        11.7504         12.2504
  -9982259.70546  -7723290.26346  21762040.1414   21762043.6564
        19.2504         16.7504
 -26734797.31747 -20498760.85046  20605370.9224   20605374.4384
        24.2504         23.7504
 -29669271.33445 -22187473.39545  22691828.6024   22691832.5864
         9.5004          9.7504
 -25183939.13652  22533596.50945  24370106.6174   24370104.9884
         4.5004          5.0004
 -25273605.71741                  25381659.6884
         3.5004
 -28674496.81645 -21681188.84845  23332329.2664   23332334.0824
         9.2504          8.7504
 -27291618.13747 -19780737.34746  20797514.8834   20797518.1524
        26.7504         24.5004
 03 10 29  2 56  0.0000000  0  9G10G 9G 4G24G30G 7G 6G17G 5
 -25601664.80343 -19847345.21745  24789265.6644   24789274.3754
         5.5004          6.0004
   -526177.78246     74647.59246  22899131.7034   22899135.2894
        12.7504         12.0004
  -9850531.72346  -7620645.05146  21787107.0004   21787110.3634
        19.0004         16.7504
 -26687435.64947 -20461855.61646  20614383.4454   20614387.0204
        24.0004         23.5004
 -29700857.45845 -22212085.79345  22685817.4144   22685820.5434
        10.2504         10.0004
 -25047220.98642  22640129.98844  24396123.2974   24396136.1804
         4.7504          4.7504
 -25294703.30541 -19642695.17153  25377647.0634   25377657.2034
         3.0004          3.5004
 -28708906.94245 -21708001.77345  23325780.7344   23325786.2194
         9.0004          9.2504
 -27273074.44547 -19766287.67946  20801043.7424   20801047.0824
        27.0004         24.7504
 03 10 29  2 56 30.0000000  0  9G10G 9G 4G24G30G 7G 6G17G 5
 -25645934.01542 -19881840.53545  24780841.2194   24780847.6174
         4.5004          5.2504
   -372992.99246    194012.37546  22928281.6644   22928285.4844
        12.5004         12.0004
  -9718436.64546  -7517713.80646  21812243.9924   21812246.6414
        18.7504         17.0004
 -26639562.05747 -20424551.49246  20623493.5084   20623497.0354
        24.2504         23.7504
 -29732280.70645 -22236571.30745  22679837.5084   22679840.6844
        11.0004          9.7504
 -24910491.65443  22746672.37844  24422142.4774   24422148.5474
         5.0004          4.0004
 -25315789.25541                  25373631.8984
         2.5004
 -28743136.67045 -21734674.16245  23319267.5704   23319272.1644
         9.0004          9.5004
 -27254137.42547 -19751531.53246  20804647.2584   20804650.5044
        27.0004         25.0004
 03 10 29  2 57  0.0000000  0  9G10G 9G 4G24G30G 7G 6G17G 5
 -25690267.01141 -19916385.60544  24772405.2034   24772414.5004
         3.7504          4.5004
   -219578.52545    313556.13345  22957474.7424   22957478.9964
        11.7504         11.7504
  -9585974.35246  -7414496.41146  21837450.6484   21837453.4494
        18.7504         16.7504
 -26591173.61647 -20386846.18246  20632701.3134   20632704.9694
        24.0004         24.0004
 -29763535.84145 -22260925.78645  22673891.0704   22673895.3364
        11.0004          9.0004
 -24773748.22743  22853225.67745  24448164.2814   24448169.2734
         5.5004          5.0004
 -25336860.05741                  25369622.7344
         2.7504
 -28777180.83345 -21761201.93145  23312789.5314   23312793.7384
         9.7504          9.5004
 -27234802.19947 -19736465.08446  20808326.7344   20808330.1804
        27.0004         25.0004
 03 10 29  2 57 30.0000000  0  9G10G 9G 4G24G30G 7G 6G17G 5
 -25734666.60041 -19950982.60744  24763955.8834   24763967.4304
         2.7504          4.5004
    -65943.07146    433272.08445  22986710.5634   22986714.9804
        12.0004         11.5004
  -9453152.60946  -7310998.93546  21862725.8834   21862728.7544
        19.0004         16.5004
 -26542276.48147 -20348744.48746  20642006.2114   20642009.5634
        24.2504         24.0004
 -29794626.31745 -22285152.01845  22667973.8754   22667976.8874
        11.0004         10.0004
 -24636996.58543  22959785.46544  24474187.1564   24474192.1484
         5.7504          4.7504
 -25357921.43341                  25365617.3364
         3.5004
 -28811043.36645 -21787588.20645  23306343.9144   23306348.8834
         9.0004          9.0004
 -27215071.94747 -19721090.82646  20812081.0164   20812084.3794
        27.0004         25.0004
 03 10 29  2 58  0.0000000  0  9G10G 9G 4G24G30G 7G 6G17G 5
 -25240805.56751                  24755496.2274
         3.2504
     87919.56345    553165.06245  23015989.2814   23015993.6644
        11.7504         11.5004
  -9319965.05246  -7207216.39546  21888070.6414   21888073.5824
        18.7504         16.7504
 -26492861.69647 -20310239.42846  20651409.6174   20651413.2154
        24.0004         24.0004
 -29825540.61345 -22309240.93445  22662090.5634   22662093.7384
        11.0004         10.5004
 -24500227.72143  23066358.55745  24500212.4694   24500220.2074
         5.7504          5.5004
 -25378963.78142                  25361611.9694
         4.2504
 -28844713.06045 -21813824.18445  23299938.1174   23299944.5274
         9.7504          9.2504
 -27194936.09047 -19705400.51446  20815912.7034   20815915.9144
        27.0004         25.0004
 03 10 29  2 58 30.0000000  0  9G10G 9G 4G24G30G 7G 6G17G 5
 -25285309.55142                  24747027.6094
         4.7504
    242007.65045    673233.70245  23045310.9144   23045315.1214
        11.5004         11.5004
  -9186412.83646  -7103149.71546  21913484.3754   21913487.6564
        18.7504         16.5004
 -26442928.67847 -20271330.55446  20660911.2894   20660914.9344
        23.7504         23.7504
 -29856275.29045 -22333189.89545  22656242.5474   22656246.9064
        11.2504         10.7504
 -24363440.30443  23172946.18244  24526242.8364   24526249.7664
         5.7504          4.7504
 -25399985.83542                  25357611.7274
         4.7504
 -28878187.02445 -21839907.68145  23293567.6254   23293573.1214
         9.2504         10.0004
 -27174391.82147 -19689391.95946  20819822.0394   20819825.4734
        26.7504         25.2504
 03 10 29  2 59  0.0000000  0  9G10G 9G 4G24G30G 7G 6G17G 5
 -25329866.54142 -19648545.85854  24738547.5474   24738551.3674
         4.7504          4.7504
    396312.24745    793471.06845  23074674.3284   23074677.7624
        11.7504         11.7504
  -9052504.75146  -6998805.73746  21938966.4844   21938969.8834
        18.5004         16.5004
 -26392483.61247 -20232022.68046  20670510.8364   20670514.5274
        23.7504         23.7504
 -29886834.15145 -22357001.88545  22650427.2734   22650430.9774
        11.5004         10.7504
 -24226640.63743  23279543.31144  24552274.3524   24552278.9574
         5.7504          4.5004
 -25420993.44942                  25353615.2424
         4.7504
 -28911469.55445 -21865841.97945  23287234.5474   23287240.1604
        10.5004         10.0004
 -27153443.30247 -19673068.40046  20823808.6644   20823811.9694
        27.0004         25.2504
 03 10 29  2 59 30.0000000  0  9G10G 9G 4G24G30G 7G 6G17G 5
 -25374471.78842 -19683303.04044  24730060.7194   24730060.8484
         4.5004          4.5004
    550831.75845    913875.89845  23104078.8834   23104083.1954
        11.2504         10.7504
  -8918241.75546  -6894185.21246  21964515.5634   21964518.4104
        18.5004         16.2504
 -26341525.30747 -20192314.88046  20680208.0394   20680211.5904
        24.2504         23.7504
 -29917213.39345 -22380673.90845  22644645.8134   22644648.8014
        11.2504         11.0004
 -24089827.24743  23386151.17745  24578310.2664   24578314.2734
         6.0004          5.0004
 -25441984.83642 -19645416.27654  25349621.0474   25349625.6054
         4.2504          4.5004
 -28944557.25245 -21891624.54245  23280937.5084   23280942.2194
        10.2504         10.0004
 -27132087.02347 -19656427.10846  20827872.4534   20827875.7704
        27.0004         25.0004
 03 10 29  3  0  0.0000000  0  9G10G 9G 4G24G30G 7G 6G17G 5
 -25419118.54742 -19718092.59343  24721563.9064   24721569.2624
         4.0004          3.7504
    705567.03045   1034448.84445  23133524.6884   23133527.6994
        11.2504         11.2504
  -8783622.17146  -6789286.82146  21990133.3284   21990136.5164
        18.2504         16.2504
 -26290050.16747 -20152204.35146  20690003.2344   20690006.9614
        24.0004         23.7504
 -29947406.84045 -22404201.19045  22638900.4924   22638903.7854
        11.5004         10.5004
 -23952996.31743  23492772.72144  24604347.6564   24604355.6644
         6.0004          4.2504
 -25462955.89841                  25345628.8524
         3.7504
 -28977444.30545 -21917250.66545  23274679.8754   23274685.5354
        10.2504          9.7504
 -27110317.68547 -19639463.95246  20832014.9384   20832018.1604
        27.2504         25.2504
 03 10 29  3  0 30.0000000  0  9G10G 9G 4G24G30G 7G 6G17G 5
 -25463803.30941                  24713060.1414
         3.0004
    860515.41645   1155187.84345  23163009.7424   23163014.5594
        11.2504         10.7504
  -8648648.58646  -6684112.58946  22015817.6564   22015821.0554
        18.0004         16.2504
 -26238058.41847 -20111691.27346  20699896.7974   20699900.2544
        24.0004         23.7504
 -29977411.83746 -22427581.62045  22633190.5704   22633194.5084
        12.0004         11.2504
 -23816147.60243  23599408.13944  24630387.9064   24630393.0164
         5.7504          4.7504
 -25483906.06942                  25341643.0864
         4.2504
 -29010128.28845 -21942718.60945  23268459.5394   23268463.3014
        10.5004         10.2504
 -27088132.43247 -19622176.70646  20836236.7814   20836240.0984
        27.2504         25.5004
 03 10 29  3  1  0.0000000  0  9G10G 9G 4G24G30G 7G 6G17G 5
 -25508522.51542                  24704551.0314
         4.2504
   1015674.62545   1276091.14145  23192536.1334   23192540.0124
        11.5004         10.7504
  -8513322.67846  -6578663.82946  22041569.1334   22041572.3204
        18.0004         16.0004
 -26185549.69547 -20070775.35146  20709888.8914   20709892.4414
        24.0004         23.7504
 -30007225.38246 -22450812.85945  22627517.2814   22627521.7114
        12.2504         11.0004
 -23679280.65443  23706057.69945  24656434.1414   24656439.4494
         5.7504          5.7504
 -25504834.43442                  25337658.2504
         4.2504
 -29042607.01345 -21968026.62345  23262279.2504   23262284.3834
        10.5004         10.2504
 -27065529.24247 -19604563.78746  20840537.9144   20840541.2664
        27.0004         25.2504
 03 10 29  3  1 30.0000000  0  9G10G 9G 4G24G30G 7G 6G17G 5
 -27128695.17543 -20871524.60155  24396242.7894   24396252.3324
         5.7504          5.2504
   -404374.34745    169559.49945  22922309.1024   22922313.4144
        10.7504         10.7504
  -9953063.52046  -7700539.79646  21767595.8524   21767598.5944
        17.7504         16.0004
 -27707943.51047 -21257056.21046  20420186.7344   20420190.2734
        23.7504         23.7504
 -31612267.23646 -23701494.72845  22322087.8754   22322091.5434
        12.5004         11.5004
 -25117811.95243  22585124.31142  24382689.3914   24382696.5664
         5.5004          2.7504
 -27101162.58442                  25033887.0704
         4.2504
 -30650300.63945 -23220774.82345  22956345.8444   22956350.2624
        11.0004         10.2504
 -28617926.51647 -20814223.95546  20545126.6954   20545130.0824
        27.2504         25.5004
 03 10 29  3  2  0.0000000  0  9G10G 9G 4G24G30G 7G 6G17G 5
 -27173478.16043 -20906420.40145  24387719.7344   24387721.7734
         6.0004          5.2504
   -248807.51645    290780.41845  22951913.2664   22951917.6604
        11.0004         11.2504
  -9817045.28546  -7594551.55646  21793478.9614   21793481.7504
        17.7504         16.2504
 -27654406.85147 -21215339.30446  20430374.8284   20430378.4964
        24.2504         24.0004
 -31641695.72346 -23724425.94345  22316487.1024   22316491.0634
        12.2504         11.0004
 -24980913.34342  22691798.37643  24408741.1724   24408745.3554
         4.7504          3.5004
 -27122051.71342                  25029910.1024
         4.5004
 -30682368.17145 -23245762.40645  22950242.2274   22950248.6724
        10.7504         10.2504
 -28594487.15747 -20795959.47646  20549586.8834   20549589.9884
        27.2504         25.5004
 03 10 29  3  2 30.0000000  0  9G10G 9G 4G24G30G 7G 6G17G 5
 -27218287.07643 -20941336.29545  24379194.0314   24379200.8284
         6.0004          6.5004
    -93039.72245    412157.94945  22981554.1024   22981558.0164
        10.5004         10.2504
  -9680683.36246  -7488295.50146  21819427.8134   21819430.9534
        17.7504         15.7504
 -27600355.52747 -21173221.36146  20440660.3834   20440664.1684
        24.0004         24.0004
 -31670926.77546 -23747203.29645  22310925.1414   22310929.0904
        12.0004         10.5004
 -24843997.60042  22798486.01345  24434795.0084   24434797.2934
         4.7504          5.0004
 -27142919.40943                  25025942.3364
         5.0004
 -30714225.63045 -23270586.30645  22944181.0004   22944186.3444
        10.7504         10.0004
 -28570625.74547 -20777366.12246  20554127.3364   20554130.7584
        27.0004         25.5004
 03 10 29  3  3  0.0000000  0  9G10G 9G 4G24G30G 7G 6G17G 5
 -27263116.84243 -20976268.49845  24370663.1254   24370668.6914
         5.7504          5.7504
     62927.86045    533691.13545  23011233.1334   23011237.3754
        10.5004         10.5004
  -9543978.26846  -7381772.04446  21845442.1644   21845445.4694
        17.7504         16.0004
 -27545787.97947 -21130701.15946  20451044.0944   20451047.6214
        23.7504         24.2504
 -31699956.11045 -23769823.46545  22305400.5864   22305403.7154
        11.7504         11.0004
 -24707062.76142  22905188.42244  24460853.0784   24460854.9774
         4.7504          4.0004
 -27163763.67743                  25021974.3524
         5.0004
 -30745869.56345 -23295243.85345  22938159.2424   22938165.0204
        10.7504         10.2504
 -28546338.37247 -20758440.84446  20558749.1414   20558752.4574
        27.2504         25.5004
 03 10 29  3  3 30.0000000  0  9G10G 9G 4G24G30G 7G 6G17G 5
 -27307962.47943 -21011212.98345  24362128.5164   24362135.6214
         6.2504          5.5004
    219093.99845    655379.04345  23040950.7194   23040954.5274
        11.0004         10.7504
  -9406930.74146  -7274981.75746  21871521.1884   21871524.9144
        17.5004         16.2504
 -27490703.00647 -21087777.77946  20461526.3674   20461529.9774
        24.0004         24.0004
 -31728779.63745 -23792283.28145  22299915.4614   22299918.7544
        11.7504         10.5004
                                  24486919.3674
         4.5004
 -27184582.40842                  25018011.2894
         4.5004
 -30777296.26745 -23319732.09745  22932177.9774   22932181.9844
        11.0004         10.7504
 -28521621.71347 -20739181.06546  20563452.7344   20563456.0744
        27.5004         25.7504
 03 10 29  3  4  0.0000000  0  9G10G 9G 4G24G30G 7G 6G17G 5
 -27352820.91243 -21046167.58145  24353592.4774   24353598.3364
         6.0004          5.2504
    375455.43945    777219.14245  23070706.1414   23070709.9264
        11.0004         11.0004
  -9269543.51046  -7167926.76746  21897665.1174   21897668.2814
        17.2504         15.7504
 -27435101.38647 -21044451.80446  20472106.9304   20472110.5044
        23.7504         24.0004
 -31757395.01846 -23814580.90145  22294469.7894   22294473.1764
        12.2504         11.2504
 -26649733.95842                  24512979.5704
         4.0004
 -27205375.58042                  25014055.5474
         4.2504
 -30808503.99745 -23344049.71045  22926239.8364   22926244.7234
        11.0004         10.7504
 -28496473.86147 -20719585.28646  20568238.0314   20568241.3954
        27.2504         25.7504
 03 10 29  3  4 30.0000000  0  9G10G 9G 4G24G30G 7G 6G17G 5
 -27397684.13343 -21081125.75645  24345054.6254   24345063.3594
         5.0004          5.2504
    532014.16145    899212.95445  23100497.5864   23100501.7114
        10.5004         10.0004
  -9131814.28546  -7060605.29146  21923873.9924   21923877.0634
        17.0004         15.7504
 -27378978.35647 -21000719.54146  20482787.0474   20482790.7384
        23.7504         23.7504
 -31785795.21146 -23836710.83145  22289065.8364   22289070.3244
        12.0004         11.5004
 -26512732.49142                  24539051.6954
         4.0004
 -27226138.16041 -20875669.23254  25010103.8364   25010113.1214
         3.7504          4.2504
 -30839486.23345 -23368191.64845  22920344.3284   22920349.4614
        11.2504         10.7504
 -28470888.76647 -20699648.79947  20573106.6884   20573109.8284
        27.2504         26.0004
 03 10 29  3  5  0.0000000  0  9G10G 9G 4G24G30G 7G 6G17G 5
 -27442550.04443 -21116086.11645  24336517.2734   24336519.8524
         5.7504          6.0004
    688766.21245   1021357.42545  23130327.3524   23130331.0784
        10.5004          9.7504
  -8993746.51946  -6953020.01446  21950147.4384   21950150.4964
        16.7504         15.7504
 -27322335.94247 -20956582.55746  20493565.3594   20493568.9924
        23.7504         24.0004
 -31813978.77446 -23858671.95645  22283702.7194   22283706.5984
        12.5004         11.7504
 -26375706.70141                  24565126.8674
         3.7504
 -27246870.94442 -20891824.29944  25006159.6024   25006171.8754
         4.0004          4.0004
 -30870242.18145 -23392157.23845  22914491.4694   22914496.8014
        11.0004         10.0004
 -28444865.24147 -20679370.67546  20578058.7504   20578062.1484
        27.5004         25.7504
 03 10 29  3  5 30.0000000  0  9G10G 9G 4G24G30G 7G 6G17G 5
 -27487422.08143 -21151051.19445  24327977.5554   24327982.3714
         6.5004          7.2504
    845702.01245   1143645.07145  23160190.8364   23160194.9384
        10.5004         10.5004
  -8855349.35546  -6845178.07046  21976483.7664   21976486.8834
        16.7504         16.0004
 -27265181.25147 -20912046.40846  20504441.6644   20504444.9574
        23.7504         24.0004
 -31841950.08046 -23880467.68845  22278380.0004   22278382.6844
        12.5004         11.0004
 -26238663.30941                  24591203.8984
         3.2504
 -27267580.49641 -20907961.36144  25002217.6254   25002219.8284
         3.7504          4.0004
 -30900776.75345 -23415950.33645  22908679.8594   22908684.6174
        11.2504         10.5004
 -28418408.39847 -20658754.91247  20583093.1484   20583096.5004
        27.7504         26.0004
 03 10 29  3  6  0.0000000  0  9G10G 9G 4G24G30G 7G 6G17G 5
 -27532296.88943 -21186018.46445  24319438.4454   24319443.9534
         5.7504          6.7504
   1002818.70045   1266073.64945  23190089.7114   23190094.3054
        10.5004         10.0004
  -8716625.15646  -6737081.26946  22002881.7814   22002885.2624
        16.5004         15.5004
 -27207514.34247 -20867111.11746  20515415.2584   20515418.6684
        24.0004         24.0004
 -31869706.44446 -23902095.94445  22273098.4454   22273101.3164
        12.5004         11.5004
 -26101602.21541                  24617286.6564
         2.7504
 -27288266.36342 -20924079.83244  24998280.7344   24998287.8404
         4.0004          4.2504
 -30931087.85645 -23439569.30845  22902912.2664   22902917.4224
        10.7504         10.2504
 -28391516.53347 -20637800.17047  20588210.7114   20588213.9104
        27.2504         26.0004
 03 10 29  3  6 30.0000000  0  9G10G 9G 4G24G30G 7G 6G17G 5
 -27577173.50141 -21220986.98943  24310898.6414   24310909.4614
         3.7504          3.5004
   1160111.11045   1388639.16145  23220021.4454   23220023.8714
        10.5004         10.5004
  -8577578.70246  -6628733.37846  22029341.7274   22029345.5354
        16.5004         15.0004
 -27149338.30947 -20821779.11546  20526485.5864   20526489.3484
        24.0004         24.0004
 -31897247.66945 -23923556.55945  22267856.8914   22267860.3364
        11.7504         11.0004
 -25964525.42541                  24643372.4774
         3.2504
 -27308930.40341 -20940181.45843  24994348.1024   24994350.3404
         3.7504          3.5004
 -30961175.95545 -23463014.51445  22897187.2734   22897192.2194
        11.2504         10.7504
 -28364190.00847 -20616506.73246  20593410.4454   20593413.5744
        27.0004         25.7504
 03 10 29  3  7  0.0000000  0  9G10G 9G 4G24G30G 7G 6G17G 5
 -27622042.19542 -21255949.64144  24302360.8284   24302369.3984
         4.5004          4.7504
   1317582.78845   1511344.38845  23249985.4694   23249988.9264
         9.7504         10.0004
  -8438205.85646  -6520131.14646  22055863.0314   22055866.2074
        16.2504         14.7504
 -27090647.35347 -20776045.86746  20537654.2034   20537657.7544
        23.7504         24.0004
 -31924564.80846 -23944842.57045  22262658.3284   22262661.7974
        12.2504         11.2504
 -25827426.66841 -20783738.54953  24669461.2274   24669468.8484
         3.2504          3.5004
 -27329565.89941 -20956260.66044  24990421.1484   24990425.5434
         3.7504          4.0004
 -30991032.82545 -23486279.53845  22891505.3914   22891510.2544
        11.0004         11.0004
 -28336420.59947 -20594868.18647  20598694.7504   20598698.0434
        27.0004         26.0004
 03 10 29  3  7 30.0000000  0  9G10G 9G 4G24G30G 7G 6G17G 5
 -27666899.86543 -21290903.52745  24293823.8674   24293827.3594
         5.0004          5.7504
   1475230.53345   1634186.77645  23279986.3754   23279990.6414
        10.5004         10.0004
  -8298509.44146  -6411276.79346  22082446.5634   22082449.6094
        16.0004         14.7504
 -27031442.28147 -20729912.01846  20548920.6254   20548924.1644
        24.2504         24.2504
 -31951655.75546 -23965952.31745  22257502.9694   22257506.9414
        12.2504         11.2504
 -25690305.96441                  24695553.1564
         3.0004
 -27350172.59341 -20972317.62543  24986499.0554   24986503.9534
         3.7504          3.7504
 -31020656.66445 -23509362.97545  22885868.6414   22885873.6564
        11.2504         11.2504
 -28308206.59147 -20572883.20746  20604063.6334   20604067.0204
        27.2504         25.7504
 03 10 29  3  8  0.0000000  0  9G10G 9G 4G24G30G 7G 6G17G 5
 -27711749.27042 -21325850.96945  24285290.2584   24285297.6564
         4.2504          5.2504
   1633045.61645   1757159.59045  23310018.2034   23310021.5084
        10.5004         10.0004
  -8158497.86846  -6302176.85946  22109089.7894   22109092.7304
        16.0004         14.7504
 -26971729.31647 -20683382.40446  20560283.7344   20560287.2504
        24.2504         24.2504
 -31978523.85046 -23986888.39445  22252390.3754   22252393.9614
        12.7504         11.7504
 -25553169.32441                  24721651.3674
         3.7504
 -27370756.30242                  24982581.3754
         4.2504
 -31050051.58945 -23532268.07245  22880274.3524   22880278.0904
        11.5004         10.0004
 -28279552.46547 -20550555.27947  20609516.4534   20609519.7114
        27.2504         26.0004
 03 10 29  3  8 30.0000000  0  9G10G 9G 4G24G30G 7G 6G17G 5
 -27756576.68543 -21360781.35345  24276758.5314   24276762.2814
         6.2504          5.2504
   1791035.56745   1880268.60945  23340080.8134   23340085.3364
         9.5004         10.2504
  -8018162.99246  -6192824.98746  22135794.8674   22135798.2544
        16.0004         14.2504
 -26911498.63347 -20636449.36546  20571745.0784   20571748.7234
        24.0004         24.2504
 -32005156.49246 -24007641.02646  22247322.7034   22247325.4454
        13.2504         12.0004
 -25416006.34642 -20865641.33155  24747750.8754   24747755.9494
         4.5004          5.2504
 -27391306.45442                  24978672.4614
         4.5004
 -31079205.49445 -23554985.30245  22874727.0784   22874730.8634
        11.7504         10.7504
 -28250446.20747 -20527875.03747  20615055.1564   20615058.3674
        27.5004         26.0004
 03 10 29  3  9  0.0000000  0  9G10G 9G 4G24G30G 7G 6G17G 5
 -27801381.16243 -21395693.87945  24268232.0864   24268236.9734
         5.7504          6.0004
   1949195.02645   2003509.75045  23370179.2734   23370182.5784
        10.0004         10.0004
  -7877509.97946  -6083225.23846  22162559.8204   22162563.1484
        16.0004         14.5004
 -26850753.67347 -20589115.60446  20583304.4224   20583307.9264
        24.2504         24.5004
 -32031553.41046 -24028209.99445  22242299.0554   22242302.4534
        13.2504         11.7504
 -25278819.34643 -20758742.37245  24773858.1094   24773860.7114
         5.2504          5.7504
 -27411825.04842 -20872395.79854  24974765.8914   24974768.1524
         4.2504          4.2504
 -31108119.04946 -23577515.25645  22869224.5474   22869229.0474
        12.2504         11.7504
 -28220888.16247 -20504842.75947  20620679.8204   20620682.7274
        27.5004         26.0004
 03 10 29  3  9 30.0000000  0  9G10G 9G 4G24G30G 7G 6G17G 5
 -27846163.12643 -21430588.69544  24259710.6174   24259718.8244
         5.0004          4.7504
   2107517.36445   2126877.83545  23400307.6484   23400311.2934
        10.5004          9.5004
  -7736544.80946  -5973382.24846  22189384.7814   22189387.2544
        15.7504         14.5004
 -26789498.56247 -20541384.32046  20594960.7584   20594964.4144
        24.0004         24.5004
 -32057715.83046 -24048596.20246  22237320.2894   22237323.5704
        13.0004         12.0004
 -25141611.88243 -20651827.51145  24799966.9694   24799973.0984
         5.0004          5.0004
 -27432315.53042 -20888362.08945  24970867.1564   24970873.8134
         4.5004          5.0004
 -31136793.82545 -23599859.19745  22863767.5474   22863771.3444
        11.7504         11.2504
 -28190880.67847 -20481460.27147  20626390.2664   20626393.3484
        27.7504         26.0004
 03 10 29  3 10  0.0000000  0  9G10G 9G 4G24G30G 7G 6G17G 5
 -27890919.53544 -21465463.76945  24251194.6094   24251196.2734
         7.5004          6.5004
   2265999.20045   2250370.12645  23430464.7114   23430469.0944
        10.0004          9.5004
  -7595270.51846  -5863298.38246  22216268.6334   22216271.9614
        15.7504         13.7504
 -26727734.62647 -20493256.54946  20606714.0084   20606717.6174
        24.0004         24.2504
 -32083641.77246 -24068798.16546  22232387.1334   22232389.8874
        12.7504         12.5004
 -25004384.46242 -20544897.10244  24826080.8054   24826088.9534
         4.7504          4.2504
 -27452778.05942 -20904306.67645  24966972.3524   24966980.0434
         4.5004          5.0004
 -31165228.78946 -23622016.24145  22858356.5234   22858361.7974
        12.2504         11.5004
 -28160422.28047 -20457726.42447  20632185.9614   20632189.0434
        27.7504         26.0004
 03 10 29  3 10 30.0000000  0  9G10G 9G 4G24G30G 7G 6G17G 5
 -27935643.11943 -21500313.29245  24242683.8754   24242688.9264
         6.5004          5.0004
   2424641.66945   2373987.67745  23460653.3524   23460656.8554
        10.0004         10.0004
  -7453685.41046  -5752972.33046  22243211.4064   22243214.1024
        15.7504         14.0004
 -26665458.51347 -20444729.68046  20618564.9304   20618568.4104
        23.7504         24.2504
 -32109324.68746 -24088810.75446  22227499.8204   22227502.8094
        13.5004         12.2504
 -24867132.96443 -20437947.80844  24852197.4144   24852206.7584
         5.2504          4.5004
 -27473208.31743 -20920226.13145  24963085.8674   24963092.3714
         5.0004          5.2504
 -31193417.96646 -23643981.79045  22852992.0084   22852996.2384
        12.0004         11.5004
 -28129507.43147 -20433636.90347  20638068.9774   20638071.9884
        27.7504         26.2504
 03 10 29  3 11  0.0000000  0  9G10G 9G 4G24G30G 7G 6G17G 5
 -27980332.97443 -21535136.45445  24234179.2344   24234183.6994
         6.0004          6.2504
   2583439.63445   2497726.36245  23490871.6094   23490874.8794
         9.5004          9.5004
  -7311794.21946  -5642407.74146  22270212.3054   22270215.6564
        15.7504         14.0004
 -26602672.91847 -20395805.80446  20630512.5394   20630516.3594
        23.7504         24.2504
 -32134764.32546 -24108633.76046  22222658.7344   22222661.1484
        14.2504         12.5004
 -24729859.74543 -20330981.80545  24878320.1954   24878324.6844
         6.0004          5.5004
 -27493608.21043 -20936121.93544  24959203.6024   24959214.7274
         5.2504          4.2504
 -31221361.73546 -23665756.07945  22847674.5234   22847678.8834
        12.2504         11.7504
 -28098137.02248 -20409192.39347  20644038.8204   20644041.8554
        28.0004         26.2504
 03 10 29  3 11 30.0000000  0  9G10G 9G 4G24G30G 7G 6G17G 5
 -28024984.20743 -21569929.52945  24225683.6334   24225688.7074
         6.5004          6.5004
   2742391.74545   2621585.14645  23521118.5234   23521122.9184
         9.5004          9.5004
  -7169597.89146  -5531605.41446  22297271.4844   22297274.5904
        15.5004         14.0004
 -26539377.08947 -20346484.36146  20642557.2584   20642560.8444
        23.7504         24.0004
 -32159956.72146 -24128264.12946  22217864.5084   22217867.2384
        14.2504         12.2504
 -24592563.03543 -20223997.32745  24904447.8284   24904453.1134
         6.5004          6.2504
 -27513975.95143 -20951992.61044  24955326.2584   24955331.0634
         5.2504          4.5004
 -31249056.97746 -23687336.73345  22842404.6644   22842408.6954
        12.2504         11.7504
 -28066307.43547 -20384390.09147  20650095.6564   20650098.7734
        27.7504         26.0004
 03 10 29  3 12  0.0000000  0  9G10G 9G 4G24G30G 7G 6G17G 5
 -28069594.51543 -21604690.67445  24217192.8914   24217202.5044
         5.2504          5.5004
   2901493.99945   2745560.90745  23551395.5084   23551397.9924
         9.2504          9.0004
  -7027099.92246  -5420568.01946  22324387.6954   22324391.1764
        15.2504         13.7504
 -26475572.86747 -20296766.75246  20654698.5554   20654702.2584
        23.7504         24.5004
 -32184900.26646 -24147700.57846  22213117.8284   22213121.0274
        13.7504         12.2504
 -24455243.78243 -20116995.42945  24930578.6564   24930586.4774
         6.0004          5.2504
 -27534312.25043 -20967838.90345  24951456.7664   24951463.1994
         5.2504          5.0004
 -31276502.59646 -23708722.87746  22837181.8524   22837185.8364
        12.5004         12.0004
 -28034017.80947 -20359229.31347  20656239.9144   20656242.8794
        27.7504         26.2504
 03 10 29  3 12 30.0000000  0  9G10G 9G 4G24G30G 7G 6G17G 5
 -28114173.05644 -21639427.17945  24208710.5234   24208715.5394
         7.2504          6.7504
   3060730.70945   2869641.47945  23581696.9844   23581699.5394
         9.2504          8.5004
  -6884315.32346  -5309307.29846  22351558.8914   22351561.7974
        15.0004         13.5004
 -26411273.73747 -20246663.50846  20666934.5084   20666938.0704
        24.0004         24.5004
 -32209605.24146 -24166951.13746  22208416.7424   22208419.4494
        13.5004         12.5004
 -24317914.68243 -20009985.71344  24956710.4224   24956716.0944
         5.5004          4.2504
 -27554629.58543 -20983670.46144  24947591.1414   24947603.1914
         5.0004          4.2504
 -31303709.96746 -23729923.35546  22832004.1024   22832008.7544
        12.2504         12.5004
 -28001279.44747 -20333718.87447  20662469.8444   20662472.9734
        27.7504         26.2504
 03 10 29  3 13  0.0000000  0  9G10G 9G 4G24G30G 7G 6G17G 5
 -28158696.68643 -21674120.71345  24200238.3364   24200246.3204
         6.2504          7.2504
   3220118.81845   2993839.99145  23612026.5704   23612030.1454
         8.5004          8.7504
  -6741226.98546  -5197809.89246  22378787.0864   22378789.8054
        15.0004         13.7504
 -26346460.62747 -20196159.76446  20679267.8524   20679271.5204
        24.0004         24.5004
 -32234049.37946 -24185998.42046  22203764.7814   22203767.8524
        14.0004         12.7504
 -24180555.97243 -19902953.04943  24982849.3594   24982852.6524
         5.5004          3.5004
 -27574907.78242 -20999471.31845  24943732.2194   24943736.4024
         4.7504          5.5004
 -31330657.14946 -23750921.09846  22826876.3674   22826880.8554
        12.7504         12.5004
 -27968071.15647 -20307842.25347  20668789.0474   20668792.1994
        27.7504         26.0004
 03 10 29  3 13 30.0000000  0  9G10G 9G 4G24G30G 7G 6G17G 5
 -28203181.49643 -21708784.17544  24191773.1254   24191773.0084
         6.5004          4.7504
   3379636.46145   3118139.45545  23642382.4614   23642387.4654
         9.0004          9.5004
  -6597856.56746  -5086092.68246  22406070.1334   22406073.6484
        15.0004         13.7504
 -26281153.36847 -20145270.96746  20691695.4454   20691699.1024
        24.0004         24.2504
 -32258249.33246 -24204855.44746  22199160.2504   22199162.8984
        14.7504         13.0004
 -24043186.79243 -19795912.02043  25008990.5474   25008994.0514
         5.7504          3.7504
 -27595165.85643 -21015256.66045  24939877.9224   24939882.3524
         5.0004          5.0004
 -31357362.08446 -23771730.09046  22821794.3674   22821799.2894
        12.5004         12.0004
 -27934410.37247 -20281613.04446  20675194.3834   20675197.3714
        27.2504         25.7504
 03 10 29  3 14  0.0000000  0  9G10G 9G 4G24G30G 7G 6G17G 5
 -28247621.35444 -21743412.45045  24183315.2584   24183320.1564
         7.2504          6.0004
   3539283.06945   3242539.42645  23672761.3984   23672766.1564
         8.7504          9.5004
  -6454203.88146  -4974155.52046  22433406.2894   22433409.3014
        14.7504         13.5004
 -26215350.67047 -20093996.11246  20704217.2814   20704220.9024
        24.2504         24.5004
 -32282200.09746 -24223518.30346  22194602.2814   22194605.7624
        14.7504         13.2504
 -23905804.53043 -19688861.03445  25035133.6564   25035142.6954
         5.7504          5.2504
 -27615400.99342 -21031024.00745  24936026.0004   24936032.2704
         4.7504          5.0004
 -31383820.03146 -23792346.61245  22816760.5314   22816765.8874
        12.7504         11.5004
 -27900293.14647 -20255028.16247  20681687.0164   20681690.2034
        27.5004         26.0004
 03 10 29  3 14 30.0000000  0  9G10G 9G 4G24G30G 7G 6G17G 5
 -28292015.78943 -21778005.32645  24174867.2894   24174872.6454
         6.2504          6.2504
   3699053.13745   3367035.57745  23703164.7814   23703167.0084
         8.7504          9.0004
  -6310274.04446  -4862002.40446  22460795.4144   22460798.1094
        14.7504         13.7504
 -26149055.67747 -20042337.65946  20716832.5234   20716836.1684
        23.7504         24.5004
 -32305901.83446 -24241987.11046  22190091.3984   22190094.4104
        14.2504         12.5004
 -23768411.62643 -19581801.53743  25061278.1884   25061282.5124
         5.0004          3.5004
 -27635615.38843 -21046775.30444  24932179.5864   24932180.0904
         5.0004          4.7504
 -31410032.22746 -23812771.64646  22811772.5234   22811776.8014
        12.7504         12.0004
 -27865720.63947 -20228088.51947  20688265.6334   20688268.6914
        27.7504         26.0004
 03 10 29  3 15  0.0000000  0  9G10G 9G 4G24G30G 7G 6G17G 5
 -29911763.16644 -23040146.09244  23866639.4844   23866644.5234
         7.5004          4.5004
   2283548.86145   2264045.23045  23433803.5864   23433808.1564
         8.7504          9.0004
  -7741464.89346  -5977216.04946  22188448.7114   22188451.7814
        14.7504         13.7504
 -27657667.39347 -21217879.24146  20429753.7114   20429757.4964
        24.2504         24.2504
 -33904753.23846 -25487845.25646  21885840.3134   21885843.4184
        14.2504         12.7504
 -25206403.91242                  24787637.7504
         4.2504
 -29231209.89942 -22290095.37544  24628547.1254   24628559.9024
         4.7504          4.2504
 -33011398.05346 -25060589.11746  22507041.8444   22507046.1914
        12.7504         12.2504
 -29406090.36047 -21428376.59347  20395142.9304   20395145.9414
        27.7504         26.2504
 03 10 29  3 15 30.0000000  0  9G10G 9G 4G24G30G 7G 6G17G 5
 -29956023.83841 -23074634.98944  23858213.4064   23858228.7734
         2.5004          4.5004
   2443590.06445   2388752.67345  23464259.3594   23464263.7894
         8.7504          9.0004
  -7596955.64646  -5864611.43846  22215947.9924   22215951.5204
        15.0004         13.7504
 -27590357.84047 -21165430.22446  20442562.0474   20442565.4804
        24.2504         24.5004
 -33927916.75346 -25505894.67646  21881432.6644   21881435.4304
        14.7504         12.7504
 -25068957.18642                  24813792.2504
         4.0004
 -29251349.50342 -22305788.50745  24624715.4844   24624716.0354
         4.5004          5.2504
 -33037080.63146 -25080601.45446  22502153.8284   22502158.4344
        12.7504         12.5004
 -29370569.63448 -21400698.07847  20401902.5864   20401905.5984
        28.0004         26.2504
 03 10 29  3 16  0.0000000  0  9G10G 9G 4G24G30G 7G 6G17G 5
 -30000224.31243 -23109076.71344  23849806.8834   23849810.7854
         6.5004          4.5004
   2603750.87745   2513553.29245  23494736.7344   23494741.3524
         8.7504          8.7504
  -7452171.93546  -5751792.97146  22243499.6094   22243502.3054
        15.0004         13.5004
 -27522554.03747 -21112596.07946  20455464.7734   20455468.4064
        23.7504         24.5004
 -33950819.10646 -25523740.57546  21877074.3204   21877076.9344
        14.7504         13.0004
 -24931495.08042                  24839950.3914
         4.0004
 -29271462.91342 -22321461.11144  24620886.7034   24620892.1884
         4.2504          4.7504
 -33062507.38146 -25100414.44746  22497316.6484   22497320.9964
        13.2504         12.2504
 -29334584.35748 -21372657.57847  20408750.2274   20408753.3094
        28.0004         26.2504
 03 10 29  3 16 30.0000000  0  9G10G 9G 4G24G30G 7G 6G17G 5
 -30044353.15241 -23143462.81844  23841407.6414   23841409.8094
         3.5004          4.5004
   2764036.48645   2638451.17145  23525238.9844   23525242.5594
         9.7504          8.7504
  -7307108.12646  -5638756.22746  22271103.8914   22271106.7974
        15.0004         13.7504
 -27454248.89547 -21059371.27346  20468462.4144   20468466.0124
        23.7504         24.2504
 -33973449.55746 -25541374.60646  21872767.4534   21872770.0664
        14.5004         13.5004
 -24794009.40942                  24866112.8754
         4.0004
 -29291541.86242 -22337106.88345  24617066.0704   24617074.0784
         4.2504          5.0004
 -33087668.76346 -25120020.66946  22492527.4924   22492532.3324
        13.0004         12.2504
 -29298124.57948 -21344247.33247  20415688.2344   20415691.2464
        28.0004         26.5004
 03 10 29  3 17  0.0000000  0  9G10G 9G 4G24G30G 7G 6G17G 5
 -30088405.07245 -23177788.77345  23833026.5004   23833031.0004
         8.0004          8.2504
   2924445.40145   2763445.11745  23555763.0234   23555764.9574
         8.7504          8.0004
  -7161765.23846  -5525502.05246  22298762.0864   22298764.6524
        14.7504         13.5004
 -27385441.75947 -21005755.31046  20481556.1804   20481559.6604
        23.7504         24.2504
 -33995804.04446 -25558793.59046  21868513.2584   21868516.6454
        14.7504         13.5004
 -24656498.49742                  24892281.2664
         4.0004
 -29311584.34442 -22352724.33444  24613251.0634   24613246.5394
         4.0004          4.5004
 -33112561.29446 -25139417.37846  22487790.9614   22487795.1454
        13.2504         12.7504
 -29261187.30748 -21315465.02147  20422717.1094   20422720.1334
        28.0004         26.5004
 03 10 29  3 17 30.0000000  0  9G10G 9G 4G24G30G 7G 6G17G 5
 -30132375.11243 -23212050.98845  23824657.5084   23824664.7424
         5.0004          6.5004
   3084976.56145   2888534.36145  23586310.2664   23586314.4734
         8.2504          9.0004
  -7016143.80146  -5412030.80346  22326472.8364   22326475.7194
        14.7504         13.5004
 -27316131.58947 -20951747.36546  20494745.8054   20494749.2854
        24.2504         24.2504
 -34017878.34246 -25575994.24846  21864312.9304   21864316.3284
        15.2504         13.7504
 -24518960.65741                  24918454.1334
         3.5004
 -29331588.31642 -22368311.58244  24609446.0944   24609446.1414
         4.5004          4.5004
 -33137181.55046 -25158601.92146  22483105.4384   22483109.3284
        13.0004         12.5004
 -29223769.26048 -21286308.07347  20429837.6564   20429840.8444
        28.0004         26.5004
 03 10 29  3 18  0.0000000  0  9G10G 9G 4G24G30G 7G 6G17G 5
 -30176272.89345 -23246257.10445  23816305.7814   23816310.2234
        11.5004         10.0004
   3245614.15745   3013706.48745  23616879.9534   23616883.6454
         8.5004          8.5004
  -6870259.23046  -5298354.51546  22354233.9694   22354236.5704
        14.5004         13.2504
 -27246332.42847 -20897358.39146  20508027.8134   20508031.4574
        23.7504         24.2504
 -34039682.83946 -25592984.68946  21860163.5784   21860166.2274
        15.0004         13.5004
                                  24944628.1724
         2.5004
 -29351566.34542 -22383878.84045  24605643.5004   24605648.4694
         4.2504          5.7504
 -33161540.89046 -25177583.17246  22478469.5864   22478473.6414
        13.2504         12.7504
 -29185881.88547 -21256785.41547  20437047.2194   20437050.4064
        27.7504         26.5004
 03 10 29  3 18 30.0000000  0  9G10G 9G 4G24G30G 7G 6G17G 5
 -30220104.25743 -23280411.32345  23807962.7734   23807968.2234
         6.5004          9.5004
   3406346.06645   3138952.12045  23647464.8054   23647469.5394
         8.0004          8.5004
  -6724123.25346  -5184482.33346  22382042.4384   22382046.3524
        14.2504         12.7504
 -27176054.41147 -20842596.28346  20521401.3674   20521404.9654
        23.7504         24.5004
 -34061224.25946 -25609770.14446  21856063.8134   21856066.7544
        14.7504         13.2504
 -28334637.60951                  24970802.8054
         1.7504
 -29371527.29443 -22399432.65645  24601844.5314   24601847.1684
         5.0004          6.2504
 -33185646.74446 -25196366.90046  22473883.3984   22473888.3914
        13.0004         12.5004
 -29147532.59347 -21226902.82747  20444344.6884   20444347.8984
        27.7504         26.2504
 03 10 29  3 19  0.0000000  0  8G10G 9G 4G24G30G 6G17G 5
 -30263848.95745 -23314497.99045  23799640.1724   23799643.7814
        11.2504          9.2504
   3567186.14945   3264282.04245  23678071.9694   23678076.3164
         8.0004          8.2504
  -6577721.58346  -5070403.10246  22409901.3674   22409905.1054
        14.0004         12.7504
 -27105281.99747 -20787448.93146  20534868.9454   20534872.4494
        24.0004         24.5004
 -34082483.38846 -25626335.60246  21852018.9774   21852022.5514
        14.7504         13.5004
 -29391454.35143 -22414960.17745  24598053.6804   24598055.1684
         5.0004          5.0004
 -33209481.16246 -25214939.10446  22469347.2664   22469351.9884
        13.5004         12.7504
 -29108703.96047 -21196646.72847  20451733.6564   20451736.7854
        27.7504         26.5004
 03 10 29  3 19 30.0000000  0  8G10G 9G 4G24G30G 6G17G 5
 -30307502.19543 -23348513.52645  23791331.3594   23791337.8874
         5.0004          7.5004
   3728133.32745   3389695.42645  23708699.8054   23708704.3164
         8.7504          9.0004
  -6431055.09946  -4956117.55346  22437811.8134   22437814.4144
        13.7504         12.2504
 -27034014.70247 -20731915.95846  20548430.2734   20548433.8954
        23.7504         24.2504
 -34103456.16846 -25642677.96946  21848027.8054   21848030.3594
        15.7504         14.2504
 -29411345.64042 -22430459.83645  24594266.7424   24594274.7504
         4.7504          5.7504
 -33233040.31546 -25233296.80146  22464865.0864   22464868.7194
        14.2504         12.7504
 -29069392.88047 -21166014.69647  20459214.1804   20459217.1804
        27.7504         26.2504
 03 10 29  3 20  0.0000000  0  8G10G 9G 4G24G30G 6G17G 5
 -30351062.98645 -23382456.85645  23783043.1564   23783049.4264
         8.5004          7.7504
   3889182.17245   3515188.10745  23739346.6724   23739351.1134
         8.0004          8.2504
  -6284128.80046  -4841629.52946  22465770.6884   22465773.9574
        13.2504         12.2504
 -26962255.81347 -20675999.92146  20562086.0234   20562089.5864
        23.7504         24.2504
 -34124142.38946 -25658797.04346  21844091.7424   21844094.2734
        15.7504         13.7504
 -29431203.28643 -22445933.18945  24590489.9694   24590496.0274
         5.0004          6.7504
 -33256325.48046 -25251441.03846  22460432.7344   22460436.6604
        14.0004         12.7504
 -29029600.35947 -21135007.51447  20466786.4454   20466789.4454
        27.7504         26.2504
 03 10 29  3 20 30.0000000  0  8G10G 9G 4G24G30G 6G17G 5
 -30394527.74841 -23416325.65243  23774767.6094   23774764.6684
         2.2504          3.2504
   4050329.93144   3640757.75645  23770010.8054   23770015.2234
         7.5004          8.0004
  -6136944.75846  -4726940.65346  22493778.7504   22493782.7814
        13.2504         12.2504
 -26890005.93947 -20619701.29946  20575834.3444   20575837.9534
        24.0004         24.5004
 -34144539.39646 -25674690.73946  21840209.5394   21840211.9654
        15.2504         13.7504
 -29451026.69243 -22461379.88545  24586716.5554   24586718.9454
         5.7504          5.2504
 -33279334.55546 -25269370.11146  22456054.5474   22456058.9064
        14.2504         12.7504
 -28989324.79947 -21103623.94547  20474450.6174   20474453.6294
        27.7504         26.2504
 03 10 29  3 21  0.0000000  0  8G10G 9G 4G24G30G 6G17G 5
 -30437899.11843                  23766518.9534
         5.2504
   4211567.67544   3766397.53145  23800692.9694   23800698.1954
         7.5004          7.5004
  -5989511.43246  -4612057.55546  22521834.4224   22521837.8444
        13.0004         12.2504
 -26817272.17547 -20563025.61846  20589675.1484   20589678.7584
        24.2504         24.5004
 -34164650.80746 -25690361.90646  21836382.6884   21836384.8204
        15.5004         13.5004
 -29470821.60843 -22476804.35845  24582949.5394   24582956.3484
         5.5004          6.5004
 -33302072.13246 -25287087.64746  22451728.2424   22451732.3094
        14.2504         13.2504
 -28948570.90947 -21071867.64347  20482205.7584   20482208.8874
        27.5004         26.2504
 03 10 29  3 21 30.0000000  0  7G10G 9G 4G24G30G17G 5
 -30481173.15143                  23758284.1954
         5.7504
   4372893.22844   3892105.73545  23831391.7894   23831395.8204
         7.7504          7.5004
  -5841830.88346  -4496981.78046  22549936.8594   22549940.2114
        13.0004         12.2504
 -26744055.53947 -20505973.67746  20603607.9694   20603611.5204
        24.2504         24.7504
 -34184473.37446 -25705808.00246  21832610.7894   21832613.0164
        16.2504         14.5004
 -33324536.10646 -25304591.97246  22447453.4144   22447456.7894
        14.5004         13.5004
 -28907336.21147 -21039736.68947  20490052.7114   20490055.6884
        27.7504         26.5004
 03 10 29  3 22  0.0000000  0  8G10G 9G 4G24G30G 6G17G 5
 -30524337.90744                  23750069.7344
         7.0004
   4534312.07845   4017886.67745  23862111.5084   23862116.6524
         8.2504          7.5004
  -5693897.03046  -4381708.64446  22578088.1954   22578091.4884
        13.2504         12.5004
 -26670348.29747 -20448539.43846  20617634.1954   20617637.5594
        25.0004         24.7504
 -34203996.30346 -25721020.60746  21828895.7584   21828898.0204
        16.7504         14.5004
 -28372681.67353                  24575433.7814
         5.5004
 -33346716.28346 -25321875.17846  22443232.5394   22443235.9844
        15.0004         13.5004
 -28865611.27848 -21007223.73147  20497992.6724   20497995.6604
        28.2504         26.5004
