     2.10           OBSERVATION DATA    G (GPS)             RINEX VERSION / TYPE
teqc  2007Feb5      UNAVCO Archive Ops  20070321 07:52:58UTCPGM / RUN BY / DATE
Solaris 5.10|UltraSparc IIIi|cc -xarch=v9 SC5.8|=+-|*Sparc  COMMENT
BIT 2 OF LLI FLAGS DATA COLLECTED UNDER A/S CONDITION       COMMENT
GARL                                                        MARKER NAME
49721S001                                                   MARKER NUMBER
Davis, Jim          Harvard-Smithsonian CfA                 OBSERVER / AGENCY
3609A14796          TRIMBLE 4000SSI     7.19B               REC # / TYPE / VERS
0220062100          TRM29659.00     SCIS                    ANT # / TYPE
 -2384509.0615 -4239524.8940  4114370.6286                  APPROX POSITION XYZ
        0.0884        0.0000        0.0000                  ANTENNA: DELTA H/E/N
     1     1                                                WAVELENGTH FACT L1/2
     7    L1    L2    C1    P2    P1    S1    S2            # / TYPES OF OBSERV
    30.0000                                                 INTERVAL
RINEX file created by UNAVCO GPS Archive.                   COMMENT
For more information contact archive@unavco.org             COMMENT
Monument ID: 11764                                          COMMENT
UNAVCO 4-char name:   GARL                                  COMMENT
4-char name from Log or data file: GARL                     COMMENT
Monument location: 40.416527 -119.355457 1640.2266          COMMENT
Visit ID: 59421                                             COMMENT
                                                            COMMENT
GARL-BRGN-NV1996                                            COMMENT
                                                            COMMENT
End of DB comments                                          COMMENT
 SNR is mapped to RINEX snr flag value [1-9]                COMMENT
  L1: 3 -> 1; 8 -> 5; 40 -> 9                               COMMENT
  L2: 1 -> 1; 5 -> 5; 60 -> 9                               COMMENT
  2003    11     2     0     0   30.0000000     GPS         TIME OF FIRST OBS
                                                            END OF HEADER
 03 11  2  0  0 30.0000000  0  7G11G 7G 9G 4G 8G26G29
     61996.09351                  25180478.8914
         3.0004
  -7959336.53557  -6371052.78356  20677955.2194   20677959.9774
        22.0004         24.0004
 -10359590.08056  -6934879.25756  21898582.8674   21898587.9884
        16.0004         14.7504
  -7781783.92955  -5802568.75255  22628845.6484   22628853.0234
        10.7504         10.2504
  16848242.07853    891367.39555  24045665.5944   24045678.6054
         6.5004          7.2504
   5610793.05455   8199975.66055  23557393.6954   23557404.1644
         8.0004          8.2504
     63212.67353                  24002734.0554
         5.2504
 03 11  2  0  1  0.0000000  0  8G11G28G 7G 9G 4G 8G26G29
    171626.30741                  25201340.8674
         3.2504
        -2.58556        -2.94156  21951337.3594   21951341.7424
        17.0004         15.7504
  -7906036.61947  -6329520.35346  20688098.0084   20688102.8834
        22.0004         24.2504
 -10406071.03246  -6971098.09646  21889737.6094   21889742.4614
        16.0004         14.7504
  -7851942.47945  -5857237.54245  22615495.4224   22615503.3244
        11.5004         10.7504
  16986664.89543    999229.20845  24072006.0474   24072015.4024
         5.5004          5.0004
   5715737.14045   8281750.14845  23577365.0554   23577373.5784
         8.0004          7.7504
    174855.95843                  24023978.4144
         5.2504
 03 11  2  0  1 30.0000000  0  8G11G28G 7G 9G 4G 8G26G29
    281532.96941                  25222254.9454
         3.0004
     76996.19746     59996.09446  21965989.6414   21965994.1994
        17.0004         15.2504
  -7852416.34747  -6287738.30246  20698301.4694   20698306.2624
        22.0004         24.0004
 -10452137.73546  -7006994.14246  21880971.1414   21880976.2504
        15.0004         14.0004
  -7921829.43946  -5911694.68145  22602196.4614   22602204.7734
        12.0004         11.0004
  17125211.97443   1107187.87744  24098371.6484   24098389.2194
         5.5004          4.7504
   5820913.61944   8363705.71545  23597379.6174   23597389.7584
         7.7504          7.5004
    286605.02043      2900.15555  24045244.2194   24045253.9384
         5.5004          5.7504
 03 11  2  0  2  0.0000000  0  8G11G28G 7G 9G 4G 8G26G29
    391712.25441                  25243222.3054
         2.7504
    154187.90846    120145.46946  21980679.1334   21980682.9774
        17.0004         15.2504
  -7798478.87147  -6245709.08246  20708565.2114   20708569.9104
        22.0004         24.0004
 -10497789.53246  -7042566.88646  21872283.9924   21872289.3244
        15.2504         14.7504
  -7991443.23246  -5965939.00045  22588949.5554   22588957.5744
        12.5004         11.2504
  17263879.52244   1215240.24045  24124759.4774   24124772.5004
         7.0004          6.7504
   5926317.56844   8445838.49545  23617436.7194   23617445.1954
         7.7504          8.2504
    398455.84143     90056.40545  24066527.5864   24066540.1414
         5.2504          6.5004
 03 11  2  0  2 30.0000000  0  8G11G28G 7G 9G 4G 8G26G29
    502159.05941                  25264240.6414
         2.7504
    231569.78546    180443.04046  21995404.1644   21995408.7464
        16.7504         15.5004
  -7744228.46447  -6203436.01446  20718888.9304   20718894.0164
        22.0004         24.0004
 -10543026.79046  -7077816.59946  21863675.4774   21863681.1254
        16.0004         15.2504
  -8060783.96846  -6019970.52545  22575754.2504   22575761.7074
        12.0004         11.2504
  17402662.55243   1323382.70545  24151168.9774   24151179.9844
         6.7504          6.7504
   6031943.24745   8528144.08445  23637537.3754   23637546.6134
         8.0004          8.7504
    510402.17943    177287.04845  24087831.0474   24087844.8554
         5.0004          6.5004
 03 11  2  0  3  0.0000000  0  8G11G28G 7G 9G 4G 8G26G29
    612873.36941                  25285306.3364
         2.7504
    309144.22446    240890.64646  22010165.9064   22010170.2194
        16.5004         14.7504
  -7689664.08447  -6160918.29746  20729272.1024   20729277.0004
        22.0004         23.7504
 -10587844.66646  -7112739.53046  21855147.0004   21855152.5084
        16.0004         15.2504
  -8129845.76745  -6073784.71345  22562611.6804   22562618.5004
        11.7504         10.7504
  17541561.32243   1431615.31745  24177600.7894   24177608.4454
         5.0004          5.2504
   6137790.01444   8610621.93545  23657678.0944   23657685.8444
         7.7504          8.0004
    622443.12743    264591.40545  24109152.5864   24109163.1844
         5.7504          6.7504
 03 11  2  0  3 30.0000000  0  8G11G28G 7G 9G 4G 8G26G29
                                  25306426.5164
         2.5004
    386911.73046    301488.69746  22024964.8594   22024969.3954
        16.5004         14.7504
  -7634786.80347  -6118156.75946  20739714.9064   20739719.6644
        22.0004         23.7504
 -10632240.24546  -7147333.38946  21846698.4454   21846704.5394
        15.2504         14.5004
  -8198624.86645  -6127378.62945  22549523.3914   22549530.6724
        11.7504         11.0004
  17680574.57941   1539937.09944  24204054.3134   24204068.0744
         3.7504          4.7504
   6243855.36645   8693270.12045  23677862.7034   23677872.9614
         8.0004          8.2504
    734576.52243    351967.82145  24130491.6094   24130504.3284
         5.7504          6.2504
 03 11  2  0  4  0.0000000  0  8G11G28G 7G 9G 4G 8G26G29
     85309.91451                  25327597.3134
         2.5004
    464877.90246    362241.55946  22039801.0314   22039805.2034
        16.2504         15.0004
  -7579592.26247  -6075148.01446  20750218.0474   20750222.8164
        22.0004         23.7504
 -10676205.44746  -7181591.89846  21838331.9844   21838337.0594
        15.7504         14.2504
  -8267112.65246  -6180745.50645  22536490.7974   22536497.3364
        12.5004         11.0004
  17819705.34442   1648350.46644  24230530.1724   24230545.0004
         4.2504          4.2504
   6350141.62244   8776090.40145  23698089.1414   23698097.8874
         7.7504          8.5004
    846804.87043    439418.17845  24151847.4534   24151861.6134
         5.0004          6.0004
 03 11  2  0  4 30.0000000  0  8G11G28G 7G 9G 4G 8G26G29
                                  25348817.1884
         2.2504
    543036.76546    423144.54746  22054674.8594   22054679.0904
        16.5004         14.7504
  -7524088.12947  -6031898.02346  20760780.2974   20760785.0084
        21.7504         23.7504
 -10719743.94646  -7215517.92246  21830047.2584   21830052.2274
        16.2504         15.0004
  -8335312.08646  -6233887.75245  22523512.1644   22523519.0354
        12.2504         10.7504
  17958945.59043   1756849.19145  24257026.6094   24257036.4454
         5.5004          6.0004
   6456639.70844   8859075.83445  23718353.5784   23718364.4924
         7.2504          8.0004
    959118.74943    526935.17845  24173221.1254   24173234.3244
         5.0004          6.0004
 03 11  2  0  5  0.0000000  0  8G11G28G 7G 9G 4G 8G26G29
                                  25370084.5084
         2.2504
    621400.20146    484206.96046  22069586.3754   22069590.5944
        16.2504         14.7504
  -7468263.98247  -5988398.67046  20771402.8914   20771407.7304
        21.7504         23.7504
 -10762841.39546  -7249100.25246  21821845.9844   21821851.1644
        16.0004         16.0004
  -8403208.26145  -6286793.66845  22510591.7894   22510599.0824
        11.7504         11.0004
  18098305.02243   1865440.84445  24283545.1804   24283554.2894
         5.5004          6.5004
   6563358.43445   8942233.08845  23738664.3444   23738673.8404
         8.2504          8.2504
   1071527.23743    614525.91045  24194610.3364   24194623.7344
         5.0004          5.2504
 03 11  2  0  5 30.0000000  0  8G11G28G 7G 9G 4G 8G26G29
     41109.10751                  25391408.8594
         2.5004
    699966.18946    545427.19046  22084537.1724   22084541.0514
        16.2504         14.7504
  -7412123.04947  -5944652.47146  20782086.4384   20782091.1604
        21.7504         23.5004
 -10805497.54046  -7282338.70246  21813728.3444   21813733.7704
        15.2504         15.5004
  -8470799.59646  -6339462.07945  22497729.5474   22497736.0274
        12.7504         10.7504
  18237779.70643   1974122.20745  24310087.0704   24310098.8524
         5.2504          6.5004
   6670292.83944   9025558.49245  23759011.6334   23759019.5594
         7.7504          7.2504
   1184025.41042    702186.57645  24216019.6884   24216028.2464
         4.7504          5.2504
 03 11  2  0  6  0.0000000  0  8G11G28G 7G 9G 4G 8G26G29
                                  25412778.2664
         2.2504
    778731.82146    606802.99746  22099525.9774   22099530.1724
        16.5004         15.0004
  -7355669.95647  -5900663.02746  20792829.0164   20792833.8794
        21.7504         23.5004
 -10847713.09746  -7315233.83646  21805695.0004   21805699.7464
        15.2504         15.0004
  -8538086.40046  -6391893.16245  22484925.2424   22484932.4884
        12.7504         11.7504
  18377364.23743   2082889.16845  24336649.7814   24336662.2194
         5.7504          6.5004
   6777436.68044   9109047.03945  23779401.2344   23779410.4264
         7.7504          8.0004
   1296607.05242    789912.29945  24237443.2814   24237452.9184
         4.2504          5.0004
 03 11  2  0  6 30.0000000  0  7G28G 7G 9G 4G 8G26G29
    857703.38446    668339.26146  22114553.5164   22114557.6414
        16.0004         14.5004
  -7298899.70147  -5856426.44746  20803632.1954   20803637.1524
        21.7504         23.5004
 -10889479.18546  -7347778.76546  21797747.1094   21797751.9734
        16.0004         14.7504
  -8605059.05346  -6444079.47045  22472180.5314   22472187.1524
        13.0004         11.7504
  18517063.08743   2191745.18845  24363233.2274   24363241.3984
         6.5004          5.2504
   6884793.42744   9192701.49345  23799830.2114   23799839.3444
         7.7504          7.7504
                                                  23959100.9694
                         4.7504
 03 11  2  0  7  0.0000000  0  7G28G 7G 9G 4G 8G26G29
    936878.33246    730034.01646  22129620.0314   22129624.0394
        16.0004         14.7504
  -7241816.40547  -5811945.93946  20814494.4924   20814499.4024
        21.7504         23.2504
 -10930796.02646  -7379973.62746  21789884.7504   21789890.3984
        16.2504         15.5004
  -8671716.98046  -6496020.56245  22459495.8674   22459503.2424
        12.7504         11.7504
  18656871.39444                  24389838.0704
         7.0004
   6992357.28944   9276517.33545  23820298.7034   23820308.2234
         7.5004          8.0004
     41346.66152                  24280339.9614
         4.5004
 03 11  2  0  7 30.0000000  0  7G28G 7G 9G 4G 8G26G29
   1016256.97346    791887.50246  22144725.0394   22144729.7504
        16.0004         14.5004
  -7184421.33147  -5767222.47746  20825416.6644   20825421.5634
        21.7504         23.2504
 -10971661.24946  -7411816.56146  21782108.5784   21782113.7114
        16.2504         15.7504
  -8738056.78146  -6547713.73945  22446871.3524   22446877.8794
        12.2504         11.2504
  18796787.16743                  24416463.3834
         6.5004
   7100125.52144   9360492.44045  23840806.1564   23840817.7504
         7.2504          8.2504
    154174.98842                  24301807.4924
         4.2504
 03 11  2  0  8  0.0000000  0  7G28G 7G 9G 4G 8G26G29
   1095843.42446    853902.91246  22159870.1484   22159874.4844
        16.2504         14.5004
  -7126711.63347  -5722253.85746  20836398.2424   20836403.1174
        21.7504         23.2504
 -11012068.18446  -7443302.39946  21774418.9694   21774423.8324
        16.2504         16.2504
  -8804071.10146  -6599153.30645  22434309.0554   22434315.3014
        12.5004         11.7504
  18936812.82543                  24443108.6644
         5.7504
   7208099.21444   9444627.63345  23861354.0634   23861364.8714
         7.2504          8.0004
    267083.21942                  24323297.4064
         4.7504
 03 11  2  0  8 30.0000000  0  8G28G 7G 9G 4G 8G26G 5G29
   1175638.07046    916080.55546  22175054.3984   22175058.9804
        16.0004         14.2504
  -7068688.44947  -5677040.96346  20847439.5704   20847444.3054
        21.7504         23.2504
 -11052013.99046  -7474428.91046  21766817.5784   21766822.9104
        16.2504         16.0004
  -8869756.45446  -6650336.52345  22421810.0704   22421816.4694
        13.0004         11.7504
  19076946.27342                  24469776.5004
         4.7504
   7316275.67343   9528920.80445  23881938.8524   23881947.5394
         6.7504          7.2504
    -11315.06952                  25320659.1024
         4.0004
    380068.14143     73366.53254  24344798.5864   24344810.4144
         5.0004          4.2504
 03 11  2  0  9  0.0000000  0  8G28G 7G 9G 4G 8G26G 5G29
   1255640.85446    978420.38846  22190278.2664   22190282.6484
        15.7504         14.2504
  -7010353.46047  -5631585.09846  20858540.2344   20858545.1334
        21.7504         23.2504
 -11091496.81446  -7505194.66546  21759303.8364   21759308.8874
        16.2504         15.7504
  -8935110.02946  -6701261.23346  22409373.1644   22409379.4924
        13.0004         12.0004
  19217185.50042     43716.49154  24496462.1884   24496476.2664
         4.2504          4.5004
   7424651.47943   9613369.36845  23902561.9614   23902572.0314
         6.7504          7.2504
    -79226.22841                  25307732.2114
         3.2504
    493127.09842    161464.24645  24366310.0554   24366320.5004
         4.2504          5.5004
 03 11  2  0  9 30.0000000  0  8G28G 7G 9G 4G 8G26G 5G29
   1335848.05146   1040919.51146  22205541.5474   22205545.7304
        16.2504         14.2504
  -6951711.80747  -5585890.27946  20869699.5234   20869704.3524
        21.7504         23.0004
 -11130518.07446  -7535600.77446  21751878.6644   21751883.7854
        16.5004         15.7504
  -9000132.50346  -6751927.92546  22396999.6564   22397006.2664
        13.2504         12.2504
  19357524.42942    153071.42945  24523168.5864   24523183.2274
         4.0004          5.5004
   7533219.95144   9697968.03045  23923221.9064   23923230.4654
         7.0004          7.5004
   -147156.27241                  25294803.7344
         3.0004
    606252.97243    249613.91145  24387838.7344   24387849.7074
         5.7504          5.2504
 03 11  2  0 10  0.0000000  0  8G28G 7G 9G 4G 8G26G 5G29
   1416263.40546   1103580.83846  22220843.7734   22220848.3554
        15.7504         14.0004
  -6892761.15147  -5539954.67246  20880917.2664   20880921.9884
        21.7504         23.2504
 -11169071.43846  -7565642.27946  21744542.1724   21744547.0004
        17.0004         16.2504
  -9064816.92946  -6802331.18446  22384690.4144   22384696.3914
        13.0004         12.0004
  19497964.66942    262505.24645  24549894.3134   24549908.3674
         4.0004          5.0004
   7641981.69644   9782717.29345  23943919.8134   23943929.8014
         7.2504          7.0004
    -11324.07051                  25281876.5164
         3.0004
    719446.79042    337816.64544  24409378.8594   24409393.3594
         4.2504          4.2504
 03 11  2  0 10 30.0000000  0  8G28G 7G 9G 4G 8G26G 5G29
   1496887.02946   1166404.45346  22236186.0084   22236190.3554
        16.0004         14.0004
  -6833502.89747  -5493779.37546  20892194.0634   20892198.9844
        21.7504         23.0004
 -11207154.47946  -7595317.29446  21737295.1564   21737300.0204
        16.7504         15.7504
  -9129160.10246  -6852468.57146  22372446.1724   22372453.4184
        13.2504         12.2504
  19638504.53942    372016.64644  24576636.9304   24576654.3594
         4.2504          4.7504
   7750933.91343   9867615.01945  23964651.2344   23964660.2734
         6.5004          7.2504
    -79282.42541                  25268947.3524
         3.7504
    832705.88443    426070.24845  24430932.7344   24430946.7074
         5.5004          5.2504
 03 11  2  0 11  0.0000000  0  8G28G 7G 9G 4G 8G26G 5G29
   1577720.30446   1229391.41546  22251568.0314   22251572.0394
        15.7504         13.7504
  -6773937.00947  -5447364.37246  20903528.8834   20903533.5124
        21.7504         23.0004
 -11244763.57446  -7624623.00946  21730138.0234   21730142.7934
        16.7504         16.0004
  -9193157.66646  -6902336.63146  22360268.0394   22360275.2504
        14.0004         12.7504
  19779142.88243    481604.81945  24603399.5084   24603408.6174
         5.0004          6.2504
   7860074.89644   9952659.72945  23985422.0944   23985432.2114
         7.2504          7.2504
   -147252.54842                  25256008.2664
         4.5004
    946028.29842    514373.20945  24452493.5944   24452505.3754
         4.0004          5.2504
 03 11  2  0 11 30.0000000  0  8G28G 7G 9G 4G 8G26G 5G29
   1658760.65546   1292539.75846  22266989.6564   22266994.3914
        15.7504         14.0004
  -6714067.46947  -5400712.75146  20914921.3284   20914925.9924
        21.7504         23.0004
 -11281898.91246  -7653559.55846  21723071.6804   21723076.5204
        17.0004         16.5004
  -9256808.86446  -6951934.76846  22348155.5234   22348163.0864
        13.7504         12.5004
  19919875.20843    591266.28445  24630180.6724   24630193.4734
         5.5004          5.2504
   7969398.79843  10037847.09245  24006224.2504   24006235.0234
         6.7504          7.2504
   -215236.28242    -10594.14854  25243072.7194   25243083.5984
         4.7504          4.0004
   1059408.05643    602720.80545  24474074.7584   24474086.9614
         5.5004          5.5004
 03 11  2  0 12  0.0000000  0  8G28G 7G 9G 4G 8G26G 5G29
   1740015.00046   1355854.83546  22282451.7194   22282456.2304
        15.7504         13.7504
  -6653889.33647  -5353820.67046  20926373.2504   20926378.0554
        21.7504         23.0004
 -11318551.74046  -7682120.13846  21716096.8594   21716101.4654
        17.5004         16.5004
  -9320104.06646  -7001255.51046  22336110.5084   22336116.9414
        13.7504         12.5004
  20060706.06143    701004.55745  24656980.1804   24656995.4304
         6.0004          6.5004
   8078909.45845  10123179.90445  24027066.4924   24027077.4884
         8.0004          7.0004
   -283226.71643    -63573.53145  25230134.8754   25230145.9304
         5.2504          5.5004
   1172849.72642    691116.67044  24495660.0394   24495669.2194
         4.2504          4.5004
 03 11  2  0 12 30.0000000  0  8G28G 7G 9G 4G 8G26G 5G29
   1821484.96746   1419337.92246  22297954.7504   22297958.7344
        15.0004         13.2504
  -6593402.03947  -5306687.68546  20937883.5164   20937888.2854
        21.5004         23.0004
 -11354717.96446  -7710301.53246  21709214.4694   21709219.4614
        17.5004         16.2504
  -9383038.33646  -7050295.04146  22324134.4454   22324141.1024
        13.7504         12.5004
  20201634.94043    810819.21345  24683797.6884   24683810.4064
         6.0004          6.5004
   8188605.51843  10208657.24145  24047937.1334   24047946.7344
         6.5004          7.5004
   -351221.41843   -116556.12545  25217196.2734   25217205.1604
         5.7504          5.7504
   1286351.79042    779559.58344  24517259.4924   24517271.4734
         4.7504          4.7504
 03 11  2  0 13  0.0000000  0  8G28G 7G 9G 4G 8G26G 5G29
   1903166.42046   1482985.79746  22313498.5234   22313502.4614
        15.2504         13.5004
  -6532611.28347  -5259318.24246  20949451.3134   20949455.8364
        21.7504         23.0004
 -11390399.53346  -7738105.29346  21702424.3444   21702429.4414
        17.5004         16.7504
  -9445612.98246  -7099054.31546  22312226.8834   22312233.1054
        14.0004         13.0004
  20342655.75043    920705.52645  24710632.6804   24710649.0314
         6.0004          5.7504
   8298479.71844  10294273.30545  24068849.0944   24068858.5434
         7.7504          7.5004
   -419223.91843   -169544.77145  25204255.9614   25204264.2274
         6.0004          6.2504
   1399906.88142    868043.87144  24538865.0554   24538878.0084
         4.5004          4.7504
 03 11  2  0 13 30.0000000  0  8G28G 7G 9G 4G 8G26G 5G29
   1985062.43246   1546800.88746  22329082.5234   22329087.5744
        14.5004         13.5004
  -6471515.51047  -5211711.13046  20961077.7194   20961082.5354
        21.5004         23.0004
 -11425591.03446  -7765527.17446  21695727.8364   21695732.3714
        17.7504         17.0004
  -9507821.67346  -7147528.43746  22300389.0234   22300395.9414
        14.2504         13.0004
  20483769.22443   1030663.95145  24737486.5784   24737500.5394
         5.5004          5.7504
   8408532.03143  10380028.25845  24089789.3054   24089795.6684
         6.7504          7.0004
   -487230.39543   -222536.45345  25191311.4064   25191319.7074
         5.5004          5.7504
   1513515.53141    956569.88943  24560485.5634   24560501.7854
         3.2504          3.2504
 03 11  2  0 14  0.0000000  0  8G28G 7G 9G 4G 8G26G 5G29
   2067178.53146   1610787.44446  22344709.1414   22344713.7464
        14.7504         13.2504
  -6410110.52247  -5163863.06046  20972762.4774   20972767.2234
        21.7504         23.0004
 -11460284.56946  -7792561.03046  21689125.7814   21689130.4924
        17.7504         16.7504
  -9569655.97046  -7195710.79246  22288621.5554   22288627.4384
        14.2504         12.5004
  20624979.05143   1140697.51944  24764357.1414   24764372.2034
         5.0004          4.7504
   8518765.10644  10465923.97745  24110768.0944   24110777.7894
         7.2504          7.5004
   -555234.97343   -275526.68545  25178371.2584   25178379.9454
         5.2504          6.5004
   1627179.95641   1045139.28344  24582115.0314   24582125.6764
         3.7504          4.2504
 03 11  2  0 14 30.0000000  0  8G28G 7G 9G 4G 8G26G 5G29
   2149520.81246   1674950.25246  22360377.6804   22360382.2854
        14.5004         13.2504
  -6348391.71347  -5115770.46546  20984507.2194   20984512.0474
        21.7504         23.0004
 -11494472.01746  -7819200.52946  21682620.0084   21682624.8594
        18.0004         17.0004
  -9631106.65746  -7243594.27646  22276928.2194   22276935.3134
        14.5004         12.7504
  20766289.01842   1250809.14744  24791247.5634   24791253.9384
         4.5004          4.2504
   8629181.78943  10551962.77245  24131778.5314   24131786.1294
         6.7504          6.7504
   -623230.74642   -328510.08745  25165432.4304   25165442.4654
         4.5004          5.2504
   1740903.31942   1133754.64244  24603755.5474   24603768.0084
         4.0004          4.0004
 03 11  2  0 15  0.0000000  0  8G28G 7G 9G 4G 8G26G 5G29
   2232078.41546   1739280.83146  22376088.3914   22376093.1724
        14.7504         13.0004
  -6286371.65247  -5067443.12646  20996309.3754   20996314.2034
        21.7504         23.2504
 -11528162.33546  -7845452.66446  21676208.7424   21676213.2074
        17.5004         16.5004
  -9692181.91346  -7291185.20646  22265305.7344   22265312.0274
        14.2504         12.7504
  20907686.07041   1360988.60845  24818154.6024   24818164.7304
         3.7504          5.2504
   8739767.96444  10638133.68145  24152821.6094   24152833.5204
         7.0004          7.0004
   -691228.09442   -381494.61145  25152493.8204   25152505.7774
         4.0004          5.5004
   1854671.70742   1222405.07845  24625406.7114   24625415.8324
         4.5004          5.0004
 03 11  2  0 15 30.0000000  0  8G28G 7G 9G 4G 8G26G 5G29
   2314856.31446   1803783.07846  22391840.7114   22391845.5394
        14.5004         13.0004
  -6224046.52447  -5018878.07046  21008169.6024   21008174.0904
        21.7504         22.7504
 -11561348.16946  -7871311.68646  21669893.5634   21669898.6724
        17.5004         16.7504
  -9752873.23846  -7338476.96046  22253756.1884   22253762.4454
        14.0004         12.7504
  21049172.96041   1471238.25242  24845078.7974   24845094.2934
         3.0004          2.2504
   8850525.83744  10724438.32845  24173897.6024   24173909.0784
         7.0004          7.2504
   -759221.45141   -434476.15144  25139552.5784   25139568.7194
         3.2504          4.0004
   1968487.40141   1311092.34144  24647063.8834   24647074.0354
         3.7504          4.0004
 03 11  2  0 16  0.0000000  0  8G28G 7G 9G 4G 8G26G 5G29
   2397854.49146   1868456.97546  22407634.3364   22407639.2814
        14.7504         13.0004
  -6161418.04347  -4970076.63846  21020087.3914   21020091.6684
        21.7504         22.7504
 -11594027.34546  -7896775.90446  21663675.1804   21663680.1604
        18.0004         17.2504
  -9813178.05546  -7385467.54646  22242280.5234   22242286.7934
        14.2504         12.7504
  21190747.71341                  24872021.2814
         2.5004
   8961452.23944  10810874.33345  24195007.6484   24195016.9454
         7.0004          7.2504
   -827209.85341                  25126617.4144
         2.7504
   2082347.15541   1399813.93843  24668729.5474   24668741.0004
         3.5004          3.5004
 03 11  2  0 16 30.0000000  0  8G28G 7G 9G 4G 8G26G 5G29
   2481075.84046   1933304.78046  22423470.9694   22423475.6804
        14.5004         13.0004
  -6098484.47447  -4921037.46846  21032062.7814   21032067.5164
        21.7504         22.5004
 -11626194.26846  -7921840.97246  21657554.0944   21657558.8164
        18.2504         17.2504
  -9873090.07046  -7432152.04446  22230879.3364   22230886.1454
        15.2504         13.5004
                                  24898975.8914
         1.7504
   9072547.12244  10897441.63345  24216148.7194   24216158.8834
         7.0004          7.2504
    -11327.76151                  25113677.0314
         2.0004
   2196251.71842   1488570.64442  24690408.7894   24690418.0864
         4.5004          2.7504
 03 11  2  0 17  0.0000000  0  6G28G 7G 9G 4G26G29
   2564521.85746   1998327.62346  22439350.3914   22439354.8794
        14.2504         12.7504
  -6035246.12047  -4871760.81546  21044096.7274   21044101.2034
        21.5004         22.7504
 -11657845.86846  -7946504.49946  21651530.6804   21651534.6764
        18.0004         17.2504
  -9932605.22346  -7478527.31346  22219554.3984   22219560.2464
        15.2504         13.5004
   9183808.60443  10984138.72645  24237321.7034   24237334.1294
         6.7504          7.0004
   2310198.74942   1577360.10043  24712092.5004   24712105.7704
         4.5004          3.2504
 03 11  2  0 17 30.0000000  0  6G28G 7G 9G 4G26G29
   2648190.89846   2063524.25846  22455271.6564   22455275.7814
        14.2504         13.2504
  -5971706.01047  -4822249.02046  21056188.0004   21056192.5944
        21.5004         22.5004
 -11688981.79746  -7970766.17046  21645605.7664   21645610.3134
        17.7504         17.0004
  -9991722.19446  -7524592.30946  22208304.2584   22208310.2114
        14.7504         13.2504
   9295232.10843  11070962.04345  24258523.5554   24258533.5554
         6.7504          7.2504
   2424183.41842                  24733780.1334
         4.2504
 03 11  2  0 18  0.0000000  0  7G28G 7G 9G 4G26G 5G29
   1156665.65446    901296.78146  22171444.2664   22171448.5664
        14.5004         13.0004
  -7483283.69847  -6000101.73946  20768544.5474   20768549.5394
        21.7504         22.5004
 -13295020.96346  -9222225.20446  21339986.3134   21339990.8364
        18.2504         17.5004
 -11625859.76546  -8797946.06546  21897338.6804   21897344.9964
        15.2504         13.5004
   7831398.09743   9930312.01645  23979963.9384   23979975.2384
         6.2504          6.7504
  -1627512.85552                  24775088.0784
         4.0004
    962787.30542                  24455686.6094
         4.5004
 03 11  2  0 18 30.0000000  0  7G28G 7G 9G 4G26G 5G29
   1240779.66146    966840.15646  22187450.8984   22187455.2584
        14.5004         13.2504
  -7419145.71647  -5950124.07146  20780749.6484   20780754.2544
        21.5004         22.2504
 -13325120.08446  -9245678.98046  21334259.1174   21334263.9454
        18.7504         17.7504
 -11684172.11646  -8843384.11146  21886241.2894   21886247.1954
        15.2504         13.7504
   7943135.23043  10017379.70845  24001227.7734   24001238.7114
         6.5004          6.5004
  -1695453.73843                  24762159.0864
         5.2504
   1076838.55742  -1195014.39454  24477390.1804   24477404.9024
         4.5004          4.5004
 03 11  2  0 19  0.0000000  0  7G28G 7G 9G 4G26G 5G29
   1325118.73046   1032558.90146  22203499.3284   22203504.3094
        14.0004         12.7504
  -7354708.17047  -5899912.97946  20793011.4384   20793016.0314
        21.7504         22.7504
 -13354694.90546  -9268724.21946  21328630.9614   21328636.0234
        18.2504         18.0004
 -11742075.06046  -8888503.12146  21875223.0864   21875229.0634
        15.7504         13.5004
   8055027.39443  10104568.22745  24022521.6334   24022535.1374
         6.2504          6.7504
  -1763381.10243                  24749231.4844
         6.2504
   1190921.19842  -1106118.95444  24499099.9064   24499117.5234
         4.0004          4.7504
 03 11  2  0 19 30.0000000  0  7G28G 7G 9G 4G26G 5G29
   1409678.30446   1098449.47346  22219590.5704   22219595.4454
        14.0004         13.0004
  -7289977.10047  -5849473.16146  20805329.2424   20805333.8714
        21.7504         22.5004
 -13383747.67946  -9291362.65946  21323102.2274   21323107.3484
        18.2504         17.5004
 -11799570.33946  -8933304.47746  21864281.8444   21864287.8094
        14.7504         13.0004
   8167067.01943  10191871.70445  24043841.9534   24043851.6844
         6.5004          7.2504
  -1831298.80644                  24736308.1954
         7.0004
   1305028.29342  -1017204.63443  24520815.6564   24520827.9774
         4.2504          3.7504
 03 11  2  0 20  0.0000000  0  7G28G 7G 9G 4G26G 5G29
   1494462.04646   1164514.73546  22235724.6564   22235729.1454
        14.0004         13.2504
  -7224950.63747  -5798803.17146  20817703.5634   20817708.2384
        21.5004         22.2504
 -13412273.06146  -9313590.16346  21317673.6484   21317678.6294
        18.5004         17.7504
 -11856651.44646  -8977783.08646  21853419.6484   21853425.6604
        15.0004         13.0004
   8279254.32443  10279290.16845  24065190.7274   24065195.3794
         6.2504          5.5004
  -1899202.82044  -1275219.18055  24723386.2894   24723391.4224
         7.5004          6.2504
   1419159.45241   -928271.49243  24542533.9304   24542554.7974
         3.2504          3.5004
 03 11  2  0 20 30.0000000  0  7G28G 7G 9G 4G26G 5G29
   1579471.80146   1230756.09846  22251901.7974   22251906.3324
        14.0004         12.7504
  -7159628.06247  -5747902.44346  20830134.1024   20830138.5784
        21.5004         22.0004
 -13440266.95346  -9335403.50746  21312347.1414   21312351.4654
        18.7504         18.2504
 -11913313.49346  -9021935.15846  21842637.0234   21842642.1334
        15.2504         13.7504
   8391588.42243  10366823.00445  24086566.6884   24086573.8874
         5.7504          6.0004
  -1967090.43544  -1328118.37545  24710466.5474   24710471.9964
         7.2504          5.2504
   1533314.50041   -839319.86543  24564255.5704   24564266.5434
         3.7504          3.5004
 03 11  2  0 21  0.0000000  0  7G28G 7G 9G 4G26G 5G29
   1664702.46146   1297169.60246  22268120.3284   22268124.8284
        13.7504         12.5004
  -7094016.19347  -5696776.29546  20842619.3524   20842623.8054
        21.5004         22.0004
 -13467732.51146  -9356805.16746  21307120.3054   21307124.8524
        18.7504         18.2504
 -11969558.66846  -9065762.41346  21831933.8204   21831939.6334
        15.0004         13.2504
   8504061.08143  10454463.82545  24107968.5704   24107977.7274
         5.7504          7.0004
  -2034965.95243  -1381008.10845  24697550.6174   24697560.5004
         6.5004          6.2504
   1647485.36642   -750355.79044  24585982.2584   24585988.1994
         4.0004          4.2504
 03 11  2  0 21 30.0000000  0  7G28G 7G 9G 4G26G 5G29
   1750161.56846   1363761.12146  22284382.5634   22284386.6994
        14.0004         12.5004
  -7028108.56547  -5645419.68646  20855161.5004   20855166.1174
        21.2504         22.0004
 -13494660.00146  -9377787.54946  21301996.0004   21302000.6994
        18.7504         18.2504
 -12025376.39246  -9109256.58346  21821312.0164   21821317.7934
        15.2504         13.2504
   8616676.87543  10542216.20545  24129399.7664   24129410.2464
         6.2504          6.7504
  -2102820.73443  -1433881.75645  24684638.0864   24684649.0594
         5.2504          6.5004
   1761676.12142   -661376.25745  24607713.6644   24607733.4734
         4.2504          5.0004
 03 11  2  0 22  0.0000000  0  8G24G28G 7G 9G 4G26G 5G29
  -1607005.13852                  24383651.1954
         4.2504
   1835845.93046   1430528.16546  22300688.1334   22300692.6454
        14.0004         12.7504
  -6961910.21147  -5593836.53946  20867758.3134   20867763.0004
        21.2504         22.0004
 -13521050.97146  -9398351.88146  21296973.6884   21296978.3634
        19.2504         18.2504
 -12080767.21146  -9152418.08146  21810771.3054   21810776.7544
        15.2504         13.7504
   8729429.38443  10630075.06845  24150856.6644   24150868.6094
         6.5004          7.2504
  -2170657.93442  -1486741.66245  24671728.3754   24671738.2934
         4.2504          6.0004
   1875881.29241   -572385.55244  24629448.8754   24629469.7424
         3.7504          4.0004
 03 11  2  0 22 30.0000000  0  8G24G28G 7G 9G 4G26G 5G29
  -1693132.25443                  24367261.8134
         5.0004
   1921750.78646   1497467.01046  22317034.9534   22317039.5704
        14.0004         12.5004
  -6895427.24047  -5542031.60846  20880409.6884   20880414.3524
        21.2504         22.0004
 -13546907.78346  -9418499.95746  21292053.3674   21292057.7274
        19.0004         18.2504
 -12135732.96046  -9195248.39146  21800311.7194   21800316.7584
        16.2504         14.0004
   8842311.09643  10718034.70745  24172337.6954   24172355.0204
         6.2504          6.5004
  -2238481.51241  -1539590.96145  24658823.3834   24658832.2464
         3.7504          6.0004
  -1487860.55151                  24651178.1564
         2.7504
 03 11  2  0 23  0.0000000  0  8G24G28G 7G 9G 4G26G 5G29
  -1779218.72743                  24350879.5084
         5.5004
   2007884.14946   1564583.93146  22333425.9614   22333430.4144
        14.2504         13.0004
  -6828653.01447  -5489999.72846  20893116.0944   20893120.6414
        21.0004         22.0004
 -13572220.58446  -9438224.15646  21287236.6174   21287240.9184
        19.2504         18.2504
 -12190262.81346  -9237739.04546  21789934.7974   21789939.5084
        16.2504         14.0004
   8955326.72343  10806098.53845  24193843.6414   24193856.3364
         6.2504          6.2504
  -2306282.54541  -1592422.67845  24645920.0944   24645931.3594
         2.5004          5.2504
  -1373636.94941                  24672914.1724
         3.7504
 03 11  2  0 23 30.0000000  0  8G24G28G 7G 9G 4G26G 5G29
  -1865268.44043  -1283472.38255  24334504.8674   24334513.8014
         5.5004          6.2504
   2094239.66846   1631873.96646  22349858.5234   22349863.3754
        14.0004         12.5004
  -6761595.19747  -5437746.87146  20905876.8834   20905881.5354
        21.0004         21.5004
 -13596993.68546  -9457527.79946  21282522.4384   21282526.7624
        19.5004         18.5004
 -12244360.03846  -9279892.55646  21779640.2974   21779645.7814
        16.5004         14.5004
   9068467.18043  10894259.73745  24215372.7344   24215383.7894
         5.7504          6.2504
                                  24633018.9774
         1.5004
  -1259410.31841                  24694652.1954
         3.2504
 03 11  2  0 24  0.0000000  0  8G24G28G 7G 9G 4G26G 5G29
  -1951278.62343  -1350492.81945  24318137.8594   24318152.2544
         6.2504          6.5004
   2180817.26846   1699337.05245  22366333.6334   22366338.3324
        13.2504         11.7504
  -6694255.53547  -5385274.39646  20918691.3594   20918695.9304
        21.2504         21.7504
 -13621225.26546  -9476409.48746  21277911.0004   21277915.5944
        18.7504         18.5004
 -12298021.74446  -9321706.71946  21769428.9064   21769434.1564
        16.5004         14.5004
   9181729.29343  10982515.70345  24236926.7114   24236935.9844
         5.7504          6.7504
  -1586711.55451                  24620126.5864
         2.5004
  -1145184.15341  -1171232.59353  24716390.9614   24716407.1254
         3.7504          3.0004
 03 11  2  0 24 30.0000000  0  8G24G28G 7G 9G 4G26G 5G29
  -2037245.90943  -1417479.84845  24301778.4844   24301792.7624
         6.0004          6.2504
   2267617.59346   1766973.68346  22382851.3754   22382855.0314
        13.5004         12.5004
  -6626634.56147  -5332582.71146  20931558.8754   20931563.6334
        21.2504         21.5004
 -13644912.80946  -9494867.23446  21273403.5864   21273408.1914
        19.0004         18.2504
 -12351244.57946  -9363178.93046  21759300.8444   21759306.1414
        16.5004         14.7504
   9295110.65443  11070864.62945  24258502.1024   24258514.3984
         5.7504          6.7504
  -1654458.59141                  24607233.4844
         3.7504
  -1030960.57342                  24738127.1024
         4.0004
 03 11  2  0 25  0.0000000  0  8G24G28G 7G 9G 4G26G 5G29
  -2123168.60643  -1484432.07845  24285427.8364   24285437.2974
         5.0004          5.0004
   2354639.38646   1834782.88246  22399411.2194   22399414.5004
        13.2504         12.0004
  -6558735.05047  -5279673.99146  20944480.0234   20944484.7114
        21.2504         21.5004
 -13668055.63646  -9512900.53846  21268999.7734   21269004.2504
        19.2504         18.5004
 -12404026.91246  -9404307.87346  21749256.3594   21749261.4104
        16.0004         14.2504
   9408606.99143  11159303.08245  24280100.8364   24280115.0904
         5.5004          6.0004
  -1722186.79943  -1241670.20955  24594344.6644   24594353.9024
         5.0004          5.7504
   -916743.55341                  24759860.8674
         3.7504
 03 11  2  0 25 30.0000000  0  8G24G28G 7G 9G 4G26G 5G29
  -2209046.44442  -1551349.42244  24269084.8364   24269097.1094
         4.2504          4.2504
   2441880.37046   1902762.89745  22416012.2814   22416016.3244
        12.7504         11.7504
  -6490560.97947  -5226551.32346  20957453.1414   20957457.6644
        21.2504         21.7504
 -13690653.73946  -9530509.37846  21264699.3524   21264703.3954
        19.2504         18.2504
 -12456368.31546  -9445093.24446  21739295.7034   21739301.4454
        15.7504         14.5004
   9522213.00143  11247827.07645  24301720.2034   24301727.4024
         5.7504          6.7504
  -1789897.54943  -1294431.50045  24581460.3444   24581473.8484
         6.0004          5.5004
   -802538.06641                  24781592.2974
         3.5004
 03 11  2  0 26  0.0000000  0  8G24G28G 7G 9G 4G26G 5G29
  -2294870.83441  -1618224.92343  24252752.2114   24252772.0554
         3.2504          3.5004
   2529345.97046   1970917.93845  22432656.3054   22432660.8404
        12.7504         11.5004
  -6422107.86147  -5173211.21846  20970479.1724   20970483.9654
        21.2504         21.7504
 -13712699.81946  -9547688.06246  21260503.4924   21260508.0634
        18.7504         18.0004
 -12508260.12546  -9485528.27646  21729421.1484   21729426.7384
        16.7504         15.0004
   9635931.38643  11336438.52045  24323359.3204   24323369.8594
         5.5004          5.7504
  -1857585.16943  -1347174.92845  24568579.0394   24568586.2854
         6.5004          5.0004
   -688341.51041                  24803324.7894
         3.7504
 03 11  2  0 26 30.0000000  0  8G24G28G 7G 9G 4G26G 5G29
  -2380642.87841  -1685059.86943  24236430.1414   24236443.8674
         3.0004          3.0004
   2617032.47046   2039245.12045  22449342.2734   22449347.6054
        12.5004         11.5004
  -6353381.09847  -5119657.89246  20983557.7344   20983562.0354
        21.2504         21.7504
 -13734195.83946  -9564438.13946  21256413.9064   21256418.4654
        19.2504         18.5004
 -12559703.68946  -9525614.03246  21719630.3524   21719635.4734
        16.5004         15.5004
   9749755.21543  11425132.18545  24345018.9064   24345032.0594
         5.5004          5.0004
  -1925252.26743  -1399902.32143  24555702.8134   24555711.3364
         6.0004          3.5004
   -574160.56941                  24825051.5784
         3.2504
 03 11  2  0 27  0.0000000  0  8G24G28G 7G 9G 4G26G 5G29
  -2466362.55442  -1751853.88543  24220117.8594   24220125.7854
         4.0004          3.2504
   2704937.12546   2107742.25945  22466070.1564   22466074.6914
        12.2504         11.5004
  -6284384.85047  -5065894.57946  20996687.1644   20996691.6054
        21.2504         21.5004
 -13755142.62946  -9580760.24146  21252427.1804   21252431.5864
        19.7504         18.7504
 -12610698.72046  -9565350.31846  21709927.2974   21709933.2974
        16.2504         14.7504
   9863678.89043  11513903.63245  24366697.4454   24366711.6884
         5.7504          6.2504
  -1992900.69943  -1452615.23145  24542829.1334   24542838.2194
         5.0004          5.0004
   -460000.50241                  24846776.3134
         3.7504
 03 11  2  0 27 30.0000000  0  8G24G28G 7G 9G 4G26G 5G29
  -2552023.64843                  24203816.5474
         5.2504
   2793063.54046   2176412.22645  22482840.1564   22482844.8554
        12.2504         11.5004
  -6215116.90647  -5011919.55146  21009868.4304   21009872.7664
        21.2504         21.2504
 -13775534.67146  -9596650.07346  21248546.5554   21248550.6334
        19.2504         18.7504
 -12661238.85146  -9604732.07146  21700310.0084   21700314.9184
        16.7504         15.0004
   9977702.95743  11602753.38545  24388397.4774   24388410.7464
         5.7504          5.7504
  -2060526.53642                  24529959.7274
         4.5004
   -345860.64041                  24868495.6094
         3.0004
 03 11  2  0 28  0.0000000  0  7G24G28G 7G 9G 4G26G 5
  -2637624.34543                  24187526.0164
         6.2504
   2881410.59146   2245254.10845  22499652.3204   22499655.6254
        12.5004         11.2504
  -6145579.80847  -4957734.79246  21023100.7734   21023105.5084
        21.0004         21.2504
 -13795371.19046  -9612107.01846  21244771.8984   21244776.3874
        19.2504         18.5004
 -12711322.58946  -9643758.22046  21690779.2814   21690784.4144
        17.2504         15.2504
  -1533570.68553                  24410114.9384
         6.0004
  -2128129.74742                  24517095.7034
         4.0004
 03 11  2  0 28 30.0000000  0  8G24G28G 7G 9G 4G26G 5G29
  -2723164.05143  -1240925.32255  24171248.6334   24171263.2624
         6.7504          6.0004
   2969975.99245   2314266.12945  22516505.1954   22516509.0394
        11.7504         10.7504
  -6075777.14947  -4903343.10946  21036383.9694   21036388.5044
        21.0004         21.0004
 -13814652.81946  -9627131.60346  21241102.6804   21241107.0274
        19.7504         18.7504
 -12760949.33246  -9682428.27946  21681335.3984   21681340.4964
        17.0004         15.2504
  -1419359.23243                  24431847.5084
         5.2504
  -2195711.87842                  24504235.6024
         4.2504
  -1487959.51051                  24911921.9304
         3.5004
 03 11  2  0 29  0.0000000  0  8G24G28G 7G 9G 4G26G 5G29
  -2808639.32243  -1307528.94645  24154983.2504   24154995.5004
         6.5004          7.2504
   3058760.09045   2383448.58145  22533400.2194   22533403.7584
        11.5004         10.7504
  -6005709.91947  -4848745.25946  21049717.2664   21049722.0004
        21.0004         21.2504
 -13833377.20847  -9641721.96446  21237539.6334   21237543.7584
        20.0004         18.7504
 -12810115.68246  -9720739.58246  21671979.3444   21671984.4884
        16.5004         15.0004
  -1305059.04743                  24453599.7734
         5.7504
  -2263271.26842  -1271466.56254  24491377.5004   24491384.9924
         4.5004          4.7504
  -1373904.36341                  24933626.8204
         3.7504
 03 11  2  0 29 30.0000000  0  8G24G28G 7G 9G 4G26G 5G29
  -2894042.60243  -1374076.57745  24138731.4224   24138740.5434
         6.2504          7.0004
   3147767.78845   2452805.21745  22550337.6804   22550342.2274
        11.5004         11.2504
  -5935374.72947  -4793938.61546  21063101.4384   21063106.0554
        21.0004         21.2504
 -13851537.70046  -9655872.93846  21234083.6414   21234087.9654
        19.5004         18.7504
 -12858814.49346  -9758686.57646  21662711.8984   21662716.7974
        17.0004         15.2504
  -1190668.67943  -1153319.20555  24475365.1564   24475374.8164
         5.7504          7.0004
  -2330802.43043  -1324088.02045  24478527.7424   24478538.1054
         5.0004          5.5004
  -1259878.92141  -1206873.86253  24955326.1414   24955343.3364
         3.7504          3.7504
 03 11  2  0 30  0.0000000  0  8G24G28G 7G 9G 4G26G 5G29
  -2979375.63643  -1440569.29845  24122492.8524   24122504.4924
         5.5004          5.7504
   3236994.51346   2522332.55745  22567317.7194   22567321.4344
        12.0004         11.0004
  -5864777.55047  -4738927.82346  21076535.6564   21076540.2624
        21.0004         21.0004
 -13869136.91346  -9669586.54146  21230734.7504   21230739.2384
        19.5004         19.0004
 -12907047.15746  -9796270.34546  21653533.4144   21653537.9964
        17.0004         15.5004
  -1076195.18343  -1064119.26545  24497150.6724   24497159.6884
         5.7504          5.7504
  -2398309.05543  -1376690.35445  24465682.0234   24465691.8014
         5.7504          5.5004
  -1145889.91941  -1118051.77644  24977016.3444   24977031.1844
         3.2504          4.2504
 03 11  2  0 30 30.0000000  0  8G24G28G 7G 9G 4G26G 5G29
  -3064636.44242  -1507005.96145  24106267.2734   24106280.0044
         4.2504          5.7504
   3326439.45346   2592029.90345  22584338.0704   22584342.8284
        12.2504         11.2504
  -5793920.58147  -4683714.59746  21090019.2504   21090023.6094
        21.0004         20.7504
 -13886173.96746  -9682862.11446  21227492.0234   21227496.4884
        19.5004         18.7504
 -12954812.11646  -9833489.66846  21644444.1884   21644448.8404
        16.7504         15.5004
   -961642.47443   -974857.70345  24518950.0004   24518961.4064
         6.2504          6.2504
  -2465791.35043  -1429273.87545  24452840.0394   24452849.7934
         6.2504          5.7504
  -1031941.15641                  24998701.2814
         3.2504
 03 11  2  0 31  0.0000000  0  8G24G28G 7G 9G 4G26G 5G29
  -3149829.16542  -1573389.47045  24090054.5944   24090067.9694
         4.0004          5.0004
   3416095.57346   2661891.83145  22601399.6094   22601404.6134
        12.0004         10.7504
  -5722812.28447  -4628305.52046  21103550.6724   21103555.0314
        21.0004         20.7504
 -13902654.45346  -9695703.99746  21224356.3444   21224360.6914
        19.7504         19.0004
 -13002113.66746  -9870347.88346  21635442.5084   21635447.6174
        16.5004         15.7504
   -847020.75743   -885542.29345  24540759.7974   24540768.1684
         5.5004          6.0004
  -2533255.45443  -1481843.16345  24440001.6174   24440008.7344
         6.2504          5.2504
   -918042.69642                  25020375.4304
         4.0004
 03 11  2  0 31 30.0000000  0  8G24G28G 7G 9G 4G26G 5G29
  -3234946.43742  -1639714.05645  24073857.9304   24073870.2384
         4.5004          6.0004
   3505967.03845   2731921.53645  22618500.9924   22618506.0084
        11.7504         10.7504
  -5651449.61847  -4572698.23546  21117130.6094   21117135.3794
        21.0004         20.7504
 -13918572.07646  -9708107.28746  21221326.9384   21221331.1094
        19.5004         19.2504
 -13048944.65646  -9906839.43946  21626530.9924   21626535.6214
        17.0004         15.7504
   -732328.39043   -796171.84345  24562587.0474   24562597.0004
         5.7504          5.5004
  -2600695.77243  -1534393.86045  24427168.3834   24427173.4104
         6.2504          5.7504
   -804192.42841                  25042039.8054
         3.7504
 03 11  2  0 32  0.0000000  0  8G24G28G 7G 9G 4G26G 5G29
  -3319992.87943  -1705983.50545  24057674.0084   24057686.5864
         5.0004          6.2504
   3596046.74345   2802113.54045  22635642.3284   22635646.7344
        11.7504         11.0004
  -5579841.19447  -4516899.44546  21130757.2194   21130761.4144
        21.0004         21.0004
 -13933932.32246  -9720076.25746  21218404.0084   21218408.5434
        19.7504         19.0004
 -13095309.56746  -9942967.81646  21617707.7664   21617712.9344
        16.5004         15.2504
   -617575.70243   -706754.30045  24584421.6564   24584424.2584
         5.0004          5.0004
  -2668118.50643  -1586931.04445  24414336.4774   24414345.7384
         5.5004          5.0004
   -690400.59541                  25063695.3204
         3.0004
 03 11  2  0 32 30.0000000  0  8G24G28G 7G 9G 4G26G 5G29
  -3404968.09243  -1772197.43445  24041502.8364   24041513.3284
         5.5004          6.5004
   3686332.11145   2872465.75045  22652823.1024   22652827.0864
        11.7504         10.7504
  -5507990.83847  -4460912.14246  21144430.0234   21144434.4534
        21.0004         20.7504
 -13948735.98447  -9731611.53046  21215586.9454   21215591.4694
        20.0004         19.5004
 -13141208.35346  -9978732.96946  21608973.9534   21608979.3794
        17.0004         15.5004
   -502767.91743   -617293.93045  24606270.6564   24606285.1454
         5.0004          5.7504
  -2735525.72342  -1639455.84943  24401510.1564   24401515.4884
         4.5004          3.7504
                                  25085334.0554
         2.0004
 03 11  2  0 33  0.0000000  0  8G24G28G 7G 9G 4G26G 5G29
  -3489881.24443  -1838363.14945  24025344.4064   24025360.0784
         5.5004          5.5004
   3776811.21346   2942968.92245  22670041.0784   22670045.4264
        12.2504         11.2504
  -5435912.06247  -4404746.84646  21158145.9844   21158150.2274
        20.7504         20.7504
 -13962993.18647  -9742720.99846  21212873.8524   21212878.0824
        20.2504         19.2504
 -13186650.28846 -10014142.15646  21600325.9384   21600330.5434
        17.5004         15.7504
   -387919.89642   -527802.20545  24628125.5634   24628138.9024
         4.7504          5.0004
  -2802928.37242  -1691977.28245  24388683.1334   24388692.6994
         4.2504          5.7504
  -1465564.03241                  25106962.8284
         3.0004
 03 11  2  0 33 30.0000000  0  8G24G28G 7G 9G 4G26G 5G29
  -3574719.75543  -1904470.48845  24009200.2034   24009208.6214
         6.5004          5.2504
   3867493.53346   3013630.48645  22687297.4224   22687301.5354
        12.0004         11.2504
  -5363596.66947  -4348397.16946  21171907.0784   21171911.5664
        20.5004         20.7504
 -13976693.01247  -9753396.14846  21210267.1334   21210271.3524
        20.2504         19.5004
 -13231623.17846 -10049185.84346  21591767.8134   21591772.9344
        17.5004         15.7504
   -273025.13243   -438274.14544  24649990.7584   24650001.6844
         5.0004          4.5004
  -2870316.39242  -1744487.21144  24375859.7734   24375874.0394
         4.0004          4.7504
  -1351984.99243                  25128577.4844
         5.0004
 03 11  2  0 34  0.0000000  0  8G24G28G 7G 9G 4G26G 5G29
  -3659475.68043  -1970513.55945  23993071.0314   23993080.2934
         6.5004          5.0004
   3958384.20345   3084454.37345  22704593.4614   22704598.1844
        11.7504         11.2504
  -5291040.86347  -4291860.15246  21185713.9774   21185718.8754
        20.5004         20.2504
 -13989828.63347  -9763631.65546  21207767.0864   21207771.2934
        20.0004         19.2504
 -13276119.43046 -10083858.14446  21583300.6334   21583304.8284
        17.7504         15.7504
   -158081.58842   -348707.95045  24671862.6644   24671875.7814
         4.7504          5.7504
  -2937683.00542  -1796980.56245  24363040.0864   24363052.6524
         4.2504          5.7504
  -1238475.07643                  25150177.4454
         5.5004
 03 11  2  0 34 30.0000000  0  8G24G28G 7G 9G 4G26G 5G29
  -3744146.74643  -2036490.62045  23976958.3594   23976968.4184
         6.5004          6.0004
   4049482.83945   3155440.29745  22721928.9614   22721933.0634
        11.7504         11.5004
  -5218246.48647  -4235137.24946  21199566.3204   21199570.9384
        20.2504         20.5004
 -14002398.86347  -9773426.59846  21205375.2034   21205379.5514
        20.0004         19.5004
 -13320136.90746 -10118157.34546  21574924.0704   21574929.0164
        18.2504         16.0004
    -43092.35943   -259106.29244  24693745.5394   24693754.3204
         5.0004          4.7504
  -3005028.21942  -1849457.12545  24350225.2194   24350233.9064
         4.7504          5.2504
  -1125037.46742                  25171763.9844
         4.2504
 03 11  2  0 35  0.0000000  0  8G24G28G 7G 9G 4G26G 5G29
  -3828733.06743  -2102401.59745  23960861.5004   23960870.4804
         6.7504          6.0004
   4140785.68645   3226585.36845  22739303.3754   22739307.9804
        11.2504         10.7504
  -5145218.07547  -4178231.97246  21213463.0474   21213467.4884
        20.2504         20.7504
 -14014405.26447  -9782782.19746  21203090.6334   21203094.7234
        20.5004         19.5004
 -13363676.13646 -10152083.91946  21566639.5704   21566644.1644
        18.7504         16.2504
     71936.30143   -169473.72845  24715634.1024   24715647.9804
         5.0004          5.2504
  -3072354.28843  -1901918.84645  24337412.7664   24337419.7194
         5.0004          6.5004
  -1011677.67142                  25193335.9144
         4.7504
 03 11  2  0 35 30.0000000  0  8G24G28G 7G 9G 4G26G 5G29
  -3913240.65143  -2168251.23645  23944779.6094   23944786.5634
         6.2504          7.0004
   4232284.51245   3297883.15445  22756714.7734   22756718.9224
        11.5004         11.0004
  -5071965.72747  -4121152.20446  21227402.5084   21227407.1254
        20.2504         20.2504
 -14025854.94147  -9791703.98146  21200912.0634   21200916.2814
        20.5004         19.5004
 -13406743.04246 -10185642.40846  21558443.5944   21558448.7854
        18.2504         16.2504
    186992.91042    -79819.43245  24737526.8834   24737539.9064
         4.5004          5.5004
  -3139668.71943  -1954371.35545  24324604.1254   24324607.8164
         5.5004          6.0004
   -898406.64542  -1198189.71654  25214890.5474   25214901.5554
         4.5004          4.7504
 03 11  2  0 36  0.0000000  0  8G24G28G 7G 9G 4G26G 5G29
  -3997668.80943  -2234038.94945  23928713.1334   23928722.9104
         5.2504          6.5004
   4323976.82345   3369331.69745  22774163.2974   22774169.2624
        11.5004         10.5004
  -4998492.94447  -4063900.66446  21241383.8054   21241388.3754
        20.2504         20.2504
 -14036748.47247  -9800192.40546  21198838.6174   21198842.7194
        20.0004         19.7504
 -13449337.49146 -10218832.76846  21550337.8754   21550342.3754
        18.0004         16.2504
    302072.38243      9852.54845  24759428.1484   24759437.6334
         5.0004          6.0004
  -3206972.89843  -2006816.06745  24311796.6484   24311806.2504
         6.0004          6.0004
   -785229.87641                  25236428.8524
         3.5004
 03 11  2  0 36 30.0000000  0  7G24G28G 7G 9G 4G26G 5
  -4082016.31442  -2299763.85245  23912662.3284   23912675.1414
         4.7504          6.5004
   4415861.39345   3440930.03945  22791648.9144   22791653.6724
        11.5004         10.7504
  -4924802.59547  -4006479.58946  21255406.6884   21255411.3984
        20.2504         20.5004
 -14047085.66647  -9808247.31846  21196871.5944   21196875.4614
        20.2504         19.7504
 -13491458.38346 -10251654.11246  21542322.5704   21542327.6094
        18.5004         16.7504
    417170.30943     99539.08345  24781331.8984   24781342.0394
         5.0004          5.7504
  -3274267.15143  -2059252.95445  24298990.6024   24298996.4844
         6.0004          6.2504
 03 11  2  0 37  0.0000000  0  7G24G28G 7G 9G 4G26G 5
  -4166279.14042  -2365422.83245  23896627.6564   23896637.1644
         4.7504          7.0004
   4507939.09445   3512678.88045  22809170.1954   22809174.8834
        11.2504         10.5004
  -4850894.88147  -3948889.14446  21269470.9224   21269475.5864
        20.2504         20.2504
 -14056863.91347  -9815866.69846  21195010.7734   21195015.0394
        20.2504         19.7504
 -13533102.02246 -10284103.58346  21534398.0944   21534402.7584
        18.5004         17.2504
    532285.04542    189238.53945  24803235.3054   24803246.6294
         4.7504          5.5004
  -3341549.66643  -2111680.74445  24286187.3984   24286195.1024
         5.7504          6.2504
 03 11  2  0 37 30.0000000  0  7G24G28G 7G 9G 4G26G 5
  -4250455.37443  -2431014.33245  23880608.9384   23880616.7934
         6.0004          6.7504
   4600209.00145   3584577.50545  22826728.4614   22826732.8204
        11.2504         10.0004
  -4776772.24147  -3891131.22046  21283575.9144   21283580.5204
        20.2504         20.2504
 -14066082.90647  -9823050.29546  21193256.2894   21193260.4734
        20.2504         19.7504
 -13574267.11346 -10316180.15646  21526564.6564   21526569.4734
        18.7504         17.0004
    647412.60943    278948.18745  24825143.5004   24825158.5984
         5.0004          5.7504
  -3408820.62043  -2164099.46445  24273385.5554   24273394.0904
         5.5004          5.7504
 03 11  2  0 38  0.0000000  0  7G24G28G 7G 9G 4G26G 5
  -4334543.98544  -2496537.61345  23864608.0004   23864617.1914
         7.5004          7.2504
   4692668.80845   3656624.08845  22844323.1094   22844328.2894
        11.0004         10.0004
  -4702437.92747  -3833208.37146  21297721.2114   21297725.8164
        20.2504         20.0004
 -14074743.31947  -9829798.63746  21191608.4454   21191612.6294
        20.2504         20.0004
 -13614953.22646 -10347883.51246  21518822.1024   21518826.4144
        19.5004         17.0004
    762548.00042    368663.85945  24847052.6484   24847064.3834
         4.5004          5.7504
  -3476080.87243  -2216509.85144  24260585.8834   24260591.9184
         5.5004          4.0004
 03 11  2  0 38 30.0000000  0  7G24G28G 7G 9G 4G26G 5
  -4418546.33545  -2561993.75945  23848622.6174   23848632.6524
         8.0004          6.7504
   4785314.42045   3728815.45445  22861952.9064   22861958.0744
        10.7504         10.0004
  -4627897.53447  -3775124.93846  21311906.0704   21311910.6994
        20.0004         19.7504
 -14082847.52447  -9836113.56046  21190066.2814   21190070.4064
        20.5004         20.0004
 -13655161.72046 -10379214.70846  21511171.0864   21511175.1414
        19.5004         17.5004
    877684.45543    458380.31945  24868964.2584   24868974.3284
         5.0004          5.0004
  -3543333.63943  -2268914.44145  24247788.8984   24247798.9574
         5.7504          5.2504
 03 11  2  0 39  0.0000000  0  7G24G28G 7G 9G 4G26G 5
  -4502464.22144  -2627384.07245  23832652.9924   23832661.7384
         7.2504          6.5004
   4878141.04245   3801147.88545  22879616.9924   22879621.9264
        10.2504          9.7504
  -4553157.03947  -3716885.57646  21326128.5704   21326133.1054
        20.0004         20.0004
 -14090398.73547  -9841997.59646  21188629.3834   21188633.6374
        20.5004         20.0004
 -13694894.93346 -10410175.54146  21503609.3524   21503613.7814
        18.7504         17.5004
    992814.19342    548091.55945  24890872.5704   24890881.9384
         4.7504          5.0004
  -3610582.36743  -2321315.83245  24234990.9454   24235001.8364
         6.2504          5.0004
 03 11  2  0 39 30.0000000  0  7G24G28G 7G 9G 4G26G 5
  -4586293.47843  -2692705.42045  23816700.8834   23816711.7624
         6.7504          6.5004
   4971149.61045   3873622.06145  22897316.3594   22897320.5434
        10.5004          9.5004
  -4478216.96247  -3658490.70146  21340389.1644   21340393.8054
        20.0004         19.7504
 -14097394.62947  -9847448.92046  21187297.7974   21187301.9224
        20.2504         20.0004
 -13734149.60446 -10440763.49546  21496139.6414   21496143.9884
        19.5004         17.5004
   1107935.51242    637796.31145  24912780.1254   24912793.5354
         4.7504          5.2504
  -3677825.35743  -2373712.69645  24222196.0314   24222204.1094
         6.7504          5.0004
 03 11  2  0 40  0.0000000  0  7G24G28G 7G 9G 4G26G 5
  -4670036.96343  -2757959.73945  23800764.8134   23800773.1844
         6.2504          5.7504
   5064334.68845   3946233.82845  22915048.6094   22915053.2974
        10.5004          9.7504
  -4403083.78747  -3599945.35546  21354686.5234   21354690.9414
        20.0004         19.7504
 -14103839.17247  -9852470.60246  21186071.2734   21186075.7034
        20.2504         20.2504
 -13772928.49846 -10470980.71646  21488760.3674   21488764.0824
        19.7504         18.0004
   1223040.14042    727488.04544  24934682.0864   24934696.2934
         4.0004          4.7504
  -3745067.00944  -2426108.61345  24209399.4774   24209404.4804
         7.0004          5.2504
 03 11  2  0 40 30.0000000  0  7G24G28G 7G 9G 4G26G 5
  -4753691.04843  -2823144.45545  23784846.2194   23784855.1524
         6.5004          6.7504
   5157697.23945   4018983.84045  22932814.9064   22932818.7034
        10.5004         10.0004
  -4327758.11647  -3541250.02246  21369020.5314   21369025.1954
        20.0004         19.7504
 -14109730.21547  -9857061.00046  21184950.3364   21184954.6254
        20.7504         20.0004
 -13811228.48046 -10500824.76146  21481472.0634   21481476.1174
        19.5004         17.5004
   1338126.10242    817165.08345  24956584.7734   24956594.6564
         4.0004          5.2504
  -3812304.88344  -2478501.58845  24196604.7664   24196613.4774
         7.5004          6.5004
 03 11  2  0 41  0.0000000  0  7G24G28G 7G 9G 4G26G 5
  -4837256.35644  -2888260.01845  23768944.0314   23768954.7464
         7.0004          7.2504
   5251233.40845   4091869.16845  22950614.3754   22950618.4654
        11.2504          9.5004
  -4252244.87547  -3482408.53346  21383390.3524   21383395.0394
        20.0004         19.7504
 -14115069.89047  -9861221.76346  21183934.4454   21183938.4064
        21.0004         20.2504
 -13849050.80946 -10530296.60346  21474274.3204   21474278.5394
        19.2504         17.5004
   1453186.80642    906822.61044  24978479.2664   24978486.9224
         4.0004          4.5004
  -3879542.26444  -2530894.13845  24183809.7814   24183818.4454
         7.2504          7.2504
 03 11  2  0 41 30.0000000  0  7G24G28G 7G 9G 4G26G 5
  -4920728.64743  -2953303.07145  23753058.8674   23753069.2074
         6.7504          6.5004
   5344944.05045   4164890.43045  22968446.8054   22968452.0554
        10.7504          9.5004
  -4176544.23347  -3423421.00946  21397795.6564   21397800.1214
        20.0004         20.0004
 -14119855.87947  -9864951.08246  21183023.7584   21183027.9064
        20.7504         20.0004
 -13886392.14346 -10559393.64846  21467168.4694   21467172.7114
        19.5004         17.7504
   1568220.49841    996458.98843  25000367.8674   25000383.6564
         3.7504          3.2504
  -3946777.03543  -2583284.62445  24171014.9384   24171022.1844
         6.7504          6.5004
 03 11  2  0 42  0.0000000  0  7G24G28G 7G 9G 4G26G 5
  -5004105.46843  -3018271.80945  23737190.7424   23737203.5434
         5.5004          6.2504
   5438828.80145   4238047.40045  22986312.8594   22986316.9144
        11.5004         10.2504
  -4100658.04347  -3364288.91146  21412236.2194   21412240.4844
        20.0004         19.7504
 -14124087.53847  -9868248.44846  21182218.4454   21182222.6524
        20.5004         20.2504
 -13923250.28046 -10588114.17346  21460154.7114   21460159.0234
        19.7504         17.7504
   1683223.95741                  25022252.5474
         3.7504
  -4014008.16643  -2635672.30945  24158221.6024   24158229.2114
         6.2504          7.0004
 03 11  2  0 42 30.0000000  0  7G24G28G 7G 9G 4G26G 5
  -5087387.67742  -3083166.75245  23721342.2504   23721352.1914
         4.5004          6.2504
   5532884.25945   4311337.35945  23004210.9774   23004215.6644
        11.2504         10.0004
  -4024591.00947  -3305015.89646  21426711.3364   21426715.7544
        20.0004         19.7504
 -14127766.61747  -9871115.23246  21181518.3834   21181522.2624
        21.0004         20.2504
 -13959626.46446 -10616459.15246  21453232.2584   21453236.7114
        19.7504         18.0004
   1798191.21242                  25044131.7974
         4.2504
  -4081238.32343  -2688059.23445  24145427.6024   24145433.3914
         5.7504          6.0004
 03 11  2  0 43  0.0000000  0  7G24G28G 7G 9G 4G26G 5
  -5170578.55243  -3147990.40545  23705512.3984   23705517.7544
         5.0004          6.2504
   5627103.91645   4384755.29045  23022140.3674   23022144.0354
        10.7504         10.0004
  -3948350.56747  -3245607.74546  21441219.3284   21441224.2154
        20.0004         19.7504
 -14130898.18147  -9873555.37446  21180922.4384   21180926.4574
        21.0004         20.5004
 -13995524.68846 -10644431.69346  21446400.9774   21446405.2194
        19.5004         17.7504
   1913112.99943                  25066002.1564
         5.0004
  -4148472.62143  -2740449.42345  24132631.9144   24132637.9614
         5.5004          6.2504
 03 11  2  0 43 30.0000000  0  7G24G28G 7G 9G 4G26G 5
  -5253673.62444  -3212739.48745  23689700.0164   23689708.2114
         7.0004          7.5004
   5721489.03245   4458302.11745  23040101.3284   23040105.6294
        10.7504          9.7504
  -3871936.87646  -3186064.59946  21455760.3134   21455764.7194
        19.7504         19.7504
 -14133479.45447  -9875566.72746  21180431.2114   21180435.4774
        21.0004         20.2504
 -14030941.20846 -10672028.88146  21439661.5634   21439665.7814
        19.7504         17.7504
   2027987.86742                  25087859.0634
         4.2504
  -4215708.99043  -2792841.17345  24119838.5784   24119847.1374
         5.7504          5.7504
 03 11  2  0 44  0.0000000  0  7G24G28G 7G 9G 4G26G 5
  -5336671.06845  -3277412.54845  23673906.4774   23673916.3714
         9.0004          9.5004
   5816038.65645   4531977.20545  23058092.7034   23058098.0234
         9.7504          9.5004
  -3795352.02046  -3126388.08146  21470333.7894   21470338.2074
        19.7504         19.2504
 -14135510.13747  -9877149.03546  21180044.7424   21180048.8914
        21.0004         20.5004
 -14065874.80246 -10699249.75946  21433013.7894   21433018.1254
        19.7504         17.7504
   2142812.06542  -1200765.46154  25109710.7114   25109724.6844
         4.2504          4.5004
  -4282946.97643  -2845234.28445  24107041.9844   24107050.5314
         6.0004          6.2504
 03 11  2  0 44 30.0000000  0  7G24G28G 7G 9G 4G26G 5
  -5419569.07645  -3342008.09445  23658130.5394   23658139.4964
         8.5004          9.5004
   5910751.54045   4605779.43245  23076116.4924   23076120.9104
        10.5004          9.2504
  -3718598.35646  -3066580.01846  21484939.6254   21484944.1844
        19.5004         19.5004
 -14136990.22047  -9878302.30746  21179763.0394   21179767.1994
        21.0004         20.2504
 -14100324.15446 -10726093.31746  21426458.1884   21426461.9844
        19.5004         18.0004
   2257581.78143  -1111334.80144  25131552.8524   25131564.7734
         5.0004          4.5004
  -4350186.56043  -2897628.60845  24094247.3134   24094253.4064
         6.2504          6.2504
 03 11  2  0 45  0.0000000  0  7G24G28G 7G 9G 4G26G 5
  -5502365.85543  -3406524.73445  23642375.1564   23642385.1214
         6.7504          8.0004
   6005626.76045   4679708.21645  23094170.7894   23094175.3134
        10.5004         10.0004
  -3641678.20546  -3006642.23046  21499577.1334   21499581.5044
        19.7504         19.2504
 -14137919.43047  -9879026.32546  21179586.2424   21179590.6024
        21.0004         20.2504
 -14134288.06546 -10752558.59546  21419994.6094   21419998.6764
        19.5004         18.2504
   2372293.18443  -1021949.31644  25153381.1724   25153399.9734
         5.0004          4.7504
  -4417427.97143  -2950024.39345  24081452.3054   24081459.4344
         6.7504          6.5004
 03 11  2  0 45 30.0000000  0  7G24G28G 7G 9G 4G26G 5
  -5585061.84443  -3470962.78745  23626637.6094   23626648.0784
         6.0004          7.0004
   6100660.85045   4753760.75545  23112255.3914   23112260.2664
        10.0004          9.2504
  -3564596.10846  -2946578.25046  21514245.5704   21514250.2584
        19.5004         19.0004
 -14138299.97747  -9879322.80946  21179513.5784   21179517.5984
        21.0004         20.5004
 -14167767.67846 -10778646.50346  21413623.9534   21413628.2894
        19.5004         18.0004
   2486940.23942   -932614.20443  25175196.5634   25175215.7034
         4.2504          3.0004
  -4484672.80943  -3002422.84845  24068655.0474   24068659.7464
         6.7504          7.0004
 03 11  2  0 46  0.0000000  0  7G24G28G 7G 9G 4G26G 5
  -5667657.80143  -3535322.92445  23610920.6804   23610929.6844
         6.7504          5.7504
   6195849.60445   4827933.83145  23130368.9384   23130373.9654
         9.2504          9.2504
  -3487357.37446  -2886392.20046  21528943.4224   21528947.8874
        19.0004         19.0004
 -14138134.74747  -9879194.01046  21179545.0314   21179548.7934
        21.0004         20.7504
 -14200764.72246 -10804358.38646  21407344.5784   21407348.4924
        19.5004         18.2504
   2601516.37342   -843334.39444  25196999.2504   25197011.6524
         4.2504          4.2504
  -4551924.28944  -3054826.41345  24055858.2974   24055865.7774
         7.2504          7.7504
 03 11  2  0 46 30.0000000  0  7G24G28G 7G 9G 4G26G 5
  -5750148.86244  -3599601.39945  23595223.0634   23595231.5044
         7.2504          7.0004
   6291195.41345   4902229.26045  23148512.7344   23148516.7664
         9.7504          9.0004
  -3409961.04146  -2826083.36246  21543671.4384   21543675.9024
        19.2504         18.7504
 -14137420.53147  -9878637.43446  21179680.8594   21179684.9264
        20.7504         20.2504
 -14233274.86246 -10829690.85746  21401158.0084   21401162.0164
        19.7504         18.0004
   2716020.86542   -754110.39244  25218790.7894   25218801.5864
         4.7504          4.7504
  -4619179.18644  -3107232.66245  24043059.1884   24043066.6454
         7.2504          8.0004
 03 11  2  0 47  0.0000000  0  7G24G28G 7G 9G 4G26G 5
  -5832534.61344  -3663797.76345  23579544.5944   23579554.7234
         7.0004          7.0004
   6386695.44445   4976644.88045  23166685.7584   23166689.6604
         9.0004          9.5004
  -3332410.86446  -2765654.63346  21558428.5704   21558433.1994
        19.0004         18.7504
 -14136158.55847  -9877654.02346  21179920.9774   21179925.1604
        21.2504         20.7504
 -14265298.17846 -10854643.99946  21395064.2664   21395068.2854
        19.7504         18.2504
   2830448.59342   -664945.93244  25240565.4844   25240576.7734
         4.5004          4.5004
  -4686438.85944  -3159642.66045  24030260.4304   24030268.2034
         7.0004          7.0004
 03 11  2  0 47 30.0000000  0  7G24G28G 7G 9G 4G26G 5
  -5914814.63443  -3727911.77245  23563887.5004   23563895.4384
         6.2504          7.5004
   6482346.85045   5051178.43545  23184887.6804   23184891.9574
         9.2504          9.2504
  -3254710.75846  -2705109.08746  21573214.5784   21573218.9964
        19.2504         18.5004
 -14134350.21447  -9876244.87046  21180264.9224   21180268.8834
        21.0004         20.7504
 -14296835.50347 -10879218.44246  21389062.9304   21389066.6804
        20.2504         18.7504
   2944794.02741   -575845.87544  25262326.0084   25262337.1564
         3.7504          4.5004
  -4753704.28244  -3212057.08845  24017459.9224   24017465.8984
         7.5004          8.5004
 03 11  2  0 48  0.0000000  0  7G24G28G 7G 9G 4G26G 5
  -5996990.63443  -3791944.64145  23548248.0864   23548255.9654
         5.7504          7.5004
   6578145.11645   5125826.47245  23203117.3134   23203123.1604
         8.7504          8.7504
  -3176866.39646  -2644451.13046  21588027.6884   21588032.3284
        19.0004         18.2504
 -14131998.99347  -9874412.68746  21180712.7584   21180717.2114
        21.0004         20.7504
 -14327889.00747 -10903415.88346  21383153.5554   21383157.4574
        20.2504         18.2504
   3059049.89241   -486815.57344  25284067.7424   25284085.3714
         3.5004          4.2504
  -4820979.66044  -3264479.27145  24004658.4534   24004661.0904
         7.7504          7.0004
 03 11  2  0 48 30.0000000  0  7G24G28G 7G 9G 4G26G 5
  -6079057.61044  -3855892.55145  23532632.0394   23532639.6844
         7.2504          8.5004
   6674092.26345   5200590.45845  23221375.6564   23221380.1454
         9.0004          9.0004
  -3098877.14546  -2583680.27346  21602868.6174   21602873.1524
        19.2504         18.5004
 -14129101.45247  -9872154.80346  21181263.9454   21181267.8594
        21.2504         21.0004
 -14358454.56747 -10927233.11446  21377336.8984   21377340.6954
        20.0004         18.5004
   3173215.77342   -397855.40545  25305790.9454   25305803.4304
         4.0004          5.5004
  -4888261.50344  -3316906.53945  23991854.6094   23991860.5164
         7.7504          7.5004
 03 11  2  0 49  0.0000000  0  7G24G28G 7G 9G 4G26G 5
  -6161013.95345  -3919754.32645  23517035.7894   23517046.2704
         8.0004          8.0004
   6770186.88645   5275469.39345  23239662.5634   23239666.8524
         9.0004          8.7504
  -3020745.41046  -2522798.39146  21617736.9304   21617741.1724
        19.0004         18.2504
 -14125658.35547  -9869471.81746  21181919.0554   21181923.1454
        21.2504         21.0004
 -14388531.50747 -10950669.59446  21371613.1174   21371617.1844
        20.2504         18.7504
   3287287.45041   -308968.54343  25327501.4774   25327510.4454
         3.7504          3.7504
  -4955549.77444  -3369338.74845  23979049.5394   23979058.0984
         7.7504          7.2504
 03 11  2  0 49 30.0000000  0  7G24G28G 7G 9G 4G26G 5
  -6242859.66845  -3983529.88445  23501461.4924   23501470.0164
         8.0004          7.5004
   6866426.23145   5350461.12545  23257974.4774   23257978.2854
         8.5004          9.0004
  -2942474.97246  -2461808.42046  21632631.0634   21632635.2464
        18.7504         18.5004
 -14121671.29147  -9866364.94546  21182677.7344   21182681.7544
        21.0004         20.5004
 -14418120.16747 -10973725.59146  21365982.7344   21365986.6024
        20.2504         18.7504
   3401259.77241   -220159.25142  25349185.5554   25349200.0554
         2.7504          2.2504
  -5022846.08544  -3421777.26245  23966243.1484   23966250.4414
         7.5004          6.7504
 03 11  2  0 50  0.0000000  0  7G24G28G 7G 9G 4G26G 5
  -6324595.52545  -4047219.83945  23485908.3364   23485916.5204
         9.0004          8.2504
   6962806.29245   5425562.44345  23276315.7194   23276318.8834
         8.5004          8.2504
  -2864071.20846  -2400714.56446  21647550.7034   21647555.1564
        19.0004         18.2504
 -14117143.30947  -9862836.58846  21183539.2344   21183543.3954
        21.2504         20.7504
 -14447222.68747 -10996402.80146  21360444.6954   21360448.3524
        20.5004         19.0004
   3515125.98541                  25370856.8054
         3.2504
  -5090153.34744  -3474224.27145  23953435.6884   23953444.2464
         7.2504          6.7504
 03 11  2  0 50 30.0000000  0  7G24G28G 7G 9G 4G26G 5
  -6406220.61045  -4110823.45945  23470375.2814   23470383.5594
         9.2504          9.2504
   7059324.65245   5500771.55245  23294682.1174   23294686.7814
         9.0004          9.0004
  -2785537.33146  -2339519.33946  21662495.1954   21662499.4384
        19.0004         18.0004
 -14112075.33347  -9858887.46346  21184503.6414   21184507.5084
        21.2504         20.7504
 -14475839.01447 -11018701.14846  21354999.0944   21355002.7734
        20.7504         19.2504
   3628881.35342                  25392503.8054
         4.0004
  -5157472.35143  -3526680.47145  23940624.4454   23940631.1484
         6.5004          7.0004
 03 11  2  0 51  0.0000000  0  7G24G28G 7G 9G 4G26G 5
  -8063152.82845  -5401939.13145  23155071.4694   23155078.1484
         9.2504          8.7504
   5580566.71845   4348492.67145  23013284.2344   23013291.2344
         8.2504          7.7504
  -4282289.84546  -3505819.99646  21377673.0864   21377677.2704
        19.2504         18.2504
 -15681884.26847 -11082115.14146  20885778.7974   20885782.6764
        21.0004         20.7504
 -16079385.90947 -12268218.11846  21049854.2814   21049858.1954
        20.5004         19.0004
   2167108.79941                  25114338.2194
         3.7504
  -6800221.55243  -4806744.58645  23628020.0474   23628026.7504
         6.7504          6.2504
 03 11  2  0 51 30.0000000  0  7G24G28G 7G 9G 4G26G 5
  -8144546.93644  -5465362.80245  23139580.3594   23139589.5864
         7.5004          8.2504
   5677362.57045   4423918.02545  23031703.8914   23031707.3364
         9.5004          8.5004
  -4203498.32746  -3444424.01146  21392666.5004   21392671.2114
        18.7504         18.0004
 -15675732.39047 -11077321.41446  20886949.5634   20886953.5234
        21.2504         20.7504
 -16107022.68047 -12289753.16846  21044594.8834   21044598.9494
        20.7504         19.2504
   2280635.37941                  25135939.1024
         3.2504
  -6867559.00944  -4859215.16845  23615206.2504   23615213.2624
         7.0004          6.7504
 03 11  2  0 52  0.0000000  0  7G24G28G 7G 9G 4G26G 5
  -8225822.10545  -5528693.81745  23124115.3984   23124123.4884
         8.2504          8.7504
   5774296.14245   4499450.70445  23050150.3364   23050154.0514
         8.7504          8.2504
  -4124580.51346  -3382929.59946  21407684.1644   21407688.5594
        18.5004         18.2504
 -15669037.96247 -11072104.92746  20888223.4844   20888227.0594
        21.2504         20.7504
 -16134167.62247 -12310904.98346  21039429.6884   21039433.6374
        21.0004         19.2504
   2394042.86442                  25157521.8284
         4.0004
  -6934904.75444  -4911692.16345  23602390.1174   23602395.1334
         7.5004          7.0004
 03 11  2  0 52 30.0000000  0  7G24G28G 7G 9G 4G26G 5
  -8306977.65545  -5591931.59045  23108672.2424   23108677.8444
         9.0004          8.2504
   5871364.81245   4575088.63045  23068621.5704   23068626.4344
         9.7504          9.2504
  -4045540.13646  -3321339.70146  21422724.3444   21422728.8444
        18.5004         18.0004
 -15661802.81747 -11066467.09446  20889600.2274   20889604.0944
        21.5004         21.0004
 -16160821.08247 -12331673.82446  21034357.2344   21034361.1724
        21.0004         19.0004
   2507325.98542  -2455203.04455  25179079.0164   25179090.0474
         4.7504          5.2504
  -7002260.07544  -4964176.69845  23589572.6024   23589576.4694
         7.7504          7.0004
 03 11  2  0 53  0.0000000  0  7G24G28G 7G 9G 4G26G 5
  -8388010.82545  -5655073.99645  23093251.8984   23093259.4264
         8.2504          8.2504
   5968568.55145   4650831.80145  23087118.6884   23087122.6724
         9.5004          8.5004
  -3966378.38546  -3259655.21246  21437788.6174   21437793.1764
        18.5004         17.7504
 -15654025.92047 -11060407.13046  20891079.6024   20891083.4924
        21.2504         21.2504
 -16186981.34147 -12352058.36346  21029379.0234   21029382.9964
        21.0004         19.5004
   2620482.12642  -2367029.51044  25200611.2894   25200625.4144
         4.7504          4.2504
  -7069623.92844  -5016667.81845  23576753.7584   23576756.7814
         7.5004          6.2504
 03 11  2  0 53 30.0000000  0  7G24G28G 7G 9G 4G26G 5
  -8468920.05544  -5718119.85745  23077854.5234   23077863.2114
         7.2504          7.7504
   6065905.70445   4726678.97145  23105641.3284   23105645.5594
         9.2504          8.2504
  -3887097.89746  -3197878.21346  21452875.4384   21452879.9844
        18.5004         17.7504
 -15645708.04247 -11053925.61946  20892662.6564   20892666.5944
        21.2504         21.0004
 -16212647.89947 -12372058.19946  21024495.1094   21024499.0474
        21.5004         19.7504
   2733507.23641  -2278958.25344  25222120.4614   25222134.8204
         3.2504          4.7504
  -7136996.20644  -5069165.58945  23563932.4534   23563939.1094
         7.2504          7.2504
 03 11  2  0 54  0.0000000  0  7G24G28G 7G 9G 4G26G 5
  -8549704.34644  -5781068.36245  23062481.5394   23062489.1604
         7.5004          7.0004
   6163373.87845   4802628.22745  23124189.2974   23124194.1134
         9.5004          8.7504
  -3807702.17846  -3136011.41946  21467983.9064   21467988.1024
        18.5004         18.0004
 -15636850.65747 -11047023.71746  20894348.1484   20894351.7464
        21.2504         20.7504
 -16237820.99347 -12391673.52246  21019704.4064   21019708.4144
        21.2504         20.0004
   2846396.50241  -2190992.76344  25243600.5084   25243616.7074
         3.0004          4.0004
  -7204378.24744  -5121670.92345  23551110.8204   23551118.6524
         7.0004          6.7504
 03 11  2  0 54 30.0000000  0  7G24G28G 7G 9G 4G26G 5
  -8630363.87045  -5843919.74145  23047132.7584   23047140.0984
         8.2504          8.2504
   6260970.59145   4878677.61545  23142760.7274   23142764.4534
         8.7504          7.5004
  -3728194.55646  -3074057.40946  21483113.6644   21483118.1994
        18.5004         18.0004
 -15627455.28447 -11039702.60146  20896136.2344   20896139.9384
        21.2504         21.2504
 -16262501.24847 -12410904.81546  21015008.2814   21015011.8444
        21.5004         20.0004
   2959144.95142                  25265059.0314
         4.2504
  -7271771.17044  -5174184.73545  23538286.6254   23538291.0904
         7.0004          7.5004
 03 11  2  0 55  0.0000000  0  7G24G28G 7G 9G 4G26G 5
  -8710897.22145  -5906672.67445  23031807.0004   23031812.9304
         8.5004          8.2504
   6358693.68045   4954825.49445  23161357.0394   23161361.2234
         9.0004          8.7504
  -3648578.31446  -3012018.77646  21498264.0864   21498268.3284
        18.5004         18.0004
 -15617522.94747 -11031963.07646  20898026.1484   20898029.8404
        21.2504         21.0004
 -16286688.70147 -12429752.11246  21010405.5944   21010409.0984
        21.7504         20.0004
   3071747.82642                  25286486.2894
         4.2504
  -7339175.25644  -5226707.18145  23525458.3444   23525463.8164
         7.5004          8.0004
 03 11  2  0 55 30.0000000  0  7G24G28G 7G 9G 4G26G 5
  -8791298.66645  -5969322.87145  23016507.6254   23016514.3754
         9.0004          8.5004
   6456546.02845   5031074.08345  23179976.9224   23179980.7074
         8.0004          7.7504
  -3568851.51446  -2949894.00246  21513435.3754   21513439.5234
        18.5004         17.7504
 -15607049.96847 -11023802.27346  20900018.8284   20900022.4844
        21.2504         21.2504
 -16310378.60547 -12448211.70846  21005897.2034   21005900.9534
        21.5004         19.7504
   3184205.64041                  25307885.0394
         3.2504
  -7406586.72744  -5279235.41445  23512631.3914   23512638.6844
         7.7504          8.2504
 03 11  2  0 56  0.0000000  0  7G24G28G 7G 9G 4G26G 5
  -8871567.60445  -6031869.81745  23001232.5634   23001239.0664
         9.0004          9.0004
   6554525.20545   5107421.53845  23198622.3834   23198627.8444
         8.5004          8.2504
  -3489017.70146  -2887685.80946  21528627.3754   21528631.9574
        18.2504         17.2504
 -15596038.15147 -11015221.59546  20902114.4694   20902118.2074
        21.2504         20.5004
 -16333571.36047 -12466283.92446  21001483.8134   21001487.2344
        21.7504         20.2504
   3296513.53841                  25329254.9774
         2.7504
  -7474005.84545  -5331769.60645  23499801.3914   23499805.7974
         8.2504          8.2504
 03 11  2  0 56 30.0000000  0  7G24G28G 7G 9G 4G26G 5
  -8951707.06445  -6094315.93845  22985982.4224   22985988.6564
        10.0004          9.0004
   6652625.00544   5183862.87845  23217289.9454   23217293.4614
         7.7504          8.0004
  -3409083.94946  -2825399.75646  21543838.2664   21543843.0824
        18.0004         17.0004
 -15584492.70647 -11006225.10846  20904311.6024   20904315.7734
        21.2504         21.0004
 -16356271.14147 -12483972.00146  20997164.4694   20997168.0084
        22.0004         20.0004
   3408662.80641                  25350597.6484
         3.7504
  -7541437.70445  -5384313.75445  23486969.8054   23486974.2114
         8.7504          7.5004
 03 11  2  0 57  0.0000000  0  7G24G28G 7G 9G 4G26G 5
  -9031711.47945  -6156656.78245  22970758.1564   22970764.7074
        10.7504          9.0004
   6750847.84044   5260400.19345  23235980.9454   23235984.1454
         7.5004          7.2504
  -3329048.77846  -2763034.67546  21559068.6804   21559073.0164
        17.7504         17.0004
 -15572410.17247 -10996810.10746  20906610.6094   20906614.1724
        21.2504         21.0004
 -16378473.82647 -12501272.73046  20992939.3524   20992943.4304
        21.5004         20.2504
   3520653.64742                  25371910.0004
         4.0004
  -7608878.93945  -5436865.17745  23474135.7194   23474142.3754
         8.2504          7.5004
 03 11  2  0 57 30.0000000  0  7G24G28G 7G 9G 4G26G 5
  -9111583.01845  -6218894.08845  22955558.2974   22955564.1564
         9.0004          9.0004
   6849188.95744   5337029.64845  23254694.9924   23254701.9104
         7.2504          7.5004
  -3248918.12146  -2700595.18946  21574316.7274   21574321.3324
        17.7504         17.0004
 -15559794.84547 -10986979.93946  20909010.8914   20909014.9104
        21.2504         20.7504
 -16400182.31047 -12518188.37046  20988808.2424   20988811.9924
        21.7504         20.2504
   3632478.71641                  25393188.8444
         3.2504
  -7676332.62944  -5489426.33545  23461300.3524   23461306.3874
         7.7504          7.2504
 03 11  2  0 58  0.0000000  0  7G24G28G 7G 9G 4G26G 5
  -9191318.03745  -6281025.02645  22940384.9534   22940394.7194
         8.2504          9.0004
   6947648.35344   5413751.23545  23273430.8054   23273435.2814
         7.5004          7.2504
  -3168692.83246  -2638081.94746  21589582.7894   21589587.7464
        17.5004         16.7504
 -15546645.94147 -10976733.99746  20911513.4844   20911517.1054
        21.0004         21.0004
 -16421394.52647 -12534717.31046  20984771.4144   20984775.1294
        22.0004         20.2504
   3744135.48941                  25414437.7814
         3.0004
  -7743797.06744  -5541995.82445  23448460.9224   23448466.9804
         7.7504          7.5004
 03 11  2  0 58 30.0000000  0  7G24G28G 7G 9G 4G26G 5
  -9270912.70745  -6343046.56945  22925238.1804   22925245.3324
         8.5004          9.0004
   7046226.79344   5490565.67545  23292189.3444   23292193.1294
         7.2504          7.5004
  -3088372.87746  -2575494.95946  21604867.5004   21604871.7664
        17.7504         17.0004
 -15532961.64147 -10966070.86346  20914117.7114   20914121.4844
        21.2504         21.0004
 -16442107.70047 -12550857.38346  20980829.6954   20980833.2464
        21.5004         20.5004
  -3109985.20651                  25435652.1094
         2.5004
  -7811270.00145  -5594571.99745  23435621.6954   23435626.3954
         8.2504          7.7504
 03 11  2  0 59  0.0000000  0  7G24G28G 7G 9G 4G26G 5
  -9350368.52645  -6404959.96645  22910118.4924   22910124.7854
         9.5004          9.0004
   7144919.80444   5567469.31445  23310970.9694   23310974.4734
         7.7504          8.0004
  -3007963.83346  -2512838.52846  21620168.7424   21620173.8984
        17.7504         17.0004
 -15518745.51747 -10954993.32146  20916822.4224   20916826.0314
        21.2504         21.0004
 -16462324.57947 -12566610.74046  20976982.6174   20976985.8404
        21.7504         20.5004
  -2998674.32742                  25456834.8754
         4.2504
  -7878754.26645  -5647156.98145  23422780.2894   23422785.5394
         8.7504          8.7504
 03 11  2  0 59 30.0000000  0  7G24G28G 7G 9G 4G26G 5
  -9429680.98845  -6466761.65245  22895026.2974   22895031.5124
         9.7504          9.2504
   7243728.60444   5644463.20945  23329773.5084   23329777.5514
         7.5004          7.7504
  -2927465.26946  -2450112.35146  21635487.0864   21635491.5514
        17.7504         16.7504
 -15503995.98647 -10943500.13846  20919628.9924   20919632.8954
        21.0004         21.0004
 -16482042.16547 -12581975.03046  20973230.4694   20973234.3014
        22.0004         20.5004
  -2887541.25842                  25477982.5704
         4.5004
  -7946247.56345  -5699748.99645  23409935.9384   23409941.9734
         8.0004          8.2504
 03 11  2  1  0  0.0000000  0  7G24G28G 7G 9G 4G26G 5
  -9508848.98145  -6528450.78645  22879960.1094   22879965.9804
         9.5004          9.0004
   7342651.65244   5721546.12345  23348597.5164   23348603.7274
         7.5004          7.0004
  -2846879.85246  -2387318.48946  21650821.9534   21650826.2894
        17.5004         17.0004
 -15488713.96147 -10931592.01846  20922537.1174   20922541.0314
        21.2504         21.2504
 -16501260.14147 -12596950.01846  20969573.3524   20969576.9734
        21.5004         20.7504
  -2776589.70241  -2394700.27554  25499097.2114   25499107.4224
         3.2504          4.5004
  -8013749.78644  -5752347.95645  23397090.6254   23397097.0354
         7.2504          7.7504
 03 11  2  1  0 30.0000000  0  7G24G28G 7G 9G 4G26G 5
  -9587871.06545  -6590026.20445  22864921.3054   22864929.2664
         8.2504          9.5004
   7441687.67944   5798717.05745  23367444.0004   23367448.6524
         7.2504          8.2504
  -2766209.78546  -2324458.68246  21666172.9614   21666177.6604
        17.5004         17.0004
 -15472899.95247 -10919269.37346  20925546.2814   20925550.0904
        21.2504         21.2504
 -16519978.32247 -12611535.55046  20966011.3754   20966015.0434
        21.7504         20.5004
  -3132397.46951                  25520171.2034
         2.2504
  -8081260.57644  -5804953.60245  23384243.7424   23384251.0124
         7.0004          7.7504
 03 11  2  1  1  0.0000000  0  7G24G28G 7G 9G 4G26G 5
  -9666745.28945  -6651486.36145  22849913.1174   22849919.9884
         9.7504          9.2504
   7540835.27644   5875974.94545  23386310.8524   23386316.5234
         7.7504          7.7504
  -2685457.31646  -2261534.65646  21681539.5704   21681544.0234
        17.5004         16.5004
 -15456554.69347 -10906532.75846  20928657.0944   20928660.7034
        21.0004         21.0004
 -16538196.14847 -12625731.19846  20962544.1804   20962547.7774
        21.5004         20.2504
                                  25541216.1254
         2.7504
  -8148779.44444  -5857565.45845  23371394.3594   23371400.7814
         7.2504          7.7504
 03 11  2  1  1 30.0000000  0  7G24G28G 7G 9G 4G26G 5
  -9745468.84145  -6712829.19945  22834932.4304   22834938.5474
        10.2504          9.2504
   7640093.78744   5953319.22645  23405198.8134   23405203.7814
         7.0004          8.5004
  -2604623.75646  -2198547.45246  21696922.0864   21696926.4454
        17.5004         16.7504
 -15439677.84547 -10893381.92446  20931868.1644   20931872.0314
        21.0004         21.0004
 -16555912.22747 -12639535.86446  20959173.2424   20959176.9344
        21.5004         20.2504
  -3044141.11843                  25562223.9844
         5.0004
  -8216305.74544  -5910183.20145  23358545.0704   23358548.5984
         7.7504          7.2504
 03 11  2  1  2  0.0000000  0  7G24G28G 7G 9G 4G26G 5
  -9824042.22345  -6774055.00045  22819980.7974   22819986.6454
        10.5004          9.7504
   7739459.60345   6030747.10245  23424108.1174   23424112.1604
         8.0004          8.5004
  -2523713.70646  -2135500.63046  21712318.7894   21712322.9734
        17.5004         16.7504
 -15422272.68247 -10879819.40746  20935180.6094   20935184.0784
        21.5004         21.2504
 -16573128.62847 -12652951.17646  20955897.0554   20955900.6764
        21.5004         20.7504
  -2933952.85143                  25583192.5314
         5.0004
  -8283841.35345  -5962808.21145  23345693.3984   23345700.0314
         8.2504          8.5004
 03 11  2  1  2 30.0000000  0  6G24G28G 7G 9G 4G 5
  -9902467.53545  -6835165.40045  22805055.7974   22805062.8794
         9.2504          9.2504
   7838927.78145   6108254.83245  23443035.6884   23443039.8484
         8.0004          8.0004
  -2442733.17246  -2072398.90046  21727728.6414   21727733.2934
        17.5004         16.7504
 -15404343.75047 -10865848.77246  20938592.1174   20938595.8914
        21.0004         21.5004
 -16589848.80247 -12665979.82546  20952715.1174   20952718.8444
        21.2504         20.5004
  -8351389.84445  -6015443.22345  23332839.5554   23332844.9694
         8.5004          8.0004
 03 11  2  1  3  0.0000000  0  6G24G28G 7G 9G 4G 5
  -9980743.24445  -6896159.23045  22790159.7034   22790167.5594
         9.0004          9.7504
   7938496.90444   6185841.15245  23461983.0394   23461987.4344
         7.7504          8.5004
  -2361684.21746  -2009243.85746  21743151.4614   21743156.1604
        17.2504         16.5004
 -15385891.71947 -10851470.51846  20942103.5234   20942107.2504
        21.0004         21.2504
 -16606072.26447 -12678621.41746  20949627.5004   20949631.0744
        21.2504         20.5004
  -8418951.09745  -6068088.20345  23319982.0554   23319987.1294
         8.2504          7.7504
 03 11  2  1  3 30.0000000  0  6G24G28G 7G 9G 4G 5
 -10058867.08145  -6957034.72245  22775294.7734   22775301.3134
        10.7504          9.7504
   8038165.76445   6263505.16845  23480950.0784   23480955.3754
         9.2504          8.5004
  -2280568.76646  -1946037.00046  21758587.4384   21758591.6914
        17.2504         16.7504
 -15366917.01847 -10836684.99346  20945714.0004   20945717.6804
        21.0004         21.5004
 -16621798.42547 -12690875.51046  20946635.1954   20946638.9574
        21.5004         20.5004
  -8486524.45245  -6120742.61645  23307122.8984   23307127.7624
         8.0004          8.2504
 03 11  2  1  4  0.0000000  0  6G24G28G 7G 9G 4G 5
 -10136835.36245  -7017789.01545  22760457.3754   22760462.8364
         9.7504          9.5004
   8137935.25545   6341247.69545  23499934.5864   23499939.4964
         8.2504          7.2504
  -2199387.03446  -1882778.49246  21774035.6804   21774039.9104
        16.7504         16.2504
 -15347418.45447 -10821491.27146  20949424.7584   20949428.3674
        21.0004         21.2504
 -16637025.05047 -12702740.34446  20943737.2424   20943740.8284
        21.0004         20.7504
  -8554107.35745  -6173404.45645  23294262.6804   23294268.1884
         8.5004          7.7504
 03 11  2  1  4 30.0000000  0  6G24G28G 7G 9G 4G 5
 -10214645.23045  -7078419.86645  22745650.0784   22745657.6174
         9.0004          9.5004
   8237805.23345   6419068.44745  23518940.0394   23518945.3714
         8.0004          8.2504
  -2118139.81946  -1819468.96246  21789496.1564   21789500.8094
        16.7504         16.5004
 -15327395.57247 -10805888.97546  20953234.5944   20953238.2734
        21.0004         21.0004
 -16651750.47147 -12714214.62946  20940935.2974   20940938.5554
        21.2504         20.7504
  -8621698.63745  -6226072.87245  23281400.5784   23281405.6644
         9.0004          8.5004
 03 11  2  1  5  0.0000000  0  6G24G28G 7G 9G 4G 5
 -10292299.73545  -7138929.62845  22730872.8204   22730878.9024
        10.5004          9.7504
   8337769.21645   6496962.47145  23537962.6174   23537966.3444
         9.0004          8.0004
  -2036834.48546  -1756114.15146  21804968.7274   21804972.7934
        16.5004         16.2504
 -15306854.53447 -10789882.93546  20957143.7114   20957147.0044
        21.5004         21.5004
 -16665979.64647 -12725302.23446  20938227.8914   20938231.5704
        21.5004         20.7504
  -8689302.92045  -6278751.37845  23268536.3594   23268543.2774
         9.0004          8.7504
 03 11  2  1  5 30.0000000  0  6G24G28G 7G 9G 4G 5
 -10369798.03245  -7199317.70345  22716125.0554   22716130.9144
        11.0004         10.7504
   8437825.24643   6574928.29445  23557002.8914   23557009.3014
         6.7504          5.5004
  -1955473.69946  -1692716.13046  21820450.5394   21820455.1094
        16.5004         16.0004
 -15285796.56247 -10773474.08746  20961151.1254   20961154.8404
        21.5004         21.2504
 -16679712.93747 -12736003.44046  20935614.1254   20935618.0864
        21.2504         20.7504
  -8756920.73045  -6331440.46845  23255668.5634   23255673.5554
         9.0004          8.7504
 03 11  2  1  6  0.0000000  0  6G24G28G 7G 9G 4G 5
 -10447138.43346  -7259582.75145  22701408.7344   22701414.6294
        12.2504         11.0004
   8537972.09043   6652964.77045  23576058.6484   23576065.1764
         6.5004          5.2504
  -1874059.69946  -1629276.63446  21835943.5234   21835947.6134
        16.5004         16.0004
 -15264222.63047 -10756663.19246  20965256.4534   20965259.9924
        21.5004         21.5004
 -16692950.16147 -12746318.10246  20933094.9064   20933098.5044
        21.0004         20.7504
  -8824551.52645  -6384139.67445  23242798.8984   23242804.4064
         9.0004          9.0004
 03 11  2  1  6 30.0000000  0  6G24G28G 7G 9G 4G 5
 -10524320.98945  -7319724.79945  22686719.4304   22686725.0314
         9.5004         10.0004
   8638206.17044   6731069.27845  23595133.4534   23595138.6914
         7.2504          7.0004
  -1792596.53546  -1565798.83246  21851445.3834   21851449.3914
        16.5004         15.5004
 -15242135.64547 -10739452.51246  20969458.9224   20969462.4024
        21.5004         21.2504
 -16705693.05547 -12756247.57146  20930670.2814   20930673.7034
        21.5004         20.7504
  -8892196.85345  -6436850.19145  23229926.1564   23229932.6134
         8.7504          8.7504
 03 11  2  1  7  0.0000000  0  6G24G28G 7G 9G 4G 5
 -10601342.43445  -7379741.29245  22672063.7114   22672069.3014
        11.0004          9.7504
   8738528.01243   6809242.15644  23614223.7274   23614229.3754
         5.2504          4.5004
  -1711084.83046  -1502283.20146  21866956.4224   21866960.4414
        16.2504         15.7504
 -15219535.09547 -10721841.66346  20973760.0394   20973763.4734
        21.5004         21.5004
 -16717939.86147 -12765790.47046  20928339.8984   20928343.6024
        21.5004         20.7504
  -8959854.87645  -6489570.59145  23217051.2344   23217057.8094
         9.0004          9.0004
 03 11  2  1  7 30.0000000  0  6G24G28G 7G 9G 4G 5
 -10678198.90745  -7439629.27745  22657437.7424   22657443.2154
        11.0004         11.2504
   8838938.09643   6887483.73345  23633331.3284   23633335.9804
         5.0004          5.2504
  -1629524.59646  -1438729.75346  21882476.6414   21882481.3164
        16.2504         15.7504
 -15196419.88747 -10703829.77646  20978158.4454   20978162.1954
        21.2504         21.5004
 -16729688.50047 -12774945.19946  20926104.0164   20926107.6024
        21.2504         21.0004
  -9027523.11545  -6542298.96945  23204174.6024   23204179.2894
         9.2504          9.7504
 03 11  2  1  8  0.0000000  0  6G24G28G 7G 9G 4G 5
 -10754899.98345  -7499396.17845  22642841.9844   22642848.1374
        10.7504         10.7504
   8939423.76543   6965784.32045  23652453.5784   23652452.6524
         5.7504          5.7504
  -1547929.07046  -1375148.81446  21898004.0864   21898008.0824
        16.2504         15.5004
 -15172802.08347 -10685426.25946  20982652.6484   20982656.3054
        21.2504         21.2504
 -16740949.83047 -12783720.19946  20923960.9224   20923964.5434
        21.5004         21.0004
  -9095212.39345  -6595043.76645  23191294.1804   23191298.5984
         9.2504          9.7504
 03 11  2  1  8 30.0000000  0  6G24G28G 7G 9G 4G 5
 -10831436.76945  -7559035.04945  22628277.2114   22628283.3984
        10.5004         10.7504
   9039990.73743   7044148.23845  23671590.4224   23671595.0634
         5.7504          6.0004
  -1466293.30946  -1311536.51146  21913538.5314   21913542.4224
        16.2504         15.5004
 -15148675.57847 -10666626.35146  20987244.0314   20987247.7464
        21.2504         21.2504
 -16751716.79547 -12792109.98446  20921911.9844   20921915.8404
        21.5004         20.7504
  -9162915.46145  -6647799.26845  23178409.8594   23178415.1914
         9.0004          9.5004
 03 11  2  1  9  0.0000000  0  6G24G28G 7G 9G 4G 5
 -10907814.80545  -7618550.23445  22613743.2114   22613750.5274
        11.5004         11.0004
   9140630.96143   7122569.15245  23690741.4224   23690745.3954
         5.5004          6.7504
  -1384626.34546  -1247899.89846  21929079.1414   21929083.2544
        16.0004         15.2504
 -15124048.45347 -10647436.35246  20991930.3054   20991933.8204
        21.2504         21.2504
 -16761996.12947 -12800119.79246  20919955.8914   20919959.3834
        21.7504         21.2504
  -9230638.69345  -6700570.52745  23165521.9384   23165526.8014
         8.5004          9.2504
 03 11  2  1  9 30.0000000  0  6G24G28G 7G 9G 4G 5
 -10984028.89045  -7677937.66045  22599239.4614   22599244.4304
        11.2504         10.5004
   9241346.27543   7201048.58545  23709907.4614   23709911.1994
         6.7504          7.5004
  -1302926.98946  -1184238.06146  21944626.3984   21944630.8754
        16.0004         15.0004
 -15098918.49547 -10627854.52846  20996712.4614   20996716.1764
        21.0004         21.0004
 -16771784.75847 -12807747.22946  20918093.1644   20918096.6094
        21.7504         21.2504
  -9298378.28045  -6753354.49545  23152631.8524   23152637.3364
         9.0004          9.0004
 03 11  2  1 10  0.0000000  0  6G24G28G 7G 9G 4G 5
 -11060079.27945  -7737197.53445  22584767.8524   22584774.3794
        11.2504         10.2504
   9342133.22944   7279583.89145  23729086.4774   23729089.9924
         7.7504          8.0004
  -1221199.25246  -1120554.08946  21960178.3914   21960182.9494
        16.0004         15.0004
 -15073288.62947 -10607883.16846  21001589.7274   21001593.1604
        21.2504         21.0004
 -16781084.51947 -12814993.73746  20916323.5004   20916326.8524
        22.0004         21.2504
  -9366136.26145  -6806152.81945  23139738.2734   23139743.4064
         9.5004          9.5004
 03 11  2  1 10 30.0000000  0  6G24G28G 7G 9G 4G 5
 -11135961.01245  -7796326.01345  22570328.0164   22570333.8054
        11.7504         11.2504
   9442993.63144   7358176.48345  23748279.6804   23748284.4734
         7.5004          7.2504
  -1139442.12346  -1056847.22146  21975736.2894   21975740.2854
        15.7504         15.0004
 -15047156.97147 -10587520.79846  21006561.8594   21006565.4344
        21.0004         21.5004
 -16789891.96947 -12821856.62246  20914647.4384   20914650.6024
        22.0004         21.5004
  -9433908.54545  -6858962.26345  23126841.1954   23126845.8834
        10.0004          9.5004
 03 11  2  1 11  0.0000000  0  6G24G28G 7G 9G 4G 5
 -11211678.43146  -7855326.43245  22555920.3674   22555927.0124
        12.7504         11.5004
   9543920.15544   7436820.48745  23767485.2584   23767488.8794
         7.2504          7.5004
  -1057663.68646   -993123.74746  21991298.3284   21991302.8164
        15.7504         15.0004
 -15020530.59247 -10566772.93446  21011628.9534   21011632.5044
        21.0004         21.5004
 -16798213.56347 -12828340.92746  20913063.8364   20913067.1174
        22.2504         21.5004
  -9501700.51545  -6911787.08945  23113940.2274   23113946.9064
         9.7504         10.0004
 03 11  2  1 11 30.0000000  0  6G24G28G 7G 9G 4G 5
 -11287229.71345  -7914197.39145  22541542.5004   22541548.6294
        11.5004         11.2504
   9644911.26244   7515514.84645  23786703.0314   23786707.2854
         7.7504          9.0004
   -975865.82946   -929385.14546  22006863.8594   22006868.2544
        15.7504         15.0004
 -14993410.68947 -10545640.50646  21016789.5164   21016793.1254
        20.7504         21.0004
 -16806049.18747 -12834446.53146  20911572.6414   20911575.8524
        22.2504         21.5004
  -9569512.06145  -6964627.08845  23101035.9534   23101040.4774
         9.7504          9.7504
 03 11  2  1 12  0.0000000  0  6G24G28G 7G 9G 4G 5
 -11362609.52145  -7972934.74345  22527197.5474   22527203.0084
        11.5004         11.0004
   9745969.58945   7594261.64145  23805934.2664   23805938.7774
         8.7504          8.7504
   -894046.81646   -865630.05846  22022433.4454   22022437.9224
        15.7504         14.7504
 -14965794.46647 -10524121.33646  21022044.8984   21022048.3914
        21.0004         21.2504
 -16813394.99347 -12840170.48246  20910174.7814   20910178.0394
        22.2504         21.7504
  -9637339.15745  -7017479.27945  23088129.1884   23088134.8714
         9.7504          9.2504
 03 11  2  1 12 30.0000000  0  6G24G28G 7G 9G 4G 5
 -11437812.27246  -8031534.14145  22512887.2974   22512892.9574
        12.2504         11.5004
   9847097.35243   7673062.51545  23825177.3674   23825179.9804
         6.7504          7.0004
   -812204.79446   -801857.05846  22038007.4774   22038011.7074
        15.2504         15.2504
 -14937679.34447 -10502213.40846  21027394.7814   21027398.3444
        21.0004         21.2504
 -16820247.36947 -12845509.94346  20908870.6414   20908873.9454
        21.7504         21.5004
  -9705177.40145  -7070340.11745  23075219.6334   23075224.3794
         9.5004          8.5004
 03 11  2  1 13  0.0000000  0  6G24G28G 7G 9G 4G 5
 -11512845.19445  -8090001.19545  22498608.5704   22498613.7504
        11.5004         11.5004
   9948284.86743   7751909.91145  23844433.4454   23844434.6294
         5.0004          5.2504
   -730350.56946   -738074.53146  22053583.6334   22053588.0514
        15.2504         15.0004
 -14909075.43747 -10479924.61646  21032838.0944   21032841.3634
        21.2504         21.5004
 -16826614.88747 -12850471.57946  20907659.2734   20907662.4614
        22.0004         21.7504
  -9773034.70545  -7123215.84445  23062306.9844   23062311.5784
         9.5004          8.7504
 03 11  2  1 13 30.0000000  0  6G24G28G 7G 9G 4G 5
 -11587708.58545  -8148336.11645  22484362.0944   22484367.6724
        11.2504         11.5004
  10049528.28844   7830800.90845  23863699.1094   23863703.5514
         7.5004          7.2504
   -648488.19146   -674285.66146  22069161.2664   22069165.2854
        15.0004         14.5004
 -14879985.99547 -10457257.47946  21038373.5084   21038376.9534
        21.0004         21.2504
 -16832500.07247 -12855057.38146  20906538.9384   20906542.1724
        22.0004         21.7504
  -9840913.22745  -7176108.10245  23049389.6024   23049395.7544
         9.0004          9.0004
 03 11  2  1 14  0.0000000  0  6G24G28G 7G 9G 4G 5
 -11662396.11446  -8206534.02245  22470150.0634   22470155.3244
        12.5004         11.7504
  10150830.73344   7909737.86945  23882976.5234   23882981.0594
         7.7504          8.2504
   -566615.10446   -610488.44446  22084741.5164   22084745.6054
        15.0004         14.7504
 -14850407.44047 -10434209.21946  21044002.3054   21044005.8794
        21.0004         21.5004
 -16837898.35547 -12859263.77946  20905511.7894   20905515.1524
        22.0004         21.5004
  -9908807.40145  -7229012.51345  23036469.6414   23036473.8364
         8.7504          9.0004
 03 11  2  1 14 30.0000000  0  6G24G28G 7G 9G 4G 5
 -11736902.85046  -8264591.08745  22455971.3204   22455975.5274
        12.5004         11.7504
  10252194.00641   7988722.18445  23902263.5474   23902272.0824
         2.7504          5.5004
   -484730.24746   -546682.05746  22100323.9534   22100327.8794
        15.0004         14.7504
 -14820338.27147 -10410778.66446  21049723.8914   21049727.3954
        20.7504         21.0004
 -16842806.94147 -12863088.59946  20904577.8674   20904580.7154
        22.2504         21.7504
  -9976713.68645  -7281926.37645  23023548.1094   23023555.0864
         9.2504         10.0004
 03 11  2  1 15  0.0000000  0  6G24G28G 7G 9G 4G 5
 -11811233.34845  -8322510.78045  22441826.4614   22441831.8634
        11.7504         11.5004
  -3113651.06753   8067749.29844  23921565.1724   23921563.8134
         5.0004          4.5004
   -402841.66446   -482872.77046  22115906.9224   22115911.3634
        14.7504         14.5004
 -14789785.97547 -10386971.65646  21055537.8594   21055541.2234
        21.0004         21.5004
 -16847232.02047 -12866536.65846  20903735.6484   20903738.8594
        22.2504         21.7504
 -10044637.77545  -7334854.11645  23010621.8134   23010627.7074
         9.7504         10.0004
 03 11  2  1 15 30.0000000  0  6G24G28G 7G 9G 4G 5
 -11885380.60846  -8380287.69645  22427716.4224   22427721.9654
        12.0004         11.7504
  -3012177.22345                  23940874.0864
         8.0004
   -320945.94446   -419057.92346  22131490.6644   22131494.3914
        14.5004         14.7504
 -14758746.46147 -10362784.98146  21061444.6804   21061448.3134
        20.7504         21.0004
 -16851168.47247 -12869603.97346  20902986.2584   20902989.1054
        22.2504         21.7504
 -10112573.92245  -7387791.25245  22997694.4694   22997700.0354
        10.2504          9.5004
 03 11  2  1 16  0.0000000  0  6G24G28G 7G 9G 4G 5
 -11959346.08346  -8437922.98246  22413642.5314   22413646.5514
        13.5004         12.5004
  -2910650.55543                  23960194.0004
         5.7504
   -239048.33246   -355241.59746  22147075.5394   22147079.8874
        14.5004         14.2504
 -14727224.45247 -10338222.34346  21067442.8524   21067446.4614
        20.5004         21.0004
 -16854619.88547 -12872293.32646  20902329.8834   20902332.9414
        22.7504         22.0004
 -10180524.39045  -7440739.56145  22984763.5944   22984768.0474
        10.0004         10.2504
 03 11  2  1 16 30.0000000  0  6G24G28G 7G 9G 4G 5
 -12033126.04246  -8495413.69146  22399601.3754   22399607.0004
        12.7504         12.2504
  -2809069.97741  -2399791.73455  23979523.2424   23979528.5984
         2.7504          5.0004
   -157148.43746   -291423.50346  22162660.6094   22162664.8634
        14.5004         14.2504
 -14695218.89047 -10313282.91746  21073533.2664   21073536.7704
        20.7504         21.2504
 -16857584.04947 -12874603.01946  20901765.5234   20901768.6644
        22.5004         22.0004
 -10248487.05945  -7493697.37645  22971830.5394   22971834.9804
         9.5004          9.7504
 03 11  2  1 17  0.0000000  0  6G24G28G 7G 9G 4G 5
 -12106714.29246  -8552755.00946  22385597.8444   22385603.0594
        12.5004         12.2504
  -2707432.98644  -2320594.09745  23998865.2504   23998870.5234
         7.2504          5.5004
    -75243.58346   -227601.51346  22178246.7974   22178251.2624
        14.5004         14.0004
 -14662726.44647 -10287964.09846  21079716.4224   21079719.9614
        21.0004         21.0004
 -16860056.97747 -12876529.92746  20901294.7974   20901297.9734
        22.2504         21.7504
 -10316456.36945  -7546660.34545  22958896.1484   22958901.7154
         9.2504         10.0004
 03 11  2  1 17 30.0000000  0  6G24G28G 7G 9G 4G 5
 -12180108.40446  -8609945.07446  22371631.6724   22371636.3834
        13.2504         12.5004
  -2605740.21945  -2241352.86944  24018216.1414   24018219.6214
         8.5004          4.7504
      6664.66446   -163776.91246  22193833.6414   22193838.0004
        14.5004         14.2504
 -14629748.13847 -10262266.68746  21085992.0394   21085995.3674
        21.0004         21.0004
 -16862038.38747 -12878073.83946  20900917.8364   20900920.8834
        22.2504         22.0004
 -10384431.24845  -7599627.66645  22945961.0314   22945966.6454
         9.7504         10.0004
 03 11  2  1 18  0.0000000  0  6G24G28G 7G 9G 4G 5
 -12253311.66246  -8666986.42246  22357701.1644   22357706.7074
        13.2504         12.2504
  -2503997.96743  -2162072.99045  24037577.2344   24037581.6294
         6.5004          6.7504
     88569.41446    -99955.02146  22209418.9534   22209422.9024
        14.2504         14.2504
 -14596290.36747 -10236195.66246  21092358.7194   21092362.1174
        21.0004         21.2504
 -16863533.65047 -12879238.93146  20900633.6254   20900636.6134
        22.7504         22.0004
 -10452416.29545  -7652602.91845  22933024.3284   22933029.6134
        10.5004         10.0004
 03 11  2  1 18 30.0000000  0  6G24G28G 7G 9G 4G 5
 -12326316.59046  -8723873.21146  22343809.1094   22343813.7154
        12.7504         12.0004
  -2402201.65442  -2082751.28745  24056948.2344   24056953.8834
         4.0004          6.0004
    170474.75946    -36132.66846  22225004.9304   22225009.2664
        14.2504         13.7504
 -14562348.89647 -10209747.72346  21098817.6644   21098820.7814
        21.0004         21.0004
 -16864536.99847 -12880020.71346  20900442.2504   20900445.2034
        22.7504         22.2504
 -10520404.45145  -7705580.59445  22920086.7664   22920091.0904
        11.7504         11.2504
 03 11  2  1 19  0.0000000  0  6G24G28G 7G 9G 4G 5
 -12399123.71146  -8780605.88946  22329953.6024   22329958.3714
        13.0004         12.2504
  -2300354.81243  -2003390.23445  24076329.6254   24076335.2154
         6.2504          7.7504
    252376.88646     27687.16246  22240590.7274   22240594.8984
        14.0004         14.0004
 -14527926.99747 -10182925.44046  21105368.1644   21105371.4104
        21.0004         21.2504
 -16865050.95147 -12880421.15446  20900344.5314   20900347.4024
        23.0004         22.2504
 -10588397.43546  -7758562.02846  22907148.5394   22907152.9344
        12.7504         12.0004
 03 11  2  1 19 30.0000000  0  6G24G28G 7G 9G 4G 5
 -12471738.88746  -8837188.98846  22316135.3444   22316140.1724
        13.0004         12.5004
  -2198466.34844  -1923996.59345  24095718.0314   24095721.2304
         7.5004          7.2504
    334266.15346     91496.99046  22256173.5164   22256177.1374
        14.2504         14.2504
 -14493033.92747 -10155736.00346  21112007.8914   21112011.3244
        21.0004         21.0004
 -16865083.52147 -12880446.49746  20900338.0234   20900341.2584
        22.7504         22.0004
 -10656402.51546  -7811552.91246  22894207.0784   22894211.7664
        12.0004         12.5004
 03 11  2  1 20  0.0000000  0  6G24G28G 7G 9G 4G 5
 -12544153.67946  -8893615.95046  22302355.5394   22302360.2274
        13.0004         12.7504
  -2096531.07343  -1844566.44245  24115115.7584   24115116.8954
         6.7504          5.2504
    416147.34546    155300.51646  22271755.2814   22271759.7584
        14.2504         13.5004
 -14457664.44547 -10128175.34446  21118738.2734   21118741.4614
        20.7504         21.0004
 -16864628.43047 -12880091.83446  20900424.9144   20900427.9024
        22.7504         22.2504
 -10724411.75345  -7864546.99745  22881265.1884   22881269.6054
        11.5004         11.5004
 03 11  2  1 20 30.0000000  0  6G24G28G 7G 9G 4G 5
 -12616362.04346  -8949882.04646  22288614.7974   22288620.0594
        13.5004         12.7504
  -1994545.83442                  24134522.3204
         4.5004
    498023.29746    219099.97946  22287335.5784   22287339.7274
        14.0004         13.2504
 -14421815.43047 -10100241.00946  21125560.0394   21125563.6604
        20.5004         20.7504
 -16863681.56447 -12879353.98146  20900605.0394   20900607.8874
        22.7504         22.2504
 -10792420.19145  -7917540.48146  22868323.5864   22868328.0394
        11.5004         12.0004
 03 11  2  1 21  0.0000000  0  6G24G28G 7G 9G 4G 5
 -12688364.91946  -9005988.04646  22274912.7584   22274917.3984
        13.7504         13.0004
  -1892514.40741                  24153937.6414
         3.2504
    579889.54446    282891.87346  22302914.3134   22302918.7544
        14.0004         13.5004
 -14385490.96647 -10071936.20546  21132472.6724   21132476.1054
        20.5004         21.0004
 -16862246.07347 -12878235.36746  20900878.3134   20900881.6414
        22.7504         22.2504
 -10860430.06845  -7970535.09945  22855381.3754   22855386.1804
        11.7504         11.5004
 03 11  2  1 21 30.0000000  0  6G24G28G 7G 9G 4G 5
 -12760153.55846  -9061927.09946  22261251.5164   22261256.8834
        13.2504         13.2504
  -1790431.44742  -2441943.31555  24173364.2584   24173368.8874
         4.2504          6.0004
    661751.52146    346680.44746  22318491.9534   22318496.3714
        14.0004         13.2504
 -14348685.70147 -10043256.75046  21139476.1254   21139479.4774
        20.5004         20.7504
 -16860315.17247 -12876730.72546  20901245.5314   20901248.4964
        22.7504         22.5004
 -10928433.40045  -8023524.63245  22842440.8674   22842444.8164
        11.5004         11.5004
 03 11  2  1 22  0.0000000  0  6G24G28G 7G 9G 4G 5
 -12831738.88546  -9117707.73846  22247629.1484   22247635.1024
        13.0004         12.7504
  -1688310.74343  -2362368.76145  24192797.3204   24192801.9844
         5.7504          7.0004
    743594.81546    410454.42646  22334066.2504   22334070.0474
        14.0004         13.7504
 -14311413.75947 -10014213.66046  21146568.8754   21146572.4844
        20.5004         21.0004
 -16857901.95247 -12874850.25246  20901704.8054   20901707.8404
        22.5004         22.5004
 -10996441.99345  -8076518.24345  22829499.2194   22829503.8954
        11.5004         11.0004
 03 11  2  1 22 30.0000000  0  6G24G28G 7G 9G 4G 5
 -12903107.11346  -9173319.20546  22234048.2894   22234053.1764
        13.2504         12.7504
  -1586141.82743  -2282756.58145  24212239.2894   24212244.5514
         6.0004          6.5004
    825429.27646    474221.56746  22349638.7664   22349643.1024
        14.0004         13.2504
 -14273664.79947  -9984798.86046  21153752.2814   21153755.4694
        20.7504         21.2504
 -16854995.00347 -12872585.05546  20902258.0314   20902261.0904
        22.7504         22.2504
 -11064443.43946  -8129506.31045  22816559.1644   22816563.7344
        12.0004         11.0004
 03 11  2  1 23  0.0000000  0  6G24G28G 7G 9G 4G 5
 -12974258.77146  -9228761.92746  22220508.4454   22220512.4654
        13.2504         13.0004
  -1483928.04142  -2203109.48143  24231690.1484   24231697.8984
         4.7504          3.7504
    907251.18446    537978.89646  22365209.1174   22365212.9494
        13.7504         13.2504
 -14235442.63947  -9955015.33946  21161025.6174   21161028.8634
        21.0004         21.2504
 -16851597.12147 -12869937.31146  20902904.5084   20902907.4384
        22.7504         22.5004
 -11132438.77745  -8182489.62345  22803619.0634   22803623.2934
        11.7504         11.0004
 03 11  2  1 23 30.0000000  0  6G24G28G 7G 9G 4G 5
 -13045198.72846  -9284039.68346  22207009.0784   22207013.5434
        14.0004         13.0004
  -1381677.26642  -2123433.60743  24251146.9064   24251158.0784
         4.2504          3.2504
    989052.39846    601720.12346  22380775.2034   22380778.9654
        13.5004         12.7504
 -14196755.23147  -9924869.28646  21168387.6414   21168391.1334
        20.7504         21.5004
 -16847715.19147 -12866912.39846  20903642.9454   20903646.1804
        22.7504         22.5004
 -11200433.90545  -8235472.74045  22790680.6484   22790685.3014
        11.7504         11.5004
 03 11  2  1 24  0.0000000  0  6G24G28G 7G 9G 4G 5
 -13115923.18546  -9339149.53646  22193550.7194   22193555.5234
        13.7504         13.2504
  -1279389.12242                  24270612.2504
         4.7504
   1070833.05046    665445.29146  22396337.1414   22396341.5354
        13.5004         13.0004
 -14157602.45947  -9894360.60946  21175837.9774   21175841.1524
        21.0004         21.2504
 -16843347.91747 -12863509.29346  20904474.1414   20904476.8834
        22.7504         22.2504
 -11268426.21745  -8288453.68945  22777741.6954   22777746.1844
        11.7504         11.5004
 03 11  2  1 24 30.0000000  0  6G24G28G 7G 9G 4G 5
 -13186423.88146  -9394085.01246  22180134.3204   22180139.7344
        13.7504         13.2504
  -1177058.08743                  24290085.7194
         6.5004
   1152598.14846    729158.37446  22411897.0164   22411901.4454
        13.2504         13.0004
 -14117979.20847  -9863485.33146  21183378.4534   21183381.8284
        21.0004         21.2504
 -16838489.24747 -12859723.27846  20905398.5784   20905401.5784
        22.7504         22.7504
 -11336407.60545  -8341426.10545  22764805.6334   22764810.4734
        11.5004         11.5004
 03 11  2  1 25  0.0000000  0  6G24G28G 7G 9G 4G 5
 -13256695.12346  -9448841.70846  22166762.3834   22166767.2704
        14.5004         13.7504
  -1074681.18844  -2388722.75955  24309567.7114   24309570.8404
         7.5004          6.7504
   1234350.28146    792861.34646  22427453.8054   22427458.2934
        13.2504         13.0004
 -14077882.84047  -9832241.38246  21191008.5554   21191011.7664
        21.0004         21.2504
 -16833135.32447 -12855551.35146  20906417.5704   20906420.5824
        22.7504         22.5004
 -11404373.32345  -8394386.31945  22751872.1024   22751876.4494
        11.7504         11.7504
 03 11  2  1 25 30.0000000  0  6G24G28G 7G 9G 4G 5
 -13326743.11846  -9503424.44946  22153432.3524   22153437.1564
        14.5004         13.5004
   -972267.77944  -2308920.09745  24329056.1484   24329056.8874
         7.2504          6.0004
   1316079.71046    856546.60446  22443006.2504   22443010.5274
        13.2504         13.5004
 -14037323.02047  -9800636.30146  21198726.3444   21198730.0234
        20.2504         21.0004
 -16827294.81147 -12851000.26946  20907528.9224   20907531.9694
        22.7504         22.5004
 -11472331.02445  -8447340.28545  22738940.1334   22738944.3524
        11.5004         11.7504
 03 11  2  1 26  0.0000000  0  6G24G28G 7G 9G 4G 5
 -13396562.42046  -9557829.00446  22140146.0314   22140150.5204
        14.5004         13.7504
   -869815.91343  -2229087.40045  24348551.8594   24348556.4884
         6.0004          5.5004
   1397788.53346    920215.82646  22458555.4924   22458559.8404
        13.2504         12.5004
 -13996297.78247  -9768668.56446  21206533.2974   21206536.5904
        20.5004         20.7504
 -16820964.68047 -12846067.66946  20908733.2584   20908736.2584
        22.7504         22.5004
 -11540275.82145  -8500284.17945  22726010.0394   22726014.7504
        11.2504         11.0004
 03 11  2  1 26 30.0000000  0  6G24G28G 7G 9G 4G 5
 -13466147.46146  -9612050.99346  22126904.5164   22126909.3444
        15.0004         14.0004
   -767322.27642  -2149222.30343  24368054.4144   24368057.4734
         4.5004          3.7504
   1479479.13346    983870.85646  22474100.4774   22474104.7424
        13.0004         13.0004
 -13954804.83247  -9736336.36946  21214429.1884   21214432.4694
        20.5004         20.7504
 -16814141.45747 -12840750.84146  20910031.8054   20910034.8284
        23.0004         22.5004
 -11608202.77745  -8553214.16446  22713083.9384   22713089.1644
        11.5004         12.0004
 03 11  2  1 27  0.0000000  0  6G24G28G 7G 9G 4G 5
 -13535498.39946  -9666090.59546  22113707.5314   22113712.1724
        15.2504         14.5004
   -664790.29642  -2069327.23544  24387566.6094   24387583.6414
         4.0004          4.0004
   1561148.02346   1047508.96846  22489641.1644   22489645.7114
        13.0004         13.2504
 -13912847.63247  -9703642.42546  21222413.2274   21222416.1804
        20.5004         21.0004
 -16806827.74247 -12835051.81146  20911423.4694   20911426.5744
        22.7504         22.7504
 -11676112.61645  -8606130.82045  22700161.2344   22700166.2154
        11.5004         11.5004
 03 11  2  1 27 30.0000000  0  6G24G28G 7G 9G 4G 5
 -13604615.29046  -9719947.78746  22100555.0474   22100559.3834
        15.0004         14.0004
   -562223.27642  -1989404.86445  24407084.6884   24407088.1454
         4.7504          5.0004
   1642791.77846   1111127.46846  22505177.9614   22505181.6054
        12.7504         13.2504
 -13870429.85447  -9670589.59046  21230485.1334   21230488.4844
        20.2504         20.7504
 -16799026.03247 -12828972.53246  20912908.3364   20912911.3954
        22.7504         22.5004
 -11744006.63346  -8659035.15445  22687241.2344   22687245.9694
        12.2504         11.7504
 03 11  2  1 28  0.0000000  0  6G24G28G 7G 9G 4G 5
 -13673489.46846  -9773615.86246  22087448.2274   22087452.7274
        14.7504         14.0004
   -459615.32143  -1909450.63345  24426610.7894   24426614.8204
         5.7504          5.2504
   1724415.96646   1174730.75646  22520710.1254   22520714.2974
        13.0004         12.5004
 -13827545.88147  -9637173.48446  21238645.3444   21238648.8014
        20.2504         21.0004
 -16790729.77747 -12822507.89046  20914486.7584   20914489.8754
        22.5004         22.5004
 -11811876.18946  -8711920.41446  22674326.3134   22674332.0314
        12.7504         12.2504
 03 11  2  1 28 30.0000000  0  6G24G28G 7G 9G 4G 5
 -13742121.13446  -9827094.96946  22074388.1884   22074393.3094
        14.7504         14.0004
   -356969.70543  -1829467.00345  24446142.7734   24446149.1844
         5.7504          5.2504
   1806017.14546   1238316.09446  22536238.8364   22536242.3634
        13.0004         13.0004
 -13784199.40947  -9603396.99146  21246894.0314   21246897.4064
        20.2504         21.2504
 -16781941.54547 -12815659.88746  20916159.1564   20916162.3094
        22.7504         22.7504
 -11879723.12946  -8764788.06846  22661415.1254   22661419.4264
        12.5004         12.2504
 03 11  2  1 29  0.0000000  0  6G24G28G 7G 9G 4G 5
 -13810507.71346  -9880383.10946  22061374.6414   22061379.2464
        14.7504         14.5004
   -254286.68743  -1749454.19445  24465683.4304   24465690.5004
         5.0004          6.0004
   1887594.53246   1301882.89646  22551762.7584   22551767.3054
        13.0004         13.0004
 -13740391.56047  -9569260.98746  21255230.4144   21255233.7894
        20.2504         21.0004
 -16772661.12447 -12808428.36446  20917925.1564   20917927.8634
        23.0004         22.7504
 -11947544.84846  -8817636.05746  22648508.9694   22648514.0554
        12.2504         12.0004
 03 11  2  1 29 30.0000000  0  6G24G28G 7G 9G 4G 5
 -13878645.21546  -9933477.15346  22048408.3444   22048412.8094
        14.7504         14.5004
   -151565.26742  -1669411.36343  24485229.9534   24485232.9884
         4.0004          3.7504
   1969149.04146   1365431.88646  22567281.5004   22567285.6254
        12.7504         12.7504
 -13696121.71147  -9534764.96946  21263654.9614   21263658.4414
        20.2504         20.7504
 -16762887.18447 -12800812.27246  20919784.8984   20919787.9344
        22.7504         22.7504
 -12015338.15146  -8870461.90246  22635608.4224   22635613.3094
        12.5004         12.0004
 03 11  2  1 30  0.0000000  0  6G24G28G 7G 9G 4G 5
 -13946531.99446  -9986375.81346  22035489.9384   22035494.4614
        15.2504         14.5004
    -48806.94541  -1589340.07542  24504782.4384   24504790.5274
         2.7504          2.5004
   2050678.86346   1428961.62646  22582796.1094   22582800.4694
        12.7504         12.7504
 -13651392.00247  -9499910.62746  21272166.6804   21272169.7504
        20.2504         20.5004
 -16752620.55447 -12792812.27646  20921738.8054   20921741.7234
        22.7504         22.7504
 -12083102.44246  -8923265.15646  22622713.1334   22622718.0314
        12.2504         12.2504
 03 11  2  1 30 30.0000000  0  6G24G28G 7G 9G 4G 5
 -14014168.20146 -10039079.25746  22022618.6564   22022623.3914
        15.5004         14.7504
                                  24524346.4774
         2.2504
   2132180.78046   1492469.62546  22598305.3754   22598310.4494
        12.7504         12.7504
 -13606205.85947  -9464700.62146  21280765.1334   21280768.6484
        20.0004         20.5004
 -16741863.73347 -12784430.31146  20923785.4694   20923788.2704
        22.7504         22.7504
 -12150838.75546  -8976046.56146  22609823.0314   22609826.7344
        12.2504         12.2504
 03 11  2  1 31  0.0000000  0  6G24G28G 7G 9G 4G 5
 -14081546.16446 -10091581.48046  22009797.4064   22009801.2384
        15.5004         14.7504
  -3072002.70551                  24543913.1724
         3.2504
   2213659.33246   1555959.41346  22613810.5234   22613815.0944
        13.0004         12.5004
 -13560559.17947  -9429131.75746  21289451.5864   21289454.9844
        20.2504         20.5004
 -16730611.44247 -12775662.25746  20925926.7974   20925929.8444
        22.7504         23.0004
 -12218539.68546  -9028800.43846  22596940.3444   22596945.4304
        12.5004         12.2504
 03 11  2  1 31 30.0000000  0  6G24G28G 7G 9G 4G 5
 -14148665.12946 -10143881.86846  21997024.5234   21997029.1054
        14.7504         14.5004
  -2969135.42642                  24563488.2974
         4.5004
   2295112.24046   1619429.22746  22629310.1884   22629313.8324
        12.7504         13.0004
 -13514454.46247  -9393205.98246  21298224.6644   21298227.7934
        20.2504         20.2504
 -16718865.36547 -12766509.44546  20928162.2344   20928165.1884
        22.7504         22.7504
 -12286205.22746  -9081526.73346  22584063.5864   22584067.2544
        13.2504         12.7504
 03 11  2  1 32  0.0000000  0  6G24G28G 7G 9G 4G 5
 -14215527.28846 -10195982.14646  21984301.6884   21984306.1524
        15.7504         15.0004
  -2866237.15743  -2417782.58455  24583068.6414   24583073.2934
         5.5004          6.0004
   2376534.10146   1682874.84346  22644804.1564   22644808.1524
        12.5004         12.5004
 -13467897.54747  -9356927.84546  21307084.3524   21307087.4224
        20.2504         20.5004
 -16706630.25047 -12756975.55846  20930490.2974   20930493.3204
        22.7504         22.7504
 -12353837.81446  -9134227.35546  22571193.7894   22571198.5354
        13.2504         12.7504
 03 11  2  1 32 30.0000000  0  6G24G28G 7G 9G 4G 5
 -14282126.43446 -10247877.50246  21971627.7814   21971632.1884
        16.0004         15.2504
  -2763304.32643  -2337575.08045  24602656.8524   24602664.2274
         6.0004          5.7504
   2457927.83146   1746298.54446  22660292.9694   22660297.8324
        12.5004         12.0004
 -13420885.79547  -9320295.29346  21316030.5394   21316033.6914
        20.2504         20.2504
 -16693902.49947 -12747057.80346  20932912.4774   20932915.3134
        22.7504         22.7504
 -12421432.58146  -9186898.51346  22558331.0084   22558336.0594
        13.2504         13.0004
 03 11  2  1 33  0.0000000  0  6G24G28G 7G 9G 4G 5
 -14348465.09646 -10299569.88846  21959003.7664   21959008.4064
        15.5004         15.0004
  -2660342.24143  -2257344.86745  24622249.6954   24622252.4144
         6.2504          6.2504
   2539288.19246   1809696.23246  22675775.6644   22675780.1994
        12.2504         12.2504
 -13373425.02447  -9283312.85046  21325061.7894   21325065.0354
        20.2504         20.5004
 -16680686.83647 -12736759.85146  20935427.0234   20935429.9654
        22.7504         22.7504
 -12488991.80246  -9239541.96146  22545474.4224   22545478.7584
        13.2504         13.0004
 03 11  2  1 33 30.0000000  0  6G24G28G 7G 9G 4G 5
 -15989958.16346 -11578655.32246  21646638.8134   21646643.4184
        16.2504         15.2504
  -4132763.30343  -3404685.92645  24342056.9694   24342064.5904
         6.2504          5.7504
   1045201.96246    645473.19145  22391460.4534   22391464.2154
        12.0004         11.7504
 -14900929.97947 -10473576.42946  21034387.2584   21034390.5514
        20.2504         20.5004
 -18242398.18147 -13953677.75146  20638243.4694   20638246.3874
        23.0004         22.5004
 -14131930.92846 -10519754.17446  22232833.3444   22232837.7624
        13.2504         13.0004
 03 11  2  1 34  0.0000000  0  6G24G28G 7G 9G 4G 5
 -16055764.36946 -11629932.81346  21634115.8054   21634119.9414
        15.7504         15.0004
  -4029740.50843  -3324408.38045  24361661.2424   24361666.9494
         6.0004          5.5004
   1126497.30946    708820.22645  22406929.6804   22406933.8164
        12.0004         11.2504
 -14852570.85347 -10435893.98046  21043589.7504   21043592.8444
        20.2504         20.2504
 -18228203.43847 -13942616.88446  20640944.6954   20640947.5554
        22.7504         23.0004
 -14199409.85746 -10572335.08946  22219992.5784   22219996.4104
        13.2504         13.0004
 03 11  2  1 34 30.0000000  0  6G24G28G 7G 9G 4G 5
 -16121298.12746 -11680998.00746  21621645.1414   21621649.6174
        15.7504         15.2504
  -3926685.15943  -3244105.51444  24381272.9384   24381279.3594
         5.5004          4.2504
   1207762.45145    772143.71045  22422394.5634   22422398.5354
        11.7504         11.2504
 -14803761.27747 -10397860.52346  21052877.8364   21052881.0704
        20.0004         20.5004
 -18213516.18647 -13931172.23946  20643739.2814   20643742.1294
        23.0004         23.0004
 -14266842.86246 -10624880.19946  22207160.8284   22207165.0124
        13.5004         13.2504
 03 11  2  1 35  0.0000000  0  6G24G28G 7G 9G 4G 5
 -16186558.07346 -11731849.83646  21609225.9384   21609230.2384
        15.5004         15.2504
  -3823599.26343  -3163778.79343  24400889.7344   24400891.5164
         5.0004          3.7504
   1288994.99945    835441.80545  22437851.7274   22437856.9654
        11.5004         11.5004
 -14754503.97447 -10359478.20046  21062251.0784   21062254.4774
        20.0004         20.5004
 -18198338.20147 -13919345.21046  20646627.3674   20646630.3914
        22.7504         22.7504
 -14334229.54746 -10677389.23946  22194337.4614   22194341.4224
        14.0004         13.5004
 03 11  2  1 35 30.0000000  0  6G24G28G 7G 9G 4G 5
 -16251541.64846 -11782486.31846  21596860.5084   21596865.4654
        15.7504         15.2504
  -3720482.91342  -3083428.47143  24420511.1564   24420507.1134
         4.5004          3.5004
   1370194.83245    898714.39845  22453304.0944   22453308.6054
        11.5004         11.5004
 -14704799.92647 -10320747.75546  21071709.3444   21071712.4384
        20.0004         20.7504
 -18182669.42347 -13907135.74446  20649609.1024   20649611.9964
        22.7504         22.7504
 -14401567.65146 -10729860.41846  22181523.5164   22181528.2974
        14.0004         13.5004
 03 11  2  1 36  0.0000000  0  6G24G28G 7G 9G 4G 5
 -16316245.73646 -11832905.02746  21584547.7274   21584552.3204
        16.5004         15.5004
  -3617335.64742                  24440139.6484
         4.0004
   1451362.31345    961961.79945  22468749.7424   22468754.2664
        11.2504         11.2504
 -14654649.40847 -10281669.42246  21081252.5314   21081255.7664
        20.0004         20.5004
 -18166509.03247 -13894543.20046  20652684.4454   20652687.3054
        22.7504         22.5004
 -14468854.17846 -10782291.41646  22168719.0394   22168723.0594
        14.0004         13.5004
 03 11  2  1 36 30.0000000  0  6G24G28G 7G 9G 4G 5
 -16380666.97846 -11883103.32946  21572288.3284   21572292.5704
        16.2504         15.5004
  -3514157.50141                  24459773.5554
         3.2504
   1532497.51645   1025184.03545  22484188.9534   22484193.5944
        11.2504         11.2504
 -14604052.97647 -10242243.61346  21090880.9224   21090883.9224
        20.0004         20.5004
 -18149856.58647 -13881567.23946  20655853.3054   20655856.0124
        23.0004         22.7504
 -14536086.78446 -10834680.39246  22155924.3754   22155928.4184
        13.2504         13.0004
 03 11  2  1 37  0.0000000  0  7G24G28G 7G 9G 4G30G 5
 -16444806.42646 -11933082.05746  21560083.6094   21560087.6764
        16.7504         16.2504
  -3410952.22241                  24479412.5704
         3.0004
   1613596.46945   1088378.00745  22499621.9614   22499625.6884
        11.2504         11.0004
 -14553015.32647 -10202474.01046  21100593.3674   21100596.3914
        20.2504         20.2504
 -18132715.67347 -13868210.65846  20659115.1334   20659117.7704
        23.0004         22.7504
                                  24895220.6564
         2.7504
 -14603266.89346 -10887028.46246  22143140.8914   22143145.2154
        13.2504         13.0004
 03 11  2  1 37 30.0000000  0  7G24G28G 7G 9G 4G30G 5
 -16508660.73946 -11982838.59046  21547931.8984   21547935.9184
        16.7504         16.5004
  -3307719.53141                  24499060.2664
         2.5004
   1694659.43245   1151543.95345  22515048.0314   22515051.7934
        11.2504         11.2504
 -14501536.73847 -10162360.81646  21110389.1254   21110392.3244
        20.0004         20.0004
 -18115085.93447 -13854473.17246  20662469.8284   20662472.2544
        22.7504         22.7504
  -4812236.47441                  24878294.0394
         3.2504
 -14670391.40946 -10939333.23146  22130367.4844   22130371.7384
        13.5004         13.0004
 03 11  2  1 38  0.0000000  0  7G24G28G 7G 9G 4G30G 5
 -16572220.17046 -12032365.35746  21535837.1804   21535841.3874
        17.0004         16.2504
  -3204452.02941                  24518709.2194
         2.2504
   1775693.58445   1214687.44945  22530467.9064   22530472.0664
        11.2504         10.7504
 -14449610.75547 -10121898.99646  21120270.2664   21120273.2664
        20.2504         20.5004
 -18096959.77147 -13840348.85746  20665919.0004   20665921.7304
        22.7504         23.0004
  -4901320.78541                  24861341.5784
         3.7504
 -14737450.61546 -10991587.09746  22117606.2194   22117610.5904
        14.0004         13.5004
 03 11  2  1 38 30.0000000  0  7G24G28G 7G 9G 4G30G 5
 -16635487.28446 -12081664.34446  21523797.5234   21523801.5204
        16.7504         16.7504
                                  24538368.6094
         1.5004
   1856693.64245   1277804.36545  22545881.5474   22545886.1414
        11.2504         11.0004
 -14397243.58547 -10081093.40446  21130235.9144   21130238.7384
        20.2504         20.2504
 -18078342.39147 -13825841.78146  20669461.8834   20669464.7194
        23.0004         23.0004
  -4990551.55242  -3712942.66654  24844361.7664   24844367.4614
         4.5004          4.2504
 -14804447.86646 -11043792.70646  22104857.5314   22104861.5164
        14.5004         14.0004
 03 11  2  1 39  0.0000000  0  7G24G28G 7G 9G 4G30G 5
 -16698462.19946 -12130735.64146  21511814.0554   21511818.7304
        17.0004         16.2504
                                  24558027.9844
         1.5004
   1937656.39545   1340892.23845  22561288.5704   22561292.0514
        11.2504         10.7504
 -14344439.36347 -10039947.25146  21140284.1484   21140287.1484
        20.2504         20.5004
 -18059236.88647 -13810954.35246  20673097.2734   20673100.1214
        22.7504         23.0004
  -5079930.08542  -3782588.11944  24827353.4844   24827363.3094
         4.7504          4.2504
 -14871383.19746 -11095950.05646  22092120.0784   22092124.0634
        15.0004         14.5004
 03 11  2  1 39 30.0000000  0  6G24G 7G 9G 4G30G 5
 -16761135.98946 -12179572.29346  21499887.3444   21499891.9384
        16.7504         16.5004
   2018587.87345   1403955.72745  22576688.7734   22576692.9104
        11.2504         11.2504
 -14291192.68247  -9998456.32446  21150416.3594   21150419.4414
        20.0004         20.2504
 -18039636.86047 -13795681.58346  20676827.3834   20676830.1604
        22.7504         22.7504
  -5169448.47242  -3852342.60642  24810318.1254   24810317.8914
         4.7504          2.5004
 -14938248.51146 -11148052.85446  22079396.0944   22079399.8444
        14.5004         14.5004
 03 11  2  1 40  0.0000000  0  6G24G 7G 9G 4G30G 5
 -16823499.50846 -12228167.19246  21488019.6564   21488024.1094
        16.5004         16.2504
   2099494.43445   1466999.79745  22592084.7894   22592089.4534
        11.2504         11.0004
 -14237497.98047  -9956616.28846  21160633.9614   21160636.9844
        20.0004         20.0004
 -18019535.99547 -13780018.54246  20680651.9924   20680654.7934
        22.5004         22.7504
  -5259098.49343                  24793258.5474
         5.0004
 -15005034.64246 -11200093.94046  22066687.1644   22066691.2424
        14.7504         14.5004
 03 11  2  1 40 30.0000000  0  6G24G 7G 9G 4G30G 5
 -16885553.03246 -12276520.52146  21476211.3754   21476215.4534
        17.0004         17.0004
   2180373.25345   1530022.26245  22607475.6644   22607479.6604
        11.2504         11.5004
 -14183359.31747  -9914430.31546  21170936.5944   21170939.6174
        20.2504         20.2504
 -17998937.08147 -13763967.42146  20684572.1954   20684574.7974
        22.7504         22.7504
  -5348881.05342                  24776174.5474
         4.5004
 -15071742.10846 -11252073.73646  22053993.0234   22053997.0434
        14.5004         14.2504
 03 11  2  1 41  0.0000000  0  6G24G 7G 9G 4G30G 5
 -16947291.78846 -12324628.58146  21464462.7274   21464466.7114
        17.5004         16.7504
   2261225.92245   1593024.34645  22622861.6564   22622865.8874
        11.2504         11.0004
 -14128775.78547  -9871897.68546  21181323.3054   21181326.2114
        20.0004         20.0004
 -17977838.19647 -13747526.70146  20688587.1564   20688589.8634
        22.7504         22.7504
  -5438792.49142                  24759063.8524
         4.0004
 -15138366.53546 -11303988.82246  22041314.5554   22041318.6684
        14.5004         14.2504
 03 11  2  1 41 30.0000000  0  6G24G 7G 9G 4G30G 5
 -17008711.10946 -12372487.73846  21452775.1954   21452778.8404
        17.5004         16.7504
   2342054.74545   1656007.83645  22638243.2034   22638247.2114
        11.2504         11.0004
 -14073746.10446  -9829017.40946  21191794.7814   21191798.1094
        19.7504         20.0004
 -17956237.39847 -13730694.88546  20692697.4064   20692700.2894
        22.7504         22.7504
  -5528828.65141                  24741929.6484
         3.7504
 -15204903.35246 -11355835.63846  22028652.9614   22028656.6174
        14.7504         15.0004
 03 11  2  1 42  0.0000000  0  6G24G 7G 9G 4G30G 5
 -17069810.97746 -12420097.97646  21441148.1644   21441151.9614
        17.2504         17.0004
   2422856.77345   1718970.45645  22653619.2274   22653622.7894
        10.7504         11.2504
 -14018274.16846  -9785792.52046  21202351.2664   21202354.4064
        19.7504         19.7504
 -17934137.38547 -13713474.07246  20696903.1724   20696905.8324
        22.7504         23.0004
  -5618990.33741                  24724772.5314
         3.0004
 -15271352.82046 -11407614.40546  22016008.4144   22016012.1524
        15.5004         14.5004
 03 11  2  1 42 30.0000000  0  6G24G 7G 9G 4G30G 5
 -17130586.97346 -12467455.82146  21429582.7194   21429586.9964
        17.7504         17.0004
   2503634.06945   1781913.82745  22668990.1804   22668995.6294
        10.7504         10.7504
 -13962359.07946  -9742222.31246  21212991.2734   21212994.3914
        19.7504         20.0004
 -17911536.31347 -13695862.81746  20701203.7424   20701206.5314
        22.7504         23.0004
  -5709273.81741                  24707592.3594
         2.7504
 -15337710.71646 -11459321.80646  22003380.9844   22003384.8284
        16.0004         15.2504
 03 11  2  1 43  0.0000000  0  6G24G 7G 9G 4G30G 5
 -17191030.56146 -12514554.67346  21418081.0004   21418085.2194
        18.0004         17.2504
   2584392.12445   1844842.17745  22684358.4224   22684362.8404
        10.7504         10.7504
 -13905996.23546  -9698303.21246  21223716.6334   21223719.6914
        19.5004         20.0004
 -17888428.65447 -13677856.82346  20705601.0784   20705603.7154
        23.0004         22.7504
  -5799671.64041                  24690388.2814
         2.7504
 -15403968.98846 -11510951.59646  21990771.7274   21990775.9344
        15.5004         14.7504
 03 11  2  1 43 30.0000000  0  6G24G 7G 9G 4G30G 5
 -17251140.52646 -12561393.54946  21406642.0634   21406646.3984
        17.5004         16.7504
   2665129.57945   1907754.46245  22699722.5784   22699728.0394
        10.7504         10.7504
 -13849188.06746  -9654037.10746  21234527.1334   21234530.2384
        19.7504         20.0004
 -17864815.92447 -13659457.27146  20710094.3054   20710097.0704
        22.7504         23.0004
  -5890183.00141                  24673165.2034
         3.0004
 -15470126.16846 -11562502.59246  21978182.8754   21978186.8364
        15.2504         14.7504
 03 11  2  1 44  0.0000000  0  6G24G 7G 9G 4G30G 5
 -17310917.90946 -12607973.25446  21395267.6174   21395271.5664
        18.5004         17.2504
   2745842.70845   1970647.81645  22715080.9774   22715086.1214
        10.5004         10.7504
 -13791939.60246  -9609427.90446  21245421.0944   21245424.1644
        19.5004         19.7504
 -17840702.02047 -13640667.18646  20714682.8914   20714685.5164
        22.7504         22.7504
  -5980809.81041                  24655920.6804
         3.2504
 -15536183.81546 -11613976.03146  21965612.1254   21965616.3324
        15.0004         15.0004
 03 11  2  1 44 30.0000000  0  6G24G 7G 9G 4G30G 5
 -17370354.03446 -12654287.06846  21383956.9144   21383960.9574
        18.2504         17.7504
   2826537.52645   2033526.90545  22730436.6024   22730440.4344
        10.5004         10.7504
 -13734245.77846  -9564471.66946  21256399.8054   21256402.9924
        19.5004         19.5004
 -17816081.11447 -13621482.03846  20719368.2344   20719370.9534
        22.7504         23.0004
  -6071543.85242                  24638654.5084
         4.0004
 -15602133.36646 -11665365.23546  21953062.5474   21953066.5204
        16.0004         15.5004
 03 11  2  1 45  0.0000000  0  6G24G 7G 9G 4G30G 5
 -17429447.40846 -12700333.79246  21372711.3984   21372715.4414
        18.0004         17.7504
   2907212.99945   2096390.91545  22745789.0704   22745793.6294
        10.5004         10.2504
 -13676108.65346  -9519170.01246  21267462.8834   21267465.9774
        19.5004         19.5004
 -17790954.42247 -13601902.77346  20724149.8284   20724152.9454
        23.0004         22.7504
  -6162384.40442                  24621367.7894
         4.7504
 -15667972.88646 -11716668.71246  21940533.6954   21940537.2114
        16.5004         15.7504
 03 11  2  1 45 30.0000000  0  6G24G 7G 9G 4G30G 5
 -17488191.76146 -12746108.55346  21361532.6954   21361536.0944
        18.0004         17.5004
   2987873.10045   2159242.92545  22761138.3204   22761143.0904
        10.5004         10.5004
 -13617525.53646  -9473520.82246  21278611.1804   21278614.0044
        19.5004         19.5004
 -17765317.95747 -13581926.28246  20729028.2504   20729031.1564
        23.0004         23.0004
  -6253325.48643                  24604062.7584
         5.2504
 -15733696.21546 -11767881.63946  21928027.1024   21928030.3714
        16.2504         15.5004
 03 11  2  1 46  0.0000000  0  6G24G 7G 9G 4G30G 5
 -17546586.05146 -12791610.54546  21350420.3674   21350423.8714
        18.2504         17.5004
   3068516.16545   2222081.66645  22776484.0394   22776488.1764
        10.2504         10.2504
 -13558499.12246  -9427526.20246  21289843.3364   21289846.1844
        19.2504         19.5004
 -17739173.89947 -13561554.26346  20734003.0704   20734006.0234
        23.0004         23.0004
  -6344366.71843  -3746648.47454  24586738.8914   24586745.0784
         5.7504          4.7504
 -15799302.90346 -11819003.67646  21915542.3524   21915546.4654
        15.7504         14.7504
 03 11  2  1 46 30.0000000  0  6G24G 7G 9G 4G30G 5
 -17604622.42446 -12836833.62846  21339376.7974   21339380.6644
        18.0004         17.7504
   3149147.31845   2284911.11945  22791827.6884   22791831.4614
        10.0004         10.2504
 -13499025.76446  -9381183.31646  21301160.7504   21301163.7154
        19.5004         19.2504
 -17712517.47247 -13540782.99546  20739075.7894   20739078.5904
        23.0004         22.7504
  -6435501.20043  -3817662.17145  24569395.3054   24569397.9774
         6.2504          5.0004
 -15864785.07546 -11870028.68846  21903081.3134   21903085.1214
        15.7504         14.5004
 03 11  2  1 47  0.0000000  0  6G24G 7G 9G 4G30G 5
 -17662300.96146 -12881777.89046  21328400.8054   21328404.3444
        17.7504         17.2504
   3229763.80145   2347729.16045  22807168.6254   22807173.5124
         9.7504         10.2504
 -13439109.18746  -9334495.06146  21312562.2584   21312565.3284
        19.5004         19.5004
 -17685351.56647 -13519614.73346  20744245.0784   20744247.8204
        22.7504         23.0004
  -6526729.52043  -3888749.09244  24552035.7034   24552042.8094
         6.5004          4.5004
 -15930142.34046 -11920956.38146  21890644.3594   21890647.3714
        16.5004         15.5004
 03 11  2  1 47 30.0000000  0  6G24G 7G 9G 4G30G 5
 -17719612.71446 -12926436.34246  21317494.8134   21317498.6214
        18.0004         17.7504
   3310372.42845   2410541.06145  22822507.9694   22822512.7384
         9.7504         10.0004
 -13378743.97846  -9287457.23046  21324049.5554   21324052.5204
        19.5004         19.2504
 -17657670.00747 -13498044.66746  20749513.0164   20749515.8634
        23.0004         23.0004
  -6618042.86843  -3959902.40644  24534658.0634   24534660.1724
         6.0004          4.0004
 -15995366.13046 -11971780.05046  21878232.4144   21878236.3984
        16.2504         15.7504
 03 11  2  1 48  0.0000000  0  6G24G 7G 9G 4G30G 5
 -17776557.85446 -12970809.11946  21306658.6024   21306662.2344
        18.2504         18.2504
   3390970.27645   2473344.59645  22837845.1884   22837849.5474
         9.7504         10.2504
 -13317934.35146  -9240073.08346  21335621.1954   21335624.1134
        19.5004         19.2504
 -17629475.59347 -13476074.96646  20754877.7814   20754880.6994
        22.7504         22.7504
  -6709442.16643  -4031122.51045  24517265.9304   24517269.4224
         5.7504          5.2504
 -16060456.60246 -12022499.82946  21865846.3594   21865850.5664
        16.2504         16.2504
 03 11  2  1 48 30.0000000  0  6G24G 7G 9G 4G30G 5
 -17833131.51046 -13014892.43646  21295892.0554   21295895.8284
        18.0004         17.7504
   3471560.29145   2536142.00045  22853180.8524   22853184.5784
         9.7504          9.5004
 -13256678.86146  -9192341.52246  21347277.5944   21347280.8754
        19.0004         19.0004
 -17600766.36747 -13453704.12246  20760341.3524   20760344.0594
        23.0004         23.0004
  -6800922.65143  -4102405.91044  24499857.6414   24499859.3284
         5.0004          4.5004
 -16125408.32846 -12073111.49646  21853485.9694   21853490.2234
        15.7504         15.7504
 03 11  2  1 49  0.0000000  0  6G24G 7G 9G 4G30G 5
 -17889330.38446 -13058683.70946  21285197.9384   21285201.6174
        18.5004         18.0004
   3552142.94045   2598933.66745  22868515.4844   22868520.7814
         9.7504          9.7504
 -13194978.21546  -9144263.07446  21359018.9924   21359022.3094
        19.2504         19.2504
 -17571541.94047 -13430931.82146  20765902.3984   20765905.0824
        23.0004         22.7504
  -6892481.89142  -4173750.65445  24482434.5784   24482438.6094
         4.5004          5.0004
 -16190218.76046 -12123613.06246  21841153.0004   21841156.3284
        16.0004         15.5004
 03 11  2  1 49 30.0000000  0  6G24G 7G 9G 4G30G 5
 -17945155.46646 -13102183.71446  21274575.1564   21274579.1174
        18.7504         18.2504
   3632714.85645   2661716.96145  22883847.3754   22883852.1914
         9.7504          9.7504
 -13132837.15246  -9095841.45346  21370843.7114   21370846.5354
        19.2504         19.2504
 -17541806.31747 -13407761.18246  20771560.6564   20771563.6094
        23.0004         23.0004
  -6984121.15942  -4245158.06843  24464996.7424   24465006.4264
         4.2504          3.2504
 -16254888.37746 -12174004.91146  21828846.7034   21828849.9614
        16.0004         15.5004
 03 11  2  1 50  0.0000000  0  7G24G 7G 9G 4G30G17G 5
 -18000601.04246 -13145387.99946  21264024.1094   21264027.8954
        18.7504         18.5004
   3713279.57345   2724494.67245  22899178.4614   22899183.3834
        10.0004          9.7504
 -13070253.48746  -9047074.94446  21382753.5084   21382756.6254
        18.7504         18.7504
 -17511556.55347 -13384189.91946  20777317.2424   20777319.9844
        23.0004         22.7504
  -7075834.86742                  24447544.4064
         4.0004
  -4800017.67753                  25057307.4144
         5.0004
 -16319411.35646 -12224282.49646  21816568.3204   21816571.5784
        16.2504         15.5004
 03 11  2  1 50 30.0000000  0  7G24G 7G 9G 4G30G17G 5
 -18055666.57446 -13188296.15746  21253544.8134   21253548.4454
        18.7504         18.5004
   3793834.89745   2787265.05645  22914507.5784   22914510.8014
        10.0004         10.0004
 -13007230.89646  -8997966.41146  21394745.9304   21394749.1174
        18.5004         18.7504
 -17480794.91747 -13360219.80146  20783170.8674   20783173.6454
        23.0004         23.2504
  -7167623.19142                  24430076.2344
         4.0004
  -4896284.71143                  25038988.0944
         6.0004
 -16383787.17346 -12274445.40446  21804318.0704   21804321.9264
        16.2504         16.2504
 03 11  2  1 51  0.0000000  0  7G24G 7G 9G 4G30G17G 5
 -18110348.31246 -13230905.23946  21243139.8284   21243143.4024
        19.2504         18.7504
   3874382.48245   2850029.41445  22929835.0944   22929839.2664
        10.0004          9.7504
 -12943769.36646  -8948515.85246  21406822.1564   21406825.0634
        18.5004         19.0004
 -17449520.73147 -13335850.28546  20789121.8914   20789124.7624
        23.0004         22.7504
  -7259482.43642  -3709049.87155  24412595.4304   24412603.7664
         4.0004          5.5004
  -4992613.78843                  25020657.1334
         5.7504
 -16448011.86046 -12324490.55246  21792096.7894   21792100.4104
        16.7504         16.5004
 03 11  2  1 51 30.0000000  0  7G24G 7G 9G 4G30G17G 5
 -18164643.91346 -13273213.44446  21232807.7734   21232811.5704
        19.2504         18.5004
   3954922.08245   2912787.56245  22945161.5554   22945165.2344
        10.0004          9.7504
 -12879870.41146  -8898724.43846  21418981.7974   21418985.0784
        18.2504         18.5004
 -17417734.77847 -13311081.99246  20795170.8444   20795173.6914
        23.0004         22.7504
  -7351410.74142  -3780682.13744  24395102.7584   24395115.4774
         4.2504          4.5004
  -5089002.38143                  25002314.0634
         5.0004
 -16512083.15546 -12374416.16846  21779904.1884   21779908.0314
        17.0004         16.7504
 03 11  2  1 52  0.0000000  0  7G24G 7G 9G 4G30G17G 5
 -18218548.85646 -13315217.24146  21222549.7344   21222553.6024
        18.7504         18.2504
   4035456.32545   2975541.54745  22960486.5704   22960491.8444
         9.7504          9.2504
 -12815532.98346  -8848591.36346  21431224.6564   21431227.9494
        18.0004         18.7504
 -17385435.10247 -13285913.39646  20801317.3134   20801320.1254
        23.0004         23.0004
  -7443403.67642  -3852364.94044  24377597.0474   24377610.0944
         4.2504          4.5004
  -5185445.13441  -3727892.35354  24983959.7734   24983968.2974
         3.7504          4.2504
 -16575995.59746 -12424218.00946  21767741.7424   21767744.7774
        17.0004         16.2504
 03 11  2  1 52 30.0000000  0  7G24G 7G 9G 4G30G17G 5
 -18272062.92546 -13356916.46446  21212366.2894   21212369.8634
        19.0004         18.5004
   4115983.28245   3038289.80245  22975810.5164   22975815.6134
         9.7504          9.5004
 -12750760.50346  -8798119.28946  21443550.6954   21443553.9774
        18.2504         18.5004
 -17352624.23047 -13260346.46746  20807560.9304   20807563.3444
        23.0004         22.7504
  -7535461.14542  -3924097.93245  24360079.3594   24360075.4694
         4.2504          5.0004
  -5281941.49841  -3803083.74043  24965596.8834   24965596.8594
         2.2504          3.5004
 -16639749.16846 -12473896.05846  21755610.0004   21755613.4574
        17.0004         16.0004
 03 11  2  1 53  0.0000000  0  7G24G 7G 9G 4G30G17G 5
 -18325186.08546 -13398311.08446  21202257.2424   21202261.1564
        18.7504         19.0004
   4196500.45545   3101030.48345  22991133.0004   22991137.2194
         9.5004         10.2504
 -12685557.05146  -8747311.38446  21455958.2894   21455961.5474
        18.0004         18.5004
 -17319305.17147 -13234383.55046  20813901.2584   20813903.7894
        23.2504         23.0004
  -7627583.52942  -3995881.17543  24342549.5944   24342558.9964
         4.7504          3.7504
  -4758446.12651                  24947223.4774
         2.7504
 -16703343.76746 -12523450.23546  21743508.3674   21743511.7424
        17.2504         16.5004
 03 11  2  1 53 30.0000000  0  7G24G 7G 9G 4G30G17G 5
 -18377916.66346 -13439399.78446  21192223.2584   21192227.2774
        19.5004         19.0004
   4277007.40145   3163763.16545  23006452.5004   23006457.6914
         9.0004          9.7504
 -12619924.72046  -8696169.29946  21468447.5944   21468450.8754
        17.7504         18.7504
 -17285479.42447 -13208025.80446  20820338.3054   20820341.3404
        23.2504         22.7504
  -7719769.42742  -4067714.33444  24325005.7584   24325016.5554
         4.7504          4.0004
  -4855046.59442                  24928842.7814
         4.0004
 -16766777.08746 -12572878.72746  21731437.2814   21731440.5514
        17.7504         16.7504
 03 11  2  1 54  0.0000000  0  7G24G 7G 9G 4G30G17G 5
 -18430255.48946 -13480183.24446  21182263.0084   21182266.3134
        19.2504         18.5004
   4357500.94745   3226485.42345  23021769.4844   23021773.7034
         9.0004          9.7504
 -12553868.05146  -8644696.56346  21481017.6564   21481020.8094
        18.0004         18.5004
 -17251150.36847 -13181275.88046  20826870.8444   20826873.2704
        23.2504         23.0004
  -7812019.63943  -4139597.48245  24307451.7034   24307458.3484
         5.2504          5.0004
  -4951698.47442                  24910448.6564
         4.2504
 -16830049.85146 -12622182.12446  21719397.1564   21719400.6724
        17.7504         17.0004
 03 11  2  1 54 30.0000000  0  7G24G 7G 9G 4G30G17G 5
 -18482196.51246 -13520656.71446  21172379.3594   21172383.1214
        19.5004         19.2504
   4437985.19845   3289200.42745  23037085.4064   23037090.0474
         8.7504          9.2504
 -12487384.79746  -8592891.42146  21493669.4694   21493672.3984
        18.0004         18.7504
 -17216315.15247 -13154131.54046  20833499.5474   20833502.2194
        23.0004         22.7504
  -7904328.50043  -4211526.26045  24289885.9614   24289891.5984
         5.7504          5.5004
  -5048395.35542                  24892048.0784
         4.7504
 -16893155.82646 -12671355.55546  21707388.1724   21707391.3364
        17.5004         16.2504
 03 11  2  1 55  0.0000000  0  7G24G 7G 9G 4G30G17G 5
 -18533737.47846 -13560818.46146  21162571.3204   21162574.8954
        19.7504         19.0004
   4518460.00345   3351908.11145  23052399.1414   23052404.1454
         8.5004          9.5004
 -12420476.50146  -8540755.07446  21506401.7814   21506405.2854
        18.2504         18.5004
 -17180974.56347 -13126593.39646  20840224.8914   20840227.5514
        23.2504         22.7504
  -7996693.99943  -4283499.13745  24272308.0784   24272308.0204
         6.0004          5.0004
  -5145134.51642                  24873638.9454
         4.7504
 -16956092.43846 -12720397.00746  21695411.7424   21695415.0594
        17.7504         16.7504
 03 11  2  1 55 30.0000000  0  7G24G 7G 9G 4G30G17G 5
 -18584880.88147 -13600670.42346  21152838.9844   21152842.6414
        20.0004         19.0004
   4598920.67745   3414604.73145  23067710.0864   23067714.9494
         8.2504          9.2504
 -12353149.53446  -8488292.49846  21519213.2894   21519216.6174
        18.0004         19.0004
 -17145133.80247 -13098665.51846  20847045.0554   20847047.6334
        23.0004         22.5004
  -8089118.67443  -4355518.17445  24254721.3914   24254727.7664
         6.2504          5.7504
  -5241917.90042                  24855221.4304
         4.5004
 -17018861.91946 -12769308.24246  21683467.0784   21683470.4884
        18.2504         17.2504
 03 11  2  1 56  0.0000000  0  7G24G 7G 9G 4G30G17G 5
 -18635631.00446 -13640215.91446  21143181.3834   21143185.1804
        19.7504         19.2504
   4679360.97045   3477285.48345  23083017.0164   23083021.6334
         8.0004          9.0004
 -12285412.00246  -8435509.99446  21532103.2424   21532106.4304
        18.2504         18.5004
 -17108800.30347 -13070353.67846  20853959.1334   20853961.7584
        23.0004         22.7504
  -8181606.75143  -4427586.57245  24237120.4534   24237124.2974
         6.2504          5.0004
  -5338749.16242                  24836794.3204
         4.5004
 -17081467.84746 -12818092.01546  21671553.4844   21671556.9884
        18.2504         17.5004
 03 11  2  1 56 30.0000000  0  7G24G 7G 9G 4G30G17G 5
 -18685984.73147 -13679452.54146  21133599.5634   21133602.8554
        20.0004         19.2504
   4759781.98745   3539951.22145  23098320.3594   23098324.1914
         8.0004          9.0004
 -12217264.50346  -8382408.05446  21545071.7194   21545075.1414
        18.0004         18.5004
 -17071973.80947 -13041657.69046  20860966.8984   20860969.3714
        23.0004         22.5004
  -8274155.15143  -4499702.01845  24219510.1484   24219517.1724
         5.7504          6.5004
  -5435624.83442  -3718029.45154  24818359.7974   24818358.7424
         4.2504          4.2504
 -17143907.03946 -12866745.86946  21659671.4064   21659675.0984
        18.2504         17.7504
 03 11  2  1 57  0.0000000  0  7G24G 7G 9G 4G30G17G 5
 -18735939.76747 -13718378.50146  21124093.3914   21124097.3284
        20.0004         19.5004
   4840184.16345   3602602.26545  23113621.0314   23113627.4534
         8.2504          8.7504
 -12148707.95546  -8328987.36546  21558117.3984   21558120.5044
        18.0004         18.5004
 -17034654.52647 -13012577.70946  20868068.6414   20868071.3834
        23.0004         22.5004
  -8366761.33842  -4571862.54245  24201886.2504   24201896.1804
         4.7504          5.7504
  -5532541.46542  -3793548.58545  24799917.7114   24799921.7544
         4.5004          5.5004
 -17206176.55446 -12915267.50546  21647822.4224   21647825.6914
        18.5004         17.5004
 03 11  2  1 57 30.0000000  0  7G24G 7G 9G 4G30G17G 5
 -18785498.51847 -13756995.66246  21114662.5554   21114666.1644
        20.0004         19.5004
   4920562.79445   3665234.98945  23128916.8134   23128920.4224
         8.2504          9.0004
 -12079749.25346  -8275253.31346  21571239.7664   21571243.3524
        17.7504         18.0004
 -16996848.37247 -12983118.34846  20875262.7194   20875265.5554
        23.0004         22.5004
  -8459428.12841  -4644070.19444  24184252.7894   24184257.9454
         3.5004          4.5004
  -5629501.42642                  24781464.6484
         4.0004
 -17268278.68346 -12963658.71346  21636004.8444   21636008.3134
        18.7504         17.7504
 03 11  2  1 58  0.0000000  0  7G24G 7G 9G 4G30G17G 5
 -18834661.56347 -13795304.48646  21105307.1484   21105310.6294
        20.0004         19.2504
   5000915.38345   3727847.36545  23144207.1724   23144211.5664
         8.5004          8.7504
 -12010392.46746  -8221209.05846  21584437.9454   21584441.1094
        17.7504         18.0004
 -16958558.65647 -12953282.18446  20882549.1564   20882551.5474
        23.2504         22.5004
  -8552155.93241  -4716325.42044  24166606.8054   24166613.3554
         3.2504          4.7504
  -5726504.47241                  24763006.6414
         3.0004
 -17330213.45046 -13011919.50346  21624218.4774   21624221.8284
        18.5004         18.0004
 03 11  2  1 58 30.0000000  0  7G24G 7G 9G 4G30G17G 5
 -18883433.59847 -13833308.63046  21096026.1954   21096029.6994
        20.0004         19.5004
   5081235.29645   3790434.37345  23159491.3834   23159495.1334
         8.7504          8.7504
 -11940646.14446  -8166861.28046  21597710.2114   21597713.4454
        17.5004         18.0004
 -16919793.01147 -12923075.17346  20889925.5634   20889928.0474
        22.7504         22.5004
  -8644949.27942  -4788631.71244  24148948.7344   24148949.6954
         4.2504          4.2504
  -5823554.61141                  24744537.3134
         3.2504
 -17391984.67046 -13060052.85146  21612463.9844   21612467.1254
        18.7504         18.2504
 03 11  2  1 59  0.0000000  0  7G24G 7G 9G 4G30G17G 5
 -18931817.15247 -13871010.05246  21086818.8134   21086822.5164
        20.0004         19.7504
   5161517.96345   3852992.28745  23174768.9064   23174773.4534
         8.7504          9.0004
 -11870516.47146  -8112214.77846  21611055.3834   21611058.3954
        17.5004         17.7504
 -16880557.03147 -12892501.66046  20897392.1564   20897394.7344
        23.0004         22.2504
  -8737810.59943  -4860991.13044  24131278.1724   24131283.1174
         5.5004          4.0004
  -5920653.76241                  24726059.2504
         3.7504
 -17453594.83846 -13108060.69446  21600740.2734   21600743.4144
        19.0004         18.2504
 03 11  2  1 59 30.0000000  0  7G24G 7G 9G 4G30G17G 5
 -18979804.28447 -13908402.58846  21077687.7034   21077691.2894
        20.0004         19.7504
   5241769.54845   3915526.00845  23190040.3444   23190043.4144
         8.7504          8.7504
 -11799999.29346  -8057266.32246  21624474.4224   21624477.9734
        17.2504         17.5004
 -16840845.54047 -12861557.62046  20904949.2194   20904951.8324
        22.7504         22.5004
  -8830731.80443  -4933397.21845  24113596.5704   24113601.7734
         6.2504          5.2504
  -6017793.59542                  24707575.2034
         4.0004
 -17515034.94246 -13155936.03846  21589048.0784   21589051.7234
        18.7504         17.5004
 03 11  2  2  0  0.0000000  0  7G24G 7G 9G 4G30G17G 5
 -19027392.35546 -13945484.15746  21068631.1174   21068634.5984
        19.7504         19.5004
   5321990.09345   3978035.55745  23205304.9534   23205308.6094
         8.7504          9.0004
 -11729096.37746  -8002017.29646  21637966.7734   21637969.6804
        17.5004         17.7504
 -16800659.49047 -12830243.79646  20912596.1804   20912598.6054
        23.0004         22.5004
  -8923710.62843  -5005848.19844  24095901.5554   24095903.3134
         6.7504          4.5004
  -6114971.07342  -3750949.76055  24689082.4304   24689091.6454
         4.2504          5.0004
 -17576302.65646 -13203677.03046  21577389.0164   21577392.6134
        18.5004         17.7504
 03 11  2  2  0 30.0000000  0  7G24G 7G 9G 4G30G17G 5
 -19074585.50947 -13982258.00546  21059650.6954   21059654.3634
        20.0004         19.5004
   5402174.27645   4040516.74645  23220564.0554   23220568.2154
         9.0004          8.2504
 -11657814.95946  -7946473.32246  21651531.1564   21651534.3204
        17.2504         17.2504
 -16760005.53747 -12798565.37346  20920332.2664   20920334.9144
        22.7504         21.7504
  -9016750.45243  -5078346.86144  24078197.3364   24078210.4534
         6.7504          4.7504
  -6212188.87243  -3826703.69245  24670583.4924   24670586.1054
         5.5004          5.0004
 -17637401.27346 -13251286.27146  21565762.4064   21565765.3014
        18.7504         18.0004
 03 11  2  2  1  0.0000000  0  7G24G 7G 9G 4G30G17G 5
 -19121378.53947 -14018720.06346  21050746.4224   21050749.9964
        20.0004         19.7504
   5482325.37245   4102972.14845  23235817.1884   23235822.5314
         9.0004          8.2504
 -11586153.61246  -7890633.31146  21665168.1334   21665171.7074
        17.5004         17.5004
 -16718881.27047 -12766520.47346  20928157.8524   20928160.3834
        22.5004         22.0004
  -9109846.01943  -5150888.81843  24060481.3674   24060487.2384
         6.0004          3.5004
  -6309441.51243  -3902484.74745  24652077.0554   24652086.9144
         5.7504          5.5004
 -17698324.88146 -13298759.13646  21554168.9924   21554172.5664
        19.2504         18.2504
 03 11  2  2  1 30.0000000  0  7G24G 7G 9G 4G30G17G 5
 -19167773.43847 -14054871.90046  21041917.4534   21041920.8054
        20.0004         19.7504
   5562439.33345   4165398.61345  23251062.0394   23251066.4454
         9.0004          8.0004
 -11514118.27146  -7834501.86946  21678875.6804   21678878.8324
        17.2504         17.2504
 -16677291.94047 -12734113.18446  20936072.1174   20936074.9414
        22.7504         22.2504
  -9202999.11243  -5223475.61945  24042756.0394   24042764.6914
         5.5004          5.2504
  -6406730.04343  -3978293.75145  24633562.5634   24633570.6054
         5.5004          5.0004
 -17759075.05546 -13346096.86046  21542608.3204   21542611.7544
        19.0004         18.2504
 03 11  2  2  2  0.0000000  0  7G24G 7G 9G 4G30G17G 5
 -19213768.07547 -14090711.84246  21033165.2664   21033168.7704
        20.2504         20.2504
   5642516.56845   4227796.49245  23266299.2894   23266303.8484
         8.7504          8.5004
 -11441710.55746  -7778080.26846  21692654.2664   21692657.3594
        17.2504         17.5004
 -16635238.29847 -12701344.09446  20944074.6564   20944077.2464
        22.2504         22.0004
  -9296207.31142  -5296105.27645  24025017.1484   24025018.4024
         4.7504          5.0004
  -6504051.98142  -4054128.81844  24615042.7274   24615046.3134
         4.2504          4.2504
 -17819648.74846 -13393297.07146  21531081.4614   21531084.8364
        19.0004         18.2504
 03 11  2  2  2 30.0000000  0  7G24G 7G 9G 4G30G17G 5
 -19259357.94947 -14126236.37946  21024489.7274   21024493.3134
        20.0004         19.7504
   5722559.70245   4290167.77745  23281532.2114   23281535.9494
         8.7504          9.0004
 -11368929.82546  -7721368.00446  21706504.0634   21706506.9104
        17.7504         17.7504
 -16592719.00347 -12668212.16046  20952165.8594   20952168.2734
        22.5004         22.0004
  -9389465.90342  -5368774.22645  24007271.5314   24007278.7194
         4.5004          5.7504
  -6601401.60142  -4129985.54344  24596516.8524   24596528.5864
         4.0004          4.5004
 -17880041.02146 -13440355.90846  21519589.4534   21519592.4414
        19.5004         18.5004
 03 11  2  2  3  0.0000000  0  7G24G 7G 9G 4G30G17G 5
 -19304544.44547 -14161446.60246  21015890.9064   21015894.4104
        20.0004         20.0004
   5802565.62645   4352510.07045  23296756.2344   23296760.0554
         8.2504          8.2504
 -11295780.99246  -7664368.91346  21720424.1094   21720426.8284
        17.7504         17.2504
 -16549738.05347 -12634720.49946  20960344.7734   20960347.3874
        22.5004         21.7504
  -9482775.82642  -5441483.12844  23989514.8984   23989520.0784
         4.5004          4.7504
  -6698779.79242  -4205864.39144  24577987.3444   24577992.0204
         4.2504          4.7504
 -17940252.60546 -13487273.96646  21508131.6484   21508134.6254
        19.7504         19.0004
 03 11  2  2  3 30.0000000  0  7G24G 7G 9G 4G30G17G 5
 -19349322.66447 -14196338.68846  21007369.5864   21007373.0784
        20.2504         20.0004
   5882537.68045   4414825.95845  23311974.0474   23311977.5274
         8.0004          8.5004
 -11222262.83846  -7607082.02846  21734414.2664   21734417.3954
        17.5004         17.7504
 -16506293.62547 -12600867.67946  20968611.8444   20968614.5274
        22.2504         21.7504
  -9576131.76343  -5514227.91845  23971749.6724   23971754.8524
         5.0004          5.7504
  -6796180.56241  -4281760.78245  24559452.1564   24559457.0434
         3.7504          5.0004
 -18000277.88246 -13534046.84246  21496708.8054   21496712.1334
        19.2504         19.0004
 03 11  2  2  4  0.0000000  0  7G24G 7G 9G 4G30G17G 5
 -19393692.12947 -14230912.26046  20998926.5004   20998929.9694
        20.5004         20.2504
   5962474.51945   4477114.43245  23327186.3754   23327189.9844
         8.0004          8.0004
 -11148378.71646  -7549509.97546  21748473.4534   21748476.0554
        17.2504         17.5004
 -16462388.17347 -12566655.62646  20976967.0004   20976969.6374
        22.2504         21.7504
  -9669532.85443  -5587007.87745  23953976.7424   23953982.5784
         5.7504          5.5004
  -6893602.81241  -4357673.93545  24540912.8914   24540923.8284
         3.5004          5.0004
 -18060115.36446 -13580673.38446  21485321.9384   21485325.2774
        19.2504         18.7504
 03 11  2  2  4 30.0000000  0  7G24G 7G 9G 4G30G17G 5
 -19437651.32347 -14265166.14446  20990561.7194   20990565.1994
        20.2504         20.2504
   6042376.03244   4539375.38445  23342390.2814   23342394.6294
         7.5004          8.0004
 -11074130.79546  -7491654.45446  21762602.4534   21762605.4064
        16.7504         17.0004
 -16418023.38447 -12532085.63946  20985409.4144   20985411.7584
        22.2504         21.7504
  -9762977.40143  -5659821.64745  23936194.0864   23936199.7584
         6.0004          6.2504
  -6991044.00743  -4433601.96444  24522370.3524   24522370.7274
         5.5004          4.7504
 -18119763.16946 -13627152.13846  21473971.6724   21473975.1414
        19.7504         19.0004
 03 11  2  2  5  0.0000000  0  7G24G 7G 9G 4G30G17G 5
 -19481198.93947 -14299099.30846  20982274.7344   20982278.3674
        20.5004         20.2504
   6122241.81244   4601608.43945  23357588.5234   23357591.7344
         7.5004          7.7504
 -10999521.20546  -7433517.10746  21776800.7034   21776803.0354
        17.2504         17.2504
 -16373200.46747 -12497158.67846  20993938.8204   20993941.2464
        22.0004         21.5004
  -9856463.35843  -5732667.71745  23918404.3284   23918407.6454
         6.2504          6.5004
  -7088502.16643  -4509543.25844  24503824.7974   24503832.9344
         6.2504          4.7504
 -18179218.98847 -13673481.29146  21462657.2734   21462660.4144
        20.2504         19.7504
 03 11  2  2  5 30.0000000  0  7G24G 7G 9G 4G30G17G 5
 -19524331.57447 -14332709.11246  20974066.5164   20974070.3014
        20.2504         20.5004
   6202073.57944   4663815.03745  23372779.6884   23372784.0704
         7.0004          7.5004
 -10924550.79046  -7375098.59746  21791066.6414   21791069.5944
        16.7504         17.0004
 -16327919.39947 -12461874.71646  21002555.6564   21002557.9304
        22.0004         21.7504
  -9949987.15643  -5805543.29745  23900608.0004   23900609.8874
         6.5004          5.7504
  -7185973.03143  -4585494.35345  24485276.3674   24485282.1804
         5.0004          5.7504
 -18238478.71046 -13719657.63446  21451380.5394   21451383.9384
        19.7504         19.2504
 03 11  2  2  6  0.0000000  0  7G24G 7G 9G 4G30G17G 5
 -19567047.70247 -14365994.37746  20965938.1884   20965941.7974
        20.5004         20.2504
   6281871.34243   4725995.12445  23387964.4924   23387968.1724
         6.7504          8.2504
 -10849221.40746  -7316400.37646  21805401.6254   21805404.2504
        17.5004         17.2504
 -16282181.34847 -12426234.65846  21011259.0944   21011261.5784
        22.2504         22.0004
 -10043546.51543  -5878446.55445  23882804.2504   23882810.1804
         6.2504          5.5004
  -7283454.10541  -4661453.44645  24466724.6644   24466733.0944
         3.2504          5.0004
 -18297540.14947 -13765679.48746  21440141.1804   21440144.4844
        20.0004         19.2504
 03 11  2  2  6 30.0000000  0  7G24G 7G 9G 4G30G17G 5
 -19609344.66747 -14398953.00546  20957888.9694   20957892.2854
        20.7504         20.5004
   6361636.33643   4788149.61645  23403143.0944   23403148.0164
         6.5004          7.7504
 -10773534.08446  -7257423.23546  21819804.0084   21819806.6214
        17.0004         16.5004
 -16235986.58647 -12390238.72946  21020049.7894   21020052.1334
        22.2504         21.5004
 -10137138.20043  -5951374.93145  23864994.2034   23864997.9654
         5.5004          6.0004
  -7380941.27743  -4737417.10545  24448175.4144   24448179.5864
         5.5004          6.0004
 -18356399.58247 -13811543.93746  21428941.0634   21428944.2504
        20.5004         19.7504
 03 11  2  2  7  0.0000000  0  7G24G 7G 9G 4G30G17G 5
 -19651226.14247 -14431587.88346  20949919.7114   20949923.1454
        21.0004         20.5004
   6441362.99543   4850274.31745  23418314.4534   23418317.5474
         6.7504          8.0004
 -10697496.21946  -7198172.94346  21834273.5634   21834276.6804
        16.7504         17.0004
 -16189342.03247 -12353892.29946  21028925.9454   21028928.4654
        22.2504         21.7504
 -10230765.70242  -6024331.23744  23847176.9924   23847181.6334
         4.7504          4.0004
  -7478437.97843  -4813388.47745  24429621.9454   24429623.7974
         6.0004          6.0004
 -18415060.18947 -13857253.45146  21417778.2344   21417781.4804
        20.2504         19.7504
 03 11  2  2  7 30.0000000  0  7G24G 7G 9G 4G30G17G 5
 -19692685.57047 -14463893.89346  20942029.9774   20942033.4574
        21.0004         21.0004
   6521056.39143   4912373.08945  23433479.8364   23433485.6724
         6.7504          7.2504
 -10621105.22246  -7138647.48646  21848810.5554   21848813.6604
        16.7504         16.5004
 -16142244.02947 -12317192.54146  21037888.1644   21037890.7894
        22.2504         21.5004
 -10324421.78342  -6097309.92744  23829353.7894   23829360.8484
         4.5004          4.5004
  -7575936.76543  -4889361.29844  24411068.1334   24411068.5204
         5.5004          4.7504
 -18473514.45346 -13902802.17746  21406654.6334   21406658.1724
        19.7504         19.7504
 03 11  2  2  8  0.0000000  0  7G24G 7G 9G 4G30G17G 5
 -19733724.77747 -14495872.45946  20934220.6174   20934224.1214
        21.2504         21.0004
   6600713.05244   4974443.20845  23448638.0784   23448642.8364
         7.0004          8.2504
 -10544366.35946  -7078850.96946  21863412.8754   21863415.9224
        16.0004         16.7504
 -16094697.20347 -12280143.04446  21046936.0164   21046938.9694
        22.0004         21.5004
 -10418107.67742  -6170311.70745  23811526.6174   23811532.1844
         4.7504          5.7504
  -7673438.21742  -4965336.35944  24392513.5164   24392517.0664
         4.7504          4.2504
 -18531763.17247 -13948190.74746  21395570.2584   21395573.4804
        20.2504         20.0004
 03 11  2  2  8 30.0000000  0  7G24G 7G 9G 4G30G17G 5
 -19774342.70647 -14527522.75646  20926491.2504   20926494.6254
        21.2504         21.2504
   6680332.79044   5036484.58145  23463789.4844   23463794.8754
         7.2504          8.0004
 -10467282.41546  -7018785.55946  21878081.6414   21878084.5124
        16.2504         16.2504
 -16046703.83347 -12242745.59946  21056068.9924   21056071.4884
        22.2504         21.5004
 -10511821.82443  -6243335.54045  23793693.0164   23793697.2584
         5.7504          6.7504
  -7770940.58143  -5041311.94745  24373960.2194   24373965.9614
         5.7504          6.2504
 -18589804.59947 -13993417.79046  21384525.4384   21384528.7544
        20.2504         19.5004
 03 11  2  2  9  0.0000000  0  7G24G 7G 9G 4G30G17G 5
 -19814535.37347 -14558841.68046  20918842.5784   20918845.7304
        21.0004         21.0004
   6759918.00144   5098499.01445  23478933.8524   23478939.8164
         7.5004          8.5004
 -10389853.02546  -6958450.96446  21892816.3284   21892819.0824
        16.2504         16.7504
 -15998262.44647 -12204999.04546  21065287.1024   21065289.6564
        22.2504         21.2504
 -10605559.41543  -6316377.64745  23775855.5164   23775861.2934
         6.2504          7.0004
  -7868438.54343  -5117284.19345  24355406.6484   24355411.9804
         5.7504          6.2504
 -18647633.86647 -14038479.51746  21373520.6884   21373523.6524
        20.5004         19.7504
 03 11  2  2  9 30.0000000  0  7G24G 7G 9G 4G30G17G 5
 -19854296.24147 -14589824.13846  20911276.4614   20911279.8364
        21.2504         21.2504
   6839473.88244   5160490.58945  23494073.2424   23494077.7304
         7.5004          7.7504
 -10312075.24746  -6897844.89946  21907616.5864   21907620.0554
        15.7504         16.2504
 -15949369.46147 -12166900.60446  21074591.2584   21074593.7304
        22.2504         21.7504
 -10699313.04243  -6389432.25545  23758014.6414   23758019.2704
         6.5004          6.5004
  -7965924.53543  -5193247.05245  24336854.3914   24336859.2304
         5.7504          7.2504
 -18705243.52047 -14083370.11646  21362557.9064   21362561.0474
        20.7504         20.2504
 03 11  2  2 10  0.0000000  0  7G24G 7G 9G 4G30G17G 5
 -19893626.15347 -14620470.78546  20903792.0944   20903795.5164
        21.0004         21.2504
   6918998.04444   5222457.50945  23509205.4924   23509209.6294
         7.7504          8.0004
 -10233953.61946  -6836970.90646  21922482.7894   21922485.8714
        15.7504         16.2504
 -15900028.90247 -12128453.39846  21083980.3524   21083982.7894
        22.0004         21.5004
 -10793083.20543  -6462499.73345  23740170.8834   23740177.1294
         6.2504          7.7504
  -8063398.77843  -5269200.84945  24318306.3834   24318311.0824
         5.7504          6.2504
 -18762633.56347 -14128089.58646  21351636.9614   21351640.3594
        20.7504         20.2504
 03 11  2  2 10 30.0000000  0  7G24G 7G 9G 4G30G17G 5
 -19932526.82347 -14650782.95846  20896389.7034   20896393.0784
        21.2504         21.2504
   6998487.32245   5284397.18745  23524332.9454   23524335.9104
         8.0004          8.5004
 -10155493.62846  -6775833.25146  21937413.5004   21937416.7934
        15.7504         16.2504
 -15850245.48147 -12089661.10146  21093453.7344   21093456.1724
        22.0004         21.5004
 -10886870.69643  -6535580.69345  23722321.9774   23722327.4494
         6.0004          6.7504
  -8160861.82543  -5345145.98945  24299758.6094   24299759.0084
         5.2504          5.5004
 -18819804.36347 -14172638.22246  21340757.6724   21340760.9184
        20.5004         20.2504
 03 11  2  2 11  0.0000000  0  7G24G 7G 9G 4G30G17G 5
 -19970995.68847 -14680758.65746  20889069.2584   20889072.5394
        21.2504         20.7504
   7077943.40645   5346311.01945  23539452.7344   23539456.9064
         8.0004          8.5004
 -10076695.85746  -6714432.37846  21952407.6954   21952410.7304
        15.7504         16.5004
 -15800018.94547 -12050523.52046  21103011.7664   21103013.9344
        22.0004         21.2504
 -10980671.90543  -6608672.37845  23704472.1334   23704476.0824
         6.7504          6.2504
  -8258309.20642  -5421078.80445  24281214.3674   24281219.2074
         4.7504          5.5004
 -18876752.05047 -14217012.99546  21329920.8674   21329924.2074
        20.7504         20.0004
 03 11  2  2 11 30.0000000  0  7G24G 7G 9G 4G30G17G 5
 -20009032.66147 -14710397.81946  20881830.8834   20881834.3164
        21.2504         21.5004
   7157364.79645   5408197.81145  23554566.3444   23554570.9734
         8.0004          8.0004
  -9997563.99246  -6652771.20146  21967466.6174   21967469.5474
        16.0004         16.0004
 -15749352.55147 -12011043.19446  21112653.0084   21112655.4574
        21.7504         21.2504
 -11074486.14244  -6681774.24745  23686621.0234   23686622.7344
         7.5004          6.5004
  -8355740.54643  -5496999.15445  24262676.1414   24262684.3594
         5.0004          5.5004
 -18933475.76047 -14261213.25046  21319126.7504   21319129.6094
        21.0004         20.2504
 03 11  2  2 12  0.0000000  0  7G24G 7G 9G 4G30G17G 5
 -20046634.63247 -14739698.02446  20874675.4064   20874678.7584
        21.2504         21.2504
   7236752.77545   5470058.61645  23569672.7034   23569677.6134
         8.0004          8.5004
  -9918098.99446  -6590850.40846  21982588.2114   21982591.3524
        16.0004         16.2504
 -15698246.71747 -11971220.45346  21122377.9304   21122380.5084
        21.7504         21.0004
 -11168309.78844  -6754883.43745  23668767.2194   23668768.9654
         7.2504          7.0004
  -8453151.73843  -5572903.75245  24244137.5554   24244142.9344
         6.0004          5.7504
 -18989971.85547 -14305236.13146  21308375.6884   21308378.7934
        21.0004         20.5004
 03 11  2  2 12 30.0000000  0  7G24G 7G 9G 4G30G17G 5
 -20083802.86847 -14768660.24746  20867602.8834   20867606.2114
        21.2504         21.2504
   7316105.48944   5531891.88645  23584772.8914   23584776.9104
         7.7504          8.0004
  -9838305.19246  -6528673.41846  21997772.4454   21997775.4344
        15.7504         16.0004
 -15646704.72347 -11931057.84446  21132186.1024   21132188.2584
        21.5004         21.0004
 -11262142.72643  -6827999.88445  23650910.9844   23650914.9454
         6.0004          6.2504
  -8550542.24843  -5648792.34645  24225605.3364   24225608.5234
         6.2504          6.0004
 -19046240.13147 -14349081.49246  21297668.1724   21297671.3484
        21.0004         20.5004
 03 11  2  2 13  0.0000000  0  7G24G 7G 9G 4G30G17G 5
 -20120530.34347 -14797279.01746  20860613.8204   20860617.0084
        21.2504         21.5004
   7395428.15544   5593701.78045  23599867.4384   23599872.1024
         7.5004          7.2504
  -9758179.43346  -6466237.75846  22013019.9614   22013022.6094
        15.7504         15.7504
 -15594722.94547 -11890552.53746  21142077.9224   21142080.2194
        21.7504         21.0004
 -11355977.52542  -6901117.75944  23633052.9774   23633061.5234
         4.5004          4.7504
  -8647904.44442  -5724658.81745  24207076.1174   24207080.6524
         4.5004          6.5004
 -19102272.75347 -14392743.22746  21287005.7894   21287009.0474
        21.2504         20.5004
 03 11  2  2 13 30.0000000  0  7G24G 7G 9G 4G30G17G 5
 -20156824.86947 -14825560.43146  20853706.9924   20853710.3674
        21.5004         21.7504
   7474712.00344   5655481.37945  23614954.8834   23614960.9064
         7.2504          6.5004
  -9677733.21046  -6403552.38446  22028327.7034   22028330.8674
        15.5004         16.0004
 -15542312.04047 -11849712.85446  21152051.3204   21152053.8634
        21.2504         20.7504
 -11449820.90742  -6974242.24245  23615195.2424   23615199.5314
         4.5004          5.7504
  -8745245.15243  -5800508.53645  24188554.3674   24188562.2114
         5.0004          6.0004
 -19158076.14047 -14436226.34046  21276386.4144   21276389.5314
        21.5004         20.7504
 03 11  2  2 14  0.0000000  0  7G24G 7G 9G 4G30G17G 5
 -20192679.09247 -14853498.74646  20846884.0394   20846887.2154
        21.5004         21.5004
   7553963.50744   5717235.84745  23630036.3204   23630038.7114
         7.0004          7.5004
  -9596962.35446  -6340614.04346  22043698.7114   22043702.4264
        16.0004         16.0004
 -15489466.90547 -11808534.80846  21162107.4064   21162109.6914
        21.5004         20.7504
 -11543664.14443  -7047366.57545  23597337.6334   23597339.2154
         5.7504          6.0004
  -8842555.04944  -5876334.35045  24170037.7424   24170044.2344
         7.2504          6.5004
 -19213641.40747 -14479523.89546  21265812.7974   21265815.9144
        21.7504         21.0004
 03 11  2  2 14 30.0000000  0  7G24G 7G 9G 4G30G17G 5
 -20228089.77947 -14881091.45846  20840145.2274   20840148.5784
        21.0004         21.5004
   7633184.44343   5778966.45745  23645111.0944   23645114.1644
         6.5004          6.7504
  -9515867.51746  -6277423.27046  22059130.0004   22059132.9064
        15.7504         16.0004
 -15436187.79647 -11767018.59746  21172246.2814   21172248.6604
        21.5004         20.7504
 -11637503.18943  -7120487.85145  23579480.8594   23579484.3984
         6.7504          5.5004
  -8939829.98143  -5952132.89445  24151527.2974   24151530.5314
         6.7504          6.7504
 -19268964.83347 -14522633.00246  21255284.7584   21255288.0634
        21.2504         20.7504
 03 11  2  2 15  0.0000000  0  7G24G 7G 9G 4G30G17G 5
 -20263049.52947 -14908332.79146  20833492.8284   20833495.8874
        21.2504         21.2504
   7712381.11443   5840678.17945  23660181.6884   23660185.8484
         6.2504          6.0004
  -9434444.63346  -6213976.86546  22074624.0784   22074626.5514
        15.2504         15.2504
 -15382470.13547 -11725160.67046  21182468.2664   21182470.6454
        21.5004         20.7504
 -11731329.60344  -7193599.18545  23561627.0864   23561630.9304
         7.0004          7.0004
  -9037061.43343  -6027897.56345  24133023.2734   24133027.8674
         6.0004          6.5004
 -19324037.50947 -14565546.72946  21244804.6804   21244808.0204
        21.2504         21.0004
 03 11  2  2 15 30.0000000  0  7G24G 7G 9G 4G30G17G 5
 -20297560.43447 -14935224.36046  20826925.7424   20826928.9534
        21.2504         21.5004
   7791550.11943   5902368.24745  23675247.2344   23675253.4104
         5.7504          6.5004
  -9352699.48346  -6150279.34446  22090179.6724   22090182.6254
        15.0004         15.2504
 -15328318.87647 -11682964.86446  21192772.5164   21192774.7664
        21.5004         20.7504
 -11825144.80943  -7266701.79545  23543773.5314   23543776.8134
         6.5004          7.2504
  -9134250.35343  -6103629.02845  24114528.1564   24114532.6564
         6.0004          7.2504
 -19378860.33247 -14608265.75946  21234372.4844   21234375.5664
        21.5004         21.0004
 03 11  2  2 16  0.0000000  0  7G24G 7G 9G 4G30G17G 5
 -20331625.84847 -14961768.79746  20820443.3204   20820446.2734
        21.0004         21.5004
   7870687.02343   5964033.47445  23690306.3594   23690310.9654
         5.5004          6.5004
  -9270639.01446  -6086336.12146  22105795.2114   22105797.6134
        15.2504         15.2504
 -15273740.33747 -11640436.11946  21203158.6094   21203160.9414
        21.2504         20.5004
 -11918951.03143  -7339797.36945  23525923.7584   23525929.8164
         6.0004          6.5004
  -9231398.80643  -6179328.98945  24096043.4774   24096049.0084
         6.7504          6.7504
 -19433435.76247 -14650792.02046  21223987.2814   21223990.1524
        21.7504         21.2504
 03 11  2  2 16 30.0000000  0  7G24G 7G 9G 4G30G17G 5
 -20365246.28447 -14987966.51046  20814045.3834   20814048.7464
        21.0004         21.5004
   7949790.11343   6025672.16345  23705359.2114   23705363.3484
         5.2504          5.7504
  -9188267.20946  -6022150.28646  22121470.3444   22121473.5784
        14.7504         15.5004
 -15218737.82747 -11597577.00646  21213625.0084   21213627.4454
        21.2504         20.2504
 -12012747.59343  -7412885.44645  23508074.2344   23508078.2664
         6.0004          7.2504
  -9328506.33343  -6254997.07945  24077562.1884   24077570.1374
         5.7504          5.7504
 -19487763.04447 -14693124.91546  21213648.9144   21213652.0434
        22.0004         21.2504
 03 11  2  2 17  0.0000000  0  7G24G 7G 9G 4G30G17G 5
 -20398417.09747 -15013813.85846  20807733.4304   20807736.8404
        21.2504         21.5004
   8028863.09643   6087287.44145  23720405.5704   23720409.8954
         5.2504          5.7504
  -9105582.67646  -5957720.79746  22137204.5634   22137207.4104
        14.7504         15.0004
 -15163309.65447 -11554386.20846  21224172.8674   21224175.5394
        21.0004         20.0004
 -12106528.75843  -7485961.44645  23490228.6724   23490229.9384
         6.2504          7.0004
  -9425566.27643  -6330628.06845  24059092.5704   24059098.1484
         6.2504          6.0004
 -19541836.26847 -14735259.84846  21203358.8984   21203361.9574
        21.7504         21.2504
 03 11  2  2 17 30.0000000  0  7G24G 7G 9G 4G30G17G 5
 -20431135.21047 -15039308.45446  20801507.2194   20801510.5594
        21.0004         21.5004
   8107908.32343   6148881.18345  23735447.4924   23735454.0554
         5.5004          6.2504
  -9022585.70846  -5893047.82946  22152998.9454   22153001.6054
        14.7504         15.0004
 -15107455.25347 -11510863.27746  21234801.5634   21234804.2234
        21.2504         20.0004
 -12200289.82543  -7559021.88345  23472386.2734   23472392.2504
         6.5004          6.7504
  -9522574.52043  -6406218.82745  24040631.3984   24040635.2194
         6.2504          6.5004
 -19595650.57547 -14777193.02846  21193118.4694   21193121.2814
        22.0004         21.5004
 03 11  2  2 18  0.0000000  0  7G24G 7G 9G 4G30G17G 5
 -20463402.54247 -15064451.79346  20795366.7734   20795370.1374
        21.0004         21.7504
   8186922.37243   6210450.58045  23750484.7734   23750491.2544
         5.7504          6.2504
  -8939282.38346  -5828136.13646  22168850.9144   22168854.5124
        14.2504         14.7504
 -15051179.82947 -11467012.28546  21245510.2344   21245512.6724
        21.0004         20.2504
 -12294032.31044  -7632067.86045  23454547.1954   23454552.3054
         7.0004          6.5004
  -9619531.94942  -6481769.96245  24022181.1954   24022186.8324
         4.7504          6.5004
 -19649207.57647 -14818925.70446  21182926.8754   21182929.7584
        22.2504         21.5004
 03 11  2  2 18 30.0000000  0  7G24G 7G 9G 4G30G17G 5
 -20495216.80747 -15089242.08846  20789312.7894   20789315.9414
        21.0004         21.7504
   8265906.83143   6271996.94945  23765513.6174   23765517.1564
         6.0004          6.7504
  -8855673.52646  -5762986.38346  22184761.1414   22184764.5634
        14.5004         14.7504
 -14994483.78147 -11422833.52346  21256299.3594   21256301.8554
        21.0004         20.0004
 -12387752.05244  -7705096.09445  23436713.5164   23436721.2544
         7.7504          6.0004
  -9716434.68343  -6557278.50645  24003740.9224   24003744.8364
         5.0004          5.7504
 -19702502.93147 -14860454.50846  21172785.1724   21172788.1604
        22.2504         21.5004
 03 11  2  2 19  0.0000000  0  7G24G 7G 9G 4G30G17G 5
 -20526573.76847 -15113676.05146  20783345.5784   20783348.6954
        21.2504         21.7504
   8344865.31943   6333523.03545  23780539.4924   23780543.5124
         6.2504          7.2504
  -8771758.04346  -5697597.69146  22200728.6564   22200731.6454
        14.2504         14.7504
 -14937365.10747 -11378325.45446  21267168.7664   21267170.8634
        21.0004         20.0004
 -12481443.57944  -7778102.33545  23418884.0634   23418886.3954
         7.7504          7.7504
  -9813276.61343  -6632739.58045  23985312.8134   23985317.6884
         5.7504          7.2504
 -19755530.90547 -14901774.95846  21162694.2344   21162697.4104
        22.2504         21.5004
 03 11  2  2 19 30.0000000  0  7G24G 7G 9G 4G30G17G 5
 -20557470.19847 -15137751.15646  20777466.3364   20777469.5124
        21.2504         21.7504
   8423799.61543   6395030.28845  23795559.5864   23795564.3674
         6.5004          6.7504
  -8687536.69646  -5631970.65846  22216755.8984   22216758.9344
        14.5004         15.0004
 -14879824.19547 -11333488.35246  21278118.3754   21278120.5084
        21.0004         20.0004
 -12575102.73244  -7851083.36345  23401061.1804   23401064.8714
         7.5004          7.7504
  -9910053.90843  -6708150.32345  23966897.0634   23966903.0744
         6.0004          6.5004
 -19808287.49647 -14942883.94346  21152654.9144   21152658.0554
        22.5004         21.7504
 03 11  2  2 20  0.0000000  0  7G24G 7G 9G 4G30G17G 5
 -20587911.05147 -15161471.26346  20771673.6724   20771676.9304
        21.2504         21.7504
   8502703.79743   6456514.07245  23810575.0634   23810579.6094
         6.7504          7.0004
  -8603017.83746  -5566111.81246  22232839.5554   22232842.8364
        14.2504         14.5004
 -14821868.62547 -11288328.15046  21289146.7274   21289149.2464
        21.0004         20.0004
 -12668733.25844  -7924042.08745  23383243.4454   23383249.1644
         7.0004          6.7504
 -10006769.82643  -6783513.25045  23948492.4694   23948496.0784
         6.2504          6.7504
 -19860776.12947 -14983784.14046  21142666.6804   21142669.5744
        22.7504         22.0004
 03 11  2  2 20 30.0000000  0  7G24G 7G 9G 4G30G17G 5
 -20617894.74347 -15184835.14146  20765967.6254   20765970.8954
        21.0004         21.7504
   8581578.75844   6517975.07645  23825584.7894   23825588.5394
         7.2504          7.5004
  -8518202.98846  -5500022.31846  22248979.3834   22248982.4064
        14.0004         14.2504
 -14763499.53747 -11242845.72446  21300254.5004   21300256.6094
        21.0004         20.0004
 -12762332.00143  -7996975.99945  23365432.0474   23365436.0204
         6.7504          7.5004
 -10103421.39143  -6858826.07645  23930101.0944   23930107.8204
         6.2504          6.0004
 -19912993.76947 -15024473.16946  21132729.7584   21132732.5944
        22.7504         22.0004
 03 11  2  2 21  0.0000000  0  7G24G 7G 9G 4G30G17G 5
 -20647420.51147 -15207842.19346  20760349.3204   20760352.4264
        21.2504         22.0004
   8660424.77144   6579413.52045  23840588.8914   23840593.4844
         7.2504          8.0004
  -8433094.60346  -5433704.07446  22265174.9924   22265177.9694
        14.2504         14.5004
 -14704718.68947 -11197042.45346  21311440.1564   21311442.4304
        21.0004         20.0004
 -12855896.67343  -8069883.37645  23347627.3914   23347630.1804
         6.5004          6.2504
 -10200005.92743  -6934086.64745  23911719.7034   23911725.3754
         6.0004          6.7504
 -19964938.08647 -15064949.20746  21122845.3134   21122848.2304
        23.0004         22.2504
 03 11  2  2 21 30.0000000  0  7G24G 7G 9G 4G30G17G 5
 -20676488.08047 -15230492.20446  20754817.6804   20754821.0314
        21.2504         21.7504
   8739240.70944   6640828.52645  23855587.3444   23855592.3834
         7.5004          7.5004
  -8347696.33846  -5367159.97446  22281425.1024   22281428.8634
        13.7504         14.5004
 -14645528.99347 -11150920.58146  21322703.4384   21322706.0044
        20.7504         20.0004
 -12949425.90343  -8142763.11245  23329828.5864   23329831.8324
         6.5004          7.5004
 -10296522.40344  -7009294.13045  23893354.2114   23893358.1484
         7.2504          6.5004
 -20016607.59347 -15105211.12446  21113012.6804   21113015.2934
        22.7504         22.0004
 03 11  2  2 22  0.0000000  0  7G24G 7G 9G 4G30G17G 5
 -20705093.69547 -15252782.26146  20749374.3364   20749377.4774
        21.2504         22.0004
   8818029.68144   6702222.53845  23870579.5784   23870583.7734
         7.5004          7.7504
  -8262007.71346  -5300389.62046  22297731.8444   22297734.5514
        14.2504         14.2504
 -14585929.64947 -11104479.51746  21334044.6804   21334047.0124
        20.7504         19.7504
 -13042914.48243  -8215611.18145  23312039.2504   23312044.2894
         6.5004          7.2504
 -10392965.64144  -7084444.61145  23875002.4304   23875006.8244
         7.2504          8.0004
 -20067996.98247 -15145254.76146  21103233.5864   21103236.4924
        22.7504         22.2504
 03 11  2  2 22 30.0000000  0  7G24G 7G 9G 4G30G17G 5
 -20733238.33647 -15274713.11446  20744018.3594   20744021.9454
        21.0004         21.7504
   8896790.09544   6763594.31545  23885567.2344   23885570.6564
         7.2504          8.0004
  -8176032.88446  -5233396.24546  22314091.9534   22314094.9774
        14.0004         14.0004
 -14525923.96347 -11057721.81946  21345463.3364   21345465.7274
        20.5004         19.7504
 -13136361.83243  -8288427.17745  23294255.5944   23294256.1684
         6.5004          6.5004
 -10489334.46343  -7159537.09645  23856663.2664   23856668.0944
         6.7504          7.0004
 -20119105.71947 -15185079.70246  21093508.0234   21093511.1414
        23.0004         22.5004
 03 11  2  2 23  0.0000000  0  7G24G 7G 9G 4G30G17G 5
 -20760920.23047 -15296283.38946  20738750.7814   20738754.1564
        21.0004         22.0004
   8975522.93643   6824944.54045  23900550.0234   23900552.9414
         6.7504          7.0004
  -8089773.51346  -5166181.13746  22330506.5864   22330509.6914
        14.5004         14.5004
 -14465512.97847 -11010648.30346  21356959.4384   21356961.4884
        20.5004         19.7504
 -13229764.75244  -8361208.53445  23276481.2504   23276484.5434
         7.0004          7.2504
 -10585626.16343  -7234569.49745  23838339.8134   23838344.7344
         6.7504          7.5004
 -20169930.82947 -15224683.65046  21083836.6484   21083839.4264
        23.2504         22.5004
 03 11  2  2 23 30.0000000  0  7G24G 7G 9G 4G30G17G 5
 -20788137.08047 -15317491.29246  20733571.4224   20733574.7734
        21.2504         22.2504
   9054229.56843   6886274.41245  23915527.2114   23915532.4024
         6.2504          5.2504
  -8003230.88846  -5098745.32346  22346975.2584   22346978.2114
        14.2504         14.0004
 -14404697.30247 -10963259.44646  21368531.8204   21368534.3874
        20.2504         19.7504
 -13323119.47344  -8433952.36145  23258717.1954   23258720.3244
         7.5004          7.5004
 -10681836.72643  -7309538.60245  23820032.2424   23820039.0744
         6.0004          6.5004
 -20220468.34847 -15264063.49746  21074219.1884   21074222.0124
        23.2504         22.5004
 03 11  2  2 24  0.0000000  0  7G24G 7G 9G 4G30G17G 5
 -20814888.75147 -15338336.71846  20728480.8834   20728484.0124
        21.2504         22.2504
   9132909.67143   6947583.55445  23930498.8914   23930503.7664
         5.7504          7.2504
  -7916407.83046  -5031090.98746  22363497.5314   22363499.7464
        14.0004         14.0004
 -14343479.52447 -10915557.26446  21380181.5474   21380183.9024
        20.2504         19.5004
 -13416424.27145  -8506657.31245  23240962.5474   23240967.9384
         8.0004          7.7504
 -10777964.38943  -7384443.12445  23801738.8984   23801743.0944
         6.2504          7.0004
 -20270716.90347 -15303218.16846  21064657.2344   21064660.0944
        23.0004         22.5004
 03 11  2  2 24 30.0000000  0  7G24G 7G 9G 4G30G17G 5
 -20841179.61247 -15358823.07246  20723477.7114   20723480.9104
        21.2504         22.2504
   9211558.36443   7008868.25745  23945465.8204   23945470.1564
         5.5004          6.7504
  -7829311.84946  -4963223.98746  22380070.9384   22380073.5274
        14.2504         14.0004
 -14281866.28547 -10867546.92746  21391906.1334   21391908.6884
        20.2504         19.2504
 -13509681.61844  -8579325.25645  23223215.0164   23223217.1604
         7.7504          8.2504
 -10874011.71443  -7459285.19445  23783461.2034   23783466.9454
         6.2504          7.0004
 -20320678.46047 -15342149.21546  21055150.0554   21055152.7974
        23.0004         22.5004
 03 11  2  2 25  0.0000000  0  7G24G 7G 9G 4G30G17G 5
 -20867006.69747 -15378948.04046  20718563.2194   20718566.1604
        21.7504         22.5004
   9290177.65843   7070130.09445  23960426.1954   23960432.7464
         5.2504          5.5004
  -7741943.59046  -4895144.81246  22396696.0634   22396699.2274
        13.5004         14.0004
 -14219857.59147 -10819228.44146  21403706.0864   21403708.3134
        20.2504         19.0004
 -13602887.32244  -8651952.91145  23205479.7274   23205484.9064
         7.5004          7.5004
 -10969974.34243  -7534061.06945  23765200.6954   23765206.7664
         6.5004          7.0004
 -20370349.12147 -15380853.58446  21045697.6094   21045700.5274
        23.0004         22.5004
 03 11  2  2 25 30.0000000  0  7G24G 7G 9G 4G30G17G 5
 -20892364.09847 -15398707.02046  20713737.3364   20713740.3714
        21.5004         22.2504
   9368772.68243   7131372.94045  23975382.3674   23975386.5164
         5.2504          5.2504
  -7654300.66246  -4826851.63246  22413374.1884   22413376.9064
        13.5004         14.2504
 -14157450.70747 -10770599.68346  21415581.4144   21415583.5124
        20.2504         19.2504
 -13696034.08244  -8724534.70145  23187753.7194   23187757.4344
         7.2504          8.0004
 -11065845.20743  -7608765.57945  23746955.4774   23746959.9064
         6.7504          8.2504
 -20419721.61147 -15419325.60846  21036302.4384   21036305.4264
        23.0004         22.2504
 03 11  2  2 26  0.0000000  0  7G24G 7G 9G 4G30G17G 5
 -20917256.04347 -15418103.30846  20709001.0004   20709004.1174
        22.0004         22.2504
   9447338.93242   7192593.33545  23990332.9454   23990336.0044
         4.7504          6.2504
  -7566390.27246  -4758350.02046  22430104.0554   22430106.4924
        13.5004         13.7504
 -14094652.08847 -10721665.67746  21427531.9144   21427534.2344
        20.0004         19.2504
 -13789123.96145  -8797072.17845  23170039.2664   23170042.7934
         8.0004          8.7504
 -11161626.43644  -7683400.16845  23728729.6094   23728733.9574
         7.2504          8.0004
 -20468798.21347 -15457567.08046  21026963.5004   21026966.3134
        23.0004         22.5004
 03 11  2  2 26 30.0000000  0  7G24G 7G 9G 4G30G17G 5
 -20941680.90847 -15437135.64446  20704352.9694   20704355.9924
        21.5004         22.5004
   9525877.44642   7253792.14745  24005278.3834   24005281.0084
         4.7504          5.5004
  -7478214.09046  -4689641.30346  22446882.6174   22446885.8754
        13.0004         14.0004
 -14031462.83046 -10672427.28246  21439555.8914   21439558.2584
        19.7504         19.2504
 -13882153.86645  -8869562.89045  23152336.7894   23152340.3404
         9.0004          9.2504
 -11257315.00944  -7757962.62545  23710522.2344   23710527.7664
         7.7504          7.5004
 -20517575.62247 -15495575.41046  21017681.3594   21017684.1254
        23.2504         22.5004
 03 11  2  2 27  0.0000000  0  7G24G 7G 9G 4G30G17G 5
 -20965636.95047 -15455802.65746  20699794.3134   20699797.1724
        21.7504         22.5004
   9604389.51142   7314970.47345  24020218.4064   24020221.4884
         4.5004          5.2504
  -7389773.31746  -4620726.40946  22463712.1954   22463715.4304
        13.2504         13.5004
 -13967883.72846 -10622885.11046  21451654.8054   21451657.2304
        19.7504         18.7504
 -13975120.04045  -8942003.97445  23134645.7504   23134648.6564
         9.0004          9.2504
 -11352907.00744  -7832449.80845  23692329.9454   23692334.8324
         7.5004          6.7504
 -20566050.39647 -15533347.92146  21008456.8914   21008459.7034
        23.2504         22.7504
 03 11  2  2 27 30.0000000  0  7G24G 7G 9G 4G30G17G 5
 -20989120.40347 -15474101.42346  20695325.5394   20695328.5984
        21.7504         22.2504
   9682878.24042   7376130.49944  24035155.0634   24035161.2154
         4.5004          4.7504
  -7301067.62846  -4551605.09346  22480592.2424   22480595.5944
        13.0004         13.7504
 -13903913.91046 -10573038.47346  21463827.9384   21463830.5044
        19.7504         18.5004
 -14068017.42244  -9014391.50045  23116967.3444   23116970.7424
         7.7504          7.7504
 -11448397.47244  -7906857.83245  23674158.0474   23674163.1804
         7.2504          7.5004
 -20614217.46447 -15570880.65946  20999290.8524   20999293.7344
        23.5004         23.2504
 03 11  2  2 28  0.0000000  0  7G24G 7G 9G 4G30G17G 5
 -21012134.06147 -15492034.11246  20690946.2274   20690949.1214
        21.7504         22.5004
   9761340.30742   7437269.85545  24050085.3204   24050084.8984
         4.5004          5.0004
  -7212103.05946  -4482282.04146  22497522.3364   22497525.9454
        12.7504         13.5004
 -13839558.67446 -10522891.52946  21476074.0004   21476076.1804
        19.5004         18.7504
 -14160846.92244  -9086726.06245  23099302.8134   23099304.1484
         7.5004          7.7504
 -11543787.36244  -7981187.50845  23656006.8204   23656013.1604
         7.7504          7.5004
 -20662077.71947 -15608174.32446  20990183.4774   20990186.2424
        23.7504         23.0004
 03 11  2  2 28 30.0000000  0  7G24G 7G 9G 4G30G17G 5
 -21034672.60347 -15509596.57746  20686657.0634   20686660.2034
        21.2504         22.5004
   9839780.84742   7498392.29745  24065012.8204   24065018.1994
         4.7504          5.7504
  -7122877.09146  -4412755.31546  22514501.1644   22514503.8484
        13.0004         13.5004
 -13774815.02046 -10472441.91746  21488394.4144   21488396.9924
        19.5004         19.0004
 -14253601.01244  -9159001.84245  23081651.5234   23081653.4924
         7.7504          7.2504
 -11639069.50444  -8055433.24445  23637874.7034   23637878.1254
         7.2504          7.2504
 -20709623.95947 -15645223.30146  20981135.6954   20981138.3094
        23.7504         23.2504
 03 11  2  2 29  0.0000000  0  7G24G 7G 9G 4G30G17G 5
 -21056739.63947 -15526791.64546  20682458.1724   20682461.3594
        21.7504         22.5004
   9918195.41043   7559494.50445  24079933.5004   24079936.8164
         5.0004          5.0004
  -7033396.98046  -4343030.53346  22531528.6564   22531531.2464
        12.7504         13.5004
 -13709689.71546 -10421694.91546  21500787.2734   21500789.6414
        19.5004         18.5004
 -14346281.85344  -9231220.65845  23064014.8134   23064015.4344
         7.7504          7.5004
 -11734245.85744  -8129596.52945  23619763.4064   23619767.0864
         7.7504          7.7504
 -20756858.69347 -15682029.55046  20972147.2344   20972149.7544
        23.7504         23.2504
 03 11  2  2 29 30.0000000  0  7G24G 7G 9G 4G30G17G 5
 -21078331.37547 -15543616.34546  20678349.0004   20678352.0234
        21.5004         22.5004
   9996587.45143   7620579.24144  24094851.1254   24094858.6994
         5.0004          4.7504
  -6943661.88346  -4273107.07946  22548603.7034   22548607.1724
        12.7504         13.5004
 -13644181.43146 -10370649.49346  21513253.1804   21513255.8984
        19.2504         19.0004
 -14438883.76544  -9303377.93245  23046393.2344   23046397.2664
         7.7504          7.7504
 -11829311.11145  -8203673.26745  23601673.7424   23601678.9224
         8.2504          9.0004
 -20803776.48047 -15718588.82546  20963219.1564   20963221.9454
        23.7504         23.2504
 03 11  2  2 30  0.0000000  0  7G24G 7G 9G 4G30G17G 5
 -21099447.78047 -15560070.65746  20674330.8914   20674333.7624
        21.7504         22.5004
  10074956.44843   7681645.95145  24109764.5864   24109766.5314
         5.5004          6.2504
  -6853675.18046  -4202987.58346  22565728.2974   22565731.7304
        12.5004         13.0004
 -13578292.91446 -10319307.78646  21525791.0704   21525793.6724
        19.0004         18.5004
 -14531404.92645  -9375472.21345  23028787.2114   23028789.3204
         8.0004          8.2504
 -11924263.53244  -8277662.06445  23583603.7974   23583609.6454
         7.2504          8.5004
 -20850374.97847 -15754899.30246  20954351.7974   20954354.3524
        24.0004         23.2504
 03 11  2  2 30 30.0000000  0  7G24G 7G 9G 4G30G17G 5
 -21120090.02547 -15576155.48946  20670402.6644   20670405.7704
        21.7504         22.7504
  10153301.41343   7742694.03045  24124673.4844   24124676.8594
         5.5004          6.0004
  -6763440.91446  -4132675.15246  22582898.8054   22582901.9454
        12.7504         12.7504
 -13512027.28246 -10267672.22146  21538401.3754   21538403.6484
        19.2504         18.2504
 -14623844.16545  -9447502.66445  23011197.1644   23011200.6454
         8.7504          9.0004
 -12019101.93944  -8351562.01045  23565555.9064   23565560.1954
         7.5004          8.5004
 -20896653.54647 -15790960.48046  20945545.0474   20945547.6134
        24.0004         23.2504
 03 11  2  2 31  0.0000000  0  7G24G 7G 9G 4G30G17G 5
 -21140248.91547 -15591863.68746  20666566.6334   20666569.6334
        21.5004         22.7504
  10231630.79643   7803729.99245  24139578.6884   24139578.5944
         5.7504          5.7504
  -6672952.92446  -4062165.00846  22600117.9304   22600121.0824
        12.2504         12.7504
 -13445378.21846 -10215737.87346  21551084.1484   21551086.6094
        19.0004         18.2504
 -14716190.57545  -9519460.79045  22993623.9384   22993628.3674
         9.2504          9.5004
 -12113815.69644  -8425364.83545  23547533.3134   23547537.3554
         7.5004          8.5004
 -20942601.59747 -15826764.11446  20936801.5944   20936804.1134
        24.2504         23.7504
 03 11  2  2 31 30.0000000  0  7G24G 7G 9G 4G30G17G 5
 -21159923.57147 -15607194.55646  20662822.5004   20662825.3484
        21.7504         22.7504
  10309945.32143   7864754.27945  24154481.1334   24154487.8134
         6.0004          5.7504
  -6582213.57946  -3991459.02946  22617385.4614   22617388.3794
        12.2504         12.7504
 -13378347.53246 -10163506.16846  21563839.4924   21563841.8014
        18.7504         18.0004
 -14808441.35745  -9591344.42645  22976068.8284   22976071.5354
         9.2504          8.7504
 -12208402.37944  -8499068.60345  23529533.9064   23529538.1134
         7.7504          8.7504
 -20988216.60847 -15862308.23846  20928121.4844   20928124.0274
        24.5004         23.7504
 03 11  2  2 32  0.0000000  0  7G24G 7G 9G 4G30G17G 5
 -21179107.93847 -15622143.38246  20659172.0474   20659174.8484
        21.7504         22.7504
  10388250.39043   7925771.18345  24169382.5234   24169385.6294
         6.2504          6.2504
  -6491219.89046  -3920554.84946  22634701.1644   22634704.1174
        12.5004         13.0004
 -13310931.67446 -10110974.31846  21576668.4064   21576670.6334
        18.7504         18.0004
 -14900588.59145  -9663147.37245  22958533.6484   22958536.4024
         9.0004          9.0004
 -12302853.99545  -8572667.15945  23511560.8594   23511565.0314
         8.0004          8.5004
 -21033490.27347 -15897586.37546  20919506.0554   20919508.4574
        24.7504         24.0004
 03 11  2  2 32 30.0000000  0  7G24G 7G 9G 4G30G17G 5
 -21197806.38047 -15636713.56346  20655613.8284   20655616.8874
        21.7504         22.5004
  10466541.58743   7986777.36645  24184281.6334   24184286.5784
         6.2504          5.5004
  -6399979.09946  -3849458.10646  22652063.3914   22652066.5204
        12.0004         12.7504
 -13243137.59546 -10058147.75946  21589569.0864   21589571.1724
        18.7504         18.0004
 -14992634.51745  -9734871.37045  22941017.9694   22941021.3204
         8.2504          9.0004
 -12397172.80644  -8646162.23945  23493612.5314   23493617.0784
         7.7504          8.2504
 -21078425.25947 -15932600.61046  20910955.3674   20910957.8164
        24.7504         23.7504
 03 11  2  2 33  0.0000000  0  7G24G 7G 9G 4G30G17G 5
 -21216010.24147 -15650898.36146  20652149.6174   20652152.5824
        21.7504         22.7504
  10544827.59543   8047779.39245  24199177.7424   24199181.9964
         6.0004          6.5004
  -6308485.62646  -3778164.48946  22669474.0554   22669477.2194
        12.2504         12.5004
 -13174958.81746 -10005021.42746  21602543.2034   21602545.5594
        18.5004         17.7504
 -15084568.12045  -9806507.85845  22923522.9224   22923525.2424
         8.2504          8.2504
 -12491348.36145  -8719545.72045  23475692.0474   23475694.7544
         8.0004          8.2504
 -21123011.21947 -15967342.88246  20902470.5634   20902473.0354
        24.7504         23.7504
 03 11  2  2 33 30.0000000  0  7G24G 7G 9G 4G30G17G 5
 -21233723.45447 -15664700.84446  20648778.8364   20648781.7544
        21.7504         22.5004
  10623104.07743   8108774.07745  24214074.0004   24214079.1454
         5.7504          6.2504
  -6216746.39745  -3706679.37146  22686931.3524   22686934.4454
        11.7504         12.2504
 -13106402.01346  -9951600.54046  21615588.9454   21615590.9734
        18.5004         17.7504
 -15176391.26245  -9878058.23445  22906050.0704   22906054.5124
         9.0004          8.7504
 -12585382.47544  -8792818.90745  23457796.0474   23457800.1484
         7.5004          8.2504
 -21167250.10747 -16001814.70246  20894052.3284   20894054.8134
        24.5004         23.7504
 03 11  2  2 34  0.0000000  0  7G24G 7G 9G 4G30G17G 5
 -21250939.13347 -15678115.62646  20645502.7034   20645505.6334
        21.7504         22.7504
  10701377.98343   8169766.77445  24228969.2344   24228970.1134
         5.7504          5.7504
  -6124757.43545  -3634999.64446  22704435.8594   22704439.0354
        11.5004         12.5004
 -13037462.38846  -9897881.34146  21628707.8834   21628710.4144
        18.5004         17.7504
 -15268094.90845  -9949515.54345  22888599.2424   22888602.8404
         9.5004          9.5004
 -12679266.49744  -8865975.18645  23439931.0474   23439936.2274
         7.7504          8.2504
 -21211132.97547 -16036009.10646  20885701.4534   20885703.8794
        24.7504         24.0004
 03 11  2  2 34 30.0000000  0  8G24G10G 7G 9G 4G30G17G 5
 -21267657.29647 -15691142.73746  20642321.3984   20642324.3284
        21.7504         22.7504
  -4783874.92351                  24981715.5394
         2.5004
  10779648.96243   8230757.09745  24243863.1484   24243866.5944
         5.5004          6.2504
  -6032521.86846  -3563127.77346  22721989.2664   22721991.9024
        12.2504         12.2504
 -12968142.66046  -9843865.96246  21641898.9144   21641901.2234
        18.5004         17.7504
 -15359677.12045 -10020878.23345  22871171.9304   22871175.9384
         9.7504          9.0004
 -12772998.41345  -8939012.94845  23422095.2814   23422099.1484
         8.7504          8.7504
 -21254658.07547 -16069924.73746  20877418.8444   20877421.3054
        24.7504         24.0004
 03 11  2  2 35  0.0000000  0  8G24G10G 7G 9G 4G30G17G 5
 -21283882.23747 -15703785.52046  20639233.6954   20639236.7664
        21.7504         23.0004
  -4743226.98551                  24962348.1414
         2.7504
  10857912.20043   8291741.47845  24258755.8444   24258759.7584
         5.2504          6.0004
  -5940047.29245  -3491069.64946  22739585.7584   22739588.3364
        11.2504         12.2504
 -12898449.99846  -9789559.99046  21655161.0784   21655163.2704
        18.5004         17.7504
 -15451140.31945 -10092148.13045  22853766.4534   22853770.1564
         9.7504          9.7504
 -12866581.25645  -9011934.54845  23404285.6024   23404290.0554
         8.5004          9.5004
 -21297827.93747 -16103563.54946  20869203.8594   20869206.5084
        24.5004         24.2504
 03 11  2  2 35 30.0000000  0  8G24G10G 7G 9G 4G30G17G 5
 -21299613.33647 -15716043.49046  20636240.4774   20636243.5474
        21.7504         23.0004
  -4845114.68541                  24942960.9064
         3.2504
  10936168.36343   8352720.29045  24273647.8984   24273652.2704
         5.0004          5.5004
  -5847335.70245  -3418826.83746  22757229.4694   22757232.6914
        11.7504         12.0004
 -12828385.76746  -9734964.48346  21668493.7194   21668496.0864
        18.5004         18.0004
 -15542481.40245 -10163322.91645  22836384.4534   22836388.0864
         9.2504         10.0004
 -12960012.07745  -9084737.67845  23386507.3134   23386511.4264
         8.7504          9.5004
 -21340640.03547 -16136923.59046  20861057.1954   20861059.6334
        24.7504         24.0004
 03 11  2  2 36  0.0000000  0  8G24G10G 7G 9G 4G30G17G 5
 -21314846.87147 -15727913.75246  20633341.8834   20633344.9304
        22.0004         23.2504
  -4947111.49541                  24923549.3984
         3.7504
  11014421.01142   8413696.33845  24288538.9534   24288544.8834
         4.5004          5.7504
  -5754386.58445  -3346398.93745  22774915.5554   22774918.4614
        11.0004         11.7504
 -12757948.90446  -9680078.61646  21681897.5704   21681899.7384
        18.5004         17.7504
 -15633694.54245 -10234397.99445  22819027.7114   22819029.7504
         9.0004          9.5004
 -13053285.28445  -9157417.99445  23368757.7194   23368760.4384
         8.7504          9.0004
 -21383089.17547 -16170000.80746  20852979.2424   20852981.6914
        24.5004         24.0004
 03 11  2  2 36 30.0000000  0  8G24G10G 7G 9G 4G30G17G 5
 -21329581.75147 -15739395.44746  20630537.2114   20630540.3404
        22.0004         23.2504
  -5049212.86142  -3722586.71153  24904120.8134   24904128.3754
         4.2504          3.5004
  11092671.36142   8474670.58745  24303430.7424   24303435.8524
         4.5004          5.2504
  -5661201.54945  -3273787.23746  22792648.8364   22792651.5664
        11.5004         12.0004
 -12687140.80046  -9624903.47246  21695372.0944   21695374.3794
        18.2504         17.5004
 -15724776.32745 -10305370.73045  22801695.6564   22801698.4694
         9.5004          8.7504
 -13146398.21745  -9229973.44645  23351038.5234   23351041.7814
         8.7504          9.0004
 -21425171.61647 -16202792.29246  20844971.0634   20844973.7704
        24.5004         24.2504
 03 11  2  2 37  0.0000000  0  8G24G10G 7G 9G 4G30G17G 5
 -21343820.17447 -15750490.29246  20627827.8204   20627830.6914
        21.7504         23.0004
  -5151418.28543  -3802227.20545  24884672.1414   24884673.4534
         5.0004          5.5004
  11170917.01142   8535641.23045  24318318.5164   24318327.4024
         4.2504          6.0004
  -5567785.68045  -3200995.61846  22810424.5084   22810427.3324
        11.0004         12.2504
 -12615965.80046  -9569442.42146  21708916.1334   21708918.7114
        18.0004         17.5004
 -15815726.59845 -10376240.97645  22784388.1724   22784389.6724
         9.2504          9.5004
 -13239350.29845  -9302403.53745  23333350.0164   23333353.7304
         8.2504          9.5004
 -21466888.02147 -16235298.54746  20837032.6254   20837035.3094
        24.5004         24.0004
 03 11  2  2 37 30.0000000  0  8G24G10G 7G 9G 4G30G17G 5
 -21357563.42547 -15761199.29946  20625212.9924   20625215.7114
        22.0004         23.0004
  -5253725.50843  -3881947.01345  24865203.8284   24865211.4264
         5.5004          6.2504
  11249156.91942   8596607.32244  24333207.1804   24333212.2894
         4.2504          4.7504
  -5474142.96045  -3128027.27545  22828244.4454   22828247.7854
        11.2504         11.7504
 -12544427.53546  -9513698.32146  21722529.5944   21722531.8324
        18.0004         17.2504
 -15906544.14045 -10447007.83945  22767106.0634   22767108.7344
         9.5004          9.2504
 -13332141.06245  -9374707.91145  23315693.3524   23315697.6524
         8.7504          8.5004
 -21508237.25747 -16267518.69246  20829164.0784   20829167.1374
        24.5004         24.2504
 03 11  2  2 38  0.0000000  0  9G24G10G 7G 9G 4G30G17G 5G 6
 -21370813.94647 -15771524.34546  20622691.3914   20622694.4614
        21.7504         23.0004
  -5356134.00143  -3961745.87045  24845716.4694   24845719.9844
         6.0004          7.0004
  11327388.50842   8657567.06745  24348095.1884   24348100.6954
         4.0004          6.2504
  -5380278.78045  -3054886.34346  22846105.8674   22846109.3484
        11.0004         12.0004
 -12472530.82646  -9457674.90346  21736210.5234   21736212.7034
        17.7504         17.2504
 -15997229.24645 -10517671.50545  22749849.1484   22749851.7624
         9.5004          9.0004
 -13424770.80145  -9446886.86045  23298065.4694   23298068.9384
         8.7504          9.2504
 -21549219.90247 -16299453.19246  20821365.5164   20821368.1294
        24.7504         24.2504
  -4787299.51851                  25420459.2894
         3.7504
 03 11  2  2 38 30.0000000  0  9G24G10G 7G 9G 4G30G17G 5G 6
 -21383567.38747 -15781462.06346  20620264.5554   20620267.2034
        22.0004         23.0004
  -5458636.14143  -4041617.53645  24826210.6334   24826213.4924
         5.7504          7.0004
  11405616.36042   8718523.78944  24362981.6254   24362987.3794
         4.0004          4.7504
  -5286191.65845  -2981571.68245  22864011.0474   22864014.0234
        11.2504         11.7504
 -12400273.42546  -9401370.42546  21749960.9534   21749963.4844
        17.5004         17.0004
 -16087775.06245 -10588226.62045  22732618.1174   22732621.1994
         9.2504          9.5004
 -13517233.22345  -9518935.43045  23280471.4064   23280475.3094
         8.7504          9.2504
 -21589829.85847 -16331097.28246  20813637.6174   20813640.1134
        24.7504         24.2504
  -4866920.76541                  25405307.4614
         3.7504
 03 11  2  2 39  0.0000000  0  9G24G10G 7G 9G 4G30G17G 5G 6
 -21395824.34447 -15791012.91246  20617931.9064   20617934.3554
        21.7504         23.0004
  -5561229.92143  -4121560.68245  24806687.0394   24806690.8834
         5.7504          6.7504
  11483839.67942   8779476.99044  24377865.3674   24377868.1564
         4.0004          4.7504
  -5191885.22645  -2908086.17146  22881957.0084   22881961.0394
        11.2504         12.0004
 -12327658.65446  -9344787.48246  21763779.1414   21763781.1334
        17.7504         17.0004
 -16178179.86845 -10658671.84245  22715414.9454   22715417.2424
         8.7504          9.7504
 -13609526.83245  -9590852.40245  23262908.0634   23262913.8874
         8.5004          8.5004
 -21630065.16247 -16362449.43346  20805981.1254   20805983.5634
        24.5004         24.2504
  -4946546.15741  -3695207.72653  25390154.6804   25390159.0394
         3.0004          3.7504
 03 11  2  2 39 30.0000000  0  9G24G10G 7G 9G 4G30G17G 5G 6
 -21407584.76747 -15800176.84746  20615694.0084   20615696.8554
        21.7504         22.7504
  -5663912.00843  -4201572.65545  24787147.5004   24787153.8984
         5.0004          6.0004
  11562058.42642   8840426.72244  24392751.2814   24392756.8484
         4.2504          4.7504
  -5097362.14545  -2834431.80845  22899943.3364   22899946.6644
        11.2504         11.7504
 -12254688.83546  -9287927.87046  21777665.0234   21777667.2854
        17.5004         16.7504
 -16268441.39145 -10729005.41345  22698238.8204   22698244.4224
         8.7504          9.2504
 -13701649.93245  -9662636.55745  23245377.1884   23245379.9774
         9.0004          9.7504
 -21669924.23547 -16393508.41746  20798396.3284   20798398.9654
        24.7504         24.2504
  -5026175.56141                  25374998.5314
         2.7504
 03 11  2  2 40  0.0000000  0  9G24G10G 7G 9G 4G30G17G 5G 6
 -21418848.43147 -15808953.69746  20613550.2584   20613552.9534
        21.7504         23.2504
  -5766678.89042  -4281650.60445  24767592.7974   24767596.0664
         4.2504          6.0004
  11640272.99142   8901373.18645  24407634.2894   24407640.4414
         4.7504          5.0004
  -5002624.79645  -2760610.47246  22917971.5084   22917974.0514
        11.0004         12.2504
 -12181365.89746  -9230793.10046  21791617.7814   21791620.2544
        17.5004         16.2504
 -16358556.80545 -10799225.17045  22681090.2814   22681092.3794
         9.5004          9.5004
 -13793599.94145  -9734285.84245  23227880.0864   23227883.1094
         8.7504          9.7504
 -21709405.11747 -16424272.70146  20790883.0944   20790885.6844
        24.5004         24.5004
  -5105808.10941                  25359847.4614
         2.5004
 03 11  2  2 40 30.0000000  0  9G24G10G 7G 9G 4G30G17G 5G 6
 -21429614.29847 -15817342.66146  20611501.7814   20611504.2544
        21.7504         23.5004
  -5869525.92541  -4361791.03743  24748022.4304   24748026.1334
         3.0004          3.7504
  11718484.76843   8962317.37244  24422517.9694   24422524.7894
         5.0004          4.7504
  -4907674.84345  -2686623.51545  22936039.6094   22936042.8094
        11.0004         11.7504
 -12107690.92546  -9173384.02446  21805637.7344   21805639.9144
        17.2504         16.5004
 -16448522.48545 -10869328.22945  22663970.6484   22663972.6294
         9.7504         10.0004
 -13885373.64945  -9805797.74845  23210415.5394   23210419.2664
         9.0004          9.5004
 -21748504.64147 -16454739.83446  20783442.6334   20783444.9884
        24.5004         24.5004
  -5185442.25841                  25344690.8984
         3.2504
 03 11  2  2 41  0.0000000  0  9G24G10G 7G 9G 4G30G17G 5G 6
 -21439881.42347 -15825342.98246  20609547.8754   20609550.5124
        21.7504         23.2504
  -4743415.80951  -4441990.63243  24728434.0394   24728437.6844
         2.2504          3.5004
  11796694.95443   9023260.48345  24437400.5084   24437400.8954
         5.0004          5.0004
  -4812514.01145  -2612472.21445  22954147.9064   22954150.7304
        11.0004         11.7504
 -12033665.21346  -9115701.63346  21819723.9614   21819726.2234
        17.5004         16.5004
 -16538334.94945 -10939311.90745  22646879.7034   22646883.3594
        10.0004          9.7504
 -13976967.71545  -9877169.65345  23192985.7504   23192989.6294
         9.0004          9.5004
 -21787219.18947 -16484906.97246  20776075.4924   20776077.7664
        24.5004         24.7504
  -5265076.53942                  25329540.2114
         4.0004
 03 11  2  2 41 30.0000000  0  9G24G10G 7G 9G 4G30G17G 5G 6
 -21449652.95747 -15832957.14446  20607688.2194   20607690.9964
        21.7504         23.2504
  -4784631.57851                  24708835.7344
         3.2504
  11874900.36643   9084199.73845  24452281.9384   24452283.2154
         5.0004          6.2504
  -4717148.30445  -2538161.26545  22972294.5004   22972297.6054
        10.7504         11.2504
 -11959294.04546  -9057750.05946  21833876.6564   21833878.5084
        17.2504         16.5004
 -16627994.79245 -11009176.67445  22629817.3834   22629819.5274
        10.0004         10.0004
 -14068383.31745  -9948402.54445  23175590.2274   23175592.8874
         9.7504         10.2504
 -21825549.82447 -16514774.97046  20768781.2194   20768783.7384
        24.5004         24.7504
  -5344713.80042                  25314386.1414
         4.2504
 03 11  2  2 42  0.0000000  0  9G24G10G 7G 9G 4G30G17G 5G 6
 -21458931.93747 -15840187.49346  20605922.8204   20605925.5274
        22.0004         23.2504
  -4887706.09142                  24689220.6804
         4.0004
  11953098.00343   9145132.97045  24467163.4454   24467160.6094
         5.2504          5.0004
  -4621583.69645  -2463695.32745  22990481.5554   22990482.9614
        11.0004         11.5004
 -11884583.20446  -8999533.80746  21848093.5164   21848095.7894
        17.2504         16.2504
 -16717502.79845 -11078923.09845  22612785.2894   22612787.9734
        10.0004         10.7504
 -14159621.84945 -10019497.43645  23158227.5864   23158232.2734
         9.0004         10.0004
 -21863498.09747 -16544345.01946  20761560.2034   20761562.9104
        24.5004         24.7504
  -5424356.82842                  25299229.9774
         4.2504
 03 11  2  2 42 30.0000000  0  9G24G10G 7G 9G 4G30G17G 5G 6
 -21467713.72747 -15847030.42246  20604251.7894   20604254.6254
        21.5004         23.2504
  -4990848.24042                  24669593.7894
         4.2504
  12031292.71543   9206063.93745  24482044.5634   24482046.4144
         5.2504          5.5004
  -4525818.24645  -2389072.88945  23008705.0944   23008707.9884
        10.7504         11.0004
 -11809529.78846  -8941050.61946  21862375.8984   21862377.9494
        17.0004         16.0004
 -16806851.64145 -11148545.48645  22595782.5164   22595785.5164
        10.5004         10.7504
 -14250676.07245 -10090448.71345  23140901.3204   23140905.4104
         9.5004          9.7504
 -21901056.99247 -16573611.65846  20754412.7664   20754415.0634
        25.0004         24.7504
  -5504000.38542                  25284073.2974
         4.0004
 03 11  2  2 43  0.0000000  0  9G24G10G 7G 9G 4G30G17G 5G 6
 -21476001.40347 -15853488.32746  20602674.4844   20602677.3094
        21.7504         23.2504
  -5094057.60942                  24649952.4924
         4.2504
  12109481.80443   9266990.53845  24496921.5234   24496926.5864
         5.5004          5.2504
  -4429857.62545  -2314298.39745  23026965.0084   23026967.7154
        10.0004         10.7504
 -11734139.37846  -8882304.82646  21876721.8984   21876724.0904
        16.7504         16.0004
 -16896041.56345 -11218044.05745  22578810.5004   22578813.5004
        10.5004         10.2504
 -14341546.90345 -10161257.11145  23123609.0234   23123612.1764
        10.0004         10.0004
 -21938227.41447 -16602575.58746  20747339.4064   20747341.7384
        24.7504         25.0004
  -5583646.84041                  25268917.4384
         3.7504
 03 11  2  2 43 30.0000000  0  9G24G10G 7G 9G 4G30G17G 5G 6
 -21483793.98547 -15859560.44546  20601191.7344   20601194.6054
        21.7504         23.2504
  -5197329.60241                  24630300.0554
         3.2504
  12187666.81143   9327913.96444  24511799.4534   24511802.6294
         5.5004          4.7504
  -4333703.26645  -2239372.93345  23045263.7424   23045266.9534
        10.7504         11.2504
 -11658412.64746  -8823296.97246  21891132.0704   21891134.2624
        16.7504         16.0004
 -16985068.83645 -11287415.87645  22561868.6174   22561871.6414
        10.2504          9.7504
 -14432230.90445 -10231919.89845  23106353.1884   23106356.7504
         9.7504         10.2504
 -21975006.01247 -16631234.21746  20740340.7194   20740343.1094
        25.0004         25.0004
  -5663294.26841                  25253761.7664
         3.7504
 03 11  2  2 44  0.0000000  0  9G24G10G 7G 9G 4G30G17G 5G 6
 -21491093.65747 -15865248.47646  20599802.6174   20599805.5704
        21.7504         23.5004
  -5300663.40841                  24610637.2974
         2.7504
  12265845.44543   9388832.36244  24526675.6174   24526685.5944
         5.0004          4.2504
  -4237360.09545  -2164300.32445  23063596.7584   23063600.7304
        10.5004         11.0004
 -11582354.59546  -8764030.95346  21905605.3524   21905607.2274
        16.5004         16.0004
 -17073933.26945 -11356660.80845  22544958.5944   22544960.8094
        10.7504         10.2504
 -14522728.51245 -10302437.47445  23089130.9384   23089135.2384
         9.7504         10.5004
 -22011393.19447 -16659587.83246  20733416.2034   20733418.6524
        25.0004         25.0004
  -5742944.70241                  25238601.1644
         3.2504
 03 11  2  2 44 30.0000000  0  9G24G10G 7G 9G 4G30G17G 5G 6
 -21497903.35847 -15870554.71146  20598506.5864   20598509.4804
        22.0004         23.2504
  -5404058.50842                  24590962.2974
         4.2504
  12344014.95643   9449743.76445  24541551.1644   24541555.6174
         5.2504          5.2504
  -4140833.87645  -2089085.08545  23081963.5234   23081968.4224
         9.5004         10.2504
 -11505970.23346  -8704510.66646  21920140.9774   21920143.3324
        16.5004         15.5004
 -17162635.24845 -11425779.16045  22528078.7114   22528080.2344
        11.0004         10.7504
 -14613040.68645 -10372810.53845  23071944.4224   23071947.7274
         9.5004         10.5004
 -22047389.41747 -16687636.80946  20726566.5474   20726569.1724
        24.7504         25.0004
  -5822600.66342                  25223444.9064
         4.0004
 03 11  2  2 45  0.0000000  0  9G24G10G 7G 9G 4G30G17G 5G 6
 -21504218.09947 -15875475.26646  20597304.9774   20597307.6374
        21.7504         23.5004
  -5507505.81343                  24571276.5634
         5.0004
  12422180.94943   9510652.42345  24556427.3594   24556435.8244
         5.0004          5.0004
  -4044121.81745  -2013725.03945  23100368.5164   23100371.7384
        10.0004         10.5004
 -11429256.25646  -8644733.53046  21934739.1024   21934741.6094
        16.2504         15.7504
 -17251166.78445 -11494764.64845  22511232.0944   22511234.3444
        11.5004         11.0004
 -14703159.62745 -10443033.01545  23054796.1644   23054800.5704
        10.0004         10.0004
 -22082987.60547 -16715375.63146  20719792.5084   20719794.9344
        24.7504         25.0004
  -5902256.22141                  25208286.7344
         3.7504
 03 11  2  2 45 30.0000000  0  9G24G10G 7G 9G 4G30G17G 5G 6
 -21510039.89647 -15880011.70446  20596197.1174   20596200.0234
        21.7504         23.2504
  -5611004.07443                  24551580.5634
         5.5004
  12500341.68042   9571556.85544  24571299.2424   24571300.1094
         4.5004          4.2504
  -3947229.05445  -1938224.18545  23118806.5704   23118808.6684
         9.7504         10.2504
 -11352217.12946  -8584703.02946  21949399.5234   21949402.1724
        16.2504         15.7504
 -17339527.26245 -11563616.88545  22494417.6954   22494418.7384
        11.5004         11.5004
 -14793085.23845 -10513104.87745  23037683.8134   23037687.4104
        10.0004         10.5004
 -22118188.28347 -16742804.70046  20713094.0394   20713096.6054
        24.7504         25.0004
  -5981913.13042                  25193127.8204
         4.2504
 03 11  2  2 46  0.0000000  0  9G24G10G 7G 9G 4G30G17G 5G 6
 -21515372.23447 -15884166.74846  20595182.3984   20595185.2234
        21.7504         23.5004
  -5714553.40943  -3736593.91954  24531875.7114   24531879.7544
         5.2504          4.7504
  12578493.99342   9632454.81944  24586171.0164   24586173.5354
         4.2504          4.2504
  -3850161.39345  -1862587.05645  23137277.9774   23137280.5084
         9.5004         10.2504
 -11274858.26846  -8524423.38946  21964120.2114   21964122.7304
        16.2504         15.7504
 -17427717.43545 -11632336.39745  22477635.6724   22477638.7304
        11.2504         11.0004
 -14882819.16445 -10583027.36745  23020607.9064   23020611.3164
        10.0004         10.7504
 -22152992.39847 -16769924.76346  20706471.1334   20706473.6644
        24.7504         24.7504
  -6061573.98142                  25177970.6094
         4.5004
 03 11  2  2 46 30.0000000  0  9G24G10G 7G 9G 4G30G17G 5G 6
 -21520208.93047 -15887935.58146  20594262.0864   20594264.7934
        21.7504         23.5004
  -5818144.09243  -3817313.71545  24512162.7424   24512168.9414
         5.0004          6.0004
  12656644.47442   9693351.41944  24601045.0314   24601047.4924
         4.5004          4.7504
  -3752914.92745  -1786810.59645  23155782.4774   23155785.3364
         9.7504         10.5004
 -11197175.50346  -8463891.35146  21978902.9774   21978905.5084
        16.2504         15.7504
 -17515728.34145 -11700916.22845  22460887.4534   22460890.0314
        11.0004         11.0004
 -14972352.44445 -10652793.49945  23003569.5314   23003573.1644
         9.7504         10.7504
 -22187391.10647 -16796728.93246  20699925.1804   20699927.5704
        25.0004         25.5004
  -6141232.08342                  25162812.1484
         4.5004
 03 11  2  2 47  0.0000000  0  8G24G10G 9G 4G30G17G 5G 6
 -21524555.35847 -15891322.38646  20593434.6724   20593437.4964
        21.7504         23.5004
  -5921777.50943  -3898066.98145  24492441.8914   24492447.5044
         6.0004          5.5004
  -3655497.65745  -1710901.03945  23174320.6254   23174323.7304
         9.7504         10.2504
 -11119176.40146  -8403112.83146  21993745.4304   21993748.0784
        16.0004         15.7504
 -17603562.46845 -11769358.31045  22444172.2974   22444175.1454
        10.7504         10.7504
 -15061688.37845 -10722405.86045  22986570.9224   22986574.0864
        10.5004         10.5004
 -22221387.62447 -16823219.69746  20693455.9694   20693458.3364
        25.0004         25.2504
  -6220892.07842                  25147650.9844
         4.0004
 03 11  2  2 47 30.0000000  0  9G24G10G 7G 9G 4G30G17G 5G 6
 -21528413.43947 -15894328.66146  20592701.0634   20592703.8754
        22.0004         23.5004
  -6025451.68443  -3978851.95445  24472713.7504   24472713.9024
         5.2504          5.2504
  -4668964.32851                  24630782.4064
         3.7504
  -3557913.76845  -1634861.65245  23192891.6884   23192894.9224
        10.0004         11.0004
 -11040864.61046  -8342090.64446  22008647.7424   22008650.4144
        16.0004         15.7504
 -17691218.58545 -11837661.68845  22427492.0164   22427493.6334
        10.7504         11.0004
 -15150826.43045 -10791864.04245  22969607.2734   22969609.5124
        10.2504         11.0004
 -22254981.51247 -16849396.72746  20687063.0634   20687065.5594
        24.7504         25.2504
  -6300554.75341                  25132492.5944
         3.7504
 03 11  2  2 48  0.0000000  0  9G24G10G 7G 9G 4G30G17G 5G 6
 -21531785.85647 -15896956.48946  20592059.0164   20592061.9344
        21.5004         23.5004
  -6129165.91842  -4059668.23345  24452976.6954   24452987.7504
         4.7504          5.2504
  -4590838.92741                  24645648.3364
         3.5004
  -3460168.40645  -1558696.44545  23211491.6724   23211494.3794
         9.7504         10.5004
 -10962244.90446  -8280828.52846  22023608.5394   22023610.6724
        15.7504         15.5004
 -17778696.60045 -11905826.26945  22410845.9144   22410847.7894
        11.0004         11.2504
 -15239766.92145 -10861168.26845  22952682.6644   22952685.3834
        10.5004         10.7504
 -22288173.31147 -16875260.44246  20680746.8834   20680749.3204
        25.0004         25.2504
  -6380222.22541                  25117332.8594
         3.5004
 03 11  2  2 48 30.0000000  0  9G24G10G 7G 9G 4G30G17G 5G 6
 -21534666.60747 -15899201.20346  20591510.6724   20591513.6724
        21.7504         23.5004
  -6232910.78642  -4140508.26045  24433234.9774   24433239.1484
         4.7504          5.7504
  -4512717.71441                  24660514.8134
         3.5004
  -3362258.57945  -1482403.05945  23230123.2194   23230127.0514
         9.5004         10.2504
 -10883313.64846  -8219323.64646  22038628.3054   22038630.4614
        15.5004         15.2504
 -17865987.95645 -11973845.39845  22394234.7734   22394237.0594
        11.0004         11.0004
 -15328501.94345 -10930312.36645  22935796.8134   22935800.9964
        10.2504         10.5004
 -22320955.39047 -16900804.89046  20674508.6644   20674511.1254
        25.0004         25.0004
  -6459888.31841  -3711767.56854  25102171.5394   25102174.1994
         3.2504          4.0004
 03 11  2  2 49  0.0000000  0  9G24G10G 7G 9G 4G30G17G 5G 6
 -21537057.35747 -15901064.10346  20591056.0784   20591058.7034
        21.7504         23.5004
  -6336684.16543  -4221370.51445  24413487.7504   24413492.1214
         6.2504          7.5004
  -4434601.81441                  24675380.9064
         3.0004
  -3264188.35745  -1405984.74345  23248785.0314   23248787.6914
         9.2504         10.2504
 -10804074.63046  -8157578.94846  22053707.4844   22053710.0514
        15.5004         15.2504
 -17953091.54945 -12041718.23545  22377659.7894   22377661.6764
        11.5004         11.5004
 -15417030.64445 -10999295.73145  22918950.6804   22918954.3954
        10.7504         10.7504
 -22353327.06047 -16926029.54846  20668348.2734   20668350.7584
        25.0004         25.2504
  -6539553.80041                  25087012.2504
         3.2504
 03 11  2  2 49 30.0000000  0  9G24G10G 7G 9G 4G30G17G 5G 6
 -21538963.50047 -15902549.38446  20590693.2194   20590696.0434
        21.7504         23.5004
  -6440487.43842  -4302256.09845  24393734.6804   24393742.2664
         4.7504          6.5004
  -4356495.76841  -3658458.60652  24690241.9384   24690240.6954
         2.5004          2.5004
  -3165965.03745  -1329447.08245  23267477.3674   23267481.3404
        10.0004          9.7504
 -10724534.65546  -8095599.73846  22068843.2194   22068846.1604
        15.2504         15.0004
 -18040009.50845 -12109446.43045  22361119.8364   22361122.2974
        11.5004         11.2504
 -15505356.00445 -11068120.64245  22902142.5864   22902145.2814
        10.5004         10.5004
 -22385291.25447 -16950936.68646  20662265.7814   20662268.0904
        24.7504         25.2504
  -6619222.89641                  25071850.6564
         3.2504
 03 11  2  2 50  0.0000000  0  9G24G10G 7G 9G 4G30G17G 5G 6
 -21540382.58847 -15903655.13346  20590423.0314   20590425.7384
        21.7504         23.5004
  -6544314.45741  -4383160.24043  24373977.5784   24373984.8364
         3.5004          3.7504
  -4278396.71341                  24705104.4774
         2.7504
  -3067589.02945  -1252790.44745  23286197.2974   23286200.5434
         9.5004         10.5004
 -10644693.35846  -8033385.73446  22084036.9774   22084039.1334
        15.0004         15.0004
 -18126736.46145 -12177025.79545  22344615.6644   22344618.0784
        11.2504         10.7504
 -15593473.25345 -11136783.36745  22885373.7114   22885378.2704
        10.0004         10.7504
 -22416842.91047 -16975522.36246  20656261.5394   20656264.0704
        24.7504         25.2504
  -6698892.56441  -3691075.97454  25056689.5394   25056690.6524
         3.2504          4.2504
 03 11  2  2 50 30.0000000  0  9G24G10G 7G 9G 4G30G17G 5G 6
 -21541310.70847 -15904378.31846  20590246.3524   20590249.1174
        21.7504         23.7504
  -6648157.82742  -4464076.90545  24354216.1644   24354220.3364
         4.0004          5.0004
  -4200300.41641                  24719965.7034
         3.0004
  -2969058.89045  -1176013.71645  23304946.5394   23304948.9654
         9.2504         10.0004
 -10564549.06646  -7970935.61546  22099287.5704   22099289.5744
        15.0004         14.7504
 -18213265.73545 -12244451.12145  22328149.9304   22328153.2114
        11.0004         10.7504
 -15681376.07445 -11205279.04745  22868647.6564   22868649.6374
        11.2504         11.2504
 -22447976.39747 -16999782.19946  20650337.1414   20650339.6134
        24.7504         25.2504
  -6778558.11141                  25041528.7734
         3.2504
 03 11  2  2 51  0.0000000  0  9G24G10G 7G 9G 4G30G17G 5G 6
 -21541747.66047 -15904718.77646  20590163.1644   20590166.1884
        21.7504         23.2504
  -6752013.29042  -4545003.23945  24334452.2344   24334455.2934
         4.5004          6.0004
  -4122205.82841                  24734825.9534
         3.0004
  -2870376.41545  -1099118.30245  23323725.0944   23323726.5004
         9.5004          9.7504
 -10484103.10546  -7908250.43546  22114595.4454   22114597.4844
        14.7504         14.5004
 -18299593.85845 -12311719.70545  22311722.3524   22311724.1214
        11.2504         11.0004
 -15769061.94845 -11273605.64645  22851961.3594   22851964.2194
        11.2504         11.2504
 -22478688.97447 -17023714.04346  20644492.7114   20644495.2774
        24.7504         25.5004
  -6858218.43441                  25026371.2814
         3.5004
 03 11  2  2 51 30.0000000  0  9G24G10G 7G 9G 4G30G17G 5G 6
 -21541699.80347 -15904681.46246  20590172.1804   20590174.7704
        21.7504         23.7504
  -6855883.51442  -4625940.78644  24314686.7974   24314690.3014
         4.0004          4.2504
  -4044118.69441                  24749686.4614
         3.0004
  -2771550.41845  -1022111.02345  23342531.7584   23342535.1454
         9.2504         10.0004
 -10403363.91346  -7845336.77746  22129959.8834   22129962.5904
        14.5004         14.5004
 -18385724.14245 -12378834.11345  22295331.4224   22295333.7194
        11.2504         11.0004
 -15856534.90745 -11341766.36145  22835315.4774   22835318.3244
        11.2504         10.7504
 -22508984.68747 -17047321.06946  20638727.5314   20638730.0274
        25.0004         25.5004
  -6937879.04741                  25011211.1564
         3.7504
 03 11  2  2 52  0.0000000  0  9G24G10G 7G 9G 4G30G17G 5G 6
 -21541168.75247 -15904267.62846  20590273.5394   20590276.0124
        21.7504         23.7504
  -6959765.76943  -4706887.99245  24294918.2894   24294921.7814
         5.5004          5.0004
  -3966039.85341  -3672663.07055  24764543.7734   24764548.6954
         3.7504          5.2504
  -2672584.38845   -944994.68745  23361363.6094   23361366.8554
         8.7504          9.5004
 -10322334.84746  -7782197.23546  22145379.4224   22145381.4024
        14.7504         14.5004
 -18471655.04245 -12445793.18245  22278979.6804   22278982.1644
        11.7504         11.5004
 -15943794.00145 -11409760.40645  22818710.5314   22818714.4694
        10.7504         11.0004
 -22538862.64847 -17070602.56446  20633042.0784   20633044.5864
        25.0004         25.5004
  -7017540.44541  -3738665.29253  24996051.6954   24996050.7584
         3.7504          3.7504
 03 11  2  2 52 30.0000000  0  9G24G10G 7G 9G 4G30G17G 5G 6
 -21540152.18647 -15903475.47346  20590466.7424   20590469.3674
        21.7504         23.7504
  -7063654.11343  -4787839.91044  24275149.6804   24275156.2544
         5.2504          4.2504
  -3887966.56842  -3611826.79945  24779401.5394   24779403.2384
         4.7504          6.0004
  -2573478.50245   -867769.30745  23380223.3204   23380226.6254
         9.7504          9.7504
 -10241015.45346  -7718831.46246  22160853.6884   22160856.0204
        14.5004         14.2504
 -18557381.33646 -12512592.83345  22262666.6564   22262669.0594
        12.2504         11.5004
 -16030834.15045 -11477583.85445  22802147.7034   22802151.3834
        11.5004         11.2504
 -22568318.08947 -17093554.82346  20627436.7894   20627439.1334
        25.0004         25.5004
  -7097199.55741                  24980893.4304
         3.7504
 03 11  2  2 53  0.0000000  0  9G24G10G 7G 9G 4G30G17G 5G 6
 -21538652.14147 -15902306.58146  20590752.2504   20590754.9924
        21.7504         24.0004
  -7167546.56842  -4868794.85645  24255378.5004   24255387.6914
         4.5004          5.0004
  -3809900.14942  -3550995.75144  24794256.9614   24794258.6374
         4.7504          4.7504
  -2474237.19245   -790438.41945  23399107.0864   23399110.2854
         9.0004          9.5004
 -10159409.71746  -7655242.55446  22176382.9614   22176385.4694
        14.5004         14.2504
 -18642901.98846 -12579232.22145  22246392.9694   22246395.0664
        12.0004         11.7504
 -16117655.82345 -11545237.07545  22785625.4384   22785628.5314
        11.0004         11.2504
 -22597351.31647 -17116178.08246  20621912.0944   20621914.4024
        25.2504         25.7504
  -7176857.58942                  24965735.1414
         4.0004
 03 11  2  2 53 30.0000000  0  9G24G10G 7G 9G 4G30G17G 5G 6
 -21536671.84047 -15900763.46546  20591128.9844   20591131.4694
        21.7504         23.7504
  -7271442.36443  -4949752.43445  24235609.1024   24235614.3754
         6.7504          5.7504
  -3731843.08642  -3490171.97443  24809109.5864   24809112.2344
         4.2504          3.7504
  -2374866.06745   -713006.38745  23418017.6564   23418020.3754
         9.2504          9.7504
 -10077522.67646  -7591434.46346  22191965.3054   22191968.0354
        14.2504         14.0004
 -18728217.06045 -12645711.42645  22230157.7194   22230159.8284
        11.7504         11.7504
 -16204259.02545 -11612720.05345  22769145.3674   22769148.6844
        11.2504         11.7504
 -22625963.06647 -17138472.92046  20616467.1884   20616469.7074
        25.2504         25.7504
  -7256516.84242  -3682798.82653  24950576.1804   24950590.5514
         4.2504          3.5004
 03 11  2  2 54  0.0000000  0  9G24G10G 7G 9G 4G30G17G 5G 6
 -21534207.59047 -15898843.24246  20591597.6804   20591600.3754
        21.5004         23.5004
  -7375333.62843  -5030706.63945  24215838.9224   24215841.0554
         6.0004          5.2504
  -3653790.66842  -3429351.88845  24823961.9144   24823971.6564
         4.5004          5.0004
  -2275363.29045   -635471.73645  23436951.9694   23436955.6484
         9.2504          9.5004
  -9995352.04346  -7527405.38746  22207601.7814   22207603.6454
        14.2504         14.0004
 -18813319.32545 -12712024.81246  22213963.3834   22213966.6174
        11.7504         12.0004
 -16290637.50445 -11680027.90545  22752708.9224   22752711.6994
        11.2504         11.7504
 -22654146.62447 -17160434.09547  20611103.9694   20611106.2664
        25.2504         26.0004
  -7336172.35742                  24935418.0944
         4.5004
 03 11  2  2 54 30.0000000  0  9G24G10G 7G 9G 4G30G17G 5G 6
 -21531261.80047 -15896547.79246  20592157.9924   20592160.9574
        21.5004         23.5004
  -7479219.07043  -5111656.19945  24196069.7424   24196076.2114
         5.5004          5.7504
  -3575745.02743  -3368537.10444  24838814.5084   24838815.6564
         5.2504          4.2504
  -2175734.14945   -557838.66045  23455909.5314   23455912.3554
         8.2504          9.7504
  -9912902.53246  -7463158.97846  22223291.3984   22223294.2814
        14.2504         13.7504
 -18898208.65446 -12778172.25846  22197809.3204   22197811.4184
        12.5004         12.2504
 -16376791.60245 -11747160.90546  22736313.7034   22736318.2504
        11.2504         12.2504
 -22681902.57747 -17182062.07746  20605822.6724   20605824.8984
        25.5004         25.7504
  -7415826.09842                  24920261.5004
         4.7504
 03 11  2  2 55  0.0000000  0  9G24G10G 7G 9G 4G30G17G 5G 6
 -21527829.99247 -15893873.63546  20592811.2894   20592814.0204
        21.5004         23.7504
  -7583090.17243  -5192594.55745  24176304.4064   24176304.0434
         5.7504          6.2504
  -3497700.98943  -3307723.56345  24853665.7504   24853670.0744
         5.7504          5.7504
  -2075976.04345   -480105.09945  23474894.4384   23474898.7384
         8.0004          8.7504
  -9830171.24746  -7398693.03246  22239034.5784   22239036.9574
        14.2504         13.7504
 -18982877.12546 -12844147.63546  22181697.6254   22181698.8324
        13.0004         12.2504
 -16462714.53345 -11814113.79846  22719963.2814   22719966.3164
        11.7504         12.0004
 -22709224.28647 -17203351.68546  20600623.2034   20600625.4304
        25.2504         25.7504
  -7495472.62342                  24905103.2664
         4.7504
 03 11  2  2 55 30.0000000  0  9G24G10G 7G 9G 4G30G17G 5G 6
 -21523915.21447 -15890823.13046  20593556.2034   20593558.8054
        21.5004         23.5004
  -7686945.68842  -5273520.83145  24156539.9614   24156537.6644
         4.5004          5.7504
  -3419660.30643  -3246912.52045  24868517.0474   24868520.8674
         5.5004          5.5004
  -1976093.73245   -402274.74145  23493901.4144   23493905.6094
         8.5004          9.0004
  -9747162.68746  -7334011.01346  22254830.8054   22254833.5354
        14.0004         13.5004
 -19067324.36946 -12909950.64546  22165627.9064   22165629.4304
        13.0004         12.2504
 -16548406.74945 -11880886.90346  22703655.6254   22703658.4844
        11.5004         12.5004
 -22736112.24047 -17224303.29946  20595506.6884   20595508.9734
        25.2504         25.7504
  -7575113.29842                  24889948.5084
         4.7504
 03 11  2  2 56  0.0000000  0  9G24G10G 7G 9G 4G30G17G 5G 6
 -21519516.72647 -15887395.71446  20594393.0004   20594395.6134
        21.7504         23.7504
  -7790780.91143  -5354431.26845  24136780.7504   24136784.6994
         6.7504          7.5004
  -3341621.84142  -3186103.39244  24883366.9064   24883375.7814
         4.7504          4.2504
  -1876089.14545   -324349.07745  23512931.9694   23512935.2034
         8.2504          9.2504
  -9663878.23846  -7269114.03146  22270679.3054   22270681.7894
        14.0004         13.5004
 -19151546.58746 -12975578.28846  22149600.4454   22149602.8244
        12.5004         12.0004
 -16633864.86845 -11947477.58946  22687395.6094   22687398.7154
        11.7504         12.0004
 -22762563.69847 -17244914.79146  20590473.0234   20590475.2734
        25.2504         25.5004
  -7654746.78142  -3684867.16954  24874796.0234   24874796.7504
         4.5004          4.7504
 03 11  2  2 56 30.0000000  0  9G24G10G 7G 9G 4G30G17G 5G 6
 -21514638.58547 -15883594.53746  20595321.5084   20595323.9804
        21.7504         23.7504
  -7894596.18743  -5435326.13945  24117025.5004   24117028.8754
         5.7504          6.7504
  -3263589.18342  -3125298.70043  24898216.1334   24898222.2274
         4.7504          3.7504
  -1775968.73844   -246333.22545  23531983.8984   23531984.9184
         7.7504          8.7504
  -9580323.87846  -7204006.73046  22286578.9844   22286581.2814
        13.5004         13.2504
 -19235544.93846 -13041031.48946  22133615.9614   22133617.8364
        12.5004         12.7504
 -16719090.96945 -12013887.50646  22671175.7274   22671179.2894
        11.7504         12.5004
 -22788579.81447 -17265187.05446  20585522.2814   20585524.5204
        25.0004         25.5004
  -7734376.33642  -3746915.92644  24859642.3204   24859645.6844
         4.5004          4.7504
 03 11  2  2 57  0.0000000  0  9G24G10G 7G 9G 4G30G17G 5G 6
 -21509282.95547 -15879421.29646  20596340.5084   20596343.3204
        21.5004         23.5004
  -7998389.27243  -5516203.82345  24097274.6954   24097279.7464
         6.0004          5.5004
  -3185562.85243  -3064498.85244  24913062.3204   24913067.6054
         5.0004          4.5004
  -1675736.18545   -168229.93545  23551057.2734   23551059.7934
         8.7504          9.2504
  -9496502.76446  -7138691.57146  22302529.7194   22302531.4064
        13.5004         13.2504
 -19319317.63546 -13106308.83546  22117674.4304   22117676.8324
        12.7504         13.0004
 -16804084.00545 -12080115.76746  22655002.3524   22655005.8674
        11.7504         12.5004
 -22814160.52047 -17285120.03646  20580654.3444   20580656.7464
        24.7504         25.7504
  -7814002.42842  -3808962.17944  24844489.5474   24844496.1684
         4.5004          4.7504
 03 11  2  2 57 30.0000000  0  9G24G10G 7G 9G 4G30G17G 5G 6
 -21503445.34647 -15874872.48246  20597451.3204   20597453.8404
        21.7504         24.0004
  -8102151.23943  -5597057.27145  24077529.2584   24077531.8244
         6.2504          6.2504
  -3107537.76643  -3003699.93743  24927912.3204   24927923.1294
         5.5004          3.2504
  -1575389.31645    -90037.57945  23570152.4454   23570155.2584
         8.2504          9.0004
  -9412412.08446  -7073166.34546  22318531.9064   22318534.0164
        13.5004         13.2504
 -19402857.05246 -13171404.43946  22101777.7734   22101779.7774
        13.5004         13.2504
 -16888836.97345 -12146156.98946  22638874.0944   22638877.1524
        11.7504         12.5004
 -22839299.36547 -17304708.71446  20575870.4614   20575872.7344
        25.0004         25.7504
  -7893619.71042  -3871001.47445  24829338.4614   24829339.9844
         4.5004          5.0004
 03 11  2  2 58  0.0000000  0  9G24G10G 7G 9G 4G30G17G 5G 6
 -21497124.47847 -15869947.10146  20598654.2344   20598656.9654
        21.7504         24.0004
  -8205877.27043  -5677882.53445  24057790.4064   24057792.9964
         5.7504          5.5004
  -3029512.07243  -2942900.65944  24942759.1954   24942761.2464
         5.0004          4.5004
  -1474929.08645    -11756.88345  23589269.9064   23589273.7504
         8.7504          9.0004
  -9328052.77446  -7007431.80446  22334584.7344   22334587.1134
        13.5004         13.5004
 -19486158.91446 -13236314.92646  22085925.7504   22085927.8484
        13.2504         13.0004
 -16973346.64846 -12212008.61146  22622792.6484   22622796.9614
        12.0004         12.5004
 -22863992.66047 -17323950.21346  20571171.6484   20571173.8874
        25.0004         25.7504
  -7973226.06042  -3933032.34444  24814191.5704   24814195.4264
         4.5004          4.2504
 03 11  2  2 58 30.0000000  0  9G24G10G 7G 9G 4G30G17G 5G 6
 -21490323.51247 -15864647.62546  20599948.2114   20599950.8834
        21.7504         24.0004
  -8309565.90343  -5758678.98944  24038059.2664   24038060.2034
         6.5004          4.7504
  -2951488.10242                  24957606.0864
         4.2504
  -1374360.71045     66608.03145  23608407.7974   23608411.7704
         8.7504          9.0004
  -9243429.59646  -6941491.64246  22350688.0314   22350690.1294
        13.5004         13.7504
 -19569223.03546 -13301040.15346  22070119.5704   22070120.7664
        13.0004         12.5004
 -17057613.34446 -12277670.91946  22606758.1254   22606761.0434
        12.5004         12.7504
 -22888240.70647 -17342844.76046  20566557.2504   20566559.5234
        25.2504         25.7504
  -8052823.42142  -3995056.15544  24799044.5704   24799048.2854
         4.5004          4.2504
 03 11  2  2 59  0.0000000  0  9G24G10G 7G 9G 4G30G17G 5G 6
 -21483041.87047 -15858973.59546  20601334.1024   20601336.6564
        21.7504         23.7504
  -8413212.14141  -5839442.26842  24018333.0784   24018349.2424
         2.2504          2.7504
  -2873463.68041                  24972453.0234
         3.5004
  -1273684.90745    145056.72445  23627565.8754   23627569.0634
         8.0004          8.2504
  -9158543.05046  -6875346.26546  22366841.5554   22366844.2034
        13.5004         13.2504
 -19652044.85146 -13365576.56646  22054358.5634   22054360.7774
        13.0004         12.5004
 -17141633.58346 -12343141.17346  22590768.0004   22590772.3594
        12.0004         12.5004
 -22912040.18047 -17361389.77946  20562028.5944   20562030.6334
        25.2504         25.7504
  -8132409.43342                  24783898.8284
         4.2504
 03 11  2  2 59 30.0000000  0  9G24G10G 7G 9G 4G30G17G 5G 6
 -21475283.17147 -15852927.82446  20602810.5004   20602812.8444
        21.7504         23.7504
  -8516815.20543  -5920171.68545  23998620.4694   23998624.6414
         6.0004          5.7504
  -2795441.83241                  24987300.6024
         3.5004
  -1172907.97045    223584.19945  23646742.5554   23646745.1914
         8.0004          9.2504
  -9073398.52746  -6808999.87146  22383043.7274   22383045.3444
        13.5004         13.5004
 -19734625.05146 -13429924.72246  22038644.1094   22038645.5044
        13.5004         12.5004
 -17225408.65046 -12408420.38746  22574826.9614   22574829.6094
        12.5004         12.7504
 -22935392.92147 -17379586.68547  20557584.7114   20557586.8914
        25.5004         26.0004
  -8211987.03342                  24768754.2194
         4.0004
 03 11  2  3  0  0.0000000  0  9G24G10G 7G 9G 4G30G17G 5G 6
 -21467050.94847 -15846513.08346  20604376.9534   20604379.3554
        21.7504         23.5004
  -8620375.00341  -6000867.70544  23978912.8524   23978920.0514
         3.2504          4.5004
  -2717425.43341                  25002146.8204
         3.7504
  -1072035.31544    302186.26845  23665937.0314   23665940.3134
         7.7504          8.7504
  -8988001.23446  -6742456.51046  22399294.5554   22399296.6174
        13.5004         13.5004
 -19816963.89746 -13494084.80946  22022975.3284   22022977.4144
        13.5004         13.5004
 -17308939.58346 -12473509.37246  22558930.5944   22558933.6644
        12.0004         12.7504
 -22958300.13247 -17397436.43647  20553225.4774   20553227.7974
        25.2504         26.2504
  -8291558.69341                  24753612.5474
         3.7504
 03 11  2  3  0 30.0000000  0  9G24G10G 7G 9G 4G30G17G 5G 6
 -21458340.62547 -15839725.78346  20606034.3984   20606037.1414
        21.5004         23.7504
  -8723882.26344  -6081522.49045  23959217.8754   23959219.8554
         7.7504          9.2504
  -2639408.71641                  25016993.7424
         3.7504
   -971064.37244    380864.93345  23685151.8834   23685153.6644
         7.7504          8.2504
  -8902348.14946  -6675713.82546  22415593.7034   22415595.7544
        13.5004         13.0004
 -19899053.19946 -13558050.43246  22007354.0234   22007356.1564
        13.0004         12.7504
 -17392219.06646 -12538402.39446  22543083.4694   22543087.0204
        12.0004         13.0004
 -22980754.76347 -17414933.51847  20548952.2894   20548954.5394
        25.2504         26.0004
  -8371118.46542  -3732392.70653  24738474.3204   24738478.6214
         4.0004          3.7504
 03 11  2  3  1  0.0000000  0  9G24G10G 7G 9G 4G30G17G 5G 6
 -21449156.97047 -15832569.66646  20607782.2034   20607784.8754
        21.7504         23.7504
  -8827337.53842  -6162136.86445  23939529.2194   23939533.6024
         4.7504          6.0004
  -2561395.35641                  25031837.4694
         3.2504
   -870001.70945    459615.04445  23704384.8364   23704387.5784
         8.0004          8.7504
  -8816445.39346  -6608776.60046  22431940.5394   22431942.8014
        13.2504         13.2504
 -19980894.12946 -13621822.51146  21991780.3674   21991781.6334
        13.5004         13.2504
 -17475249.21946 -12603101.16546  22527284.0314   22527287.3364
        12.5004         12.7504
 -23002758.77747 -17432079.48147  20544765.2734   20544767.2894
        25.2504         26.0004
  -8450669.71142  -3794380.54843  24723334.5704   24723340.1374
         4.0004          3.7504
 03 11  2  3  1 30.0000000  0  9G24G10G 7G 9G 4G30G17G 5G 6
 -21439499.35547 -15825044.22846  20609619.7814   20609622.2194
        21.7504         23.7504
  -8930735.86745  -6242706.99045  23919855.0314   23919857.9024
        10.7504          9.7504
  -2483383.89641                  25046684.0944
         2.5004
   -768848.81044    538435.45145  23723633.9304   23723636.0864
         7.7504          9.2504
  -8730293.91046  -6541645.57946  22448334.1254   22448336.2234
        13.2504         12.7504
 -20062482.85346 -13685398.06646  21976254.3444   21976256.1604
        13.7504         13.2504
 -17558027.11846 -12667603.37146  22511531.0634   22511534.1804
        12.5004         12.7504
 -23024309.15947 -17448871.96047  20540664.2734   20540666.3364
        25.0004         26.0004
  -8530210.83342  -3856360.69343  24708199.5084   24708205.1684
         4.2504          3.5004
 03 11  2  3  2  0.0000000  0  9G24G10G 7G 9G 4G30G17G 5G 6
 -21429368.06247 -15817149.68246  20611547.8754   20611550.4774
        21.5004         23.7504
  -9034073.44243  -6323229.65645  23900188.4304   23900194.6884
         5.5004          8.7504
                                  25061526.5634
         1.5004
   -667608.04044    617324.35245  23742898.6254   23742901.7194
         7.5004          8.2504
  -8643895.85246  -6474322.38046  22464775.0554   22464777.3284
        13.0004         13.0004
 -20143816.34346 -13748774.74946  21960777.1804   21960778.4454
        13.5004         13.2504
 -17640550.40246 -12731907.15646  22495828.2584   22495831.4574
        13.2504         12.7504
 -23045404.73647 -17465310.04446  20536649.5944   20536651.8914
        25.0004         25.7504
  -8609741.06142  -3918332.16543  24693065.0784   24693071.5944
         4.2504          3.7504
 03 11  2  3  2 30.0000000  0  8G24G10G 9G 4G30G17G 5G 6
 -21418764.14147 -15808886.86546  20613565.6884   20613568.5234
        21.7504         23.7504
  -9137346.65645  -6403702.15345  23880537.8594   23880541.9734
        10.0004          8.7504
   -566282.23844    696279.50845  23762181.0394   23762182.4224
         7.5004          8.2504
  -8557253.27546  -6406808.68046  22481262.6254   22481264.4184
        12.7504         12.7504
 -20224891.83146 -13811950.39746  21945348.7664   21945350.8284
        13.0004         13.0004
 -17722817.57746 -12796011.40146  22480173.0004   22480176.3754
        13.5004         13.5004
 -23066043.21347 -17481391.95047  20532722.4304   20532724.6564
        25.0004         26.0004
  -8689259.96442  -3980294.77145  24677931.7814   24677935.9184
         4.2504          5.0004
 03 11  2  3  3  0.0000000  0  8G24G10G 9G 4G30G17G 5G 6
 -21407689.72747 -15800257.42346  20615672.7974   20615675.5274
        21.5004         24.0004
  -9240552.96442  -6484122.58345  23860896.5394   23860901.4264
         4.2504          8.2504
   -464875.14044    775298.04345  23781476.6414   23781482.2894
         7.5004          8.2504
  -8470369.71046  -6339107.18246  22497796.5234   22497798.9734
        12.5004         12.5004
 -20305707.80346 -13874923.80146  21929969.6724   21929971.4304
        13.5004         13.5004
 -17804827.77046 -12859915.40146  22464567.1564   22464570.0984
        13.2504         13.5004
 -23086224.25247 -17497117.40847  20528881.9694   20528884.0434
        25.0004         26.0004
  -8768768.17342  -4042249.09445  24662802.9774   24662807.1604
         4.5004          5.7504
 03 11  2  3  3 30.0000000  0  8G24G10G 9G 4G30G17G 5G 6
 -21396142.82147 -15791259.81046  20617870.2664   20617872.9614
        21.5004         23.7504
  -9343686.62244  -6564486.24545  23841272.9304   23841276.9024
         7.5004          7.7504
   -363387.07744    854379.63945  23800789.8524   23800792.6414
         7.5004          8.2504
  -8383245.01146  -6271217.79546  22514375.5784   22514377.7344
        12.5004         12.2504
 -20386258.97846 -13937690.88246  21914641.9384   21914643.8014
        14.2504         13.7504
 -17886576.73346 -12923615.82146  22449010.3674   22449013.0164
        13.5004         13.2504
 -23105943.96647 -17512483.39546  20525129.6334   20525131.6954
        25.0004         25.7504
  -8848262.76342  -4104192.83945  24647675.3984   24647678.0124
         4.7504          5.0004
 03 11  2  3  4  0.0000000  0  8G24G10G 9G 4G30G17G 5G 6
 -21384129.49347 -15781898.74746  20620156.2504   20620158.7114
        21.5004         24.0004
                                  23821656.9384
         1.5004
   -261825.61144    933518.41745  23820116.0474   23820118.9184
         7.2504          8.7504
  -8295886.74546  -6203146.41546  22530999.2274   22531001.6644
        12.2504         12.2504
 -20466548.18046 -14000253.83546  21899363.5554   21899365.0554
        14.5004         14.0004
 -17968068.05146 -12987115.49546  22433503.3674   22433505.2424
        13.5004         13.5004
 -23125205.96347 -17527492.71546  20521464.1564   20521466.2194
        25.0004         25.7504
  -8927748.54743  -4166129.65445  24632550.8754   24632555.8324
         5.5004          6.0004
 03 11  2  3  4 30.0000000  0  8G24G10G 9G 4G30G17G 5G 6
 -21371645.88747 -15772171.23646  20622531.9844   20622534.6804
        21.7504         24.0004
  -4825805.70942  -6725040.65145  23802063.8054   23802065.0124
         4.5004          5.2504
   -160188.51744   1012716.12745  23839457.4384   23839462.0554
         7.0004          8.0004
  -8208292.05446  -6134890.79746  22547667.7424   22547670.0744
        12.0004         12.5004
 -20546567.41346 -14062606.42246  21884135.6414   21884136.8134
        14.0004         13.7504
 -18049294.60246 -13050408.86346  22418046.1724   22418048.4104
        13.5004         13.7504
 -23144003.68647 -17542140.26747  20517886.9534   20517888.9694
        25.0004         26.0004
  -9007219.79743  -4228055.21545  24617427.2034   24617430.3914
         5.0004          5.7504
 03 11  2  3  5  0.0000000  0  8G24G10G 9G 4G30G17G 5G 6
 -21358688.26247 -15762074.35846  20624997.5004   20625000.0084
        21.7504         24.0004
  -4928700.33343                  23782482.5704
         5.2504
    -58473.77643   1091974.39145  23858812.5164   23858815.7624
         6.7504          8.0004
  -8120458.36346  -6066448.95246  22564382.1724   22564384.0944
        12.0004         12.0004
 -20626309.30246 -14124742.88746  21868961.5314   21868963.1024
        14.5004         13.5004
 -18130250.07246 -13113490.97446  22402640.1414   22402643.9144
        13.0004         13.5004
 -23162330.76047 -17556421.07647  20514399.4924   20514401.3674
        25.2504         26.0004
  -9086671.38042  -4289965.45545  24602307.2114   24602310.2114
         4.7504          5.5004
 03 11  2  3  5 30.0000000  0  8G24G10G 9G 4G30G17G 5G 6
 -21345262.64647 -15751612.81646  20627552.4224   20627554.7664
        22.0004         24.0004
  -5031508.74043                  23762918.3914
         6.0004
     43310.14843   1171286.55345  23878179.2194   23878181.8674
         5.7504          7.5004
  -8032393.59545  -5997827.04246  22581139.8674   22581142.1884
        11.7504         12.0004
 -20705776.75846 -14186665.51246  21853839.2114   21853840.9344
        14.7504         14.7504
 -18210938.24946 -13176364.82346  22387286.5634   22387289.3054
        13.5004         13.7504
 -23180191.21247 -17570338.28847  20511000.6254   20511002.6644
        25.2504         26.0004
  -4739496.36553                  24587191.0164
         5.0004
 03 11  2  3  6  0.0000000  0  8G24G10G 9G 4G30G17G 5G 6
 -21331372.52247 -15740789.31246  20630195.6254   20630198.0634
        22.0004         24.0004
  -5134230.04845                  23743372.0084
         8.2504
    145158.09044   1250648.54345  23897561.3054   23897563.6954
         7.0004          8.0004
  -7944102.44145  -5929028.71245  22597941.4144   22597944.8134
        11.7504         11.5004
 -20784969.56246 -14248374.11846  21838769.5554   21838770.9264
        15.0004         14.2504
 -18291359.87346 -13239030.96846  22371982.2504   22371985.6024
        13.2504         13.5004
 -23197586.12647 -17583892.74447  20507690.4064   20507692.3754
        25.0004         26.0004
  -4818920.69443                  24572077.6884
         5.0004
 03 11  2  3  6 30.0000000  0  8G24G10G 9G 4G30G17G 5G 6
 -21317018.32347 -15729604.20346  20632927.0084   20632929.5394
        22.0004         24.2504
  -5236859.72345                  23723841.8674
         8.7504
    247068.28144   1330059.09145  23916954.8984   23916957.6994
         7.5004          8.2504
  -7855586.50945  -5860055.27546  22614785.3834   22614788.3134
        11.7504         12.0004
 -20863884.30446 -14309866.07546  21823752.2734   21823753.9734
        14.7504         13.7504
 -18371512.59346 -13301487.57346  22356729.4774   22356732.9344
        13.2504         13.7504
 -23214512.99647 -17597082.49147  20504469.5864   20504471.6724
        25.0004         26.0004
  -4898331.22743                  24556964.7664
         5.5004
 03 11  2  3  7  0.0000000  0  8G24G10G 9G 4G30G17G 5G 6
 -21302201.26447 -15718058.41646  20635746.6804   20635749.1884
        22.2504         24.0004
  -5339394.51545  -3704097.25155  23704329.3284   23704332.7274
         8.0004          8.5004
    349037.66344   1409515.73645  23936359.3364   23936362.1024
         7.5004          7.7504
  -7766848.28645  -5790908.58745  22631672.0944   22631674.0634
        11.7504         11.5004
 -20942518.68646 -14371139.55546  21808788.7504   21808790.1214
        14.7504         14.0004
 -18451394.69346 -13363733.32146  22341528.8834   22341531.9654
        13.5004         14.0004
 -23230971.11247 -17609906.97047  20501337.4454   20501339.6844
        25.0004         26.2504
  -4977727.85643  -3721979.86055  24541857.0554   24541859.4454
         5.5004          6.0004
 03 11  2  3  7 30.0000000  0  8G24G10G 9G 4G30G17G 5G 6
 -21286932.56247 -15706160.70246  20638652.3914   20638654.9804
        22.2504         24.0004
  -5441840.92345  -3783925.48845  23684835.0704   23684837.4964
         8.7504          9.0004
    451053.43744   1489008.55045  23955773.2814   23955777.7934
         7.2504          8.0004
  -7677900.36145  -5721598.49346  22648597.6094   22648599.9184
        11.7504         12.0004
 -21020880.08246 -14432200.32446  21793877.1884   21793879.0164
        15.5004         14.7504
 -18531014.96646 -13425775.04146  22326377.3524   22326381.1254
        13.2504         13.7504
 -23246969.05447 -17622372.87647  20498293.3754   20498295.5084
        25.0004         26.0004
  -5057120.25043  -3783843.88845  24526749.5164   24526754.3444
         5.2504          6.7504
 03 11  2  3  8  0.0000000  0  8G24G10G 9G 4G30G17G 5G 6
 -21271211.51447 -15693910.50746  20641643.9304   20641646.4384
        22.2504         24.2504
  -5544193.98943  -3863681.03745  23665356.5004   23665362.3134
         5.2504          7.7504
    553114.41243   1568536.56645  23975193.1954   23975197.4144
         6.7504          7.5004
  -7588743.08046  -5652125.27745  22665564.3134   22665565.9774
        12.0004         11.7504
 -21098964.09646 -14493044.94746  21779018.0164   21779020.1844
        15.2504         14.7504
 -18610369.98646 -13487610.06046  22311276.3134   22311279.8524
        13.5004         14.5004
 -23262503.44747 -17634477.56747  20495337.0634   20495339.3244
        24.7504         26.0004
  -4739488.23553                  24511641.9534
         5.0004
 03 11  2  3  8 30.0000000  0  8G24G10G 9G 4G30G17G 5G 6
 -21255032.09747 -15681303.14846  20644722.4774   20644724.9964
        22.0004         24.0004
  -5646443.11844  -3943355.58745  23645900.6884   23645904.5904
         7.7504          9.0004
    655224.95544   1648103.24945  23994623.5704   23994624.6604
         7.2504          7.7504
  -7499372.03445  -5582485.49346  22682570.7814   22682573.5594
        11.7504         12.0004
 -21176761.27146 -14553666.06246  21764213.5704   21764215.2114
        14.7504         14.5004
 -18689451.00946 -13549231.58646  22296228.5554   22296232.0234
        14.0004         14.5004
 -23277566.23247 -17646214.78346  20492470.6954   20492472.8054
        24.7504         25.7504
  -4818860.50543                  24496536.8054
         5.0004
 03 11  2  3  9  0.0000000  0  8G24G10G 9G 4G30G17G 5G 6
 -21238407.02247 -15668348.52046  20647886.3284   20647888.9304
        22.0004         24.2504
  -5748596.18844  -4022955.19945  23626461.7584   23626465.8594
         7.0004          7.5004
    757370.88844   1727697.48745  24014062.4614   24014067.3714
         7.2504          6.5004
  -7409800.83645  -5512689.74346  22699615.4924   22699617.8244
        11.7504         12.0004
 -21254280.34646 -14614070.47646  21749462.1414   21749463.3834
        14.5004         14.0004
 -18768268.18046 -13610647.50946  22281229.7894   22281232.7194
        14.2504         14.7504
 -23292167.34947 -17657592.24647  20489692.0634   20489694.2664
        24.7504         26.0004
  -4898229.96943                  24481434.7974
         5.5004
 03 11  2  3  9 30.0000000  0  8G24G10G 9G 4G30G17G 5G 6
 -21221335.23547 -15655045.80546  20651134.6954   20651137.5664
        21.7504         23.7504
  -5850647.36542  -4102475.56445  23607038.3054   23607043.3094
         4.2504          6.0004
    859551.63744   1807318.89745  24033507.3984   24033511.3834
         7.5004          7.2504
  -7320029.70845  -5442738.21046  22716698.8204   22716700.9534
        11.7504         12.2504
 -21331516.52446 -14674254.46646  21734764.2664   21734766.0704
        15.0004         14.2504
 -18846817.37646 -13671854.61546  22266282.1024   22266285.3364
        14.0004         14.7504
 -23306303.38747 -17668607.31647  20487002.2114   20487004.2274
        25.0004         26.0004
  -4977594.21943  -3719903.98555  24466331.0554   24466336.4224
         5.0004          6.5004
 03 11  2  3 10  0.0000000  0  8G24G10G 9G 4G30G17G 5G 6
 -21203820.56947 -15641397.99246  20654467.7664   20654470.5314
        21.7504         24.0004
  -5952596.26644  -4181916.23545  23587641.9064   23587644.2154
         7.5004          7.0004
    961761.37544   1886962.81745  24052957.5634   24052959.9774
         7.2504          7.0004
  -7230063.98245  -5372635.02446  22733818.6414   22733820.6094
        11.5004         12.0004
 -21408470.16146 -14734218.27846  21720120.7424   21720122.4064
        15.0004         14.7504
 -18925100.23046 -13732854.18646  22251385.8834   22251389.3874
        14.2504         14.5004
 -23319976.08847 -17679261.34647  20484400.6174   20484402.5864
        25.0004         26.2504
  -5056955.76342  -3781744.06145  24451229.0784   24451232.6294
         4.7504          5.0004
 03 11  2  3 10 30.0000000  0  8G24G10G 9G 4G30G17G 5G 6
 -21185869.70347 -15627410.28246  20657883.6094   20657886.0354
        21.7504         24.0004
  -6054444.64743  -4261278.38145  23568259.9534   23568263.2814
         6.0004          6.5004
   1063992.42444   1966623.40245  24072411.3674   24072413.3484
         7.5004          7.7504
  -7139911.13645  -5302386.04345  22750974.0084   22750976.3984
        11.2504         11.2504
 -21485143.86546 -14793963.96146  21705529.9614   21705532.1644
        15.0004         15.0004
 -19003120.18746 -13793648.90846  22236538.4224   22236541.2344
        14.5004         15.0004
 -23333189.44947 -17689557.44347  20481885.7974   20481888.0824
        24.7504         26.0004
  -5136319.45242  -3843585.77745  24436127.0164   24436136.6174
         4.7504          6.0004
 03 11  2  3 11  0.0000000  0  8G24G10G 9G 4G30G17G 5G 6
 -21167478.62147 -15613079.54746  20661383.4614   20661385.9224
        21.7504         24.0004
  -6156183.59942  -4340555.54345  23548898.6094   23548899.7934
         4.7504          5.2504
   1166247.06044   2046302.32145  24091868.8284   24091870.5634
         7.2504          7.0004
  -7049568.22545  -5231988.96345  22768166.0704   22768167.4774
        11.2504         11.7504
 -21561529.99946 -14853485.55946  21690994.6564   21690996.0744
        15.2504         15.0004
 -19080870.65546 -13854233.63946  22221742.9454   22221746.6604
        14.5004         14.7504
 -23345936.98647 -17699490.56447  20479460.0634   20479462.1954
        24.7504         26.0004
  -5215679.73942  -3905424.90545  24421025.7034   24421033.2194
         4.7504          5.2504
 03 11  2  3 11 30.0000000  0  8G24G10G 9G 4G30G17G 5G 6
 -21148654.61047 -15598411.45946  20664965.6094   20664967.9654
        21.7504         23.7504
  -6257815.89343  -4419749.31945  23529559.8674   23529561.2734
         6.7504          7.2504
   1268516.47243   2125992.76045  24111329.9064   24111335.2974
         6.0004          7.2504
  -6959043.87645  -5161450.52845  22785391.8204   22785394.2234
        11.0004         11.7504
 -21637632.00946 -14912785.76946  21676512.5164   21676514.2734
        15.2504         14.5004
 -19158356.35046 -13914612.05246  22206997.9064   22207000.7894
        14.5004         15.0004
 -23358223.50447 -17709064.44347  20477122.1334   20477124.2894
        24.5004         26.0004
  -5295042.38342  -3967265.85045  24405922.4064   24405927.3874
         4.5004          5.2504
 03 11  2  3 12  0.0000000  0  8G24G10G 9G 4G30G17G 5G 6
 -21129395.02847 -15583403.97646  20668630.3444   20668632.8284
        21.7504         24.0004
  -6359333.79545  -4498854.18345  23510242.0394   23510244.9104
         8.0004          7.7504
   1370801.87143   2205695.60645  24130794.0004   24130798.9344
         5.5004          7.0004
  -6868336.40845  -5090769.35445  22802652.5474   22802655.4184
        10.7504         10.7504
 -21713443.41446 -14971859.55146  21662085.9304   21662087.1844
        14.7504         14.5004
 -19235571.77146 -13974779.87046  22192304.1414   22192307.3284
        14.5004         14.7504
 -23370044.00847 -17718275.19846  20474872.6724   20474874.7934
        24.7504         25.7504
  -5374402.87542  -4029105.06845  24390822.0474   24390826.4414
         4.5004          6.5004
 03 11  2  3 12 30.0000000  0  8G24G10G 9G 4G30G17G 5G 6
 -21109706.17947 -15568061.98646  20672377.0784   20672379.8554
        21.7504         24.2504
  -6460739.10245  -4577871.16345  23490944.6804   23490949.4144
         8.0004          7.5004
   1473095.00843   2285404.57045  24150260.3364   24150262.3634
         6.0004          7.5004
  -6777453.31645  -5019951.36745  22819947.0004   22819949.3204
        10.5004         11.0004
 -21788966.78246 -15030708.87646  21647714.1884   21647716.0394
        15.0004         14.7504
 -19312520.51746 -14034739.87846  22177661.1564   22177663.8634
        14.5004         15.0004
 -23381402.08247 -17727125.62046  20472711.3984   20472713.3914
        24.7504         25.7504
  -5453766.10642  -4090946.44945  24375718.7814   24375723.7034
         4.7504          5.5004
 03 11  2  3 13  0.0000000  0  8G24G10G 9G 4G30G17G 5G 6
 -21089589.08447 -15552386.31046  20676205.2974   20676208.0044
        21.7504         23.7504
  -6562028.37344  -4656797.86445  23471668.9534   23471673.6524
         7.2504          7.5004
   1575393.46743   2365117.63845  24169727.2584   24169732.9654
         6.7504          6.7504
  -6686396.61945  -4948998.09845  22837274.8914   22837277.7384
        10.2504         10.2504
 -21864199.39346 -15089331.63746  21633398.2664   21633400.9144
        16.0004         15.2504
 -19389200.88246 -14094490.76646  22163069.9924   22163072.4654
        15.0004         14.7504
 -23392297.07347 -17735615.19646  20470638.0784   20470640.0234
        24.7504         25.7504
  -5533131.58043  -4152789.67645  24360617.1024   24360617.1844
         5.0004          5.2504
 03 11  2  3 13 30.0000000  0  8G24G10G 9G 4G30G17G 5G 6
 -21069040.65347 -15536374.52546  20680115.1884   20680117.6844
        21.7504         24.0004
  -6663193.78945  -4735627.98745  23452418.3284   23452421.1294
         9.0004          8.2504
   1677698.89544   2444836.16945  24189196.2424   24189198.4804
         7.2504          8.5004
  -6595164.42045  -4877908.05645  22854635.9304   22854638.6024
        10.0004         10.7504
 -21939134.19746 -15147722.33946  21619138.4694   21619139.7934
        16.2504         16.0004
 -19465607.00946 -14154027.96946  22148529.9224   22148532.5234
        14.7504         15.2504
 -23402722.74647 -17743739.06746  20468653.8984   20468656.1724
        24.5004         25.7504
  -5612494.29442  -4214630.59544  24345513.2814   24345518.5084
         4.7504          4.0004
 03 11  2  3 14  0.0000000  0  8G24G10G 9G 4G30G17G 5G 6
 -21048062.88247 -15520028.19346  20684107.2814   20684109.8594
        21.7504         23.7504
  -6764232.06945  -4814359.01245  23433191.9064   23433194.6024
         9.5004          9.0004
   1780008.23544   2524557.76645  24208665.7504   24208671.0124
         7.2504          8.0004
  -6503759.38345  -4806683.34345  22872029.2194   22872031.6914
        10.0004         10.2504
 -22013769.17246 -15205879.42746  21604935.8524   21604937.2344
        16.0004         15.0004
 -19541738.13446 -14213350.86746  22134042.9384   22134046.0314
        14.7504         14.7504
 -23412679.06247 -17751497.20747  20466759.3984   20466761.5204
        24.7504         26.0004
  -5691854.53043  -4276469.64045  24330412.0634   24330416.6334
         5.2504          6.5004
 03 11  2  3 14 30.0000000  0  8G24G10G 9G 4G30G17G 5G 6
 -21026655.63947 -15503347.20446  20688181.0944   20688183.4384
        22.0004         23.7504
  -6865138.49845  -4892987.34445  23413990.0704   23413994.0664
         8.7504          7.7504
   1882319.73543   2604280.96645  24228134.8594   24228141.0704
         6.7504          7.7504
  -6412182.87345  -4735325.02945  22889456.3364   22889458.6094
         9.7504         10.7504
 -22088100.56946 -15263799.95246  21590790.9224   21590792.5164
        15.7504         15.0004
 -19617591.39146 -14272457.26646  22119607.5164   22119610.0594
        14.7504         14.7504
 -23422163.23147 -17758887.44546  20464954.5944   20464956.6454
        24.5004         25.7504
  -5771210.80043  -4338305.58645  24315311.4454   24315312.6764
         5.5004          5.5004
 03 11  2  3 15  0.0000000  0  8G24G10G 9G 4G30G17G 5G 6
 -21004818.06747 -15486330.89446  20692336.5084   20692338.8524
        22.0004         23.7504
  -6965907.77943  -4971508.79245  23394813.2274   23394816.1094
         6.7504          7.7504
   1984632.61744   2684005.24645  24247604.2424   24247608.9774
         7.5004          7.7504
  -6320435.18045  -4663833.31845  22906915.2664   22906917.6094
         9.7504         10.0004
 -22162123.78346 -15321480.32946  21576704.6254   21576705.9844
        16.2504         15.2504
 -19693163.47646 -14331344.55046  22105227.1644   22105229.6604
        15.0004         15.0004
 -23431172.48047 -17765907.61347  20463240.2424   20463242.3164
        24.7504         26.0004
  -5850560.66043  -4400136.61545  24300211.4384   24300210.2424
         5.7504          6.2504
 03 11  2  3 15 30.0000000  0  8G24G10G 9G 4G30G17G 5G 6
 -20982547.99547 -15468977.57746  20696574.5634   20696577.1054
        22.2504         24.0004
  -7066532.50844  -5049917.64245  23375664.2584   23375668.5234
         7.0004          8.7504
   2086948.05343   2763731.57145  24267072.7584   24267075.5354
         6.2504          7.5004
  -6228514.69745  -4592206.95245  22924406.7194   22924408.4774
        10.0004          9.7504
 -22235832.59846 -15378915.73146  21562678.6954   21562680.5234
        16.5004         15.5004
 -19768449.17346 -14390008.69146  22090900.8284   22090903.3244
        15.0004         15.5004
 -23439701.95947 -17772553.94047  20461617.1724   20461619.2934
        24.7504         26.0004
  -5929899.92043  -4461959.30645  24285113.7344   24285112.1054
         5.5004          6.0004
 03 11  2  3 16  0.0000000  0  8G24G10G 9G 4G30G17G 5G 6
 -20959854.01047 -15451293.93546  20700892.9614   20700895.3984
        22.2504         24.2504
  -7167016.59845  -5128216.83745  23356544.6174   23356546.9494
         8.5004          8.5004
   2189256.03543   2843452.06445  24286541.1254   24286544.8284
         5.5004          7.0004
  -6136431.08545  -4520453.47545  22941929.5634   22941931.8594
        10.0004          9.7504
 -22309231.66046 -15436109.76446  21548710.9224   21548712.0824
        16.5004         15.5004
 -19843454.30446 -14448454.19846  22076628.2344   22076630.8954
        15.2504         15.5004
 -23447757.81447 -17778831.20147  20460084.2504   20460086.2544
        24.7504         26.0004
  -6009235.47143  -4523779.08445  24270016.5004   24270023.1804
         5.7504          6.2504
 03 11  2  3 16 30.0000000  0  8G24G10G 9G 4G30G17G 5G 6
 -20936739.26347 -15433282.42846  20705291.4844   20705294.0634
        22.0004         24.2504
  -7267357.94644  -5206404.76645  23337450.3594   23337454.1334
         7.2504          8.0004
   2291552.19843   2923163.30245  24306007.6804   24306012.1214
         5.5004          7.0004
  -6044188.15145  -4448575.87645  22959483.2584   22959484.5354
        10.5004         10.2504
 -22382320.03046 -15493061.70046  21534802.4224   21534803.8164
        16.2504         15.7504
 -19918178.99346 -14506681.17746  22062408.0394   22062410.7584
        15.0004         15.5004
 -23455340.73847 -17784739.95447  20458641.2114   20458643.2154
        24.7504         26.0004
  -6088568.56943  -4585596.92845  24254919.3834   24254923.5904
         5.5004          6.7504
 03 11  2  3 17  0.0000000  0  8G24G10G 9G 4G30G17G 5G 6
 -20913200.79847 -15414940.74546  20709770.7894   20709773.4024
        22.0004         24.0004
  -7367549.04143  -5284475.64645  23318384.0864   23318387.9884
         6.7504          8.2504
   2393837.87943   3002866.47945  24325470.6724   24325472.3364
         5.5004          6.7504
  -5951784.21845  -4376572.77945  22977067.4064   22977068.8594
        10.5004         10.0004
 -22455091.07246 -15549766.37546  21520954.9774   21520956.3364
        17.0004         16.0004
 -19992617.63746 -14564685.27646  22048242.9224   22048245.4534
        15.0004         15.5004
 -23462445.35247 -17790275.99347  20457289.2504   20457291.2304
        24.7504         26.0004
  -6167894.80343  -4647409.48145  24239823.5004   24239827.4844
         5.2504          5.5004
 03 11  2  3 17 30.0000000  0  8G24G10G 9G 4G30G17G 5G 6
 -20889234.17747 -15396265.44046  20714331.3834   20714333.6914
        22.2504         24.0004
  -7467580.29843  -5362422.01045  23299347.1564   23299351.0594
         6.5004          6.7504
   2496116.48143   3082564.05545  24344935.6564   24344939.2774
         6.5004          6.5004
  -5859215.52345  -4304441.33245  22994682.2894   22994684.0944
        10.7504          9.7504
 -22527536.26646 -15606217.12546  21507169.4224   21507170.5594
        17.0004         16.2504
 -20066763.21546 -14622460.99646  22034133.6414   22034136.3484
        15.5004         15.7504
 -23469064.49447 -17795433.74647  20456029.6254   20456031.5944
        24.7504         26.0004
  -6247207.76043  -4709211.63545  24224731.6644   24224737.0084
         5.5004          6.5004
 03 11  2  3 18  0.0000000  0  8G24G10G 9G 4G30G17G 5G 6
 -20864845.25147 -15377261.06646  20718972.4224   20718974.7664
        22.0004         23.7504
  -7567453.00643  -5440244.77945  23280341.1884   23280345.6764
         6.5004          8.0004
   2598380.47042   3162250.31145  24364393.5394   24364396.2934
         4.7504          6.7504
  -5766488.97245  -4232186.86945  23012327.3754   23012329.3674
        10.7504         10.2504
 -22599657.77746 -15662415.67346  21493444.9614   21493445.7464
        17.2504         16.5004
 -20140618.90946 -14680010.84046  22020079.2974   22020082.1684
        15.2504         16.0004
 -23475202.34947 -17800216.46347  20454861.5784   20454863.5474
        24.7504         26.0004
  -6326511.68343  -4771006.83545  24209641.1644   24209644.0824
         6.0004          7.0004
 03 11  2  3 18 30.0000000  0  8G24G10G 9G 4G30G17G 5G 6
 -20840036.29247 -15357929.38946  20723693.2274   20723695.7704
        22.0004         23.7504
  -7667164.41044  -5517941.95545  23261368.0234   23261369.6524
         7.5004          9.2504
   2700626.53343   3241922.49545  24383853.0084   24383858.4344
         5.2504          6.2504
  -5673607.91445  -4159812.00645  23030002.6484   23030004.8054
        10.7504         10.2504
 -22671453.87246 -15718360.64146  21479782.3204   21479783.2234
        17.2504         16.2504
 -20214183.96646 -14737334.21046  22006080.3134   22006083.2544
        15.2504         15.7504
 -23480858.94047 -17804624.17647  20453785.2424   20453787.1994
        24.7504         26.2504
  -6405806.95143  -4832795.14745  24194551.1954   24194552.6954
         6.0004          6.0004
 03 11  2  3 19  0.0000000  0  8G24G10G 9G 4G30G17G 5G 6
 -20814806.73547 -15338269.97646  20728494.3594   20728496.9024
        21.7504         23.7504
  -7766709.04045  -5595509.12945  23242425.0784   23242428.0904
         8.0004          8.2504
   2802853.70043   3321580.01145  24403304.7424   24403309.7814
         5.5004          6.2504
  -5580572.34045  -4087316.76645  23047706.1954   23047707.0984
        10.7504         10.2504
 -22742919.98446 -15774048.48546  21466182.6174   21466183.5784
        17.5004         16.2504
 -20287455.15846 -14794428.59646  21992137.0634   21992139.5474
        15.5004         16.0004
 -23486030.68547 -17808654.08747  20452800.8284   20452802.8094
        24.7504         26.2504
  -6485091.26943  -4894575.09045  24179463.1884   24179466.7854
         6.0004          5.7504
 03 11  2  3 19 30.0000000  0  8G24G10G 9G 4G30G17G 5G 6
 -20789158.38047 -15318284.22846  20733375.0554   20733377.8794
        21.7504         23.5004
  -7866083.22145  -5672943.45345  23223516.0394   23223520.2934
         9.2504          8.5004
   2905059.45243   3401220.86845  24422754.2424   24422759.4104
         5.7504          5.5004
  -5487384.48845  -4014702.82545  23065439.2274   23065442.2274
        10.5004         10.5004
 -22814053.50246 -15829477.15746  21452646.2734   21452647.7624
        17.0004         16.7504
 -20360431.13946 -14851292.94846  21978250.3754   21978252.7424
        16.0004         16.2504
 -23490717.00047 -17812305.73747  20451909.1644   20451911.1804
        25.0004         26.2504
  -6564363.97343  -4956345.86045  24164377.9774   24164381.3754
         5.7504          6.5004
 03 11  2  3 20  0.0000000  0  8G24G10G 9G 4G30G17G 5G 6
 -20763092.47647 -15297973.11246  20738335.1884   20738337.7544
        22.0004         24.0004
  -7965283.96345  -5750242.65645  23204638.9844   23204642.5354
         9.0004          8.2504
   3007240.89243   3480842.74745  24442197.6804   24442200.9494
         5.5004          5.7504
  -5394046.90145  -3941972.23945  23083200.9144   23083204.6294
        10.0004         10.5004
 -22884852.01546 -15884644.78546  21439174.2504   21439175.6454
        17.5004         16.5004
 -20433110.66446 -14907926.29646  21964419.7664   21964422.4264
        15.5004         16.2504
 -23494917.33747 -17815578.70747  20451109.9064   20451111.7114
        25.0004         26.0004
  -6643625.03443  -5018107.56045  24149295.0474   24149294.9414
         6.0004          6.2504
 03 11  2  3 20 30.0000000  0  8G24G10G 9G 4G30G17G 5G 6
 -20736609.22647 -15277336.79746  20743374.6644   20743377.0904
        22.0004         23.7504
  -8064306.50545  -5827403.04845  23185795.1804   23185797.0084
         8.7504          8.2504
   3109396.75542   3560444.72045  24461637.4924   24461642.4144
         4.7504          6.2504
  -5300560.59245  -3869125.75345  23100990.7664   23100993.6254
         9.5004         10.0004
 -22955311.88646 -15939548.54146  21425765.5394   21425766.8984
        17.0004         16.5004
 -20505491.49046 -14964326.88246  21950645.7274   21950648.1764
        15.7504         16.5004
 -23498629.10247 -17818470.97647  20450403.7894   20450405.5594
        25.0004         26.2504
  -6722872.79443  -5079858.97245  24134214.5634   24134219.1564
         5.7504          6.0004
 03 11  2  3 21  0.0000000  0  8G24G10G 9G 4G30G17G 5G 6
 -20709707.73047 -15256374.57046  20748493.9614   20748496.7034
        22.0004         23.7504
  -8163144.63245  -5904419.66245  23166985.9774   23166988.0744
         9.0004          9.0004
   3211526.47243   3640026.36545  24481073.1174   24481074.4064
         5.5004          6.5004
  -5206925.47345  -3796163.32645  23118809.3984   23118812.6454
         9.2504          9.5004
 -23025428.25846 -15994184.63646  21412423.1954   21412424.3794
        17.0004         16.5004
 -20577569.59646 -15020491.60046  21936930.1804   21936933.1334
        16.0004         16.5004
 -23501849.15347 -17820980.08347  20449790.8754   20449792.8204
        24.7504         26.0004
  -6802104.75043  -5141598.04245  24119136.4144   24119142.0394
         5.2504          5.7504
 03 11  2  3 21 30.0000000  0  8G24G10G 9G 4G30G17G 5G 6
 -20682394.87847 -15235091.81146  20753690.8674   20753693.3524
        21.7504         23.7504
  -8261800.19345  -5981294.02845  23148213.1174   23148217.2304
         8.7504          8.5004
   3313622.29743   3719581.48845  24500501.6884   24500501.3594
         6.0004          6.7504
  -5113148.88345  -3723090.67345  23136654.3594   23136657.2774
         8.7504          9.7504
 -23095203.78246 -16048555.13246  21399145.1254   21399146.4144
        17.5004         16.5004
 -20649349.35946 -15076423.83346  21923270.9144   21923273.8794
        16.0004         16.5004
 -23504581.95747 -17823109.52547  20449270.8444   20449272.6604
        24.7504         26.0004
  -6881325.30643  -5203328.16145  24104061.8524   24104065.4734
         5.5004          6.2504
 03 11  2  3 22  0.0000000  0  8G24G10G 9G 4G30G17G 5G 6
 -20654669.69947 -15213487.76346  20758967.3524   20758969.9774
        22.0004         23.7504
  -8360267.28645  -6058021.58945  23129475.0394   23129477.4884
         9.2504          9.5004
   3415683.95343   3799110.04045  24519922.6954   24519924.5474
         5.2504          6.7504
  -5019230.66045  -3649907.64745  23154525.4694   23154527.9774
         8.2504          9.0004
 -23164633.55646 -16102656.22346  21385933.2114   21385934.2894
        17.7504         17.0004
 -20720826.59846 -15132120.33346  21909669.5234   21909671.9844
        16.2504         16.7504
 -23506824.37147 -17824856.83947  20448844.0234   20448846.0514
        24.7504         26.2504
  -6960531.67443  -5265047.32745  24088989.1804   24088992.6374
         5.5004          6.5004
 03 11  2  3 22 30.0000000  0  8G24G10G 9G 4G30G17G 5G 6
 -20626531.83847 -15191562.14346  20764321.7584   20764324.1374
        22.0004         24.0004
  -8458540.77245  -6134598.32145  23110774.7424   23110778.7624
         8.7504          9.0004
   3517710.55243   3878611.25745  24539338.4774   24539340.0234
         5.0004          5.2504
  -4925171.55945  -3576614.85845  23172424.9224   23172427.7344
         8.0004          9.5004
 -23233713.25546 -16156484.52346  21372787.8134   21372789.1954
        17.7504         17.0004
 -20791998.38046 -15187578.81746  21896125.4454   21896128.5274
        16.2504         16.5004
 -23508573.66947 -17826219.91746  20448511.1414   20448513.1214
        24.5004         25.7504
  -7039721.62443  -5326753.62645  24073920.1024   24073922.0474
         5.7504          6.7504
