     2.10           OBSERVATION DATA    G (GPS)             RINEX VERSION / TYPE
teqc  2007Feb5      UNAVCO Archive Ops  20070321 07:48:46UTCPGM / RUN BY / DATE
Solaris 5.10|UltraSparc IIIi|cc -xarch=v9 SC5.8|=+-|*Sparc  COMMENT
BIT 2 OF LLI FLAGS DATA COLLECTED UNDER A/S CONDITION       COMMENT
GARL                                                        MARKER NAME
49721S001                                                   MARKER NUMBER
Davis, Jim          Harvard-Smithsonian CfA                 OBSERVER / AGENCY
3609A14796          TRIMBLE 4000SSI     7.19B               REC # / TYPE / VERS
0220062100          TRM29659.00     SCIS                    ANT # / TYPE
 -2384509.0615 -4239524.8940  4114370.6286                  APPROX POSITION XYZ
        0.0884        0.0000        0.0000                  ANTENNA: DELTA H/E/N
     1     1                                                WAVELENGTH FACT L1/2
     7    L1    L2    C1    P2    P1    S1    S2            # / TYPES OF OBSERV
    30.0000                                                 INTERVAL
RINEX file created by UNAVCO GPS Archive.                   COMMENT
For more information contact archive@unavco.org             COMMENT
Monument ID: 11764                                          COMMENT
UNAVCO 4-char name:   GARL                                  COMMENT
4-char name from Log or data file: GARL                     COMMENT
Monument location: 40.416527 -119.355457 1640.2266          COMMENT
Visit ID: 59421                                             COMMENT
                                                            COMMENT
GARL-BRGN-NV1996                                            COMMENT
                                                            COMMENT
End of DB comments                                          COMMENT
 SNR is mapped to RINEX snr flag value [1-9]                COMMENT
  L1: 3 -> 1; 8 -> 5; 40 -> 9                               COMMENT
  L2: 1 -> 1; 5 -> 5; 60 -> 9                               COMMENT
  2003    10    28     0     0   30.0000000     GPS         TIME OF FIRST OBS
                                                            END OF HEADER
 03 10 28  0  0 30.0000000  0  8G 9G 8G28G 7G 4G26G29G11
  -2777612.01756  -1390638.29555  22565224.3984   22565231.6334
        12.5004         11.2504
  49746863.92655  39145025.77655  23229060.3594   23229066.3594
         9.7504          8.7504
  29178710.45257  23294457.11456  21602609.6174   21602613.3324
        22.7504         19.2504
   7944328.21857   6238067.33656  20549835.2424   20549839.9184
        24.7504         25.7504
  -1623527.23855  -1175434.74855  23435082.6414   23435090.4494
        10.0004          8.2504
  19840205.74156   8563466.79255  23013572.2344   23013577.8834
        12.0004         10.7504
  26167632.16054  20477071.66355  23390562.7584   23390569.3794
         7.7504          8.0004
  23457280.08954  17555850.46255  24611417.3594   24611425.9184
         7.0004          6.2504
 03 10 28  0  1  0.0000000  0  8G 9G 8G28G 7G 4G26G29G11
  -2785546.78246  -1396821.12045  22563714.2344   22563720.7504
        12.5004         11.5004
  49931986.98445  39289277.42345  23264287.8524   23264296.2704
        10.2504          8.5004
  29301131.13947  23389849.85646  21625905.5864   21625909.4064
        22.7504         19.0004
   8036873.29847   6310180.39846  20567445.8914   20567450.6954
        24.5004         25.7504
  -1648427.66346  -1194837.54945  23430344.1884   23430353.6134
        12.0004         10.7504
  19986373.59545   8677363.73045  23041388.6644   23041396.4144
        11.7504         10.7504
  26325871.07245  20600374.62445  23420674.9694   23420682.6024
         8.0004          7.7504
  23607161.86143  17672641.51245  24639940.4534   24639941.0164
         6.7504          5.2504
 03 10 28  0  1 30.0000000  0  8G 9G 8G28G 7G 4G26G29G11
  -2793177.21846  -1402766.83445  22562262.3524   22562269.0904
        12.2504         11.5004
  50117313.18345  39433687.39845  23299555.0084   23299563.8134
        11.0004          8.2504
  29423741.52247  23485390.40746  21649237.5084   21649241.1294
        22.5004         18.7504
   8129788.59747   6382581.94146  20585126.9144   20585131.7544
        24.5004         25.5004
  -1673191.26646  -1214133.68745  23425631.2424   23425637.5594
        13.5004         10.0004
  20132891.87945   8791533.78645  23069268.7194   23069275.6374
        11.2504         10.2504
  26484336.61445  20723854.15845  23450830.9614   23450838.7344
         8.7504          8.0004
  23757407.51243  17789715.98845  24668530.6954   24668538.8204
         6.5004          5.2504
 03 10 28  0  2  0.0000000  0  8G 9G 8G28G 7G 4G26G29G11
  -2800509.72646  -1408480.36846  22560867.2504   22560875.1524
        12.7504         12.2504
  50302831.38646  39578246.96545  23334858.6024   23334866.2114
        12.5004          9.2504
  29546532.60647  23581071.76546  21672603.9384   21672607.7344
        22.5004         19.2504
   8223063.73147   6455263.87746  20602876.8914   20602881.7304
        24.5004         25.7504
  -1697823.72546  -1233327.60945  23420943.3674   23420950.7894
        12.5004          8.0004
  20279748.66845   8905967.63045  23097215.7734   23097221.7734
        11.5004         10.0004
  26643016.68245  20847500.85645  23481025.4774   23481031.6644
         8.7504          7.7504
  23908006.00943  17907065.57645  24697189.5234   24697198.6454
         6.5004          5.5004
 03 10 28  0  2 30.0000000  0  8G 9G 8G28G 7G 4G26G29G11
  -2807532.03546  -1413952.18346  22559530.9924   22559536.8284
        13.5004         12.0004
  50488549.30545  39722962.09845  23370198.1884   23370206.0314
         9.7504          9.0004
  29669513.76147  23676901.23346  21696006.7734   21696010.3834
        22.7504         19.0004
   8316707.15547   6528232.78846  20620696.2504   20620701.0554
        24.5004         25.7504
  -1722312.37045  -1252409.53545  23416282.3834   23416289.8284
        10.5004          8.0004
  20426950.74546   9020670.46845  23125227.0634   23125232.3954
        12.2504         10.7504
  26801917.39745  20971319.51345  23511264.0084   23511269.2114
         8.7504          7.7504
  24058964.66343  18024695.56944  24725915.6254   24725918.8134
         6.0004          4.7504
 03 10 28  0  3  0.0000000  0  8G 9G 8G28G 7G 4G26G29G11
  -2814223.20846  -1419166.02146  22558257.7274   22558264.1134
        14.2504         12.5004
  50674483.70545  39867846.00045  23405580.9454   23405587.4024
         8.7504          7.5004
  29792703.76447  23772893.44046  21719449.0864   21719452.7194
        22.2504         18.5004
   8410736.13847   6601502.13946  20638589.6884   20638594.5274
        24.5004         25.7504
  -1746635.40645  -1271362.47345  23411654.5864   23411661.5744
         9.5004          7.5004
  20574513.80045   9135654.62145  23153307.1564   23153312.2774
        11.5004          9.7504
  26961054.34545  21095322.25945  23541546.2114   23541551.3204
         8.2504          7.7504
  24210299.84343  18142619.16445  24754714.0314   24754722.7894
         6.0004          5.2504
 03 10 28  0  3 30.0000000  0  8G 9G 8G28G 7G 4G26G29G11
  -2820591.52346  -1424128.26145  22557045.5004   22557051.6054
        13.7504         11.5004
  50860621.45645  40012888.28045  23441003.1334   23441011.3874
         8.7504          8.5004
  29916091.69347  23869039.87046  21742929.1414   21742933.0204
        22.5004         18.5004
   8505138.69347   6675062.58446  20656553.8914   20656558.6374
        24.7504         25.7504
  -1770800.53045  -1290192.31945  23407056.0314   23407063.5594
         9.7504          6.5004
  20722424.07545   9250909.29745  23181453.6884   23181461.0164
        11.0004          9.7504
  27120414.01745  21219498.49845  23571871.5634   23571879.7464
         8.5004          8.0004
  24361998.77643  18260826.22445  24783581.3754   24783588.0084
         5.7504          5.2504
 03 10 28  0  4  0.0000000  0  8G 9G 8G28G 7G 4G26G29G11
  -2826643.98746  -1428844.36945  22555893.7734   22555900.0554
        13.7504         11.7504
  51046951.07643  40158080.06645  23476458.7734   23476467.0514
         6.7504          7.0004
  30039667.76147  23965332.90746  21766444.4774   21766447.9694
        22.2504         18.7504
   8599903.79547   6748905.52946  20674586.9614   20674591.6954
        24.7504         25.7504
  -1794814.06945  -1308904.07545  23402486.3134   23402493.1214
         9.7504          7.5004
  20870669.13845   9366424.87745  23209664.3134   23209670.3834
        11.5004         10.0004
  27279983.52345  21343838.30945  23602237.9614   23602245.5944
         8.7504          8.0004
  24514049.63343  18379307.31545  24812515.7034   24812521.0594
         5.5004          5.2504
 03 10 28  0  4 30.0000000  0  8G 9G 8G28G 7G 4G26G29G11
  -4407795.40846  -2660910.36745  22255010.8834   22255016.7774
        13.2504         11.7504
  49658059.28645  39075826.61545  23212161.4224   23212168.1374
         8.0004          7.7504
  28588018.96747  22834178.00346  21490205.2194   21490208.9574
        22.2504         18.7504
   7119616.26847   5595434.74446  20392897.5234   20392902.4454
        24.7504         25.7504
  -3394090.93145  -2555093.67945  23098153.2814   23098159.7154
         9.5004          8.2504
  19443833.57145   8254604.88645  22938145.7194   22938152.5784
        11.5004          9.7504
  25864347.90245  20240745.48345  23332851.8984   23332860.7034
         8.5004          8.0004
  23091038.06043  17270467.35645  24541723.8134   24541736.1214
         5.5004          5.2504
 03 10 28  0  5  0.0000000  0  8G 9G 8G28G 7G 4G26G29G11
  -4413197.01246  -2665119.32546  22253982.5784   22253989.4224
        13.0004         12.5004
  49844777.74045  39221321.41445  23247693.6564   23247701.7934
         8.7504          8.5004
  28711982.66247  22930773.09746  21513794.6804   21513798.8984
        22.2504         18.7504
   7215114.11347   5669848.66246  20411070.2584   20411074.9694
        24.5004         25.5004
  -3417780.51745  -2573552.91145  23093645.3834   23093650.8794
         9.5004          9.0004
  19592750.69045   8370644.14545  22966484.5164   22966491.7384
        11.2504          9.7504
  26024339.24945  20365413.97145  23363297.6094   23363304.8094
         9.0004          8.0004
  23243797.45043  17389500.59445  24570794.2424   24570803.4224
         5.0004          5.5004
 03 10 28  0  5 30.0000000  0  8G 9G 8G28G 7G 4G26G29G11
  -4418274.93646  -2669076.05046  22253016.4844   22253023.6724
        13.5004         12.5004
  50031681.81345  39366960.82045  23283260.1254   23283267.2544
         8.2504          8.5004
  28836134.49547  23027514.78046  21537419.6334   21537423.5124
        22.0004         18.5004
   7310970.80347   5744542.19746  20429311.2504   20429315.6914
        24.7504         25.5004
  -3441308.93645  -2591886.55845  23089168.1334   23089175.1334
        10.0004          9.2504
  19741993.70345   8486937.38545  22994883.8364   22994890.8594
        11.0004         10.5004
  26184531.26045  20490238.81245  23393779.4774   23393787.9884
         8.2504          7.7504
  23396902.23543  17508803.02644  24599930.3444   24599934.9734
         5.0004          4.7504
 03 10 28  0  6  0.0000000  0  8G 9G 8G28G 7G 4G26G29G11
  -4423025.48746  -2672777.66546  22252112.4304   22252117.7734
        14.2504         12.5004
  50218770.81645  39512744.34145  23318861.8914   23318868.9494
         8.0004          7.0004
  28960475.86047  23124404.14946  21561081.4064   21561085.1684
        22.0004         18.7504
   7407186.15547   5819515.20946  20447620.5234   20447625.0594
        24.7504         25.5004
  -3464671.91445  -2610091.31745  23084722.0784   23084729.5704
         9.5004          8.7504
  19891561.17845   8603483.40545  23023346.2504   23023352.5084
        11.5004          9.7504
  26344921.94345  20615218.46045  23424301.3284   23424308.4574
         8.2504          6.7504
  23550351.30743  17628373.87744  24629130.2034   24629143.9414
         5.0004          4.2504
 03 10 28  0  6 30.0000000  0  8G 9G 8G28G 7G 4G26G29G11
  -4427439.54246  -2676217.12046  22251272.4224   22251277.7304
        14.2504         12.5004
  50406049.29045  39658675.51045  23354500.0164   23354507.5664
         8.7504          9.0004
  29085012.76047  23221445.88846  21584779.8364   21584783.7854
        22.0004         18.5004
   7503765.46647   5894771.82846  20465998.7114   20466003.1764
        24.7504         25.5004
  -3487859.61045  -2628159.48245  23080308.9534   23080315.6914
        10.0004          8.7504
  20041456.53545   8720284.93545  23051870.5634   23051877.0314
        11.0004          9.7504
  26505514.88844  20740355.69245  23454860.8674   23454866.6684
         7.5004          8.2504
  23704148.95143  17748216.07643  24658396.3674   24658400.1174
         5.0004          3.5004
 03 10 28  0  7  0.0000000  0  8G 9G 8G28G 7G 4G26G29G11
  -4431522.26046  -2679398.38845  22250495.4774   22250501.0314
        14.0004         11.7504
  50593507.40745  39804746.68845  23390172.3134   23390181.0594
        10.5004          8.7504
  29209737.95047  23318634.35146  21608514.3834   21608518.4734
        21.7504         18.5004
   7600699.92147   5970305.17746  20484444.9144   20484449.4964
        24.7504         25.5004
  -3510876.52945  -2646094.58945  23075928.7894   23075935.3984
        10.0004          9.5004
  20191669.26745   8837333.75745  23080454.6254   23080460.1334
        11.0004         10.0004
  26666299.44244  20865642.18545  23485459.2734   23485466.3094
         7.5004          7.2504
  23858285.46642  17868322.60443  24687728.3594   24687733.3874
         4.7504          3.5004
 03 10 28  0  7 30.0000000  0  8G 9G 8G28G 7G 4G26G29G11
  -4435266.59946  -2682315.95046  22249782.6414   22249789.3324
        13.5004         12.0004
  50781147.61845  39950959.71245  23425878.9694   23425886.8954
         9.2504          8.2504
  29334655.85247  23415972.97246  21632285.4144   21632289.2234
        21.7504         18.2504
   7697992.44247   6046117.54046  20502959.0164   20502963.7034
        24.7504         25.5004
  -3533714.91345  -2663890.53845  23071583.4614   23071589.3554
        11.5004          8.7504
  20342200.90245   8954631.05845  23109100.6024   23109107.2704
        10.7504          9.7504
  26827276.88744  20991079.04645  23516092.3984   23516102.0354
         7.5004          7.2504
  24012763.34442  17988694.85143  24717123.0784   24717126.8054
         4.5004          3.2504
 03 10 28  0  8  0.0000000  0  8G 9G 8G28G 7G 4G26G29G11
  -4438672.48446  -2684969.79546  22249134.4144   22249139.5234
        14.2504         12.2504
  50968965.49745  40097311.26145  23461619.4924   23461626.5514
         9.7504          8.5004
  29459763.79847  23513459.68846  21656092.5474   21656096.2974
        21.7504         18.0004
   7795639.43847   6122206.12446  20521540.4224   20521545.0744
        24.7504         25.7504
  -3556374.15246  -2681546.91445  23067271.7664   23067278.1054
        13.0004         10.0004
  20493046.02845   9072172.66345  23137804.6334   23137811.7974
        10.2504          9.7504
  26988441.60744  21116661.83645  23546760.1954   23546765.3524
         7.2504          7.0004
  24167577.34642  18109329.21144  24746581.9534   24746587.7074
         4.5004          4.2504
 03 10 28  0  8 30.0000000  0  8G 9G 8G28G 7G 4G26G29G11
  -4441735.39546  -2687356.40146  22248551.4774   22248556.7154
        14.5004         12.5004
  51156960.85045  40243801.01345  23497394.0314   23497402.0744
         9.2504          8.0004
  29585063.83847  23611096.07446  21679936.4924   21679940.0784
        21.2504         18.0004
   7893641.31347   6198571.23446  20540189.6174   20540194.4574
        24.5004         25.5004
  -3578848.96846  -2699059.60745  23062994.7034   23063001.9964
        12.7504         10.2504
  20644203.55245   9189957.69645  23166570.0084   23166576.5354
        10.5004          9.5004
  27149792.52344  21242389.71845  23577463.2424   23577472.2234
         7.2504          7.0004
  24322727.48942                  24776107.8364
         4.5004
 03 10 28  0  9  0.0000000  0  8G 9G 8G28G 7G 4G26G29G11
  -4444452.62846  -2689473.63246  22248034.5084   22248039.6414
        14.7504         12.7504
  51345131.98944  40390427.81745  23533201.4144   23533209.9964
         7.7504          6.5004
  29710556.23947  23708882.37046  21703816.6804   21703820.7114
        21.2504         18.0004
   7991997.29847   6275212.27746  20558906.0084   20558910.8954
        24.7504         25.5004
  -3601136.24445  -2716426.15845  23058753.0234   23058760.3284
        10.5004          9.5004
  20795670.76745   9307984.04945  23195392.3134   23195399.4654
        10.5004          9.2504
  27311327.02543  21368260.62945  23608201.6334   23608210.6024
         6.7504          7.0004
  24478211.85742                  24805696.4774
         4.5004
 03 10 28  0  9 30.0000000  0  8G 9G 8G28G 7G 4G26G29G11
  -4446810.85246  -2691311.15746  22247585.3364   22247591.6174
        14.5004         12.7504
  51533487.40445  40537198.10345  23569045.6254   23569052.6844
         9.7504          7.0004
  29836251.57547  23806826.76946  21727735.8524   21727739.7544
        21.2504         17.7504
   8090716.56547   6352136.38546  20577691.7664   20577696.5354
        24.7504         25.5004
  -3623221.76745  -2733635.42745  23054550.1174   23054557.7854
         9.2504          9.2504
  20947455.50945   9426257.83845  23224277.1484   23224282.5394
        10.7504          9.7504
  27473052.52644  21494280.37345  23638980.5474   23638988.9884
         7.7504          7.2504
  24634038.93942                  24835348.0084
         4.5004
 03 10 28  0 10  0.0000000  0  8G 9G 8G28G 7G 4G26G29G11
  -4448822.25546  -2692878.38546  22247202.3754   22247209.4574
        14.5004         13.0004
  51722010.44145  40684099.18345  23604920.6024   23604928.0004
         8.7504          6.0004
  29962135.25147  23904917.94546  21751690.7194   21751694.6214
        21.2504         17.7504
   8189783.17747   6429331.15846  20596543.5004   20596548.1884
        24.5004         25.5004
  -3645117.03745  -2750696.51745  23050383.1564   23050390.4734
         9.5004          8.7504
  21099540.14045   9544765.24645  23253217.7664   23253223.1564
        10.2504          9.2504
  27634951.31044  21620435.18245  23669786.6564   23669794.7934
         7.5004          7.2504
  24790191.67242  -1138349.67754  24865063.2504   24865071.7154
         4.5004          4.7504
 03 10 28  0 10 30.0000000  0  8G 9G 8G28G 7G 4G26G29G11
  -4450484.80746  -2694173.74146  22246886.3054   22246892.3284
        14.7504         13.5004
  51910698.41443  40831128.71944  23640825.4064   23640832.4414
         5.2504          4.7504
  30088206.61247  24003155.36546  21775681.5164   21775685.3484
        21.2504         17.5004
   8289195.15747   6506795.05146  20615461.1884   20615465.9344
        24.7504         25.5004
  -3666819.59845  -2767607.42945  23046253.8674   23046258.9534
        10.2504          8.0004
  21251921.10345   9663503.63445  23282213.8524   23282221.0274
        10.5004          9.5004
  27797019.72144  21746722.09045  23700627.3054   23700636.5314
         7.0004          6.5004
  24946667.33642  -1016420.42445  24894838.8754   24894846.6484
         4.5004          5.0004
 03 10 28  0 11  0.0000000  0  8G 9G 8G28G 7G 4G26G29G11
  -4451790.43846  -2695191.02346  22246637.8134   22246643.3204
        15.5004         13.5004
  52099554.90243  40978289.49845  23676763.8284   23676768.7034
         5.5004          5.7504
  30214471.22647  24101543.37146  21799708.6804   21799712.7114
        21.0004         17.5004
   8388956.51847   6584531.18646  20634444.9694   20634449.5634
        24.7504         25.2504
  -3688320.49845  -2784361.24445  23042162.1174   23042167.5204
        11.0004          8.2504
  21404600.77745   9782474.74445  23311268.5634   23311276.8164
        10.0004          9.7504
  27959260.06944  21873143.03545  23731501.4534   23731509.7424
         7.2504          7.2504
  25103469.01642   -894237.26344  24924678.0864   24924683.8524
         4.5004          4.5004
 03 10 28  0 11 30.0000000  0  8G 9G 8G28G 7G 4G26G29G11
  -4452741.25546  -2695931.84446  22246456.6414   22246461.7274
        15.7504         13.5004
  52288572.78443  41125576.05745  23712732.7344   23712738.4304
         6.5004          7.0004
  30340924.31247  24200078.22946  21823771.8984   21823775.6604
        21.0004         17.7504
   8489061.43347   6662535.02446  20653494.3204   20653498.9734
        24.7504         25.5004
  -3709621.48445  -2800959.30345  23038108.7504   23038116.5124
        10.2504          8.5004
  21557571.56045   9901672.69145  23340377.8444   23340385.2304
        10.7504          9.2504
  28121664.69144  21999692.00045  23762406.7584   23762414.5314
         7.5004          6.2504
  25260589.72542   -771805.65545  24954576.8284   24954587.6484
         4.7504          5.2504
 03 10 28  0 12  0.0000000  0  8G 9G 8G28G 7G 4G26G29G11
  -4453328.07846  -2696389.04546  22246345.0474   22246350.2504
        15.0004         13.2504
  52477756.99945  41272992.21145  23748733.5784   23748740.3524
         8.0004          8.0004
  30467572.55647  24298765.16646  21847872.3834   21847876.1094
        21.0004         17.7504
   8589515.15247   6740810.66146  20672609.9304   20672614.5594
        24.7504         25.5004
  -3730712.56645  -2817393.76345  23034093.1094   23034100.6844
         9.5004          8.2504
  21710837.13245  10021100.38345  23369543.7114   23369549.0084
        10.0004          9.2504
  28284237.04644  22126371.58845  23793342.7344   23793348.9344
         7.0004          7.0004
  25418033.88542   -649121.77843  24984536.7344   24984536.8754
         4.7504          3.2504
 03 10 28  0 12 30.0000000  0  8G 9G 8G28G 7G 4G26G29G11
  -4453556.02046  -2696566.59246  22246301.4774   22246307.8634
        14.7504         13.5004
  52667097.57045  41420530.15345  23784764.1644   23784773.2154
        10.7504          9.5004
  30594408.24147  24397598.15746  21872008.3524   21872012.0204
        21.0004         17.2504
   8690308.65947   6819351.05946  20691790.4384   20691794.8914
        24.7504         25.2504
  -3751598.23545  -2833668.15645  23030120.5164   23030126.4344
        11.2504          9.2504
  21864386.80345  10140749.39045  23398763.9924   23398772.2934
        10.0004          9.0004
  28446966.64044  22253173.77445  23824308.6564   23824315.0904
         7.2504          7.2504
  25575791.52642   -526193.55545  25014557.4694   25014560.1174
         4.7504          5.5004
 03 10 28  0 13  0.0000000  0  8G 9G 8G28G 7G 4G26G29G11
  -4453422.50846  -2696462.46246  22246326.8364   22246333.1414
        15.2504         13.7504
  52856592.61445  41568188.58145  23820824.4304   23820832.9064
        11.7504         11.0004
  30721431.58047  24496577.37146  21896180.2194   21896184.0274
        20.5004         17.2504
   8791440.65947   6898155.22946  20711035.1724   20711039.9064
        24.7504         25.2504
  -3772275.28745  -2849779.97845  23026185.0084   23026190.1884
        11.7504         10.2504
  22018217.56745  10260617.45245  23428036.1954   23428043.7934
        10.5004          8.7504
  28609850.32843  22380095.98845  23855303.8754   23855310.4844
         6.5004          6.2504
  25733860.32043   -403023.09745  25044637.9384   25044646.0744
         5.0004          5.2504
 03 10 28  0 13 30.0000000  0  8G 9G 8G28G 7G 4G26G29G11
  -4452916.99346  -2696068.43546  22246423.0474   22246429.2584
        16.0004         14.0004
  53046247.87545  41715971.78845  23856914.8754   23856922.8594
        10.7504         10.2504
  30848650.39647  24595708.91546  21920389.0554   21920392.8754
        21.0004         17.2504
   8892917.67147   6977228.22646  20730345.7194   20730350.4184
        24.7504         25.2504
  -3792732.47746  -2865720.53245  23022291.7344   23022299.0274
        12.5004         10.5004
  22172334.61345  10380708.61145  23457362.9454   23457369.8874
         9.7504          9.0004
  28772892.90944  22507141.99445  23886331.8284   23886337.6994
         7.5004          6.7504
  25892246.23642   -279605.39643  25074776.7344   25074782.4304
         4.7504          3.7504
 03 10 28  0 14  0.0000000  0  8G 9G 8G28G 7G 4G26G29G11
  -4452041.87546  -2695386.45446  22246589.4144   22246595.2154
        15.7504         14.0004
  53236056.63245  41863874.63045  23893033.9454   23893043.4774
         8.2504          7.7504
  30976059.96347  24694989.08846  21944634.1724   21944638.1214
        20.5004         17.0004
   8994733.59447   7056565.31546  20749720.2894   20749724.9304
        24.7504         25.5004
  -3812971.38846  -2881490.97745  23018441.1254   23018448.0784
        13.5004         11.0004
  22326729.92845  10501016.59045  23486743.7194   23486750.8244
        10.2504          9.5004
  28936086.47943  22634305.66545  23917385.5634   23917391.2464
         6.7504          6.5004
  26050942.37543   -155946.02245  25104976.1024   25104985.3634
         5.0004          5.0004
 03 10 28  0 14 30.0000000  0  8G 9G 8G28G 7G 4G26G29G11
  -6026211.14146  -3922011.77346  21947035.0864   21947039.7034
        15.7504         13.5004
  51850606.62943  40784303.08545  23629391.2734   23629399.8444
         6.7504          6.7504
  29528248.03447  23566823.93646  21669124.7664   21669128.5164
        20.7504         17.0004
   7521473.89747   5908570.74946  20469368.5234   20469373.2114
        24.5004         25.2504
  -5408405.97146  -4124686.63345  22714839.6334   22714846.6564
        13.7504         10.7504
  20905989.17245   9393945.80345  23216386.4694   23216394.5704
         9.7504          9.0004
  27524017.12344  21533991.74745  23648678.0864   23648685.7074
         7.5004          7.0004
  24634534.93042  -1259640.05044  24835443.0164   24835446.6254
         4.7504          4.7504
 03 10 28  0 15  0.0000000  0  8G 9G 8G28G 7G 4G26G29G11
  -6024585.74546  -3920745.15446  21947344.0164   21947349.0784
        15.2504         13.2504
  52040719.65742  40932443.04745  23665568.1254   23665576.3094
         4.2504          5.7504
  29656042.66147  23666404.16446  21693443.4304   21693447.3794
        20.5004         16.7504
   7623967.05847   5988435.55746  20488872.2894   20488877.0704
        24.5004         25.5004
  -5428195.14346  -4140106.59745  22711074.2034   22711080.6374
        13.0004         10.7504
  21060935.64445   9514683.28145  23245871.8134   23245877.9064
        10.5004          8.7504
  27687507.14044  21661386.41445  23679788.4694   23679796.9574
         7.0004          7.2504
  24793847.60242  -1135500.30344  24865756.4694   24865759.7854
         4.7504          4.5004
 03 10 28  0 15 30.0000000  0  8G 9G 8G28G 7G 4G26G29G11
  -6022584.93046  -3919185.99546  21947724.9534   21947730.0164
        15.7504         13.7504
  52230978.02241  41080696.11643  23701772.7034   23701785.9614
         3.5004          3.0004
  29784026.11647  23766131.52046  21717797.8524   21717801.6724
        20.2504         16.7504
   7726793.21947   6068559.84646  20508439.4144   20508444.1844
        24.5004         25.2504
  -5447758.31545  -4155350.49245  22707350.5164   22707357.1484
        11.2504         10.0004
  21216149.58445   9635629.13245  23275407.9064   23275413.6724
        10.0004          9.2504
  27851137.37244  21788890.29945  23710926.9064   23710934.7384
         7.0004          6.2504
  24953461.10942  -1011126.14342  24896130.9304   24896136.9534
         4.7504          2.5004
 03 10 28  0 16  0.0000000  0  8G 9G 8G28G 7G 4G26G29G11
  -6020205.33746  -3917331.68746  21948177.5864   21948183.3524
        16.0004         14.5004
  52421380.54043                  23738005.6254
         5.7504
  29912199.29647  23866006.72746  21742188.5944   21742192.2624
        20.5004         16.7504
   7829951.66147   6148943.06146  20528069.8054   20528074.6564
        24.5004         25.2504
  -5467091.34245  -4170415.00445  22703671.7274   22703678.7734
        11.0004          9.7504
  21371628.84945   9756781.75745  23304994.4844   23305000.6954
        10.5004          9.2504
  28014905.56944  21916501.77345  23742092.4774   23742100.4024
         7.5004          6.2504
  25113374.61942   -886518.05642  24926562.5474   24926569.6524
         4.7504          2.2504
 03 10 28  0 16 30.0000000  0  8G 9G 8G28G 7G 4G26G29G11
  -6017445.88946  -3915181.38746  21948702.3054   21948707.6254
        15.5004         13.7504
  52611923.74245                  23774265.6804
         9.0004
  30040561.10147  23966028.90846  21766615.0004   21766618.3284
        20.5004         16.5004
   7933439.85647   6229583.22346  20547762.9064   20547767.6644
        24.5004         25.2504
  -5486192.39045  -4185298.79345  22700036.7664   22700043.9414
        10.7504         10.2504
  21527369.20145   9878137.79745  23334631.2814   23334638.2464
         9.7504          9.2504
  28178806.91044  22044216.99345  23773282.2734   23773289.8134
         7.2504          6.0004
  25273584.07442   -761679.48643  24957048.7344   24957059.0394
         4.7504          3.5004
 03 10 28  0 17  0.0000000  0  8G 9G 8G28G 7G 4G26G29G11
  -6014299.38646  -3912729.49546  21949301.2034   21949306.5234
        15.7504         14.0004
  52802610.13845                  23810551.9384
         9.0004
  30169115.90947  24066201.49046  21791077.9064   21791081.1884
        20.0004         16.5004
   8037260.90047   6310482.74846  20567519.3754   20567524.0744
        24.5004         25.0004
  -5505053.78545  -4199995.82645  22696446.9534   22696453.8594
        10.5004          9.5004
  21683371.90545   9999698.31045  23364317.4304   23364323.9804
         9.7504          8.7504
  28342842.96444  22172037.11345  23804496.9614   23804504.4184
         7.7504          6.2504
  25434091.99142   -636608.42944  24987592.7114   24987601.5864
         4.7504          4.2504
 03 10 28  0 17 30.0000000  0  8G 9G 8G28G 7G 4G26G29G11
  -6010767.90446  -3909977.63146  21949973.2814   21949978.6024
        16.0004         14.0004
  52993433.05145  -2380846.29455  23846864.6954   23846872.8794
         8.0004          7.0004
  30297859.27847  24166520.99046  21815576.8594   21815580.6094
        20.0004         16.5004
   8141408.92647   6391637.05846  20587338.1024   20587342.8014
        24.5004         25.0004
  -5523676.72545  -4214507.06245  22692903.0864   22692910.6954
        10.7504          9.2504
  21839629.52845  10121457.40045  23394053.6564   23394061.2194
         9.7504          8.2504
  28507006.46744  22299956.57845  23835735.1414   23835744.3554
         7.5004          7.2504
  25594891.49642                  25018192.2664
         4.5004
 03 10 28  0 18  0.0000000  0  8G 9G 8G28G 7G 4G26G29G11
  -6006846.12546  -3906921.63646  21950719.4384   21950724.7934
        16.0004         14.2504
  53184393.14645  -2232046.33545  23883203.2114   23883212.1094
         8.0004          6.7504
  30426794.03346  24266989.63246  21840112.1334   21840115.5784
        19.7504         16.5004
   8245885.17847   6473047.13846  20607219.2114   20607223.7584
        24.5004         25.0004
  -5542055.33745  -4228827.91245  22689405.6414   22689412.8524
        11.0004          9.5004
  21996141.80045  10243414.95245  23423834.4774   23423841.1914
         9.2504          8.2504
  28671297.42644  22427975.40045  23867000.7584   23867005.7384
         7.2504          6.2504
  25755983.03042                  25048845.7894
         4.5004
 03 10 28  0 18 30.0000000  0  8G 9G 8G28G 7G 4G26G29G11
  -6002533.19346  -3903560.84346  21951540.0314   21951545.5744
        15.7504         14.0004
  53375486.85445  -2083142.23045  23919567.3984   23919575.4884
         8.0004          7.2504
  30555918.36946  24367605.99646  21864684.0164   21864687.8134
        19.7504         16.5004
   8350686.77447   6554710.72846  20627162.5084   20627167.0784
        24.5004         25.0004
  -5560187.96046  -4242957.10645  22685955.4144   22685960.4884
        12.7504         10.0004
  22152904.10145  10365567.32845  23453666.2974   23453671.3714
         9.5004          8.2504
  28835710.50944  22556089.33445  23898287.5944   23898296.3634
         7.5004          6.2504
  25917362.41642                  25079555.6484
         4.2504
 03 10 28  0 19  0.0000000  0  8G 9G 8G28G 7G 4G26G29G11
  -5997828.03746  -3899894.43746  21952435.2814   21952440.5554
        16.2504         14.7504
  53566710.50943  -1934136.87645  23955955.8914   23955964.4494
         6.7504          7.2504
  30685230.96246  24468369.06346  21889291.4064   21889295.3324
        19.7504         16.7504
   8455810.82547   6636625.58846  20647167.0554   20647171.5314
        24.7504         25.0004
  -5578072.99446  -4256893.40245  22682551.7504   22682558.9384
        12.5004          9.7504
  22309911.93845  10487911.03645  23483544.9534   23483552.5864
         9.7504          8.5004
  29000241.12044  22684294.92645  23929595.1174   23929599.0664
         7.2504          5.7504
  26079026.11442                  25110319.2814
         4.2504
 03 10 28  0 19 30.0000000  0  8G 9G 8G28G 7G 4G26G29G11
  -5992725.05346  -3895918.02846  21953406.5084   21953411.8164
        16.7504         14.5004
  53758065.37841  -1785029.28545  23992369.6724   23992378.1374
         3.5004          5.7504
  30814735.28346  24569281.50946  21913935.2034   21913939.3634
        19.7504         16.5004
   8561259.19447   6718793.16346  20667233.1644   20667237.7934
        24.5004         25.0004
  -5595703.73846  -4270631.54545  22679196.7194   22679202.0984
        12.5004         10.7504
  22467165.56745  10610446.27545  23513468.7034   23513475.4414
         9.5004          7.7504
  29164890.06244  22812592.59945  23960930.6174   23960938.5904
         7.7504          5.7504
  26240974.83142                  25141136.6254
         4.0004
 03 10 28  0 20  0.0000000  0  8G 9G 8G28G 7G 4G26G29G11
  -5987227.68846  -3891634.30246  21954452.0634   21954457.7704
        16.2504         14.5004
  53949543.30543  -1635825.87545  24028806.7034   24028818.7304
         6.0004          7.0004
  30944424.99146  24670338.42746  21938614.2274   21938617.8134
        19.7504         16.5004
   8667024.41147   6801207.63146  20687359.3204   20687363.8094
        24.5004         25.2504
  -5613083.36645  -4284173.97445  22675888.9694   22675895.2034
        11.7504         10.2504
  22624655.82145  10733165.86245  23543438.9614   23543445.6884
         9.7504          8.5004
  29329647.98843  22940975.28944  23992280.1484   23992288.7194
         6.5004          4.7504
  26403200.31842                  25172007.1804
         4.0004
 03 10 28  0 20 30.0000000  0  8G 9G 8G28G 7G 4G26G29G11
  -5981332.23746  -3887040.39246  21955574.2424   21955579.6094
        16.2504         14.5004
  54141143.21444  -1486527.39545  24065266.8524   24065275.1994
         7.7504          8.0004
  31074301.74646  24771541.10346  21963329.1174   21963332.8674
        19.5004         16.2504
   8773106.36947   6883868.91146  20707546.0784   20707550.8244
        24.7504         24.7504
  -5630207.14046  -4297517.05545  22672630.7194   22672637.5904
        12.5004         11.2504
  22782381.02045  10856068.58745  23573451.9844   23573457.5984
         9.5004          9.0004
  29494513.06643  23069441.43545  24023652.8594   24023661.8634
         5.5004          5.5004
  26565701.75741                  25202930.3524
         3.7504
 03 10 28  0 21  0.0000000  0  8G 9G 8G28G 7G 4G26G29G11
  -5975034.26846  -3882132.81446  21956772.6174   21956777.9024
        17.0004         14.5004
  54332865.13343  -1337133.78545  24101750.4454   24101758.2194
         6.7504          6.0004
  31204367.40546  24872890.95646  21988079.4064   21988083.0984
        19.2504         16.2504
   8879505.63947   6966777.44546  20727792.8984   20727797.4454
        24.5004         25.2504
  -5647069.94246  -4310656.78545  22669421.3754   22669427.0824
        12.5004         10.7504
  22940339.88445  10979153.32645  23603509.9534   23603515.9184
         9.2504          8.2504
  29659483.91943  23197990.00545  24055044.6804   24055053.8134
         5.7504          5.7504
  26728478.60141                  25233905.7974
         3.7504
 03 10 28  0 21 30.0000000  0  8G 9G 8G28G 7G 4G26G29G11
  -5968338.10746  -3876914.95646  21958047.0084   21958052.4574
        18.0004         15.5004
  54524700.24543  -1187651.83243  24138255.7344   24138259.8954
         5.7504          3.0004
  31334614.95646  24974382.56546  22012864.8914   22012868.9224
        19.0004         16.0004
   8986213.80947   7049926.69046  20748098.9144   20748103.6604
        24.7504         25.0004
  -5663675.73646  -4323596.25145  22666262.3204   22666268.4494
        13.2504         11.0004
  23098522.72145  11102412.61445  23633612.0004   23633620.3714
         9.0004          8.2504
  29824551.08843  23326613.68845  24086454.5314   24086463.1724
         5.5004          6.2504
  26891521.45541                  25264931.3524
         3.2504
 03 10 28  0 22  0.0000000  0  8G 9G 8G28G 7G 4G26G29G11
  -5961244.32646  -3871387.29146  21959397.3594   21959402.3634
        17.5004         15.0004
  54716643.16943  -1038085.96544  24174781.3204   24174789.8444
         6.7504          4.7504
  31465041.31146  25076013.47846  22037684.4534   22037688.3914
        19.0004         16.2504
   9093226.52747   7133313.23346  20768462.8754   20768467.6334
        24.5004         25.0004
  -5680024.04546  -4336335.09445  22663150.4304   22663157.0744
        13.2504         11.2504
  23256923.44245  11225841.64545  23663755.8054   23663763.4264
         9.0004          8.7504
  29989708.40843  23455307.51945  24117883.0314   24117894.0394
         5.2504          5.7504
  27054825.26841                  25296007.9454
         3.2504
 03 10 28  0 22 30.0000000  0  8G 9G 8G28G 7G 4G26G29G11
  -5953744.71446  -3865543.37446  21960823.8054   21960829.1954
        16.5004         14.5004
  54908697.68945   -888433.28945  24211328.2734   24211338.0864
         8.0004          7.2504
  31595652.63846  25177788.54346  22062538.6334   22062542.4774
        18.7504         16.0004
   9200548.16847   7216940.50346  20788885.4924   20788890.1914
        24.5004         24.7504
  -5696105.92346  -4348866.30945  22660091.0004   22660097.8324
        14.0004         11.7504
  23415544.67245  11349442.53445  23693939.1954   23693945.6764
         8.7504          8.0004
  30154958.39643  23584073.59745  24149330.3444   24149337.2734
         6.0004          6.2504
  27218393.34041                  25327133.5084
         3.0004
 03 10 28  0 23  0.0000000  0  8G 9G 8G28G 7G 4G26G29G11
  -5945832.61446  -3859378.03146  21962329.6254   21962334.4534
        17.5004         15.2504
  55100865.92244   -738691.94445  24247896.3674   24247904.5864
         7.0004          6.5004
  31726452.95846  25279710.86346  22087429.5234   22087433.4144
        18.7504         15.7504
   9308181.61647   7300810.73846  20809367.5164   20809372.2274
        24.7504         24.7504
  -5711914.18046  -4361184.31145  22657081.9614   22657087.2114
        13.0004         11.2504
  23574387.70645  11473216.24845  23724166.4844   23724173.1524
         9.0004          8.2504
  30320302.69743  23712913.18445  24180794.8444   24180800.8914
         6.0004          6.0004
  27382227.50641                  25358309.7424
         3.0004
 03 10 28  0 23 30.0000000  0  8G 9G 8G28G 7G 4G26G29G11
  -5937517.62046  -3852898.74546  21963911.7274   21963916.6254
        18.0004         16.0004
  55293133.91742   -588872.77445  24284484.9844   24284498.4534
         4.7504          5.7504
  31857430.55046  25381771.32646  22112353.6884   22112357.4494
        18.5004         15.5004
   9416113.36747   7384913.41146  20829906.1954   20829910.7544
        24.5004         24.7504
  -5727457.42346  -4373295.80845  22654124.5944   22654129.7154
        13.5004         11.5004
  23733437.53945  11597151.09545  23754432.4454   23754439.8094
         9.0004          8.0004
  30485725.99343  23841814.19745  24212270.2974   24212278.7734
         5.5004          6.5004
  27546313.30241                  25389533.3914
         3.0004
 03 10 28  0 24  0.0000000  0  8G 9G 8G28G 7G 4G26G29G11
  -5928796.77246  -3846103.21346  21965571.3754   21965576.5904
        17.5004         15.0004
  55485499.96342   -438977.41644  24321090.2424   24321100.3484
         4.2504          4.2504
  31988585.63146  25483970.09946  22137311.2734   22137315.0824
        18.2504         15.7504
   9524342.42547   7469247.75946  20850501.6024   20850506.1134
        24.5004         24.5004
  -5742732.04046  -4385198.00545  22651217.5474   22651223.5354
        13.5004         11.0004
  23892691.26845  11721244.81045  23784734.9694   23784743.0944
         8.5004          7.7504
  30651225.50043  23970774.74245  24243766.4144   24243775.9574
         6.0004          5.5004
  27710648.68941                  25420805.9304
         2.5004
 03 10 28  0 24 30.0000000  0  8G 9G 8G28G 7G 4G26G29G11
  -5919659.54446  -3838983.22346  21967309.9774   21967314.6884
        17.0004         14.5004
  55677969.96943   -289000.67044  24357716.8834   24357723.9064
         5.5004          4.7504
  32119926.43046  25586313.56646  22162304.6644   22162308.7194
        18.2504         15.5004
   9632875.36247   7553818.89046  20871154.7194   20871159.1484
        24.5004         24.7504
  -5757726.96046  -4396882.22745  22648364.1334   22648369.5824
        13.2504         11.2504
  24052154.09845  11845501.50945  23815083.3754   23815089.7974
         9.0004          8.5004
  30816806.63343  24099798.84545  24275276.0234   24275283.7624
         6.2504          6.0004
  -3123397.25751                  25452127.3364
         2.7504
 03 10 28  0 25  0.0000000  0  8G 9G 8G28G 7G 4G26G29G11
  -7485533.52146  -5059144.69646  21669333.9064   21669338.6764
        17.7504         15.0004
  54295117.89543  -1366547.93645  24094568.0554   24094578.1484
         6.2504          6.2504
  30676027.10646  24461197.21846  21887539.9534   21887543.8094
        18.2504         15.5004
   8166284.31147   6411020.68246  20592071.9454   20592076.3284
        24.5004         24.5004
  -7347869.56846  -5635954.30245  22345769.9924   22345776.0514
        13.5004         11.5004
  22636398.17845  10742314.95845  23545674.4304   23545682.2274
         9.0004          8.0004
  29407041.46442  23001280.41245  24007004.9304   24007014.6024
         4.7504          5.5004
  -4698776.60451                  25183702.7734
         2.7504
 03 10 28  0 25 30.0000000  0  8G 9G 8G28G 7G 4G26G29G11
  -7475569.09746  -5051380.14346  21671230.1644   21671234.7934
        18.2504         16.5004
  54487776.60143  -1216424.38945  24131229.8364   24131237.1524
         6.0004          6.5004
  30807726.70846  24563820.28446  21912601.1334   21912604.8244
        18.0004         15.5004
   8275408.15247   6496052.25746  20612837.2344   20612841.9104
        24.5004         24.5004
  -7362308.11646  -5647204.97145  22343022.3444   22343027.9104
        14.0004         11.2504
  22796257.28945  10866880.43545  23576093.9694   23576099.9574
         9.0004          8.5004
  29572763.60043  23130414.43345  24038540.0864   24038550.7074
         5.0004          6.0004
  -4698735.13351                  25215116.2194
         2.5004
 03 10 28  0 26  0.0000000  0  8G 9G 8G28G 7G 4G26G29G11
  -7465190.93546  -5043293.18346  21673204.9614   21673210.5744
        17.7504         16.2504
  54680523.21543  -1066232.38045  24167908.4144   24167914.4734
         6.0004          6.5004
  30939602.29746  24666580.49446  21937696.4534   21937700.4734
        18.2504         15.7504
   8384821.96547   6581309.78246  20633658.0394   20633662.6804
        24.2504         24.5004
  -7376467.24746  -5658237.97645  22340327.7734   22340333.6094
        14.5004         11.5004
  22956306.62145  10991594.10845  23606549.9694   23606556.2974
         8.5004          7.5004
  29738548.28043  23259597.12445  24070089.9924   24070101.5744
         5.2504          6.0004
                                  25246576.1884
         2.5004
 03 10 28  0 26 30.0000000  0  8G 9G 8G28G 7G 4G26G29G11
  -7454392.47746  -5034878.72046  21675259.6644   21675265.1954
        17.2504         16.0004
  54873359.59443   -915970.42645  24204603.8834   24204613.0984
         6.5004          6.0004
  31071657.78546  24769480.86746  21962825.8134   21962829.5274
        18.0004         15.5004
   8494528.28847   6666795.23446  20654534.1414   20654538.8404
        24.2504         24.2504
  -7390339.70146  -5669047.54945  22337687.3594   22337692.6214
        14.5004         11.7504
  23116547.04545  11116456.71245  23637041.2274   23637049.8204
         8.2504          8.0004
  29904396.67343  23388829.46045  24101651.5704   24101662.6024
         5.2504          6.0004
                                  25278077.7424
         2.5004
 03 10 28  0 27  0.0000000  0  8G 9G 8G28G 7G 4G26G29G11
  -7443172.92446  -5026136.13946  21677394.3914   21677399.2304
        17.5004         15.7504
  55066282.28144   -765641.15145  24241315.9304   24241325.6954
         7.5004          6.2504
  31203892.08846  24872520.58246  21987989.2344   21987992.7734
        18.0004         15.2504
   8604524.28547   6752506.41146  20675465.9064   20675470.7464
        24.2504         24.2504
  -7403923.45346  -5679632.18846  22335103.1334   22335109.4144
        14.5004         12.0004
  23276974.21545  11241464.80545  23667569.2114   23667575.5044
         8.2504          8.7504
  30070304.59242  23518108.34544  24133220.9694   24133234.9414
         4.2504          4.7504
  -4565990.21541                  25309631.6414
         2.7504
 03 10 28  0 27 30.0000000  0  7G 9G 8G28G 7G 4G26G29
  -7431537.99646  -5017069.90246  21679608.5864   21679613.5314
        18.0004         15.7504
  55259280.91644   -615252.63044  24278042.5784   24278049.5784
         7.7504          4.5004
  31336296.96346  24975693.22146  22013185.1094   22013188.4264
        18.0004         15.2504
   8714800.38447   6838435.84846  20696450.7584   20696455.5984
        24.2504         24.2504
  -7417224.02146  -5689996.15646  22332571.7344   22332578.0514
        14.5004         12.0004
  23437576.89345  11366609.71045  23698134.8594   23698141.5864
         9.0004          7.2504
  -4632218.62553                  24164803.4844
         5.5004
 03 10 28  0 28  0.0000000  0  8G 9G 8G28G 7G 4G26G29G11
  -7419488.63046  -5007680.71546  21681901.6644   21681907.1484
        18.0004         16.0004
  55452349.90644   -464809.31945  24314782.0634   24314785.9184
         7.0004          5.2504
  31468868.84546  25078995.99046  22038412.6334   22038416.5704
        18.0004         15.0004
   8825351.67347   6924579.70946  20717487.8444   20717492.4384
        24.2504         24.2504
  -7430241.37246  -5700139.39845  22330094.0004   22330099.5664
        13.5004         11.5004
  23598348.39245  11491886.04045  23728726.5314   23728734.7974
         8.2504          7.7504
  -4466221.56643                  24196391.7814
         5.0004
                                  25372861.8284
         2.7504
 03 10 28  0 28 30.0000000  0  7G 9G 8G28G 7G 4G26G29
  -7407013.35146  -4997959.64146  21684275.6414   21684280.6804
        18.2504         16.5004
  55645496.40743   -314305.69644  24351537.1254   24351546.5634
         6.0004          4.7504
  31601617.18746  25182436.26646  22063673.9384   22063677.6414
        18.2504         15.0004
   8936185.92547   7010944.07146  20738579.0234   20738583.7464
        24.0004         24.2504
  -7442963.36746  -5710052.53646  22327673.4924   22327680.0784
        14.2504         12.0004
  23759295.07645  11617298.98245  23759354.6254   23759362.5044
         8.2504          8.0004
  -4300176.39443  -3682804.93854  24227989.0004   24227993.0784
         5.0004          4.5004
 03 10 28  0 29  0.0000000  0  7G 9G 8G28G 7G 4G26G29
  -7394112.32946  -4987906.82046  21686730.5084   21686735.5824
        18.0004         16.2504
  55838715.66643   -163745.26744  24388304.8594   24388316.3244
         5.0004          4.5004
  31734539.29946  25286011.94546  22088967.8754   22088972.1644
        17.7504         15.0004
   9047299.05747   7097525.74346  20759723.2034   20759727.7154
        24.2504         24.0004
  -7455389.37546  -5719734.99646  22325308.5084   22325315.2584
        14.5004         12.2504
  23920411.23645  11742843.92945  23790014.1564   23790024.0274
         8.0004          7.5004
  -4134089.15842  -3553386.34345  24259592.2894   24259600.4024
         4.7504          5.2504
 03 10 28  0 29 30.0000000  0  7G 9G 8G28G 7G 4G26G29
  -7380783.29246  -4977520.49046  21689266.7504   21689271.9414
        18.0004         16.2504
  56032005.70142    -13129.85045  24425087.5084   24425095.7734
         4.7504          5.5004
  31867635.25746  25389723.07646  22114295.1414   22114298.9264
        17.5004         14.0004
   9158689.62947   7184323.59646  20780920.1174   20780925.0274
        24.2504         24.0004
  -7467516.31346  -5729184.41946  22323000.4454   22323005.7894
        14.7504         12.5004
  24081693.69844  11868518.49945  23820703.9454   23820710.8754
         7.2504          7.5004
  -3967962.42243  -3423937.13345  24291210.4454   24291214.1254
         6.2504          5.0004
 03 10 28  0 30  0.0000000  0  8G 9G 8G28G 7G 4G26G 5G29
  -7367020.69246  -4966796.32246  21691885.7664   21691890.7114
        18.2504         16.0004
  56225367.47042    137541.46943  24461882.9844   24461899.5594
         4.5004          3.7504
  32000908.20146  25493572.13946  22139656.5634   22139660.7934
        17.7504         14.5004
   9270359.37147   7271338.98346  20802169.9304   20802174.4414
        24.2504         24.0004
  -7479338.04246  -5738396.03046  22320750.9774   22320756.3554
        15.0004         12.7504
  24243142.66245  11994322.77745  23851428.0084   23851436.5314
         8.2504          8.0004
  -4731743.55851                  25238535.8984
         3.7504
  -3801796.31442  -3294457.15945  24322822.7584   24322836.1214
         4.2504          6.0004
 03 10 28  0 30 30.0000000  0  8G 9G 8G28G 7G 4G26G 5G29
  -7352825.20046  -4955734.83946  21694586.9924   21694592.1604
        18.5004         16.5004
  56418795.85942    288264.74345  24498690.6564   24498699.2154
         4.5004          5.2504
  32134355.27746  25597556.88146  22165050.3364   22165053.9924
        17.7504         14.5004
   9382303.89547   7358568.49246  20823472.3984   20823476.9574
        24.2504         24.0004
  -7490854.27446  -5747369.58346  22318559.5004   22318565.2424
        14.7504         12.5004
  24404752.05844  12120252.10345  23882179.7734   23882188.4734
         7.5004          6.7504
                                  25235678.8204
         3.0004
  -3635596.86243  -3164951.23545  24354455.7664   24354470.1954
         5.7504          5.5004
 03 10 28  0 31  0.0000000  0  8G 9G 8G28G 7G 4G26G 5G29
  -7338195.84346  -4944335.28446  21697370.9384   21697375.9184
        18.7504         16.7504
  56612287.44942    439037.32845  24535511.4144   24535518.1524
         4.7504          5.2504
  32267975.06246  25701676.19946  22190477.4774   22190481.4494
        17.7504         14.0004
   9494520.37847   7446009.91146  20844826.5554   20844831.0664
        24.2504         24.0004
  -7502063.37746  -5756103.81646  22316426.8134   22316432.9654
        15.2504         12.7504
  24566517.48945  12246303.01845  23912964.6804   23912973.2154
         8.2504          7.2504
  -4734787.42951                  25232817.8834
         3.2504
  -3469368.64342  -3035422.89245  24386083.5314   24386093.0394
         4.2504          6.2504
 03 10 28  0 31 30.0000000  0  8G 9G 8G28G 7G 4G26G 5G29
  -7323122.80346  -4932589.99346  21700238.6954   21700243.4774
        18.5004         16.7504
  56805847.63343    589863.24045  24572344.8134   24572354.3204
         5.7504          6.0004
  32401775.19246  25805936.04846  22215938.5704   22215942.9064
        17.5004         14.2504
   9607015.00147   7533668.06946  20866233.5234   20866238.1884
        24.2504         23.7504
  -7512954.43746  -5764590.21946  22314354.0004   22314359.5784
        15.2504         12.7504
  24728443.34644  12372478.84845  23943775.2274   23943784.7464
         7.2504          7.2504
                                  25229949.3364
         4.0004
  -3303106.30943  -2905868.01845  24417727.8364   24417735.0704
         6.0004          5.7504
 03 10 28  0 32  0.0000000  0  8G 9G 8G28G 7G 4G26G 5G29
  -7307613.34346  -4920504.63746  21703190.2814   21703195.5084
        18.7504         16.5004
  56999464.72243    740733.56645  24609188.8284   24609200.1764
         6.2504          6.7504
  32535746.23146  25910329.08046  22241432.5864   22241436.3594
        17.5004         14.2504
   9719776.70247   7621534.33746  20887691.2734   20887695.9024
        24.2504         23.7504
  -7523534.16746  -5772834.05446  22312340.7894   22312346.1684
        15.2504         13.0004
  24890517.19945  12498770.05245  23974620.6564   23974630.1884
         8.7504          7.2504
  -4740888.21243                  25227069.6884
         5.0004
  -3136823.06143  -2776296.88245  24449368.9924   24449378.9574
         5.7504          6.2504
 03 10 28  0 32 30.0000000  0  8G 9G 8G28G 7G 4G26G 5G29
  -7291654.95346  -4908069.47846  21706227.1334   21706231.8324
        19.2504         16.7504
  57193146.83043    891654.58145  24646046.2194   24646054.6954
         6.7504          6.2504
  32669898.19646  26014863.07546  22266960.9384   22266964.7464
        17.0004         14.2504
   9832814.15047   7709615.47046  20909201.5314   20909206.2424
        24.2504         24.0004
  -7533789.22446  -5780824.89046  22310388.6334   22310394.2584
        15.2504         12.7504
  25052745.91944  12625181.95445  24005489.1254   24005496.9694
         7.2504          7.2504
  -4756060.14943                  25224181.8984
         5.5004
  -2970511.68942  -2646703.61345  24481017.4534   24481028.5204
         4.2504          6.0004
 03 10 28  0 33  0.0000000  0  8G 9G 8G28G 7G 4G26G 5G29
  -7275252.65846  -4895288.41946  21709348.5084   21709353.0434
        19.5004         17.0004
  57386884.54643   1042618.86245  24682912.8754   24682922.1024
         6.7504          6.7504
  32804223.94246  26119532.49046  22292522.0234   22292525.3054
        16.7504         14.0004
   9946118.64547   7797904.69546  20930762.4694   20930767.2154
        24.0004         24.2504
  -7543723.94646  -5788566.08846  22308498.3364   22308503.2814
        15.0004         12.5004
  25215119.37345  12751706.64845  24036389.4144   24036397.3284
         8.5004          7.2504
  -4771278.52443                  25221286.6254
         6.0004
  -2804182.21143  -2517096.50545  24512667.3834   24512679.2704
         5.0004          5.2504
 03 10 28  0 33 30.0000000  0  8G 9G 8G28G 7G 4G26G 5G29
  -7258401.43346  -4882157.53746  21712554.6724   21712559.0784
        19.2504         16.7504
  57580678.57643   1193627.03345  24719791.0164   24719802.4104
         6.2504          6.0004
  32938726.13146  26224339.39346  22318117.1174   22318121.8164
        16.7504         14.2504
  10059691.53047   7886403.05346  20952374.8984   20952379.7034
        24.2504         23.7504
  -7553332.54546  -5796053.17446  22306670.2194   22306675.7624
        15.2504         12.7504
  25377637.19944  12878343.86245  24067312.2344   24067318.0824
         7.2504          7.0004
  -4786539.89043  -3683594.07355  25218382.0314   25218394.8794
         6.2504          6.0004
  -2637834.68442  -2387475.22044  24544323.7424   24544338.5594
         4.5004          4.7504
 03 10 28  0 34  0.0000000  0  8G 9G 8G28G 7G 4G26G 5G29
  -7241091.01246  -4868668.84346  21715849.1334   21715854.0314
        19.7504         17.2504
  57774534.77043   1344683.70044  24756680.6024   24756687.2464
         6.0004          4.2504
  33073412.99746  26329290.20446  22343746.9454   22343751.1994
        16.2504         13.7504
  10173539.46647   7975115.74546  20974039.4924   20974044.1094
        24.2504         24.0004
  -7562603.50746  -5803277.19246  22304905.2814   22304910.6024
        15.2504         13.2504
  25540304.53145  13005097.46245  24098268.8674   24098275.1484
         8.0004          7.7504
  -4801835.42243  -3695512.52745  25215470.0004   25215481.2894
         6.2504          6.5004
  -2471464.04742  -2257835.84243  24575982.3284   24575988.2464
         4.5004          3.5004
 03 10 28  0 34 30.0000000  0  8G 9G 8G28G 7G 4G26G 5G29
  -7223326.39746  -4854826.23746  21719229.6884   21719234.8204
        19.7504         17.5004
  57968443.79943   1495781.54344  24793580.5554   24793589.1724
         5.5004          4.7504
  33208277.30546  26434379.28746  22369410.7664   22369414.8554
        16.2504         14.0004
  10287653.65947   8064035.91046  20995754.7894   20995759.5474
        24.2504         23.7504
  -7571541.49746  -5810241.71746  22303205.1414   22303210.5204
        16.0004         13.0004
  25703110.87244  13131959.48645  24129250.9844   24129256.8554
         7.5004          7.5004
  -4817172.19343  -3707463.01245  25212551.9384   25212560.1454
         6.0004          5.2504
  -2305080.59942                  24607646.1564
         4.5004
 03 10 28  0 35  0.0000000  0  8G 9G 8G28G 7G 4G26G 5G29
  -8780516.95746  -6068221.42846  21422905.9774   21422910.8404
        19.5004         17.5004
  56586997.70442                  24530699.6644
         4.5004
  31767911.29446  25312016.15246  22095318.6644   22095322.6604
        16.0004         14.0004
   8826624.25147   6925571.44746  20717729.9774   20717734.7114
        24.2504         23.7504
  -9155555.71946  -7044538.39546  22001776.3524   22001781.2734
        15.2504         13.0004
  24290646.46644  12031337.70645  23860468.3594   23860474.0434
         7.5004          7.5004
  -6407962.56043  -4947039.69445  24909834.5394   24909843.9534
         5.5004          6.5004
  -3714094.14343                  24339520.1024
         5.2504
 03 10 28  0 35 30.0000000  0  8G 9G 8G28G 7G 4G26G 5G29
  -8761821.50846  -6053653.49046  21426463.6414   21426468.4574
        19.7504         17.5004
  56781021.73042                  24567620.6564
         4.0004
  31903146.21646  25417394.00446  22121052.5634   22121056.1374
        16.0004         13.7504
   8941282.43747   7014915.49546  20739548.7194   20739553.1724
        24.2504         23.7504
  -9163802.55346  -7050964.38446  22000207.0784   22000212.1764
        15.7504         13.2504
  24453737.50745  12158421.55845  23891503.2274   23891511.4694
         8.0004          7.7504
  -6423364.20843  -4959040.74244  24906904.5004   24906916.6454
         5.0004          4.7504
  -3547678.30642  -4910404.85553  24371185.4844   24371194.3364
         4.5004          3.5004
 03 10 28  0 36  0.0000000  0  8G 9G 8G28G 7G 4G26G 5G29
  -8742662.30946  -6038724.20346  21430109.3204   21430113.9614
        19.5004         17.5004
  56975095.01041                  24604551.4844
         3.2504
  32038561.25746  25522912.22346  22146821.5554   22146825.6334
        16.0004         13.5004
   9056205.29947   7104465.79346  20761417.7894   20761422.4064
        24.2504         23.7504
  -9171704.21646  -7057121.41346  21998703.3364   21998708.9964
        15.5004         13.2504
  24616961.27144  12285608.76645  23922562.4304   23922571.9734
         7.7504          7.0004
  -6438802.01442  -4971069.97445  24903963.9384   24903972.2854
         4.0004          5.0004
  -3381255.58642  -4780724.97844  24402855.2274   24402862.9654
         4.2504          4.7504
 03 10 28  0 36 30.0000000  0  8G 9G 8G28G 7G 4G26G 5G29
  -8723038.63346  -6023432.96946  21433843.5314   21433848.3364
        19.7504         17.5004
  57169213.99941                  24641492.8284
         2.5004
  32174155.05646  25628569.72546  22172623.7664   22172627.5984
        16.2504         13.7504
   9171390.09347   7194220.18146  20783336.3364   20783340.9414
        24.0004         23.5004
  -9179259.26446  -7063008.32346  21997265.9534   21997271.3444
        16.2504         13.5004
  24780313.24344  12412895.98345  23953648.5234   23953656.2504
         7.7504          7.0004
  -6454276.99541  -4983128.07643  24901017.2734   24901028.3054
         3.2504          3.7504
  -3214830.56042  -4651043.31844  24434526.4924   24434541.1094
         4.5004          4.5004
 03 10 28  0 37  0.0000000  0  8G 9G 8G28G 7G 4G26G 5G29
  -8702940.05047  -6007771.68046  21437668.1884   21437672.9924
        20.0004         18.0004
                                  24678442.1254
         2.0004
  32309935.98946  25734373.05046  22198462.5314   22198466.6684
        16.0004         13.5004
   9286843.34447   7284183.76646  20805306.9224   20805311.5514
        24.2504         23.5004
  -9186456.54546  -7068616.48946  21995896.3834   21995901.3634
        17.0004         14.0004
  24943798.46444  12540286.91145  23984757.6254   23984766.9224
         7.2504          7.0004
  -6469780.46841                  24898068.4064
         3.0004
  -3048397.79742  -4521355.61644  24466194.0944   24466203.8364
         4.5004          4.7504
 03 10 28  0 37 30.0000000  0  8G 9G 8G28G 7G 4G26G 5G29
  -8682369.52147  -5991742.64046  21441582.7974   21441587.4614
        20.2504         17.7504
                                  24715400.7734
         1.2504
  32445898.98846  25840318.25146  22224335.1564   22224339.3404
        15.7504         13.5004
   9402558.82947   7374351.69046  20827326.3444   20827330.7504
        24.0004         23.2504
  -9193297.71946  -7073947.16846  21994594.1254   21994599.2584
        16.7504         13.7504
  25107409.15045  12667775.65445  24015894.0164   24015902.4694
         8.0004          7.5004
  -6310488.32351                  24895112.5944
         2.2504
  -2881965.20242  -4391668.00843  24497866.2974   24497883.2464
         4.5004          3.2504
 03 10 28  0 38  0.0000000  0  6G 9G28G 7G 4G26G29
  -8661327.58646  -5975346.26246  21445586.6094   21445591.4614
        19.7504         17.2504
  32582041.39046  25946403.21946  22250242.2424   22250246.8834
        15.7504         13.2504
   9518532.33747   7464720.66946  20849395.2814   20849399.8284
        23.7504         23.2504
  -9199782.88746  -7079000.44046  21993359.9924   21993365.2544
        16.2504         13.7504
  25271139.37944  12795357.53145  24047049.6024   24047058.4774
         7.5004          7.0004
  -2715538.60243  -4261984.99644  24529538.3984   24529549.0664
         5.0004          4.0004
 03 10 28  0 38 30.0000000  0  6G 9G28G 7G 4G26G29
  -8639812.11247  -5958580.89246  21449680.7034   21449685.6024
        20.0004         17.7504
  32718363.19546  26052628.01146  22276183.6954   22276187.5634
        16.0004         13.5004
   9634762.39147   7555289.55746  20871513.5704   20871518.2704
        24.0004         23.2504
  -9205908.96046  -7083773.90446  21992194.2734   21992199.3014
        17.0004         14.2504
  25434986.15844  12923030.24145  24078228.4774   24078237.0474
         7.2504          7.2504
  -2549120.88343  -4132308.99443  24561205.6804   24561209.4184
         5.0004          3.2504
 03 10 28  0 39  0.0000000  0  7G 9G28G 7G 4G26G 5G29
  -8617817.55647  -5941442.21946  21453866.3914   21453871.0554
        20.5004         18.2504
  32854868.06846  26158995.43346  22302159.6804   22302163.8284
        16.0004         14.0004
   9751251.05447   7646059.94846  20893680.3914   20893684.9024
        23.7504         23.0004
  -9211669.25746  -7088262.34546  21991097.9614   21991102.9414
        17.0004         14.0004
  25598949.92043  13050794.05145  24109428.4224   24109439.3244
         6.5004          6.5004
  -6307416.52352                  24886205.0394
         4.5004
  -2382711.28842  -4002639.43844  24592871.6024   24592881.9064
         4.2504          4.7504
 03 10 28  0 39 30.0000000  0  7G 9G28G 7G 4G26G 5G29
  -8595344.91047  -5923931.01246  21458142.4924   21458146.8284
        20.7504         18.5004
  32991552.52846  26265502.80346  22328169.2664   22328172.9344
        15.2504         13.5004
   9867993.46147   7737028.07346  20915895.7734   20915900.3554
        24.0004         23.2504
  -9217064.43146  -7092466.30446  21990070.9454   21990075.7854
        16.5004         14.2504
  25763024.39143  13178644.20845  24140651.5864   24140659.2894
         6.2504          6.2504
  -6323083.16743                  24883223.3984
         6.2504
  -2216316.01642  -3872980.79944  24624538.1804   24624551.4964
         4.7504          4.0004
 03 10 28  0 40  0.0000000  0  7G 9G28G 7G 4G26G 5G29
  -8572394.59347  -5906047.58046  21462509.8914   21462514.6484
        20.0004         18.0004
  33128414.10946  26372148.19046  22354213.2894   22354217.0634
        15.2504         13.2504
   9984985.93347   7828191.04346  20938158.9614   20938163.4614
        24.2504         23.0004
  -9222093.98746  -7096385.32246  21989114.0394   21989118.5164
        17.0004         13.7504
  25927203.86243  13306576.18345  24171893.7664   24171898.3954
         6.5004          6.5004
  -6338783.95444                  24880236.4614
         7.2504
  -2049940.39341  -3743337.65443  24656195.5164   24656208.2344
         3.5004          3.0004
 03 10 28  0 40 30.0000000  0  7G 9G28G 7G 4G26G 5G29
  -8548962.92447  -5887789.05746  21466968.5234   21466973.3634
        20.2504         18.5004
  33265454.34146  26478932.77846  22380291.4774   22380295.5554
        15.5004         13.2504
  10102228.37447   7919548.80046  20960469.1884   20960473.8754
        24.0004         23.2504
  -9226753.25646  -7100015.84146  21988227.4144   21988232.6884
        16.7504         13.7504
  26091487.04943  13434588.91345  24203156.5394   24203165.6604
         6.5004          6.0004
  -6354516.97245                  24877241.9064
         8.0004
  -1883586.00542  -3613711.21944  24687854.7424   24687863.1844
         4.2504          4.0004
 03 10 28  0 41  0.0000000  0  8G 9G24G28G 7G 4G26G 5G29
  -8525049.20447  -5869154.92846  21471519.3754   21471523.9574
        20.5004         18.5004
                                  24561531.1414
         2.7504
  33402671.97646  26585855.60046  22406403.3444   22406407.3634
        15.7504         13.0004
  10219718.09747   8011099.24146  20982826.7734   20982831.3324
        23.7504         23.0004
  -9231040.70546  -7103356.62246  21987411.1254   21987415.8484
        16.5004         13.7504
  26255869.58043  13562679.08445  24234440.1804   24234449.4304
         6.7504          6.0004
  -6370282.25445  -4914906.83655  24874241.1724   24874256.5514
         8.2504          6.0004
  -1717256.96142  -3484104.34344  24719505.3364   24719517.2234
         4.2504          4.2504
 03 10 28  0 41 30.0000000  0  8G 9G24G28G 7G 4G26G 5G29
  -8500651.62047  -5850143.76146  21476161.9064   21476166.1844
        21.0004         18.7504
  -6334590.06541                  24555051.2034
         3.7504
  33540066.58146  26692916.34046  22432548.3134   22432552.4024
        15.2504         13.0004
  10337453.18947   8102840.88046  21005231.1094   21005235.6804
        23.7504         22.7504
  -9234953.69946  -7106405.62746  21986666.5084   21986671.5594
        16.7504         14.2504
  26420347.93744  13690843.92445  24265737.8834   24265747.0044
         7.2504          7.2504
  -6386079.89045  -4927216.56745  24871235.4224   24871246.3714
         8.0004          7.0004
  -1550956.43242  -3354519.51444  24751149.3984   24751158.1564
         4.0004          4.5004
 03 10 28  0 42  0.0000000  0  8G 9G24G28G 7G 4G26G 5G29
  -8475764.96747  -5830751.49746  21480897.6174   21480902.2234
        20.7504         18.2504
  -6368648.78442                  24548571.0554
         4.7504
  33677641.55446  26800117.61646  22458728.0474   22458732.2894
        15.5004         13.5004
  10455435.51547   8194775.17746  21027682.6334   21027687.3794
        23.7504         22.7504
  -9238486.26446  -7109158.18346  21985994.7274   21985999.4844
        17.0004         14.0004
  26584922.36944  13819083.55545  24297054.0164   24297059.9224
         7.0004          6.5004
  -6401905.78844  -4939548.30445  24868223.2274   24868235.6294
         7.2504          7.7504
  -1384684.01941  -3224956.82544  24782787.7034   24782794.0314
         2.7504          4.5004
 03 10 28  0 42 30.0000000  0  8G 9G24G28G 7G 4G26G 5G29
  -8450383.35847  -5810973.55846  21485727.6024   21485732.3954
        21.0004         18.5004
  -6402714.17943                  24542087.3914
         5.7504
  33815400.64846  26907462.35946  22484942.7734   22484946.6174
        15.5004         13.5004
  10573667.48947   8286903.99946  21050181.0084   21050185.6024
        23.5004         22.7504
  -9241631.50646  -7111608.92946  21985395.7894   21985401.0634
        16.7504         14.2504
  26749593.82643  13947398.90545  24328389.6884   24328396.6294
         6.2504          6.5004
  -6417755.43043  -4951898.51845  24865207.2734   24865219.3364
         5.7504          7.2504
  -6174234.88951  -3095414.60043  24814425.6024   24814429.2584
         3.7504          3.7504
 03 10 28  0 43  0.0000000  0  8G 9G24G28G 7G 4G26G 5G29
  -8424510.31747  -5790812.68746  21490650.9614   21490655.2974
        21.0004         18.5004
  -6436789.07643  -4912170.30955  24535603.0864   24535613.1094
         5.7504          5.5004
  33953338.45446  27014946.36846  22511191.7664   22511195.3164
        15.5004         13.5004
  10692142.27947   8379222.03046  21072726.2974   21072730.7384
        23.5004         22.7504
  -9244391.87546  -7113759.78046  21984870.8284   21984875.3054
        18.2504         15.0004
  26914353.75843  14075783.14445  24359743.8754   24359752.4344
         6.5004          6.5004
  -6433633.38742  -4964270.75545  24862186.2344   24862196.1764
         4.7504          6.5004
  -6008025.21441  -2965900.72244  24846057.7814   24846067.6414
         3.7504          4.5004
 03 10 28  0 43 30.0000000  0  8G 9G24G28G 7G 4G26G 5G29
  -8398143.56147  -5770267.09246  21495668.6644   21495672.8244
        21.2504         18.7504
  -6470870.46443  -4938726.92045  24529117.1724   24529124.8754
         6.5004          7.0004
  34091455.03046  27122569.68546  22537474.2504   22537477.8014
        15.5004         13.5004
  10810858.54047   8471728.21946  21095317.0634   21095321.6214
        23.2504         22.5004
  -9246764.34846  -7115608.35746  21984419.0634   21984423.9964
        17.5004         14.7504
  27079199.27843  14204234.14945  24391111.7814   24391119.4144
         6.2504          6.7504
  -6449539.14042  -4976664.70145  24859158.3834   24859167.5164
         4.0004          6.0004
  -5841853.56142  -2836416.32744  24877677.9304   24877692.8874
         4.7504          4.5004
 03 10 28  0 44  0.0000000  0  8G 9G24G28G 7G 4G26G 5G29
  -8371289.47947  -5749341.77346  21500778.6094   21500782.9924
        21.2504         19.0004
  -6504963.71744  -4965292.85645  24522629.6174   24522640.5204
         7.2504          6.7504
  34229742.33146  27230326.03046  22563789.2894   22563793.5314
        15.2504         13.0004
  10929806.58347   8564415.02146  21117952.1804   21117956.6214
        23.2504         22.5004
  -9248754.59146  -7117159.09946  21984039.9694   21984044.7974
        17.7504         15.0004
  27244119.18743  14332742.95645  24422497.1254   24422504.9574
         6.7504          6.2504
  -6465479.66541  -4989085.74844  24856124.0164   24856137.5784
         2.7504          4.7504
  -5675731.26242  -2706970.71343  24909289.4384   24909300.4804
         4.0004          3.7504
 03 10 28  0 44 30.0000000  0  8G 9G24G28G 7G 4G26G 5G29
  -8343944.42747  -5728033.88746  21505982.1954   21505986.5084
        21.2504         19.2504
  -6539064.48543  -4991864.69245  24516140.6724   24516148.9614
         6.5004          6.0004
  34368201.79446  27338216.51646  22590137.1724   22590141.2384
        15.0004         13.0004
  11048986.67447   8657282.63146  21140631.4694   21140636.0514
        23.5004         22.5004
  -9250357.88646  -7118408.32246  21983734.8284   21983739.7854
        18.0004         15.0004
  27409112.08543  14461308.76445  24453893.2274   24453903.2624
         6.2504          6.7504
                                  24853085.0394
         2.0004
  -5509659.85742  -2577564.58645  24940893.3524   24940902.6254
         4.0004          5.2504
 03 10 28  0 45  0.0000000  0  8G 9G24G28G 7G 4G26G 5G29
  -8316108.15647  -5706343.23546  21511279.2974   21511283.8554
        21.0004         19.0004
  -6573171.92643  -5018441.58845  24509649.4144   24509663.3754
         6.0004          6.2504
  34506831.51946  27446239.68346  22616518.0004   22616521.9144
        15.0004         12.7504
  11168395.55647   8750328.52146  21163353.8134   21163358.0554
        23.5004         22.2504
  -9251573.17046  -7119355.20446  21983503.2584   21983507.9804
        17.7504         14.5004
  27574173.05443  14589927.64045  24485303.1644   24485311.1374
         6.7504          5.7504
  -6310753.46951                  24850037.8204
         3.0004
  -5343643.49643  -2448201.55943  24972486.3284   24972496.0474
         5.0004          3.5004
 03 10 28  0 45 30.0000000  0  8G 9G24G28G 7G 4G26G 5G29
  -9863196.13047  -6911866.27346  21216878.1094   21216882.8204
        21.2504         19.0004
  -8182702.38342  -6272620.97245  24203366.2034   24203380.4454
         4.7504          5.2504
  33070218.08346  26326800.66146  22343139.5784   22343143.2114
        14.7504         12.5004
   9712617.36047   7615955.91946  20886328.8134   20886333.0314
        23.5004         22.5004
 -10827816.11446  -8347596.34146  21683554.4534   21683558.8134
        18.0004         15.0004
  26163886.28743  13491002.72445  24216934.3284   24216945.3834
         6.0004          6.7504
  -7902211.74542                  24547195.8204
         4.5004
  -6753097.69742  -3546477.74343  24704274.3284   24704287.5864
         4.7504          3.7504
 03 10 28  0 46  0.0000000  0  8G 9G24G28G 7G 4G26G 5G29
  -9834365.83947  -6889401.06846  21222364.1334   21222368.5514
        21.5004         19.2504
  -8216808.66742  -6299196.91745  24196875.1954   24196890.4104
         4.0004          5.5004
  33209194.63746  26435094.08446  22369585.6334   22369588.7624
        14.0004         12.0004
   9832485.14247   7709359.40046  20909138.8754   20909143.3404
        23.5004         22.5004
 -10828241.37246  -8347927.60346  21683473.3524   21683478.2034
        17.5004         15.0004
  26329080.44443  13619725.32445  24248368.0554   24248375.0664
         5.7504          5.2504
  -7918277.20143                  24544137.6484
         5.7504
  -6587194.20242                  24735844.2894
         4.0004
 03 10 28  0 46 30.0000000  0  8G 9G24G28G 7G 4G26G 5G29
  -9805040.21747  -6866549.87646  21227944.4384   21227948.9734
        21.0004         18.7504
  -8250914.80141  -6325772.91544  24190387.2584   24190400.0004
         3.5004          4.2504
  33348339.84446  26543518.94246  22396063.8524   22396067.6484
        14.0004         12.0004
   9952575.78447   7802936.53646  20931991.6414   20931996.0594
        23.5004         22.2504
 -10828271.79446  -8347951.20046  21683467.4304   21683472.3984
        18.7504         15.5004
  26494332.08943  13748492.76545  24279816.4694   24279828.2384
         5.7504          5.7504
  -7934375.71344  -6149708.36655  24541074.7894   24541087.6134
         7.0004          5.7504
  -6421355.62142                  24767404.5394
         4.5004
 03 10 28  0 47  0.0000000  0  8G 9G24G28G 7G 4G26G 5G29
  -9775212.47847  -6843307.42846  21233620.3524   21233625.2034
        21.0004         19.0004
  -8285013.13942  -6352342.59044  24183895.5944   24183899.5664
         4.2504          4.5004
  33487658.76346  26652079.12946  22422576.2344   22422579.8794
        14.5004         12.0004
  10072892.79647   7896690.06946  20954886.8524   20954891.3164
        23.5004         22.5004
 -10827899.51846  -8347660.99746  21683538.6414   21683543.3054
        18.5004         15.7504
  26659643.25743  13877306.52645  24311273.4694   24311284.6524
         5.7504          6.2504
  -7950501.25644  -6162273.66344  24538006.1024   24538012.3364
         7.2504          4.5004
  -6255580.13142  -6094951.37654  24798949.6564   24798958.6844
         4.2504          4.7504
 03 10 28  0 47 30.0000000  0  8G 9G24G28G 7G 4G26G 5G29
  -9744878.91447  -6819670.83746  21239393.1174   21239397.4654
        21.5004         19.2504
  -8319098.93143  -6378902.81145  24177409.9924   24177423.4494
         6.0004          5.5004
  33627153.01246  26760775.97645  22449120.5234   22449124.4264
        14.0004         11.5004
  10193436.43347   7990620.19146  20977825.4534   20977829.9534
        23.5004         22.2504
 -10827120.27546  -8347053.68446  21683686.9304   21683690.8794
        18.7504         15.7504
  26825012.55043  14006165.58245  24342743.7734   24342753.1764
         6.2504          5.7504
  -7966651.51543  -6174858.11245  24534932.8134   24534940.6804
         6.7504          5.0004
  -6089868.99742  -5965826.05144  24830484.0784   24830491.1604
         4.5004          4.5004
 03 10 28  0 48  0.0000000  0  8G 9G24G28G 7G 4G26G 5G29
  -9714040.73447  -6795641.04446  21245261.1174   21245265.1604
        21.7504         19.0004
  -8353172.48544  -6405453.29944  24170926.1334   24170937.0234
         7.2504          4.7504
  33766819.71246  26869607.17545  22475698.1414   22475701.8204
        13.5004         11.5004
  10314202.26947   8084723.45846  21000806.4064   21000811.0234
        23.2504         22.2504
 -10825934.36346  -8346129.49446  21683912.2814   21683916.7234
        18.7504         15.7504
  26990434.04143  14135065.31145  24374220.9774   24374228.6334
         6.0004          6.0004
  -7982828.98843  -6187463.77044  24531853.3134   24531866.0554
         5.5004          4.7504
  -5924227.72341                  24862004.1804
         3.5004
 03 10 28  0 48 30.0000000  0  8G 9G24G28G 7G 4G26G 5G29
  -9682693.06147  -6771214.23846  21251226.1334   21251230.4104
        21.2504         19.0004
  -8387227.67844  -6431989.63145  24164444.8914   24164453.9534
         7.7504          7.5004
  33906661.91546  26978575.12945  22502309.0704   22502312.4804
        13.7504         11.5004
  10435192.06047   8179001.22946  21023830.1644   21023834.5824
        23.5004         22.2504
 -10824335.70946  -8344883.68446  21684216.0084   21684220.5084
        18.7504         16.0004
  27155907.94843  14264005.92045  24405711.9384   24405720.5784
         6.7504          6.2504
  -7999029.18442  -6200087.02744  24528770.0554   24528780.1724
         4.7504          4.7504
  -5758655.84541                  24893510.7894
         3.2504
 03 10 28  0 49  0.0000000  0  8G 9G24G28G 7G 4G26G 5G29
  -9650842.49147  -6746395.55846  21257287.0784   21257291.3794
        21.5004         19.0004
  -8421270.44944  -6458516.27945  24157966.8364   24157976.9064
         7.2504          5.7504
  34046670.97746  27087673.10845  22528952.0474   22528955.8094
        13.2504         11.7504
  10556395.93447   8273445.82946  21046894.1414   21046898.6174
        23.2504         22.0004
 -10822330.07046  -8343320.73946  21684597.8284   21684602.5864
        18.5004         16.0004
  27321422.77343  14392978.35145  24437208.9534   24437213.7234
         6.5004          6.5004
  -8015260.00842  -6212734.13544  24525681.8364   24525694.8834
         4.5004          4.5004
  -7849530.08052                  24925003.4614
         4.5004
 03 10 28  0 49 30.0000000  0  8G 9G24G28G 7G 4G26G 5G29
  -9618477.17347  -6721175.78146  21263446.3524   21263450.4534
        22.0004         19.5004
  -8455288.18744  -6485023.36345  24151493.0084   24151500.4184
         7.0004          6.0004
  34186856.75646  27196908.79245  22555627.7584   22555631.4844
        12.7504         11.5004
  10677822.18947   8368063.70546  21070001.0004   21070005.5234
        23.2504         22.0004
 -10819904.95746  -8341430.94146  21685058.8204   21685063.3554
        18.7504         15.7504
  27486985.32943  14521988.10245  24468713.7734   24468719.4104
         6.5004          6.0004
  -8031510.93142  -6225397.00545  24522588.5314   24522595.7544
         4.7504          5.7504
  -7684113.17642                  24956479.8834
         4.0004
 03 10 28  0 50  0.0000000  0  8G 9G24G28G 7G 4G26G 5G29
  -9585601.23747  -6695558.11846  21269702.0704   21269706.3244
        21.7504         19.5004
  -8489283.79343  -6511513.26644  24145022.4694   24145028.1764
         5.7504          4.7504
  34327213.57346  27306277.73545  22582337.2034   22582340.7544
        13.0004         11.5004
  10799463.82747   8462849.41346  21093148.7114   21093153.1644
        23.2504         22.0004
 -10817063.13846  -8339216.43246  21685600.3524   21685604.6994
        19.7504         16.0004
  27652587.01843  14651028.23045  24500226.5634   24500234.3134
         6.2504          6.5004
  -8047786.66243  -6238079.16245  24519492.5944   24519501.2934
         5.0004          5.7504
  -7518778.64642                  24987944.3754
         4.0004
 03 10 28  0 50 30.0000000  0  8G 9G24G28G 7G 4G26G 5G29
  -9552215.24747  -6669543.00846  21276055.2344   21276059.6994
        21.5004         19.5004
  -8523256.93642  -6537985.61445  24138559.1254   24138569.1604
         4.5004          5.7504
  34467738.88546  27415778.00445  22609078.2584   22609082.5474
        13.0004         11.7504
  10921316.71147   8557799.74246  21116336.6024   21116341.1134
        23.2504         22.0004
 -10813804.91146  -8336677.45146  21686219.8444   21686224.5084
        18.5004         16.0004
  27818222.11443  14780094.40045  24531745.2424   24531754.5164
         5.7504          5.7504
  -8064088.72243  -6250781.75845  24516389.0704   24516399.3404
         5.7504          6.7504
  -7353531.52341                  25019389.4304
         3.2504
 03 10 28  0 51  0.0000000  0  8G 9G24G28G 7G 4G26G 5G29
  -9518318.97447  -6643130.27246  21282505.1564   21282509.4574
        21.5004         19.2504
  -8557206.42642  -6564439.59645  24132097.4694   24132108.9344
         4.7504          6.0004
  34608431.42246  27525408.54545  22635851.2734   22635855.0234
        13.2504         11.5004
  11043378.22347   8652912.62846  21139563.9694   21139568.4454
        23.2504         21.7504
 -10810128.58846  -8333812.68246  21686919.0864   21686924.1134
        18.7504         15.7504
  27983886.49443  14909183.32545  24563269.5944   24563278.8554
         6.0004          6.2504
  -8080417.76843  -6263505.45645  24513281.5234   24513289.6954
         6.5004          6.5004
  -7188376.17841                  25050818.0394
         3.2504
 03 10 28  0 51 30.0000000  0  8G 9G24G28G 7G 4G26G 5G29
  -9483910.52847  -6616318.44246  21289053.0944   21289057.5474
        21.5004         19.5004
  -8591128.85443  -6590872.46545  24125642.6804   24125650.2774
         5.0004          5.0004
  34749290.84546  27635169.14445  22662656.0784   22662659.8284
        13.5004         11.7504
  11165646.90047   8748186.93146  21162830.7664   21162834.9144
        23.2504         21.7504
 -10806031.43746  -8330620.00046  21687699.2274   21687703.7624
        19.0004         16.2504
  28149577.16943  15038292.85445  24594800.8054   24594807.4384
         6.0004          6.0004
  -8096772.98543  -6276249.49745  24510169.1174   24510179.7384
         6.7504          6.5004
  -7023315.13342                  25082228.9844
         4.5004
 03 10 28  0 52  0.0000000  0  8G 9G24G28G 7G 4G26G 5G29
  -9448979.17647  -6589099.16746  21295700.3834   21295704.6844
        22.0004         19.5004
  -8625012.40943  -6617274.99745  24119195.7274   24119208.4224
         5.7504          6.5004
  34890326.31946  27745066.91745  22689493.9064   22689498.2304
        13.2504         11.5004
  11288130.33647   8843628.58446  21186138.6414   21186142.8134
        23.2504         21.7504
 -10801502.01846  -8327090.48346  21688561.0004   21688565.6884
        19.2504         16.0004
  28315300.09843  15167427.50345  24626338.2814   24626347.2154
         6.5004          6.0004
  -8113144.34444  -6289006.12945  24507053.5394   24507062.4964
         7.0004          5.5004
  -6858342.10442                  25113621.8364
         4.2504
 03 10 28  0 52 30.0000000  0  8G 9G24G28G 7G 4G26G 5G29
  -9413528.06747  -6561474.86746  21302446.1174   21302450.7934
        21.5004         20.0004
  -8658859.14843  -6643648.87645  24112754.2504   24112763.3714
         6.5004          6.0004
  35031533.13446  27855098.20445  22716364.8754   22716368.9884
        13.2504         11.7504
  11410822.42047   8939232.81946  21209486.1484   21209490.5314
        23.2504         21.7504
 -10796542.46546  -8323225.79946  21689503.5314   21689508.0784
        18.0004         15.7504
  28481047.76143  15296581.40045  24657877.0164   24657891.1524
         6.2504          5.7504
  -8129535.82643  -6301778.58745  24503934.3754   24503944.1884
         6.7504          5.5004
  -6693464.66041                  25144995.1804
         3.0004
 03 10 28  0 53  0.0000000  0  8G 9G24G28G 7G 4G26G 5G29
  -9377558.05647  -6533446.24146  21309291.0234   21309295.1954
        22.0004         19.7504
  -8692668.27043  -6669993.40145  24106319.6024   24106330.1054
         5.7504          6.0004
  35172908.50546  27965260.83645  22743267.6884   22743271.2974
        13.2504         11.5004
  11533719.25147   9034996.59346  21232872.6564   21232876.9344
        23.2504         21.5004
 -10791152.21246  -8319025.50646  21690530.0394   21690534.4344
        19.0004         16.2504
  28646814.69443  15425750.29945  24689422.2894   24689430.1684
         5.5004          5.7504
  -8145948.85443  -6314567.70945  24500811.0634   24500821.0514
         6.0004          5.5004
  -7849650.25651                  25176353.2894
         2.5004
 03 10 28  0 53 30.0000000  0  8G 9G24G28G 7G 4G26G 5G29
  -9341076.78547  -6505019.21646  21316233.2194   21316237.5904
        22.0004         19.7504
  -8726446.91844  -6696314.21145  24099891.2344   24099898.4924
         7.5004          5.7504
  35314442.96046  28075547.41645  22770200.8524   22770203.8874
        13.5004         11.5004
  11656810.14747   9130911.59746  21256295.9224   21256300.5984
        23.0004         21.7504
 -10785338.41447  -8314495.17446  21691636.8914   21691641.4964
        20.0004         16.5004
  28812588.43842  15554924.45645  24720966.6724   24720973.8134
         4.7504          5.0004
  -8162392.65743  -6327380.68245  24497680.6804   24497688.6524
         5.0004          5.2504
  -7684986.92542                  25207688.2344
         4.0004
 03 10 28  0 54  0.0000000  0  8G 9G24G28G 7G 4G26G 5G29
  -9304079.40947  -6476190.03446  21323273.7664   21323277.9024
        22.5004         19.7504
  -8760189.14543  -6722606.55545  24093471.0234   24093477.6334
         6.7504          5.2504
  35456139.98746  28185960.70945  22797165.1724   22797169.2734
        13.5004         11.7504
  11780096.61747   9226978.99146  21279756.6484   21279761.0434
        23.0004         21.5004
 -10779095.17046  -8309630.22746  21692824.2034   21692828.7854
        19.7504         16.5004
  28978369.26443  15684104.20345  24752514.5784   24752527.0864
         5.5004          5.2504
  -8178862.70642  -6340214.26544  24494546.8364   24494555.7344
         4.5004          4.7504
  -7520435.76543                  25239001.0474
         5.0004
 03 10 28  0 54 30.0000000  0  8G 9G24G28G 7G 4G26G 5G29
  -9266558.63947  -6446953.02546  21330413.4064   21330417.8244
        22.2504         19.7504
  -8793886.24644  -6748863.88745  24087058.5164   24087063.2974
         7.5004          6.0004
  35598005.17346  28296505.01245  22824160.6954   22824164.4454
        13.0004         11.7504
  11903583.28847   9323202.38646  21303255.4064   21303259.8134
        22.7504         21.5004
 -10772414.12947  -8304424.14546  21694095.4774   21694099.4734
        20.0004         16.5004
  29144160.04743  15813291.81343  24784063.3134   24784066.6174
         5.5004          3.2504
  -8195352.66142  -6353063.44345  24491409.0234   24491419.0124
         4.5004          5.0004
  -7355994.08643  -6082490.82354  25270293.7584   25270303.4534
         6.2504          4.5004
 03 10 28  0 55  0.0000000  0  8G 9G24G28G 7G 4G26G 5G29
  -9228527.05647  -6417317.98246  21337650.7504   21337654.8404
        22.0004         20.0004
  -8827549.28644  -6775094.54845  24080653.6884   24080659.1604
         7.7504          6.0004
  35740024.10846  28407169.12245  22851186.4924   22851190.1604
        13.0004         11.7504
  12027254.48347   9419569.57046  21326789.1724   21326793.9774
        22.2504         21.2504
 -10765306.87747  -8298885.94746  21695448.0084   21695452.4024
        20.2504         16.7504
  29309943.69643  15942473.58945  24815611.1804   24815622.5274
         5.0004          5.7504
  -8211875.66342  -6365938.20345  24488264.0394   24488274.4384
         4.7504          6.0004
  -7191678.97643  -5954453.34544  25301561.5234   25301575.6254
         5.5004          4.7504
 03 10 28  0 55 30.0000000  0  8G 9G24G28G 7G 4G26G 5G29
  -9189983.68647  -6387284.13646  21344985.3594   21344989.4844
        22.2504         20.0004
  -8861176.40244  -6801297.24445  24074253.5784   24074261.7154
         7.5004          6.5004
  35882196.00846  28517952.42945  22878240.3134   22878244.0744
        12.5004         11.2504
  12151107.98147   9516078.80346  21350357.7194   21350362.2424
        22.5004         21.2504
 -10757771.88047  -8293014.44346  21696882.0314   21696886.0274
        20.0004         17.0004
  29475716.40943  16071647.02444  24847157.6804   24847164.5234
         5.2504          4.2504
  -8228431.06043  -6378838.28945  24485114.2664   24485120.1604
         5.2504          5.2504
  -7027493.45442  -5826516.77545  25332804.7894   25332820.4024
         4.5004          5.0004
 03 10 28  0 56  0.0000000  0  8G 9G24G28G 7G 4G26G 5G29
 -10726359.07247  -7584459.71146  21052622.5314   21052626.5634
        22.7504         20.5004
 -10470199.41243  -8055081.13945  23768066.5864   23768076.8554
         6.7504          7.0004
  34449091.97646  27401248.00145  22605530.4774   22605533.9924
        13.0004         11.7504
  10699712.97247   8385121.68046  21074166.2504   21074170.8554
        22.2504         21.0004
 -12325239.64047  -9514417.80946  21398602.7734   21398607.2384
        20.0004         16.7504
  28066047.31443  14973203.42945  24578907.2814   24578912.0744
         5.7504          5.5004
  -9820452.40243  -7619374.20345  24182162.7194   24182170.0944
         5.7504          6.2504
  -8438868.30042  -6926289.59344  25064230.4694   25064245.6724
         4.7504          4.2504
 03 10 28  0 56 30.0000000  0  8G 9G24G28G 7G 4G26G 5G29
 -10686805.24647  -7553638.50246  21060149.6024   21060153.7974
        22.5004         20.5004
 -10503764.01343  -8081235.11845  23761678.8914   23761690.2154
         5.5004          7.5004
  34591551.70546  27512255.56645  22632639.6954   22632643.3164
        12.7504         11.2504
  10823908.99047   8481897.81746  21097800.0164   21097804.2704
        22.5004         21.2504
 -12316859.24847  -9507887.57346  21400197.1724   21400201.2974
        20.0004         17.0004
  28231771.53142  15102339.01345  24610440.9454   24610456.9224
         4.7504          5.2504
  -9837088.55243  -7632337.18045  24178997.4304   24179004.3714
         6.2504          6.5004
  -8274968.32441  -6798575.41844  25095418.0704   25095436.7544
         3.5004          4.0004
 03 10 28  0 57  0.0000000  0  7G 9G24G28G 7G 4G26G 5
 -10646736.48647  -7522416.04346  21067774.3364   21067778.7194
        22.2504         20.0004
 -10537285.50043  -8107355.53545  23755299.1094   23755309.8484
         5.5004          6.7504
  34734162.69146  27623381.00745  22659777.1954   22659781.2624
        12.5004         11.5004
  10948281.66147   8578811.61246  21121467.5314   21121472.0784
        22.5004         20.7504
 -12308044.83847  -9501019.13846  21401874.6954   21401879.0904
        20.5004         17.5004
  28397474.51443  15231458.05045  24641974.4304   24641981.0634
         5.5004          5.7504
  -9853756.30543  -7645324.86645  24175825.4614   24175834.1254
         6.5004          6.5004
 03 10 28  0 57 30.0000000  0  7G 9G24G28G 7G 4G26G 5
 -10606152.40347  -7490792.03646  21075497.1334   21075501.0944
        22.5004         20.0004
 -10570762.53044  -8133441.21445  23748929.6884   23748939.3244
         7.2504          7.2504
  34876923.69846  27734623.35845  22686943.4454   22686946.7034
        12.5004         10.7504
  11072828.43747   8675861.07046  21145168.1094   21145172.6564
        22.5004         21.2504
 -12298795.09247  -9493811.46946  21403634.5634   21403639.2274
        20.5004         17.7504
  28563152.33443  15360557.50745  24673502.3204   24673506.9264
         5.5004          5.5004
  -9870455.75643  -7658337.24345  24172647.1644   24172652.2274
         6.5004          7.2504
 03 10 28  0 58  0.0000000  0  7G 9G24G28G 7G 4G26G 5
 -10565037.50847  -7458754.40346  21083320.9144   21083325.1914
        22.2504         20.5004
 -10604177.70745  -8159478.79745  23742570.7974   23742580.8094
         8.0004          7.0004
  35019848.74646  27845993.53845  22714141.4844   22714144.6604
        12.2504         10.2504
  11197562.16247   8773056.20346  21168904.0554   21168908.4264
        22.2504         21.0004
 -12289093.49647  -9486251.71646  21405480.9774   21405485.0554
        21.2504         18.0004
  28728816.13843  15489646.07444  24705028.2664   24705039.9774
         5.5004          4.7504
  -9887172.09843  -7671362.70745  24169465.0164   24169470.1844
         6.5004          6.0004
 03 10 28  0 58 30.0000000  0  7G 9G24G28G 7G 4G26G 5
 -10523416.16247  -7426322.13846  21091240.9924   21091245.3404
        22.2504         20.5004
 -10637554.50345  -8185486.40045  23736218.7034   23736225.7734
         8.5004          6.5004
  35162912.19445  27957471.55945  22741365.0784   22741369.5784
        11.7504         10.5004
  11322455.65447   8870375.84046  21192670.3054   21192674.8054
        22.2504         20.7504
 -12278963.27447  -9478357.98646  21407408.4144   21407412.5514
        21.5004         18.0004
  28894437.29843  15618701.36645  24736543.9924   24736554.7894
         5.5004          6.0004
  -9903929.89843  -7684420.60845  24166276.7584   24166285.3984
         6.2504          5.7504
 03 10 28  0 59  0.0000000  0  7G 9G24G28G 7G 4G26G 5
 -10481253.81447  -7393468.31046  21099264.5234   21099268.6954
        22.2504         20.7504
 -10670856.94345  -8211436.17745  23729881.6174   23729890.9024
         8.2504          6.2504
  35306146.66645  28069082.83845  22768622.4774   22768627.0354
        11.5004          9.7504
  11447540.55947   8967844.62446  21216473.1484   21216477.5554
        22.2504         20.5004
 -12268369.07147  -9470102.69346  21409424.9774   21409429.2664
        22.0004         18.0004
  29060045.96143  15747746.82644  24768058.2424   24768069.5434
         5.2504          4.7504
  -9920695.39743  -7697484.48645  24163085.8364   24163097.7114
         6.2504          5.5004
 03 10 28  0 59 30.0000000  0  7G 9G24G28G 7G 4G26G 5
 -10438570.17447  -7360208.29046  21107387.0234   21107390.9614
        22.7504         20.5004
 -10704102.98144  -8237341.92045  23723555.2664   23723563.4844
         7.5004          5.7504
  35449531.05645  28180810.94545  22795907.2974   22795911.3754
        11.2504         10.5004
  11572794.26947   9065444.94846  21240308.1334   21240312.9024
        22.2504         20.2504
 -12257329.60847  -9461500.44246  21411525.4144   21411529.3874
        21.5004         18.2504
  29225617.99343  15876763.84944  24799565.3054   24799573.7234
         5.5004          4.7504
  -9937488.68043  -7710569.95545  24159889.5474   24159896.7584
         6.5004          5.5004
 03 10 28  1  0  0.0000000  0  7G 9G24G28G 7G 4G26G 5
 -10395362.28947  -7326539.76446  21115608.9384   21115613.2034
        22.5004         20.5004
 -10737288.21044  -8263200.32245  23717239.5084   23717249.1454
         7.2504          6.5004
  35593066.87745  28292657.04145  22823221.3284   22823225.1374
        11.5004         10.2504
  11698216.97747   9163176.95346  21264175.3444   21264179.9734
        22.0004         20.5004
 -12245841.03947  -9452548.24846  21413711.6484   21413715.6804
        22.0004         18.2504
  29391152.07743  16005751.33945  24831067.6884   24831079.5274
         5.0004          5.0004
  -9954306.98344  -7723675.03745  24156689.8674   24156696.9264
         7.2504          5.5004
 03 10 28  1  0 30.0000000  0  7G 9G24G28G 7G 4G26G 5
 -10351627.64747  -7292460.78046  21123931.2274   21123935.4344
        22.2504         20.5004
 -10770408.67244  -8289008.20145  23710936.8834   23710945.3014
         7.2504          6.5004
  35736755.04345  28404621.85045  22850564.2814   22850568.9924
        11.7504         10.2504
  11823808.57047   9261040.55746  21288074.3984   21288078.9574
        22.0004         20.2504
 -12233899.56247  -9443243.13746  21415983.6484   21415987.6214
        21.5004         18.2504
  29556646.62043  16134708.00744  24862558.5234   24862562.9654
         5.0004          4.5004
  -9971148.22944  -7736797.97045  24153485.8524   24153494.8914
         7.7504          6.2504
 03 10 28  1  1  0.0000000  0  7G 9G24G28G 7G 4G26G 5
 -10307373.80347  -7257977.21346  21132352.4924   21132357.0864
        22.2504         20.5004
 -10803470.55644  -8314770.47145  23704646.1024   23704653.0554
         7.2504          7.0004
  35880586.53745  28516698.32845  22877934.7584   22877940.0904
        11.7504         10.2504
  11949558.66247   9359027.67046  21312003.9534   21312008.5354
        22.0004         20.5004
 -12221511.97547  -9433590.39346  21418341.1414   21418345.2664
        21.5004         18.5004
  29722089.67942  16263624.41845  24894040.1254   24894042.9734
         4.2504          5.0004
  -9988020.71045  -7749945.15945  24150274.6414   24150281.9344
         8.0004          6.0004
 03 10 28  1  1 30.0000000  0  7G 9G24G28G 7G 4G26G 5
 -10262597.58347  -7223086.60346  21140873.3754   21140877.4654
        23.0004         20.5004
 -10836469.29243  -8340483.52545  23698364.8754   23698371.0864
         6.5004          7.2504
  36024563.10046  28628887.88345  22905332.8444   22905336.7464
        12.2504         10.0004
  12075467.69847   9457138.62346  21335963.9694   21335968.2814
        22.0004         20.5004
 -12208674.08247  -9423586.77546  21420783.9694   21420787.8594
        21.5004         18.2504
  29887480.22742  16392499.97644  24925515.2734   24925519.1884
         4.7504          4.0004
 -10004921.60645  -7763114.52145  24147056.8284   24147064.3444
         8.0004          6.5004
 03 10 28  1  2  0.0000000  0  7G 9G24G28G 7G 4G26G 5
 -10217293.51047  -7187784.68246  21149494.1804   21149498.1524
        23.0004         21.0004
 -10869397.73743  -8366141.86345  23692099.2584   23692107.3134
         6.5004          7.2504
  36168688.81046  28741193.62245  22932758.2814   22932761.9264
        12.2504         10.5004
  12201538.72347   9555375.81946  21359954.3524   21359958.7704
        22.0004         20.2504
 -12195379.37147  -9413227.19246  21423313.6254   21423317.3874
        21.5004         18.2504
  30052819.40642  16521335.60544  24956977.5864   24956978.6644
         4.5004          4.7504
 -10021845.66844  -7776301.95845  24143836.7034   24143844.1604
         7.7504          6.5004
 03 10 28  1  2 30.0000000  0  7G 9G24G28G 7G 4G26G 5
 -10171469.09847  -7152077.30546  21158214.3054   21158218.5474
        22.7504         20.7504
 -10902261.65643  -8391749.88745  23685844.1334   23685852.7504
         5.5004          5.7504
  36312955.13346  28853608.97445  22960211.6024   22960213.9344
        12.5004         10.0004
  12327761.47747   9653731.22846  21383973.6644   21383977.7544
        22.0004         20.5004
 -12181634.07947  -9402516.49946  21425929.6334   21425933.8634
        22.0004         18.5004
  30218096.13441  16650122.40544  24988426.1334   24988439.3094
         3.5004          4.7504
 -10038800.46744  -7789513.32345  24140610.6174   24140619.2814
         7.2504          7.5004
 03 10 28  1  3  0.0000000  0  7G 9G24G28G 7G 4G26G 5
 -10125118.73747  -7115960.09746  21167034.2344   21167038.4064
        22.7504         20.5004
 -10935054.02943  -8417302.15545  23679604.0394   23679611.4964
         6.0004          5.7504
  36457365.85346  28966136.81945  22987691.9844   22987695.8754
        12.7504         10.7504
  12454139.05347   9752207.27846  21408022.4304   21408027.1054
        22.0004         20.5004
 -12167431.95247  -9391449.84746  21428631.9844   21428635.6054
        22.0004         18.5004
  30383311.68742                  25019868.4694
         4.5004
 -10055780.94843  -7802744.66745  24137380.1024   24137387.1024
         6.7504          7.0004
 03 10 28  1  3 30.0000000  0  7G 9G24G28G 7G 4G26G 5
 -10078240.83547  -7079431.81846  21175955.0164   21175959.1414
        23.2504         21.2504
 -10967771.59845  -8442796.19145  23673378.5234   23673387.1764
         8.5004          8.0004
  36601920.96245  29078777.18345  23015199.8834   23015202.7894
        11.7504         10.2504
  12580670.09647   9850802.90946  21432100.5084   21432105.1254
        22.0004         20.2504
 -12152770.25647  -9380025.08246  21431421.6564   21431425.5124
        21.5004         18.5004
  30548463.13243                  25051295.9224
         5.0004
 -10072785.89543  -7815995.09945  24134142.3054   24134147.7074
         6.2504          6.0004
 03 10 28  1  4  0.0000000  0  7G 9G24G28G 7G 4G26G 5
 -10030843.95247  -7042499.13946  21184974.2504   21184978.3984
        23.0004         21.0004
 -11000421.52545  -8468237.55845  23667165.6884   23667173.8134
         9.7504          9.7504
  36746610.97246  29191522.62645  23042733.2584   23042737.2194
        12.0004         10.0004
  12707343.67247   9949509.60946  21456205.5784   21456210.0784
        22.0004         20.0004
 -12137656.65847  -9368248.17746  21434297.9144   21434301.8874
        21.7504         18.2504
  30713537.99642                  25082708.7274
         4.7504
 -10089823.79243  -7829271.23545  24130899.8984   24130905.8984
         6.0004          5.5004
 03 10 28  1  4 30.0000000  0  7G 9G24G28G 7G 4G26G 5
  -9982921.42147  -7005156.86546  21194093.6094   21194097.6884
        23.0004         21.0004
 -11032995.00545  -8493619.36545  23660967.3754   23660974.2814
         9.5004          9.5004
  36891441.27145  29304377.44445  23070292.8594   23070296.1644
        10.7504          9.7504
  12834164.04847  10048330.69746  21480338.7814   21480343.3874
        21.7504         20.2504
 -12122083.21647  -9356112.96446  21437261.0234   21437264.8674
        21.7504         18.2504
  30878539.09842                  25114106.6484
         4.7504
 -10106887.81843  -7842567.60645  24127653.4774   24127660.0274
         6.2504          6.0004
 03 10 28  1  5  0.0000000  0  7G 9G24G28G 7G 4G26G 5
  -9934466.56847  -6967399.79446  21203314.2664   21203318.4614
        23.0004         21.2504
 -11065484.09645  -8518935.35945  23654783.7894   23654791.1884
         8.0004          7.7504
  37036416.96545  29417345.52045  23097881.2734   23097886.0434
        11.2504          9.7504
  12961135.15047  10147269.23446  21504500.5554   21504504.9734
        21.7504         20.2504
 -12106042.49647  -9343613.63346  21440313.4694   21440317.6414
        21.5004         18.5004
  31043469.08443                  25145492.2194
         5.2504
 -10123972.19943  -7855880.04145  24124402.7584   24124411.9614
         6.7504          6.2504
 03 10 28  1  5 30.0000000  0  7G 9G24G28G 7G 4G26G 5
  -9885487.87147  -6929234.52146  21212634.4534   21212638.3554
        23.0004         21.2504
 -11097895.61543  -8544190.90445  23648616.2734   23648623.9884
         6.7504          6.5004
  37181528.12945  29530419.18545  23125494.8674   23125500.0474
        11.0004         10.0004
  13088245.97447  10246316.64546  21528689.2344   21528693.6414
        21.7504         20.0004
 -12089542.08547  -9330756.10246  21443453.1954   21443457.1214
        21.5004         18.7504
  31208315.18843                  25176862.8134
         5.7504
 -10141085.06544  -7869214.52645  24121144.8364   24121152.8324
         7.2504          6.5004
 03 10 28  1  6  0.0000000  0  7G 9G24G28G 7G 4G26G 5
  -9835988.53747  -6890663.57246  21222053.7504   21222057.9694
        23.0004         20.7504
 -11130230.96844  -8569387.09245  23642462.4844   23642472.4844
         7.2504          7.5004
  37326770.42245  29643594.98245  23153133.9924   23153136.1024
        11.0004          9.7504
  13215490.98447  10345468.61446  21552902.6644   21552906.9884
        21.5004         20.0004
 -12072583.61947  -9317541.64746  21446680.2034   21446684.3634
        21.5004         18.7504
  31373070.49743  -7305702.83655  25208214.3674   25208228.4804
         5.5004          5.0004
 -10158229.98244  -7882573.97545  24117883.1174   24117888.0274
         7.7504          7.0004
 03 10 28  1  6 30.0000000  0  7G 9G24G28G 7G 4G26G 5
 -11361379.90847  -8079280.18946  20931781.6724   20931785.8914
        23.2504         21.0004
 -12737902.37145  -9822117.94745  23336532.9694   23336539.4384
         8.0004          7.0004
  35896734.38445  28529281.20645  22881007.2974   22881011.6684
        10.0004          9.5004
  11767458.87847   9217131.93046  21277351.6414   21277355.9884
        21.2504         19.7504
 -13630579.12647 -10531564.05846  21150203.6484   21150207.9144
        21.2504         18.7504
  29962323.43242  -8404986.39744  24939757.2034   24939768.3164
         4.7504          4.5004
 -11750820.31544  -9123553.27445  23814822.9924   23814830.8714
         7.7504          7.2504
 03 10 28  1  7  0.0000000  0  7G 9G24G28G 7G 4G26G 5
 -11310810.88547  -8039875.71046  20941404.2584   20941408.4414
        23.0004         20.7504
 -12770051.80844  -9847169.35145  23330413.8594   23330420.6804
         7.7504          7.2504
  36042263.32645  28642680.39745  22908700.3754   22908703.5164
        10.5004          9.7504
  11894993.12647   9316509.28846  21301620.2814   21301624.8874
        21.0004         19.7504
 -13612674.09747 -10517612.01946  21153611.1954   21153615.0864
        21.7504         19.0004
  30126913.48343  -8276734.69345  24971079.0864   24971089.5084
         5.5004          5.0004
 -11768001.01545  -9136940.62645  23811552.9534   23811561.8874
         8.0004          8.2504
 03 10 28  1  7 30.0000000  0  7G 9G24G28G 7G 4G26G 5
 -11259713.23147  -8000059.31346  20951127.9844   20951132.1334
        23.0004         21.2504
 -12802112.15743  -9872151.20045  23324313.7734   23324321.0314
         6.7504          8.0004
  36187927.63645  28756185.06045  22936419.1884   22936422.2344
        10.0004         10.2504
  12022662.19147   9415991.70346  21325914.9454   21325919.5044
        21.0004         19.5004
 -13594300.33447 -10503294.73346  21157107.2114   21157111.2074
        22.0004         18.7504
  30291408.87843  -8148556.62845  25002381.7894   25002388.0824
         5.5004          5.2504
 -11785205.71744  -9150346.65645  23808279.5554   23808289.2034
         7.7504          8.5004
 03 10 28  1  8  0.0000000  0  7G 9G24G28G 7G 4G26G 5
 -11208088.43547  -7959832.15946  20960951.8834   20960955.7854
        23.2504         21.2504
 -12834082.78243  -9897063.04945  23318230.0314   23318237.0904
         6.7504          6.7504
  36333724.65645  28869793.13645  22964163.1024   22964165.7624
        10.0004          9.5004
  12150462.36647   9515576.28246  21350234.4924   21350238.8754
        21.2504         19.2504
 -13575458.14247 -10488612.45146  21160692.8524   21160696.5784
        22.2504         19.2504
  30455804.33642  -8020456.36144  25033666.1724   25033672.5474
         4.2504          4.2504
 -11802436.19644  -9163772.76245  23805000.6644   23805005.4574
         7.7504          8.0004
 03 10 28  1  8 30.0000000  0  7G 9G24G28G 7G 4G26G 5
 -11155939.53647  -7919196.61846  20970875.2814   20970879.4064
        23.0004         21.2504
 -12865964.64145  -9921905.85645  23312162.9534   23312169.2704
         8.0004          7.7504
  36479650.11945  28983501.31245  22991932.4534   22991934.5514
         9.7504          9.0004
  12278388.17847   9615258.76746  21374577.8674   21374582.1214
        21.0004         19.5004
 -13556149.64447 -10473566.79546  21164367.1254   21164370.9104
        22.0004         19.0004
  30620093.21541  -7892439.46244  25064926.9774   25064942.9654
         3.7504          4.7504
 -11819695.16645  -9177221.08045  23801715.5084   23801720.9574
         8.2504          7.0004
 03 10 28  1  9  0.0000000  0  7G 9G24G28G 7G 4G26G 5
 -11103255.76947  -7878144.28046  20980900.5944   20980904.8714
        23.0004         21.0004
 -12897745.22045  -9946669.73645  23306115.3754   23306122.6094
         9.0004          7.7504
  36625713.66845  29097317.06745  23019727.3754   23019731.0554
         9.5004          9.7504
  12406448.24747   9715045.86446  21398946.9694   21398950.9064
        21.0004         19.2504
 -13536362.86947 -10458148.46546  21168132.1804   21168135.8014
        22.2504         19.2504
  30784282.31542  -7764500.02445  25096172.3284   25096183.7464
         4.5004          5.7504
 -11836971.59145  -9190682.96245  23798427.8284   23798435.1564
         8.2504          7.5004
 03 10 28  1  9 30.0000000  0  7G 9G24G28G 7G 4G26G 5
 -11050037.60247  -7836675.54646  20991027.8674   20991031.7584
        23.5004         21.2504
 -12929423.14545  -9971353.58445  23300087.0944   23300094.3164
         9.2504          8.2504
  36771913.80445  29211239.27145  23047548.4064   23047552.7424
        10.0004          9.2504
  12534639.67047   9814935.32746  21423340.7194   21423345.0784
        21.0004         19.0004
 -13516097.53447 -10442357.22546  21171988.4924   21171992.1374
        22.2504         19.7504
  30948367.44842  -7636641.67645  25127397.2504   25127406.2074
         4.5004          5.2504
 -11854265.79645  -9204158.77745  23795137.7664   23795145.1414
         8.7504          7.2504
 03 10 28  1 10  0.0000000  0  7G 9G24G28G 7G 4G26G 5
 -10996291.16247  -7794795.16746  21001255.4924   21001259.4304
        23.2504         21.5004
 -12961003.10645  -9995961.10545  23294078.1884   23294085.0594
         9.5004          8.0004
  36918242.87545  29325261.91645  23075393.5004   23075397.3554
         9.2504          8.7504
  12662954.08747   9914920.62046  21447758.3204   21447762.8554
        20.7504         18.7504
 -13495358.51247 -10426196.88446  21175934.9454   21175939.0474
        22.2504         19.2504
  31112338.60641  -7508872.20545  25158598.7894   25158611.9184
         3.2504          5.2504
 -11871584.55745  -9217653.70145  23791841.5004   23791846.9614
         8.5004          7.0004
 03 10 28  1 10 30.0000000  0  7G 9G24G28G 7G 4G26G 5
 -10942012.66047  -7752500.19046  21011584.2734   21011588.1054
        23.0004         21.2504
 -12992478.82745 -10020487.36845  23288087.9454   23288094.7774
        10.0004          9.5004
  37064703.92745  29439387.45945  23103263.6954   23103266.5664
         9.2504          8.7504
  12791393.14447  10015003.03546  21472199.5784   21472204.0904
        21.0004         19.0004
 -13474140.90447 -10409663.62646  21179972.4614   21179976.0004
        23.0004         19.5004
  31276196.30141                  25189781.2974
         3.2504
 -11888922.92145  -9231163.89445  23788541.8054   23788548.4384
         8.0004          7.5004
 03 10 28  1 11  0.0000000  0  7G 9G24G28G 7G 4G26G 5
 -10887201.38747  -7709790.06946  21022014.4064   21022018.3324
        23.2504         21.5004
 -13023848.01145 -10044930.63345  23282119.1414   23282125.5044
        10.5004          8.5004
  37211296.18145  29553615.21045  23131159.8134   23131164.2074
         9.7504          8.7504
  12919955.23447  10115181.32346  21496663.8834   21496667.7504
        21.0004         19.0004
 -13452443.19447 -10392756.25546  21184101.2894   21184104.9224
        22.2504         19.5004
  31439937.04042                  25220939.4844
         4.5004
 -11906280.80944  -9244689.34345  23785237.5704   23785241.8714
         7.5004          6.0004
 03 10 28  1 11 30.0000000  0  7G 9G24G28G 7G 4G26G 5
 -10831854.71347  -7666662.75546  21032546.5474   21032550.3444
        23.0004         21.5004
 -13055106.00345 -10069287.25845  23276169.1174   23276176.4454
         8.5004          9.0004
  37358021.61645  29667946.67745  23159080.4064   23159082.9844
         9.7504          8.5004
  13048641.03647  10215456.00546  21521152.1334   21521156.3524
        21.0004         18.7504
 -13430261.69347 -10375471.90546  21188322.4694   21188326.5124
        23.0004         19.5004
  31603560.21142                  25252077.0944
         4.2504
 -11923654.80644  -9258227.23445  23781931.8834   23781935.7624
         7.2504          6.2504
 03 10 28  1 12  0.0000000  0  7G 9G24G28G 7G 4G26G 5
 -10775974.67147  -7623119.82946  21043180.0474   21043183.8794
        23.0004         21.2504
 -13086252.81145 -10093557.20245  23270242.1094   23270249.6254
         9.0004          8.2504
  37504876.82945  29782379.35545  23187026.2504   23187028.9224
        10.5004          9.0004
  13177446.24347  10315823.73046  21545663.1484   21545667.6724
        20.7504         18.7504
 -13407596.92947 -10357810.97646  21192635.3364   21192639.3444
        23.0004         19.7504
  31767060.00741                  25283190.3204
         3.7504
 -11941046.61744  -9271779.15045  23778622.4384   23778630.0704
         7.5004          6.5004
 03 10 28  1 12 30.0000000  0  7G 9G24G28G 7G 4G26G 5
 -10719559.10047  -7579159.61246  21053915.5864   21053919.4884
        23.2504         21.2504
 -13117284.10045 -10117737.13845  23264338.0554   23264344.2664
         9.5004          8.5004
  37651863.22745  29896914.23845  23214996.7424   23214999.6024
        10.5004          8.5004
  13306370.97947  10416284.58746  21570196.3364   21570200.6134
        20.2504         18.7504
 -13384446.15447 -10339771.35346  21197040.6174   21197044.4494
        23.2504         20.0004
  31930435.24242                  25314279.3054
         4.2504
 -11958454.32244  -9285343.31145  23775308.7504   23775314.5514
         7.7504          8.0004
 03 10 28  1 13  0.0000000  0  7G 9G24G28G 7G 4G26G 5
 -10662613.71747  -7534786.54746  21064751.6884   21064755.6604
        23.2504         21.5004
 -13148203.69645 -10141830.08045  23258453.5634   23258458.9184
         9.2504          8.0004
  37798974.11845  30011546.14145  23242992.0164   23242996.8674
        10.7504          9.2504
  13435407.51347  10516832.55846  21594751.1484   21594755.7894
        20.2504         18.7504
 -13360813.86747 -10321356.51746  21201537.6024   21201541.4574
        23.2504         20.2504
  32093676.57343                  25345343.6954
         5.5004
 -11975882.56145  -9298923.58445  23771992.9384   23771998.2344
         8.5004          6.7504
 03 10 28  1 13 30.0000000  0  7G 9G24G28G 7G 4G26G 5
 -10605136.83747  -7489999.32946  21075689.3674   21075693.2704
        23.5004         21.5004
 -13179007.68545 -10165832.92745  23252590.5704   23252597.7934
         8.0004          8.0004
  37946210.01045  30126275.42045  23271008.9144   23271012.8054
        10.5004          9.0004
  13564555.50747  10617467.37746  21619327.4384   21619331.3404
        20.2504         18.5004
 -13336697.21547 -10302564.25446  21206126.9384   21206130.4304
        23.5004         20.2504
  32256782.11343  -8538143.28654  25376381.1724   25376393.5514
         5.0004          4.0004
 -11993329.75445  -9312518.63245  23768672.5004   23768679.0044
         8.5004          7.5004
 03 10 28  1 14  0.0000000  0  7G 9G24G28G 7G 4G26G 5
 -10547129.85247  -7444799.04146  21086727.6884   21086731.4964
        23.2504         21.5004
 -13209695.76245 -10189745.48045  23246750.2034   23246758.1994
         8.0004          7.2504
  38093568.27645  30241100.06545  23299050.4144   23299054.5394
        10.0004          9.7504
  13693811.20247  10718186.12046  21643923.5004   21643928.0234
        20.2504         18.2504
 -13312096.74747 -10283395.00846  21210808.3284   21210811.7974
        23.7504         20.5004
  32419746.90342  -8411157.99845  25407392.2814   25407408.6214
         4.0004          5.5004
 -12010797.01345  -9326129.27145  23765348.4614   23765354.5084
         8.0004          6.5004
 03 10 28  1 14 30.0000000  0  7G 9G24G28G 7G 4G26G 5
 -10488590.11947  -7399183.62846  21097867.2584   21097871.3014
        23.2504         21.2504
 -13240262.94545 -10213563.88445  23240935.0704   23240940.2154
         9.5004          8.2504
  38241050.81645  30356021.52645  23327115.6024   23327119.0704
        10.2504          9.0004
  13823175.40247  10818989.41246  21668540.9534   21668545.2074
        20.2504         18.7504
 -13287008.74247 -10263845.84746  21215582.0474   21215585.5744
        23.5004         20.5004
  32582570.19841  -8284282.94544  25438375.9144   25438396.2974
         3.2504          4.0004
 -12028281.40844  -9339753.33445  23762021.0864   23762029.3634
         7.7504          6.5004
 03 10 28  1 15  0.0000000  0  7G 9G24G28G 7G 4G26G 5
 -10429520.48847  -7353155.31246  21109108.0784   21109111.9804
        23.2504         21.5004
 -13270710.03345 -10237288.69045  23235140.7584   23235145.1644
         9.2504          8.0004
  38388653.95545  30471036.98545  23355203.4694   23355207.6054
         9.7504          8.7504
  13952643.47147  10919873.63746  21693177.7974   21693181.6524
        20.5004         18.2504
 -13261434.85847 -10243918.08446  21220448.8674   21220452.6644
        23.5004         20.5004
  32745245.75742  -8157523.10644  25469333.3284   25469345.0394
         4.0004          4.2504
 -12045784.66544  -9353392.04645  23758690.3754   23758697.4924
         7.7504          7.2504
 03 10 28  1 15 30.0000000  0  7G 9G24G28G 7G 4G26G 5
 -10369910.41747  -7306705.86046  21120451.4924   21120455.3954
        23.2504         21.5004
 -13301024.40645 -10260910.10745  23229371.2814   23229376.4734
         9.5004          8.7504
  38536387.19145  30586153.80145  23383315.6884   23383319.2154
         9.7504          9.0004
  14082223.95047  11020845.46046  21717836.5554   21717840.9144
        20.2504         18.5004
 -13235363.52147 -10223602.70246  21225410.0234   21225413.6334
        23.7504         20.5004
  32907780.70242                  25500264.1954
         4.5004
 -12063295.96445  -9367037.02045  23755357.3524   23755364.6684
         8.0004          8.2504
 03 10 28  1 16  0.0000000  0  7G 9G24G28G 7G 4G26G 5
 -10309767.76147  -7259841.41846  21131896.0314   21131899.8284
        23.5004         21.7504
 -13331212.00345 -10284432.70545  23223626.7344   23223632.3714
         9.7504          8.5004
  38684241.83245  30701365.22345  23411451.5004   23411454.9574
         9.0004          7.7504
  14211907.02647  11121897.22446  21742514.3134   21742518.5664
        20.2504         18.2504
 -13208801.45347 -10202904.92146  21230464.1644   21230467.6914
        23.2504         20.5004
  33070163.90742                  25531164.8914
         4.0004
 -12080823.01345  -9380694.24145  23752022.7664   23752031.3364
         8.2504          8.0004
 03 10 28  1 16 30.0000000  0  7G 9G24G28G 7G 4G26G 5
 -10249092.56947  -7212562.00746  21143442.1884   21143446.0554
        23.2504         21.5004
 -13361270.55245 -10307854.81845  23217906.6954   23217911.4774
        10.7504          8.7504
  38832216.87245  30816670.45445  23439610.1804   23439615.0784
         9.2504          8.0004
  14341690.74547  11223027.41546  21767211.0864   21767215.1174
        20.0004         17.7504
 -13181747.98547 -10181824.24446  21235612.3284   21235615.7154
        23.5004         20.5004
  33232392.06041                  25562035.9224
         3.2504
 -12098365.18245  -9394363.25745  23748684.6254   23748692.2464
         9.0004          8.5004
 03 10 28  1 17  0.0000000  0  7G 9G24G28G 7G 4G26G 5
 -10187886.02747  -7164868.56346  21155089.3054   21155092.8554
        23.2504         21.5004
 -13391198.95245 -10331175.53245  23212212.3284   23212218.1884
        11.5004          9.5004
  38980310.28545  30932067.96145  23467792.1174   23467796.8164
         8.2504          8.0004
  14471572.10046  11324233.69046  21791926.5234   21791931.2234
        19.7504         18.0004
 -13154202.85047 -10160360.43746  21240854.2734   21240857.7424
        23.7504         20.7504
 -10903707.56151                  25592878.1024
         3.7504
 -12115922.72945  -9408044.24645  23745342.7504   23745348.9024
         9.2504          8.7504
 03 10 28  1 17 30.0000000  0  7G 9G24G28G 7G 4G26G 5
 -11701559.51347  -8344354.35746  20867047.0784   20867050.8634
        23.5004         21.7504
 -14996409.33245 -11581988.70545  22906750.0234   22906756.4224
        10.0004          9.7504
  37553112.69545  29819965.93045  23196205.1564   23196209.5984
         8.7504          8.2504
  13026140.26246  10197923.17946  21516869.9924   21516874.2114
        19.5004         17.5004
 -14701577.60447 -11366106.93746  20946398.3444   20946401.9064
        23.5004         21.0004
 -12317209.98042                  25323896.0164
         4.5004
 -13708909.44145 -10649332.35445  23442207.6564   23442213.2114
         9.5004          8.2504
 03 10 28  1 18  0.0000000  0  7G 9G24G28G 7G 4G26G 5
 -11639277.20847  -8295822.65946  20878898.6484   20878902.2934
        23.2504         21.5004
 -15026057.44845 -11605090.99245  22901107.5394   22901114.4694
         9.0004          9.5004
  37701453.47344  29935556.16345  23224433.2114   23224436.8914
         7.5004          8.2504
  13156224.66246  10299287.66846  21541624.3984   21541628.5944
        19.5004         17.7504
 -14673033.22147 -11343864.49346  20951830.1024   20951833.6294
        23.7504         21.0004
 -12155457.24742                  25354674.8524
         4.0004
 -13726483.47345 -10663026.18645  23438862.9924   23438868.6294
         9.0004          8.2504
 03 10 28  1 18 30.0000000  0  7G 9G24G28G 7G 4G26G 5
 -11576459.85447  -8246874.03946  20890852.3284   20890856.2544
        23.2504         21.5004
 -15055564.73645 -11628083.54245  22895492.4224   22895500.1844
         9.5004          9.5004
  37849914.03145  30051239.66445  23252684.2664   23252689.0004
         8.5004          8.0004
  13286405.22446  10400727.09346  21566396.6724   21566400.9144
        19.5004         17.5004
 -14643990.26447 -11321233.55846  20957356.8984   20957360.5434
        23.7504         21.0004
 -12576446.19051                  25385426.3594
         3.2504
 -13744067.02045 -10676727.46045  23435517.2194   23435525.7664
         8.5004          7.7504
 03 10 28  1 19  0.0000000  0  7G 9G24G28G 7G 4G26G 5
 -11513113.39047  -8197513.11646  20902906.8284   20902910.8364
        23.0004         21.5004
 -15084934.86245 -11650969.25845  22889903.0234   22889910.0354
         9.5004          9.5004
  37998487.62444  30167011.33945  23280956.8594   23280960.1644
         7.7504          7.2504
  13416674.24846  10502235.45646  21591186.1334   21591190.4344
        19.5004         17.2504
 -14614453.79747 -11298218.06046  20962977.4924   20962980.7854
        23.7504         21.0004
 -12576475.60651                  25416139.4774
         2.7504
 -13761666.12245 -10690440.84645  23432167.8204   23432174.0314
         8.7504          8.2504
 03 10 28  1 19 30.0000000  0  7G 9G24G28G 7G 4G26G 5
 -11449235.70947  -8147738.26446  20915062.2194   20915065.8984
        23.0004         21.7504
 -15114163.54045 -11673744.74545  22884342.3054   22884349.2814
        10.7504          9.7504
  38147175.34245  30282871.92345  23309251.4774   23309253.8794
         9.0004          8.5004
  13547032.11546  10603813.04446  21615992.7424   21615996.7504
        19.5004         17.5004
 -14584420.44447 -11274815.38446  20968692.6094   20968696.1724
        23.5004         21.0004
 -12544265.74852                  25446822.7664
         4.2504
 -13779277.43245 -10704163.75445  23428816.5084   23428823.5084
         9.2504          8.2504
 03 10 28  1 20  0.0000000  0  7G 9G24G28G 7G 4G26G 5
 -11384822.12547  -8097545.82946  20927319.7734   20927323.4654
        23.0004         21.5004
 -15143243.86545 -11696404.61545  22878808.0704   22878814.6684
        10.7504         10.2504
  38295981.38945  30398824.76145  23337568.7664   23337573.2664
         8.0004          7.7504
  13677481.73846  10705462.12746  21640816.1724   21640820.0044
        19.5004         17.5004
 -14553884.45747 -11251021.04946  20974503.4694   20974507.1954
        24.0004         20.7504
 -12383202.84742                  25477471.4224
         4.2504
 -13796895.49345 -10717891.87445  23425463.7424   23425470.5164
         9.5004          8.7504
 03 10 28  1 20 30.0000000  0  7G 9G24G28G 7G 4G26G 5
 -11319875.14947  -8046937.75646  20939678.8444   20939682.9574
        23.0004         21.5004
 -15172175.61945 -11718948.68845  22873302.0784   22873309.3014
         9.7504         10.5004
  38444902.68145  30514867.28345  23365906.9384   23365912.0124
         8.2504          7.5004
  13808019.36146  10807179.77946  21665656.7274   21665660.5704
        19.5004         17.5004
 -14522847.34347 -11226836.22046  20980409.4224   20980412.8204
        23.7504         21.5004
 -12222319.56442  -9749783.37355  25508087.3834   25508100.1844
         4.2504          5.2504
 -13814522.02045 -10731626.65845  23422108.8284   23422114.9924
         8.7504          8.5004
 03 10 28  1 21  0.0000000  0  7G 9G24G28G 7G 4G26G 5
 -11254397.26247  -7995915.98546  20952138.8834   20952142.8914
        23.0004         21.5004
 -15200959.17245 -11741377.28045  22867825.1724   22867831.3484
        10.7504          9.7504
  38593935.84645  30630997.03545  23394267.0234   23394270.9844
         8.0004          8.0004
  13938640.61346  10908962.59846  21690513.1484   21690517.2154
        19.2504         17.2504
 -14491310.32947 -11202261.85946  20986410.8594   20986414.3054
        24.0004         21.2504
 -12061621.11141  -9624563.90243  25538664.2584   25538681.4534
         2.5004          3.2504
 -13832158.57444 -10745369.19645  23418752.0864   23418758.2274
         7.7504          8.0004
 03 10 28  1 21 30.0000000  0  7G 9G24G28G 7G 4G26G 5
 -11188384.39247  -7944477.35346  20964700.6024   20964704.4454
        23.2504         21.5004
 -15229588.09445 -11763685.38045  22862376.8984   22862382.5704
        11.0004          9.7504
  38743083.94145  30747216.34445  23422649.4454   23422651.6724
         8.2504          8.2504
  14069347.81846  11010812.39546  21715385.7194   21715389.3874
        19.2504         17.5004
 -14459268.59547 -11177294.20846  20992507.9064   20992511.4104
        23.2504         20.7504
 -12576626.86951                  25569210.1094
         2.5004
 -13849800.32244 -10759115.80945  23415395.4454   23415400.5434
         7.7504          7.7504
 03 10 28  1 22  0.0000000  0  7G 9G24G28G 7G 4G26G 5
 -11121835.95147  -7892621.39046  20977364.0554   20977367.6644
        23.0004         21.5004
 -15258059.52245 -11785870.79045  22856958.0784   22856964.3014
        10.7504         10.0004
  38892347.17845  30863525.35645  23451053.0864   23451058.3014
         8.0004          8.2504
  14200140.07946  11112728.46846  21740274.6804   21740278.6764
        19.2504         17.2504
 -14426720.29847 -11151931.83946  20998701.6174   20998705.0864
        23.7504         21.2504
 -12416299.13742                  25599722.3914
         4.2504
 -13867445.97545 -10772865.48845  23412036.9224   23412042.6764
         8.0004          8.5004
 03 10 28  1 22 30.0000000  0  7G 9G24G28G 7G 4G26G 5
 -11054757.76547  -7840352.63846  20990128.7194   20990132.5514
        23.0004         21.7504
 -15286376.42845 -11807935.73845  22851569.7194   22851575.4494
        10.5004          9.5004
  39041719.36245  30979919.25645  23479477.3594   23479481.0044
         9.0004          8.0004
  14331010.34646  11214705.32046  21765178.7034   21765182.5944
        19.2504         17.5004
 -14393670.18247 -11126178.43946  21004990.9384   21004994.5124
        23.7504         21.5004
 -12256166.51843                  25630195.1484
         5.7504
 -13885100.01445 -10786621.71045  23408677.5704   23408682.5044
         8.7504          8.2504
 03 10 28  1 23  0.0000000  0  6G 9G24G28G 7G 4G 5
 -10987144.81747  -7787667.19046  21002995.3444   21002999.1644
        23.2504         22.0004
 -15314531.41745 -11829874.53445  22846211.3834   22846218.7584
         9.7504         10.0004
  39191204.77145  31096401.44945  23507923.6954   23507927.9384
         8.7504          8.5004
  14461962.18546  11316745.73946  21790097.6804   21790101.7584
        19.2504         17.5004
 -14360111.94847 -11100029.10246  21011376.6644   21011380.3444
        23.5004         21.0004
 -13902756.47345 -10800379.80545  23405317.9064   23405325.7854
         9.2504          8.5004
 03 10 28  1 23 30.0000000  0  6G 9G24G28G 7G 4G 5
 -10919000.55547  -7734567.73646  21015962.5084   21015966.3984
        23.0004         21.7504
 -15342525.59545 -11851688.01045  22840885.3914   22840891.3204
        11.5004         10.0004
  39340799.16845  31212968.45845  23536390.3594   23536394.5084
         9.0004          9.0004
  14592990.51346  11418845.76046  21815031.6884   21815035.9184
        19.0004         17.2504
 -14326048.15947 -11073485.83046  21017858.3364   21017861.8284
        23.2504         21.2504
 -13920417.97645 -10814141.89945  23401956.6954   23401962.8954
         9.2504          8.2504
 03 10 28  1 24  0.0000000  0  6G 9G24G28G 7G 4G 5
 -10850323.93347  -7681053.45246  21029031.2664   21029035.0164
        23.0004         21.5004
 -15370354.77745 -11873372.89945  22835589.2974   22835594.0664
        11.0004          9.5004
  39490503.24945  31329621.01045  23564878.3204   23564881.7894
        10.2504          9.0004
  14724095.13746  11521005.23146  21839979.9844   21839984.0634
        18.7504         17.0004
 -14291476.68747 -11046546.96446  21024437.7194   21024441.2584
        23.7504         21.2504
 -13938082.54245 -10827906.32045  23398594.7504   23398601.3134
         8.7504          7.2504
 03 10 28  1 24 30.0000000  0  6G 9G24G28G 7G 4G 5
 -10781114.09447  -7627123.67146  21042201.6484   21042205.5634
        23.0004         21.7504
 -15398016.06945 -11894927.01845  22830324.4454   22830331.8444
         9.7504          9.2504
  39640317.28745  31446359.27345  23593387.6024   23593391.5164
         9.0004          7.7504
  14855275.48346  11623223.70946  21864942.5314   21864946.5514
        18.5004         17.0004
 -14256395.48747 -11019210.90346  21031112.9534   21031116.6804
        23.2504         21.5004
 -13955747.81745 -10841671.32245  23395233.3444   23395239.8834
         9.0004          8.5004
 03 10 28  1 25  0.0000000  0  6G 9G24G28G 7G 4G 5
 -10711369.81047  -7572777.43946  21055473.0234   21055477.0434
        23.0004         21.7504
 -15425505.85945 -11916347.41745  22825094.2114   22825100.4344
        11.5004         10.0004
  39790241.88145  31563183.63945  23621916.8204   23621920.5234
         9.5004          8.2504
  14986531.35346  11725501.02646  21889919.6484   21889923.8204
        18.2504         16.7504
 -14220802.41547 -10991475.99246  21037885.9694   21037889.2154
        23.2504         21.2504
 -13973412.20845 -10855435.63245  23391871.8674   23391879.7344
         9.7504          8.7504
 03 10 28  1 25 30.0000000  0  6G 9G24G28G 7G 4G 5
 -10641098.54447  -7518020.57546  21068845.2664   21068848.7814
        23.2504         22.0004
 -15452829.10745 -11937638.11145  22819893.9614   22819899.9264
        11.7504         10.5004
  39940268.91345  31680087.83245  23650466.2114   23650467.6054
         9.5004          7.7504
  15117853.74846  11827830.18346  21914909.7504   21914913.7114
        18.2504         16.7504
 -14184703.76847 -10963347.12446  21044755.2734   21044758.6604
        23.7504         21.5004
 -13991081.53445 -10869203.81645  23388509.5634   23388515.5514
        10.0004          9.0004
 03 10 28  1 26  0.0000000  0  6G 9G24G28G 7G 4G 5
 -10570294.95247  -7462848.90846  21082319.0084   21082322.7114
        23.2504         22.2504
 -15479977.81246 -11958792.81145  22814729.3364   22814734.7154
        13.5004         11.0004
  40090403.31444  31797075.65945  23679035.0474   23679036.4184
         7.0004          6.7504
  15249247.00946  11930214.56846  21939912.8914   21939917.1094
        18.2504         16.5004
 -14148093.17347 -10934819.32446  21051722.0474   21051725.9024
        23.5004         21.2504
 -14008748.74345 -10882970.32945  23385147.8984   23385154.0274
        10.0004          8.7504
 03 10 28  1 26 30.0000000  0  6G 9G24G28G 7G 4G 5
 -10498963.98647  -7407266.30546  21095892.8134   21095896.6454
        23.5004         22.2504
 -15506954.23845 -11979813.25545  22809593.9774   22809599.0394
        11.0004         10.2504
  40240639.98745  31914143.27245  23707625.3444   23707630.5594
         8.0004          6.7504
  15380705.03546  12032649.40746  21964928.6484   21964932.7974
        18.2504         16.5004
 -14110974.40947 -10905895.56146  21058785.4924   21058789.1134
        23.5004         21.5004
 -14026418.40845 -10896738.80745  23381784.9384   23381789.5784
         9.7504          9.0004
 03 10 28  1 27  0.0000000  0  6G 9G24G28G 7G 4G 5
 -10427111.85547  -7351277.59346  21109565.7194   21109569.5044
        23.5004         21.7504
 -15533761.89245 -12000702.20145  22804493.4224   22804500.3054
        11.5004         10.2504
  40390971.89444  32031285.04445  23736232.2194   23736231.2934
         7.7504          6.7504
  15512220.20746  12135128.79046  21989955.2274   21989958.7664
        18.0004         16.2504
 -14073352.63447 -10876579.84446  21065944.8834   21065948.1174
        23.7504         21.7504
 -14044095.06145 -10910512.71345  23378421.6024   23378428.8594
         9.5004          9.0004
 03 10 28  1 27 30.0000000  0  6G 9G24G28G 7G 4G 5
 -10354720.35647  -7294868.60146  21123341.5234   21123345.2384
        23.5004         22.2504
 -15560379.85246 -12021443.30445  22799428.3134   22799433.1294
        12.7504         11.0004
  40541417.07043  32148515.05345  23764859.6564   23764862.1174
         5.5004          5.2504
  15643809.61046  12237666.00746  22014995.6094   22014999.3834
        18.2504         16.2504
 -14035208.46147 -10846857.05746  21073203.3754   21073206.9614
        23.7504         21.2504
 -14061759.70745 -10924277.21545  23375059.5084   23375065.0044
         9.5004          9.0004
 03 10 28  1 28  0.0000000  0  6G 9G24G28G 7G 4G 5
 -10281803.73847  -7238050.42246  21137217.0004   21137220.5394
        23.5004         22.0004
 -15586820.20646 -12042046.07945  22794396.0784   22794400.0744
        12.0004         11.2504
  40691960.65243  32265821.71744  23793508.4774   23793511.0554
         6.0004          4.7504
  15775457.57046  12340248.85746  22040047.4384   22040051.6804
        18.0004         16.0004
 -13996555.25847 -10816737.62046  21080558.6174   21080562.1334
        23.7504         21.5004
 -14079424.93345 -10938042.16945  23371697.6094   23371703.1644
         9.7504          9.7504
 03 10 28  1 28 30.0000000  0  6G 9G24G28G 7G 4G 5
 -11783783.83647  -8408424.48546  20851399.2504   20851403.2234
        23.0004         21.5004
 -17188505.11045 -13290112.10445  22489605.8754   22489611.1954
        11.5004         10.5004
  39267182.93243  31155605.26645  23522381.3834   23522384.1484
         6.2504          5.2504
  14331743.35146  11215276.76046  21765317.9144   21765321.6414
        18.0004         16.0004
 -15532814.89047 -12013822.99346  20788218.2734   20788221.9534
        23.7504         21.7504
 -15672514.18345 -12179410.30945  23068543.4064   23068550.3014
        10.5004         10.0004
 03 10 28  1 29  0.0000000  0  6G 9G24G28G 7G 4G 5
 -11709827.86447  -8350796.41846  20865472.8284   20865476.7544
        23.2504         22.0004
 -17214592.15645 -13310439.52945  22484641.3444   22484647.4494
        11.7504         10.7504
  39417911.40643  31273056.17145  23551064.0864   23551069.7704
         6.0004          6.0004
  14463494.72746  11317940.19046  21790389.0944   21790393.3594
        17.7504         15.7504
 -15493151.05747 -11982916.06046  20795765.9844   20795769.5354
        23.7504         21.5004
 -15690187.12045 -12193181.27145  23065179.9224   23065185.6994
        10.2504          9.7504
 03 10 28  1 29 30.0000000  0  6G 9G24G28G 7G 4G 5
 -11635350.71647  -8292762.24146  20879645.4064   20879649.4024
        23.2504         22.2504
 -17240496.67946 -13330624.77645  22479711.9304   22479717.7304
        12.5004         11.5004
  39568733.47243  31390579.81745  23579764.5394   23579770.1054
         6.2504          7.0004
  14595297.75746  11420643.87246  21815470.4844   21815474.4104
        17.7504         15.7504
 -15452978.76247 -11951612.92346  20803410.4384   20803413.7074
        23.7504         21.5004
 -15707860.66745 -12206952.73545  23061816.3984   23061822.2344
         9.5004         10.0004
 03 10 28  1 30  0.0000000  0  6G 9G24G28G 7G 4G 5
 -11560352.84447  -8234322.30846  20893916.9614   20893920.5474
        23.2504         21.7504
 -17266216.83346 -13350666.36845  22474817.3134   22474823.6994
        12.2504         11.2504
  39719648.15345  31508175.63645  23608482.7194   23608487.2424
         8.0004          8.2504
  14727150.85146  11523386.57646  21840561.4924   21840565.3364
        17.7504         15.7504
 -15412297.23547 -11919912.98246  20811151.9614   20811155.1254
        23.7504         21.7504
 -15725533.78545 -12220723.80345  23058453.0864   23058459.7664
         9.2504          9.5004
 03 10 28  1 30 30.0000000  0  6G 9G24G28G 7G 4G 5
 -11484833.36347  -8175475.92446  20908287.6644   20908291.1094
        23.2504         21.7504
 -17291748.80646 -13370561.30145  22469958.8524   22469964.5704
        13.0004         11.7504
  39870656.18445  31625844.24845  23637218.7424   23637222.6804
         8.2504          8.2504
  14859054.10846  11626168.35346  21865661.4454   21865665.1484
        17.5004         15.5004
 -15371104.57547 -11887814.75246  20818990.4534   20818993.6054
        24.2504         22.0004
 -15743203.55745 -12234492.34845  23055090.5944   23055096.6884
        10.0004          9.7504
 03 10 28  1 31  0.0000000  0  6G 9G24G28G 7G 4G 5
 -11408794.86947  -8116225.10746  20922757.1724   20922760.9224
        23.2504         21.7504
 -17317092.31346 -13390309.39446  22465136.1414   22465141.2504
        13.5004         12.2504
  40021754.41845  31743583.15045  23665971.9224   23665974.8524
         8.2504          7.7504
  14991003.63846  11728986.20346  21890770.6174   21890774.6724
        17.2504         15.7504
 -15329402.42547 -11855319.52246  20826926.3444   20826929.3914
        24.5004         22.0004
 -15760871.17245 -12248259.13945  23051729.0164   23051735.3324
        10.7504          9.7504
 03 10 28  1 31 30.0000000  0  6G 9G24G28G 7G 4G 5
 -11332241.40647  -8056573.02346  20937324.9384   20937328.5234
        23.2504         22.0004
 -17342248.46146 -13409911.48845  22460349.0314   22460353.7774
        12.5004         11.5004
  40172938.75045  31861389.12245  23694741.6334   23694745.1724
         8.0004          8.5004
  15122994.64046  11831836.35746  21915887.5554   21915891.2114
        17.2504         15.7504
 -15287193.68947 -11822429.54646  20834958.3754   20834961.7974
        24.7504         22.0004
 -15778539.69445 -12262026.68345  23048366.7504   23048372.8094
        11.0004         10.2504
 03 10 28  1 32  0.0000000  0  6G 9G24G28G 7G 4G 5
 -11255173.47347  -7996520.04746  20951990.2664   20951993.8164
        23.0004         21.5004
 -17367215.29146 -13429366.05545  22455597.8594   22455603.9184
        12.5004         11.2504
  40324208.37545  31979261.55745  23723527.1254   23723530.8284
         9.0004          8.5004
  15255025.69446  11934717.71646  21941012.6564   21941016.6524
        17.0004         15.7504
 -15244477.71347 -11789144.32046  20843086.8674   20843090.2074
        24.7504         22.2504
 -15796207.89245 -12275793.95845  23045004.0634   23045009.5594
        10.5004          9.5004
 03 10 28  1 32 30.0000000  0  6G 9G24G28G 7G 4G 5
 -11177596.17247  -7936070.17046  20966752.8524   20966756.6134
        23.0004         22.0004
 -17391994.67546 -13448674.60945  22450882.4454   22450888.3404
        13.2504         11.7504
  40475558.05845  32097196.37345  23752328.7114   23752331.7814
         9.5004          8.7504
  15387090.80746  12037625.61846  21966143.6724   21966147.1994
        17.2504         15.2504
 -15201258.48547 -11755466.95446  20851311.1094   20851314.1454
        24.5004         22.2504
 -15813879.00845 -12289563.51845  23041641.1954   23041647.6884
        10.7504         10.0004
 03 10 28  1 33  0.0000000  0  6G 9G24G28G 7G 4G 5
 -11099500.63847  -7875216.46346  20981614.1094   20981617.8954
        23.0004         22.0004
 -17416574.86446 -13467827.91045  22446204.4924   22446209.6604
        12.7504         11.5004
  40626996.71543  32215200.50645  23781145.0004   23781148.7154
         6.7504          6.7504
  15519198.21346  12140566.48646  21991282.6884   21991286.5084
        17.0004         15.5004
 -15157525.91047 -11721389.57046  20859633.1254   20859636.4304
        24.5004         22.0004
 -15831542.18245 -12303326.88645  23038280.0004   23038284.5824
        10.7504          9.0004
 03 10 28  1 33 30.0000000  0  6G 9G24G28G 7G 4G 5
 -11020898.46347  -7813967.98346  20996571.3204   20996574.9774
        23.0004         22.0004
 -17440964.66446 -13486832.84645  22441562.9064   22441567.5234
        12.2504         11.2504
  40778512.43343  32333264.79945  23809978.0394   23809979.8444
         6.0004          5.7504
  15651335.51146  12243530.64346  22016427.5784   22016431.5044
        16.7504         15.2504
 -15113290.58247 -11686920.43446  20868050.5234   20868053.7114
        24.2504         22.2504
 -15849207.52745 -12317091.94145  23034917.7814   23034923.3364
        10.2504          8.5004
 03 10 28  1 34  0.0000000  0  6G 9G24G28G 7G 4G 5
 -10941792.31047  -7752326.78946  21011624.8524   21011628.4494
        23.2504         22.0004
 -17465163.90246 -13505689.26645  22436958.4694   22436963.8134
        13.5004         11.7504
  40930102.22245  32451386.65345  23838825.0164   23838828.2504
         9.0004          8.5004
  15783499.07346  12346515.25646  22041577.3524   22041581.6294
        16.5004         15.2504
 -15068554.20747 -11652060.87546  20876563.6724   20876566.6954
        24.2504         22.2504
 -15866876.34645 -12330859.72145  23031555.2894   23031558.9574
        10.2504          9.2504
 03 10 28  1 34 30.0000000  0  6G 9G24G28G 7G 4G 5
 -10862172.86747  -7690285.63546  21026775.9614   21026779.3714
        23.0004         21.7504
 -17489160.12046 -13524387.55746  22432392.0784   22432396.3444
        13.7504         12.2504
  41081775.14044  32569573.37145  23867687.8674   23867691.8404
         7.5004          8.5004
  15915697.52546  12449527.06246  22066734.1254   22066738.3674
        16.5004         15.0004
 -15023306.13247 -11616802.58146  20885173.9064   20885177.3754
        24.5004         22.2504
 -15884537.62545 -12344621.61845  23028194.7114   23028200.1604
         9.7504          9.5004
 03 10 28  1 35  0.0000000  0  6G 9G24G28G 7G 4G 5
 -10782040.48947  -7627844.78446  21042024.3914   21042027.9184
        23.0004         21.7504
 -17512950.70346 -13542925.57246  22427865.2034   22427870.9104
        13.2504         12.0004
                                  23896563.0864
         2.0004
  16047930.06146  12552565.41646  22091896.9844   22091901.1454
        16.5004         15.5004
 -14977545.70147 -11581145.05046  20893882.2734   20893885.3204
        24.7504         22.2504
 -15902189.09845 -12358375.87745  23024835.4924   23024841.0594
         9.7504          9.5004
 03 10 28  1 35 30.0000000  0  6G 9G24G28G 7G 4G 5
 -10701396.20647  -7565005.04446  21057370.7974   21057374.3014
        23.0004         21.7504
 -17536533.93846 -13561302.02746  22423377.7974   22423381.9804
        13.2504         12.0004
 -14032007.52143                  23925459.4844
         6.7504
  16180194.85746  12655628.92846  22117065.9844   22117070.0514
        16.2504         15.0004
 -14931272.88847 -11545088.25546  20902687.8364   20902690.9184
        24.7504         22.5004
 -15919830.68645 -12372122.40845  23021478.3364   23021483.9264
        10.2504         10.0004
 03 10 28  1 36  0.0000000  0  6G 9G24G28G 7G 4G 5
 -10620249.07247  -7501773.47846  21072812.4614   21072816.2814
        23.0004         21.7504
 -17559915.98846 -13579521.70046  22418928.1884   22418933.2504
        14.7504         12.2504
 -13880097.28545                  23954367.5234
         8.7504
  16312481.86946  12758709.73046  22142239.1564   22142242.9184
        16.0004         15.0004
 -14884495.98847 -11508638.67446  20911588.9384   20911592.0904
        24.7504         22.5004
 -15937469.46245 -12385866.74745  23018122.0164   23018127.1134
        10.7504         10.0004
 03 10 28  1 36 30.0000000  0  6G 9G24G28G 7G 4G 5
 -10538591.99647  -7438144.56146  21088350.9774   21088354.4694
        23.0004         21.7504
 -17583086.56546 -13597576.60946  22414518.4534   22414523.3524
        14.0004         12.7504
 -13728107.68243                  23983289.0314
         5.0004
  16444797.67746  12861812.97846  22167417.8204   22167421.4884
        16.0004         15.0004
 -14837206.65447 -11471789.78946  20920587.7424   20920590.9414
        24.7504         22.7504
 -15955096.60245 -12399602.05245  23014767.7034   23014772.7304
        11.2504         10.0004
 03 10 28  1 37  0.0000000  0  6G 9G24G28G 7G 4G 5
 -10456432.12247  -7374123.84946  21103985.7274   21103989.5944
        22.7504         21.5004
 -17606049.62746 -13615469.81446  22410148.2274   22410153.2774
        13.5004         12.5004
 -13576045.08841 -10981253.35655  24012225.9924   24012230.7154
         3.7504          5.2504
  16577134.80046  12964932.82646  22192601.0164   22192605.0594
        16.0004         14.5004
 -14789410.94547 -11434546.32946  20929682.6644   20929685.6414
        24.5004         22.5004
 -15972717.47245 -12413332.47845  23011414.2814   23011418.9924
        11.0004         10.2504
 03 10 28  1 37 30.0000000  0  6G 9G24G28G 7G 4G 5
 -10373766.42047  -7309708.99046  21119716.2504   21119719.7304
        22.7504         21.5004
 -17628799.27146 -13633196.70146  22405819.2814   22405824.4024
        14.5004         13.0004
 -13423907.37345 -10862704.37745  24041176.7664   24041183.4454
         8.7504          5.7504
  16709495.65646  13068071.17546  22217788.5784   22217792.0704
        15.7504         14.7504
 -14741104.71847 -11396905.06246  20938874.9614   20938877.9844
        24.5004         22.5004
 -15990326.69245 -12427053.84045  23008062.3674   23008068.1454
        10.0004         10.0004
 03 10 28  1 38  0.0000000  0  6G 9G24G28G 7G 4G 5
 -10290592.35647  -7244898.00746  21135543.7504   21135547.3134
        22.7504         21.5004
 -17651330.05246 -13650753.06446  22401531.9454   22401537.0084
        14.7504         12.7504
 -13271691.66445 -10744094.49944  24070142.7114   24070142.8634
         9.2504          4.0004
  16841882.07746  13171229.45546  22242981.3284   22242985.2424
        16.0004         14.5004
 -14692284.13247 -11358863.00046  20948165.0864   20948168.4494
        24.5004         22.5004
 -16007919.81945 -12440762.61145  23004714.1884   23004720.0704
        10.0004         10.0004
 03 10 28  1 38 30.0000000  0  6G 9G24G28G 7G 4G 5
 -10206914.15247  -7179694.17746  21151467.1954   21151470.6764
        22.7504         21.7504
 -17673642.94146 -13668139.62746  22397285.5164   22397290.5664
        14.2504         12.2504
 -13119402.20243 -10625427.34345  24099121.9144   24099125.8404
         6.5004          6.0004
  16974289.46846  13274404.07746  22268177.1884   22268181.5944
        15.7504         14.5004
 -14642952.76147 -11320422.91746  20957552.6174   20957555.8284
        24.7504         22.7504
 -16025499.28345 -12454460.73645  23001369.8284   23001375.2774
        10.7504         10.5004
 03 10 28  1 39  0.0000000  0  6G 9G24G28G 7G 4G 5
 -10122728.38147  -7114094.84846  21167487.1024   21167490.6884
        23.0004         22.0004
 -17695731.47146 -13685351.35946  22393082.7734   22393087.8014
        14.5004         12.7504
 -12967035.21442 -10506699.93045  24128115.7814   24128117.1644
         4.5004          7.0004
  17106721.01546  13377597.51246  22293378.1564   22293382.1994
        15.2504         14.5004
 -14593105.82147 -11281581.09846  20967038.2424   20967041.6054
        24.7504         22.7504
 -16043059.19645 -12468143.68245  22998028.6254   22998033.6644
        11.5004         10.2504
 03 10 28  1 39 30.0000000  0  6G 9G24G28G 7G 4G 5
 -10038032.87547  -7048098.32546  21183604.4534   21183607.8284
        23.2504         21.5004
 -17717590.32546 -13702384.13646  22388922.2344   22388926.6994
        14.0004         13.0004
 -12814589.02844 -10387910.77145  24157126.4614   24157132.6374
         7.5004          8.0004
  17239177.99146  13480810.76146  22318584.0314   22318588.2734
        15.5004         14.0004
 -14542740.10147 -11242335.03446  20976622.5704   20976625.6524
        25.0004         22.7504
 -16060595.81146 -12481808.45845  22994691.2504   22994695.5044
        13.2504         11.5004
 03 10 28  1 40  0.0000000  0  6G 9G24G28G 7G 4G 5
 -11528249.33047  -8209305.92746  20900025.3834   20900028.8754
        22.7504         21.7504
 -19314641.37946 -14946839.38846  22085013.5004   22085018.5164
        14.0004         13.0004
 -14237482.82645 -11496659.17045  23886358.3284   23886361.6454
         8.2504          7.5004
  15796240.14646  12356443.62246  22044002.2344   22044006.3364
        15.7504         14.5004
 -16067277.54947 -12430286.23946  20686512.8054   20686515.6994
        24.7504         22.7504
 -17653531.79046 -13723057.14746  22691565.8444   22691571.0474
        13.7504         12.2504
 03 10 28  1 40 30.0000000  0  6G 9G24G28G 7G 4G 5
 -11442545.34247  -8142523.58046  20916334.4614   20916337.9534
        23.0004         21.5004
 -19336042.33046 -14963515.31846  22080941.0164   22080946.2074
        14.5004         13.2504
 -14084888.38844 -11377754.31345  23915395.8984   23915400.7974
         7.0004          5.5004
  15928736.42946  12459687.49946  22069214.8754   22069218.0044
        15.7504         14.0004
 -16015882.34347 -12390237.98346  20696292.6804   20696295.5984
        24.7504         23.0004
 -17671025.60646 -13736688.54446  22688236.5474   22688241.2344
        13.0004         12.5004
 03 10 28  1 41  0.0000000  0  6G 9G24G28G 7G 4G 5
 -11356339.56647  -8075350.22046  20932738.5474   20932741.9344
        22.7504         21.7504
 -19357211.96646 -14980011.04546  22076913.1024   22076918.4454
        15.0004         13.2504
 -13932221.98642 -11258793.37745  23944446.1094   23944442.6764
         4.5004          5.7504
  16061249.47746  12562944.44146  22094431.2584   22094434.7854
        15.7504         14.5004
 -15963972.83047 -12349788.96546  20706170.7814   20706173.8984
        24.7504         23.0004
 -17688497.49046 -13750302.88846  22684911.0084   22684915.6604
        12.7504         12.0004
 03 10 28  1 41 30.0000000  0  6G 9G24G28G 7G 4G 5
 -11269634.86547  -8007788.09346  20949238.0164   20949241.5554
        22.7504         21.7504
 -19378149.92146 -14996326.19746  22072928.6564   22072933.3914
        15.0004         13.2504
 -13779486.14241 -11139778.55145  23973512.8134   23973516.6804
         3.7504          6.0004
  16193776.25046  12666212.08546  22119650.1884   22119654.2544
        15.2504         14.2504
 -15911551.04147 -12308940.77046  20716146.1414   20716149.3404
        24.7504         22.7504
 -17705948.19346 -13763900.70446  22681591.1094   22681595.8094
        13.0004         12.0004
 03 10 28  1 42  0.0000000  0  6G 9G24G28G 7G 4G 5
 -11182425.39447  -7939832.63846  20965833.4384   20965836.9414
        22.7504         21.5004
 -19398847.25646 -15012453.86246  22068989.4844   22068994.8874
        14.2504         13.0004
 -13626675.24843 -11020705.17445  24002591.7034   24002593.2034
         5.2504          6.7504
  16326322.08846  12769494.58346  22144873.6724   22144877.3984
        15.7504         13.7504
 -15858610.21747 -12267688.13346  20726220.3834   20726223.3134
        24.7504         22.7504
 -17723369.26446 -13777475.44145  22678274.8984   22678279.7034
        13.0004         11.2504
 03 10 28  1 42 30.0000000  0  6G 9G24G28G 7G 4G 5
 -11094717.72847  -7871488.98046  20982523.8674   20982527.6294
        22.7504         21.7504
 -19419307.37946 -15028396.70946  22065096.0394   22065101.2074
        14.2504         13.2504
 -13473795.64343 -10901578.25845  24031683.7034   24031688.7664
         6.5004          7.0004
  16458880.30446  12872786.71646  22170097.8594   22170102.5354
        15.5004         14.0004
 -15805155.74347 -12226035.25446  20736392.4144   20736395.3324
        24.7504         23.2504
 -17740765.22946 -13791030.62745  22674965.2584   22674970.2854
        12.7504         11.7504
 03 10 28  1 43  0.0000000  0  6G 9G24G28G 7G 4G 5
 -11006507.65047  -7802753.82646  20999308.9454   20999312.5084
        22.2504         21.7504
 -19439522.91446 -15044148.94646  22061248.8754   22061254.1484
        14.5004         13.0004
 -13320842.91143 -10782394.32145  24060788.9614   24060794.6094
         6.5004          6.2504
  16591454.78746  12976091.52746  22195326.2274   22195329.8484
        15.5004         13.7504
 -15751182.30047 -12183977.98046  20746663.2114   20746666.2704
        24.7504         23.0004
 -17758129.41846 -13804561.04745  22671660.7034   22671665.9304
        13.0004         11.2504
 03 10 28  1 43 30.0000000  0  6G 9G24G28G 7G 4G 5
 -10917797.43947  -7733628.96246  21016190.7274   21016194.1954
        23.0004         21.7504
 -19459492.56046 -15059709.57746  22057449.1254   22057454.7854
        15.2504         13.7504
 -13167818.97643 -10663154.79745  24089908.2344   24089904.4384
         5.0004          5.2504
  16724043.23246  13079407.20646  22220556.6254   22220560.0594
        15.2504         13.7504
 -15696691.30747 -12141517.41246  20757032.7034   20757035.6334
        25.0004         23.2504
 -17775461.93446 -13818066.78545  22668362.3674   22668366.3524
        13.0004         11.5004
 03 10 28  1 44  0.0000000  0  6G 9G24G28G 7G 4G 5
 -10828588.80947  -7664115.71646  21033166.4614   21033169.9534
        22.7504         21.7504
 -19479214.95046 -15075077.57046  22053695.5944   22053701.0554
        15.0004         14.0004
 -13014725.14942                  24119041.2194
         4.7504
  16856643.81846  13182732.37746  22245789.6724   22245793.9024
        15.0004         13.7504
 -15641683.28447 -12098653.97446  20767500.3364   20767503.1604
        25.0004         23.2504
 -17792762.11746 -13831547.35245  22665070.0474   22665074.3014
        12.7504         11.5004
 03 10 28  1 44 30.0000000  0  6G 9G24G28G 7G 4G 5
 -10738884.93547  -7594216.57246  21050236.4694   21050239.9024
        23.0004         21.7504
 -19498690.22846 -15090253.00446  22049989.3284   22049994.2854
        15.0004         13.7504
 -12861564.67043                  24148186.7424
         6.0004
  16989253.19246  13286064.35646  22271024.3054   22271028.3364
        14.7504         13.5004
 -15586160.23047 -12055389.21546  20778065.7584   20778068.6524
        25.0004         23.2504
 -17810030.55246 -13845003.14646  22661784.3284   22661788.7584
        12.7504         12.0004
 03 10 28  1 45  0.0000000  0  6G 9G24G28G 7G 4G 5
 -10648683.74547  -7523929.89646  21067401.0004   21067404.4804
        23.0004         21.7504
 -19517912.69446 -15105231.42346  22046331.5634   22046336.9414
        15.2504         14.0004
 -12708335.03944                  24177345.7664
         7.5004
  17121873.36246  13389404.76546  22296261.1174   22296264.8204
        14.7504         13.2504
 -15530119.16847 -12011720.80646  20788730.2114   20788732.8484
        25.2504         23.2504
 -17827262.65246 -13858430.65145  22658504.5554   22658509.5824
        12.7504         11.2504
 03 10 28  1 45 30.0000000  0  6G 9G24G28G 7G 4G 5
 -10557985.19247  -7453255.67446  21084660.3754   21084663.6334
        23.0004         21.7504
 -19536879.02946 -15120010.28046  22042722.2814   22042727.2274
        16.0004         14.2504
 -12555035.95245 -12212289.48255  24206517.0164   24206521.4224
         8.2504          6.2504
  17254504.39046  13492753.64046  22321499.7894   22321503.3754
        14.7504         13.5004
 -15473558.95647 -11967647.87546  20799493.0084   20799496.2664
        25.0004         23.2504
 -17844456.25946 -13871828.16345  22655232.3204   22655237.1024
        12.5004         11.7504
 03 10 28  1 46  0.0000000  0  6G 9G24G28G 7G 4G 5
 -10466794.90447  -7382198.27746  21102013.3594   21102017.0164
        22.7504         21.7504
 -19555591.75246 -15134591.52246  22039161.5004   22039166.1524
        16.0004         13.7504
 -12401672.57044 -12092785.58145  24235701.4224   24235705.3594
         7.7504          6.2504
  17387140.66346  13596106.58946  22346740.0394   22346743.7774
        14.5004         13.2504
 -15416484.07147 -11923173.90346  20810353.8364   20810356.8594
        24.7504         23.2504
 -17861614.17146 -13885197.84646  22651967.8134   22651973.0164
        12.7504         12.2504
 03 10 28  1 46 30.0000000  0  6G 9G24G28G 7G 4G 5
 -10375107.64147  -7310753.62846  21119460.6724   21119463.9414
        22.5004         21.5004
 -19574042.09746 -15148968.30746  22035649.9064   22035654.3484
        16.0004         14.2504
 -12248239.48143 -11973227.24345  24264899.0084   24264903.7194
         6.2504          5.0004
  17519787.46746  13699467.75546  22371981.9304   22371985.7034
        14.5004         13.5004
 -15358888.35947 -11878294.08046  20821314.0314   20821317.2074
        25.0004         23.2504
 -17878728.30146 -13898533.41445  22648710.7894   22648714.8914
        12.5004         11.5004
 03 10 28  1 47  0.0000000  0  6G 9G24G28G 7G 4G 5
 -10282929.90047  -7238926.79446  21137001.5234   21137004.9694
        22.5004         21.5004
 -19592233.12846 -15163143.02446  22032188.7504   22032193.2154
        16.5004         14.7504
 -12094742.67342 -11853619.34745  24294107.1414   24294112.8014
         4.5004          5.0004
  17652438.36846  13802832.10646  22397224.5704   22397228.0164
        14.2504         13.5004
 -15300776.93947 -11833012.41946  20832372.3444   20832375.5314
        25.0004         23.2504
 -17895803.34846 -13911838.52845  22645460.9844   22645465.6844
        12.2504         11.5004
 03 10 28  1 47 30.0000000  0  6G 9G24G28G 7G 4G 5
 -10190263.52447  -7166719.19946  21154635.3284   21154638.8554
        22.5004         21.5004
 -19610163.45846 -15177114.60946  22028776.6644   22028781.1174
        16.5004         14.7504
 -11941183.56042 -11733962.92844  24323329.6564   24323333.5594
         4.5004          4.7504
  17785091.57746  13906198.25946  22422467.3364   22422471.6484
        14.2504         13.0004
 -15242150.89447 -11787329.74446  20843528.4144   20843531.1914
        24.7504         23.2504
 -17912838.09246 -13925112.24045  22642219.2814   22642224.3324
        12.5004         11.7504
 03 10 28  1 48  0.0000000  0  6G 9G24G28G 7G 4G 5
 -10097099.84347  -7094124.10346  21172363.9694   21172367.4844
        22.5004         21.2504
 -19627821.08846 -15190873.69346  22025415.9614   22025421.0004
        16.2504         14.7504
 -11787553.05543 -11614250.86145  24352564.7584   24352569.1644
         5.5004          5.0004
  17917755.95646  14009573.11946  22447712.7034   22447716.7584
        14.0004         13.0004
 -15183000.49847 -11741238.48546  20854784.5474   20854787.3594
        25.0004         23.2504
 -17929821.23846 -13938345.74146  22638988.0554   22638993.0124
        12.7504         12.2504
 03 10 28  1 48 30.0000000  0  6G 9G24G28G 7G 4G 5
 -10003439.37047  -7021141.88846  21190186.7664   21190190.3524
        22.2504         21.5004
 -19645203.26146 -15204418.14446  22022108.7504   22022113.3204
        16.2504         14.5004
 -11633851.79343 -11494483.60744  24381813.5634   24381821.2424
         6.2504          4.7504
  18050430.69246  14112956.04346  22472959.9304   22472964.0314
        14.2504         13.2504
 -15123325.59547 -11694738.52646  20866140.1644   20866143.0354
        24.7504         23.2504
 -17946751.24046 -13951537.83446  22635766.2504   22635770.0594
        13.2504         12.5004
 03 10 28  1 49  0.0000000  0  6G 9G24G28G 7G 4G 5
  -9909288.30747  -6947777.40946  21208103.1644   21208106.4924
        22.2504         21.2504
 -19662312.50546 -15217749.91346  22018852.9064   22018857.8634
        16.5004         15.0004
 -11480085.37243 -11374665.57745  24411072.9144   24411075.1294
         6.2504          6.0004
  18183110.08346  14216342.59246  22498208.0634   22498211.4964
        14.2504         13.5004
 -15063131.00347 -11647833.60946  20877594.7814   20877597.6054
        25.0004         23.2504
 -17963631.07646 -13964690.85546  22632554.2584   22632558.8754
        13.7504         12.2504
 03 10 28  1 49 30.0000000  0  6G 9G24G28G 7G 4G 5
  -9814650.30747  -6874033.48746  21226112.1094   21226115.7424
        22.2504         21.2504
 -19679148.83846 -15230869.02846  22015648.8594   22015653.9454
        16.2504         14.7504
 -11326256.59543 -11254798.95245  24440346.7504   24440351.1804
         5.5004          5.7504
  18315790.67446  14319730.09846  22523456.2424   22523460.1804
        14.2504         13.2504
 -15002419.28347 -11600525.73546  20889147.4614   20889150.2734
        24.7504         23.2504
 -17980461.79446 -13977805.61646  22629351.1334   22629356.0664
        13.5004         12.7504
 03 10 28  1 50  0.0000000  0  6G 9G24G28G 7G 4G 5
  -9719522.39347  -6799907.82046  21244214.3364   21244217.7344
        22.2504         21.2504
 -19695706.52346 -15243771.01746  22012497.9224   22012503.0904
        16.5004         15.0004
 -11172362.16742 -11134881.30044  24469630.2664   24469637.0044
         4.0004          4.2504
  18448475.75046  14423121.07646  22548705.5474   22548710.0474
        14.0004         13.2504
 -14941186.42047 -11552811.77246  20900799.7974   20900802.8554
        25.0004         23.2504
 -17997237.31546 -13990877.31946  22626158.3134   22626162.1684
        13.5004         12.0004
 03 10 28  1 50 30.0000000  0  6G 9G24G28G 7G 4G 5
  -9623906.65847  -6725402.03546  21262409.4924   21262412.7734
        22.2504         21.5004
 -19711983.81446 -15256454.50546  22009400.0554   22009405.3164
        16.7504         14.7504
 -15697747.63451                  24498928.6644
         2.7504
  18581163.54046  14526514.17246  22573954.8054   22573958.5904
        14.0004         13.2504
 -14879433.46547 -11504692.54946  20912551.0234   20912553.7894
        25.0004         23.2504
 -18013957.00246 -14003905.54346  22622976.9844   22622981.3204
        13.7504         13.0004
 03 10 28  1 51  0.0000000  0  6G 9G24G28G 7G 4G 5
  -9527808.30847  -6650520.18646  21280696.3444   21280700.0004
        22.2504         21.5004
 -19727981.99446 -15268920.53046  22006356.2274   22006360.0594
        17.5004         15.0004
 -15697724.60151                  24528235.8834
         2.7504
  18713849.23346  14629905.64546  22599204.5084   22599208.4224
        14.0004         13.0004
 -14817164.50147 -11456171.23846  20924400.4384   20924403.1564
        25.0004         23.5004
 -18030623.76946 -14016892.53546  22619805.1174   22619809.8054
        13.0004         12.2504
 03 10 28  1 51 30.0000000  0  6G 9G24G28G 7G 4G 5
  -9431220.11247  -6575256.63746  21299076.6334   21299080.1954
        22.2504         21.2504
 -19743690.85346 -15281161.09746  22003366.4224   22003371.0984
        16.2504         15.0004
 -15543639.45941                  24557556.9534
         3.7504
  18846540.03646  14733301.06546  22624454.6484   22624458.1764
        14.2504         13.2504
 -14754371.62147 -11407241.68146  20936349.4924   20936352.5044
        25.0004         23.2504
 -18047227.34846 -14029830.28546  22616645.5944   22616650.1884
        13.2504         12.5004
 03 10 28  1 52  0.0000000  0  6G 9G24G28G 7G 4G 5
 -10909566.73347  -7727215.03146  21017756.2114   21017759.9844
        22.0004         21.0004
 -21334535.25246 -16520779.99046  21700638.8444   21700643.5664
        17.0004         15.2504
 -16964909.53043 -13415516.35355  24287099.9224   24287104.6684
         5.0004          5.2504
  17403812.98646  13609098.18546  22349912.6564   22349916.3714
        14.2504         13.2504
 -16266479.59847 -12585507.60046  20648604.9534   20648607.9534
        25.0004         23.5004
 -19639192.96446 -15270322.88246  22313704.4694   22313708.8404
        14.0004         12.5004
 03 10 28  1 52 30.0000000  0  6G 9G24G28G 7G 4G 5
 -10812015.91947  -7651201.38846  21036319.8524   21036323.2274
        22.2504         21.0004
 -21349672.09446 -16532574.83346  21697758.8674   21697763.4734
        17.7504         15.5004
 -16810706.02143 -13295357.86145  24316444.3134   24316447.2664
         6.2504          6.0004
  17536498.25846  13712489.33846  22375161.5944   22375165.8594
        13.7504         12.2504
 -16202652.74147 -12535772.34946  20660750.7274   20660753.4344
        25.0004         23.5004
 -19655678.19946 -15283168.42746  22310567.6254   22310571.9264
        14.5004         13.0004
 03 10 28  1 53  0.0000000  0  6G 9G24G28G 7G 4G 5
 -10713979.23147  -7574809.15046  21054975.5164   21054978.9494
        22.2504         21.0004
 -21364512.88846 -16544138.98546  21694933.8204   21694938.7774
        17.0004         15.7504
 -16656437.44443 -13175148.58345  24345801.1334   24345802.4104
         6.7504          6.2504
  17669186.21746  13815882.56246  22400411.4454   22400414.9494
        13.5004         12.7504
 -16138302.53947 -12485629.30446  20672996.1564   20672998.8404
        25.0004         23.2504
 -19672095.35446 -15295960.92746  22307443.2894   22307447.1564
        14.5004         13.2504
 03 10 28  1 53 30.0000000  0  6G 9G24G28G 7G 4G 5
 -10615461.57347  -7498042.13046  21073722.5554   21073725.8014
        22.2504         21.0004
 -21379058.87746 -16555473.43246  21692166.1414   21692170.1484
        17.7504         15.7504
 -16502108.03343 -13054891.88045  24375168.4454   24375173.5664
         6.7504          6.2504
  17801872.41546  13919274.40246  22425660.5474   22425664.2034
        13.5004         12.2504
 -16073432.91447 -12435081.51046  20685340.4384   20685342.9344
        24.7504         23.5004
 -19688446.39046 -15308701.88346  22304331.8984   22304336.8794
        14.2504         13.5004
 03 10 28  1 54  0.0000000  0  6G 9G24G28G 7G 4G 5
 -10516466.24947  -7420902.89246  21092561.1174   21092564.6914
        22.0004         21.0004
 -21393309.83946 -16566577.97846  21689454.2344   21689459.1214
        17.2504         15.5004
 -16347720.74643 -12934590.09845  24404547.4064   24404552.0354
         6.7504          5.0004
  17934553.99146  14022662.65746  22450909.0084   22450913.7194
        13.2504         12.2504
 -16008046.30847 -12384130.87446  20697783.0234   20697785.8954
        25.2504         23.5004
 -19704731.33246 -15321391.35246  22301232.9454   22301237.6684
        14.7504         13.5004
 03 10 28  1 54 30.0000000  0  6G 9G24G28G 7G 4G 5
 -10416986.50647  -7343386.20246  21111491.0944   21111494.5864
        22.0004         21.2504
 -21407255.99346 -16577445.01146  21686799.4774   21686804.0234
        17.0004         16.0004
 -16193268.47643 -12814237.71245  24433938.1804   24433943.7234
         6.5004          5.0004
  18067237.88746  14126052.70346  22476158.0554   22476162.2034
        13.0004         12.2504
 -15942135.04547 -12332771.41746  20710325.5634   20710328.2814
        25.0004         23.5004
 -19720940.91746 -15334022.12946  22298148.1954   22298151.7704
        14.7504         13.5004
 03 10 28  1 55  0.0000000  0  6G 9G24G28G 7G 4G 5
 -10317027.27747  -7265495.87546  21130513.0554   21130516.1254
        22.2504         21.0004
 -21420898.25046 -16588075.24546  21684203.9774   21684208.5124
        17.5004         15.7504
 -16038755.24843 -12693837.67345  24463341.5234   24463344.6414
         6.0004          5.2504
  18199919.92046  14229441.30045  22501406.5394   22501410.6994
        12.7504         11.7504
 -15875702.94647 -12281006.10946  20722967.0554   20722969.8674
        25.0004         23.5004
 -19737076.88946 -15346595.52546  22295077.5634   22295081.3954
        14.5004         13.5004
 03 10 28  1 55 30.0000000  0  6G 9G24G28G 7G 4G 5
 -10216584.27047  -7187228.58146  21149626.4614   21149629.8484
        22.0004         21.0004
 -21434228.95346 -16598462.71146  21681666.9144   21681671.7194
        17.2504         15.7504
 -15884176.03243 -12573386.43345  24492756.5944   24492766.1844
         5.5004          5.0004
  18332604.99546  14332832.28245  22526655.3914   22526659.0234
        12.5004         11.2504
 -15808744.83647 -12228830.93246  20735708.5554   20735711.5904
        24.7504         23.2504
 -19753131.41246 -15359105.45046  22292022.4924   22292026.2544
        15.0004         13.5004
 03 10 28  1 56  0.0000000  0  6G 9G24G28G 7G 4G 5
 -10115661.26947  -7108587.26846  21168831.5314   21168834.9414
        22.0004         21.0004
 -21447248.33346 -16608607.58846  21679189.6884   21679194.1884
        18.0004         16.2504
 -15729533.96042 -12452886.14844  24522184.2274   24522190.5904
         4.7504          4.2504
  18465289.91446  14436223.14245  22551904.6644   22551908.7544
        12.5004         11.7504
 -15741263.29147 -12176247.87746  20748549.9454   20748552.6054
        25.0004         23.2504
 -19769105.44946 -15371552.66646  22288982.6094   22288986.2894
        15.2504         14.0004
 03 10 28  1 56 30.0000000  0  6G 9G24G28G 7G 4G 5
 -10014264.75147  -7029576.97346  21188126.5314   21188130.0944
        21.7504         20.7504
 -21459959.58746 -16618512.35646  21676770.8524   21676774.8244
        17.7504         16.2504
 -15574834.96642 -12332341.39442  24551621.9694   24551623.1644
         4.2504          2.7504
  18597968.66646  14539609.18245  22577153.0394   22577156.6844
        12.5004         11.7504
 -15673264.06447 -12123261.43446  20761489.8134   20761492.4494
        25.0004         23.5004
 -19785002.71546 -15383940.04646  22285957.1644   22285961.6294
        15.0004         13.7504
 03 10 28  1 57  0.0000000  0  6G 9G24G28G 7G 4G 5
  -9912391.73847  -6950195.38946  21207512.6954   21207515.9414
        22.2504         21.0004
 -21472356.01146 -16628171.82146  21674411.7734   21674416.2974
        18.2504         16.2504
 -15420075.24241                  24581071.8754
         3.7504
  18730644.96046  14642993.31145  22602399.8914   22602404.3554
        12.5004         11.2504
 -15604743.05047 -12069868.40946  20774529.0394   20774531.8054
        25.2504         23.5004
 -19800816.90846 -15396262.70646  22282948.0474   22282952.1374
        15.0004         14.2504
 03 10 28  1 57 30.0000000  0  7G 9G24G30G28G 7G 4G 5
  -9810046.87647  -6870446.13146  21226988.1804   21226991.9774
        22.2504         21.0004
 -21484438.23946 -16637586.45246  21672112.7814   21672117.0234
        18.5004         16.5004
 -17350704.04051                  25008938.1334
         3.2504
 -15265258.80241                  24610534.3914
         3.0004
  18863314.91746  14746372.50545  22627646.1484   22627649.8404
        12.5004         11.5004
 -15535703.88647 -12016071.61946  20787666.5864   20787669.2344
        25.0004         23.7504
 -19816549.28346 -15408521.61546  22279953.5164   22279957.9574
        14.5004         13.7504
 03 10 28  1 58  0.0000000  0  7G 9G24G30G28G 7G 4G 5
  -9707231.67747  -6790330.37246  21246552.9614   21246556.3364
        22.0004         21.0004
 -21496204.25846 -16646754.69146  21669873.5554   21669878.0554
        18.7504         16.5004
 -17388005.93142                  25001840.7584
         4.2504
 -15110386.23741                  24640003.8914
         2.7504
  18995977.79146  14849746.16445  22652891.3364   22652894.4654
        12.5004         11.7504
 -15466146.97147 -11961871.39646  20800902.8754   20800905.6174
        25.0004         23.7504
 -19832198.08846 -15420715.37846  22276976.0704   22276980.3834
        14.7504         13.5004
 03 10 28  1 58 30.0000000  0  7G 9G24G30G28G 7G 4G 5
  -9603949.76847  -6709850.94446  21266206.8984   21266210.5204
        22.0004         20.7504
 -21507654.07146 -16655676.53746  21667694.2424   21667698.2734
        18.5004         17.0004
 -17425431.15543 -13503599.98955  24994718.8364   24994723.6054
         5.0004          5.2504
 -14955460.32541                  24669484.8284
         2.2504
  19128630.86646  14953112.21345  22678134.6174   22678138.5314
        12.5004         11.5004
 -15396075.22947 -11907270.00846  20814237.2584   20814240.1764
        25.2504         23.5004
 -19847763.75446 -15432844.38146  22274013.7504   22274017.4774
        14.7504         13.7504
 03 10 28  1 59  0.0000000  0  7G 9G24G30G28G 7G 4G 5
  -9500199.46747  -6629006.54146  21285950.0314   21285953.2074
        22.2504         21.0004
 -21518782.52246 -16664347.96746  21665576.7504   21665580.9694
        18.5004         17.2504
 -17462975.47943 -13532855.16743  24987573.5474   24987588.1524
         5.2504          3.7504
 -17272791.76251                  24698975.5314
         2.0004
  19261276.25546  15056472.26245  22703376.1414   22703380.1954
        12.2504         11.5004
 -15325485.82847 -11852265.25346  20827669.6804   20827672.5044
        25.0004         23.5004
 -19863241.06646 -15444904.53546  22271068.6564   22271073.1564
        15.2504         14.0004
 03 10 28  1 59 30.0000000  0  7G 9G24G30G28G 7G 4G 5
  -9395979.54247  -6547796.19946  21305782.3054   21305785.6454
        22.0004         20.7504
 -21529584.77346 -16672765.22346  21663520.9454   21663524.9774
        18.2504         16.7504
 -17500634.85743 -13562199.82143  24980407.3054   24980409.1334
         5.7504          3.2504
                                  24728479.7734
         1.2504
  19393916.14646  15159828.01845  22728616.1954   22728620.1334
        12.2504         11.5004
 -15254376.52947 -11796855.38046  20841201.2424   20841203.9264
        25.0004         23.5004
 -19878625.99746 -15456892.71246  22268140.9304   22268144.5164
        16.2504         14.5004
 03 10 28  2  0  0.0000000  0  6G 9G24G30G 7G 4G 5
  -9291291.60147  -6466221.16946  21325703.8204   21325706.9384
        22.2504         20.7504
 -21540058.63646 -16680926.59546  21661527.4694   21661532.0864
        18.2504         16.5004
 -17538408.04343 -13591633.15944  24973218.2734   24973226.0824
         5.5004          4.0004
  19526549.59946  15263178.76645  22753856.3524   22753859.5514
        12.5004         11.2504
 -15182748.35047 -11741041.18746  20854831.5634   20854834.4924
        24.7504         23.2504
 -19893916.46646 -15468807.27846  22265231.5234   22265235.3324
        16.2504         15.0004
 03 10 28  2  0 30.0000000  0  6G 9G24G30G 7G 4G 5
  -9186129.21247  -6384276.43746  21345715.7504   21345718.8444
        22.0004         20.5004
 -21550194.18946 -16688824.34046  21659598.3134   21659602.3914
        18.2504         17.0004
 -17576285.85743 -13621147.89644  24966009.8594   24966022.3324
         5.5004          4.2504
  19659184.04646  15366530.28745  22779095.5634   22779099.7814
        12.2504         11.5004
 -15110593.67947 -11684816.73346  20868562.0474   20868564.7544
        24.7504         23.5004
 -19909102.81146 -15480640.69646  22262341.5634   22262345.8054
        16.0004         14.7504
 03 10 28  2  1  0.0000000  0  6G 9G24G30G 7G 4G 5
  -9080491.42347  -6301961.25946  21365817.8284   21365821.1334
        22.0004         20.7504
 -21559986.89446 -16696454.93846  21657735.3204   21657739.6214
        19.2504         17.0004
 -17614264.43843 -13650741.27744  24958783.2814   24958793.8094
         5.0004          4.7504
  19791821.37746  15469884.05045  22804334.8984   22804338.7424
        12.2504         11.5004
 -15037910.41247 -11628180.39646  20882393.3364   20882396.0904
        25.0004         23.2504
 -19924180.44446 -15492389.41646  22259472.2664   22259476.3444
        16.0004         15.0004
 03 10 28  2  1 30.0000000  0  6G 9G24G30G 7G 4G 5
  -8974384.40347  -6219280.44446  21386009.3754   21386012.8324
        22.0004         20.5004
 -21569439.03046 -16703820.15746  21655936.8054   21655940.6844
        19.2504         17.0004
 -17652347.32142 -13680415.86642  24951534.9774   24951538.4344
         4.0004          2.7504
  19924456.18546  15573235.83345  22829574.7814   22829578.3914
        12.2504         11.7504
 -14964704.05447 -11571136.45746  20896323.9304   20896326.4844
        25.0004         23.5004
 -19939152.38146 -15504055.75946  22256622.8364   22256627.1374
        15.7504         15.0004
 03 10 28  2  2  0.0000000  0  6G 9G24G30G 7G 4G 5
  -8867804.93247  -6136231.49546  21406290.5164   21406294.0204
        21.7504         20.5004
 -21578543.84246 -16710914.75246  21654203.7344   21654207.8364
        19.0004         17.0004
 -17690528.24341                  24944269.4694
         3.7504
  20057092.78746  15676589.03945  22854814.8914   22854818.8054
        12.2504         11.2504
 -14890970.33147 -11513681.57946  20910355.0634   20910357.7114
        24.7504         23.2504
 -19954011.77746 -15515634.42746  22253794.7814   22253798.9774
        16.0004         15.0004
 03 10 28  2  2 30.0000000  0  6G 9G24G30G 7G 4G 5
  -8760753.09347  -6052814.46246  21426661.9384   21426665.3834
        21.7504         20.5004
 -21587297.59846 -16717735.78446  21652538.1334   21652542.0594
        19.0004         17.2504
 -17728804.35141                  24936987.0944
         3.0004
  20189732.02645  15779944.29545  22880055.0164   22880058.7664
        11.7504         11.7504
 -14816708.25547 -11455815.00346  20924486.4844   20924489.2154
        25.0004         23.2504
 -19968755.36346 -15527122.83846  22250989.5704   22250993.2274
        16.2504         15.2504
 03 10 28  2  3  0.0000000  0  6G 9G24G30G 7G 4G 5
  -8653220.99747  -5969023.20846  21447124.8054   21447128.2624
        21.5004         20.5004
 -21595688.58947 -16724274.15046  21650941.7114   21650945.8834
        20.0004         17.7504
 -17351367.96551                  24929685.4534
         2.7504
  20322382.84945  15883308.55845  22905297.7504   22905301.0434
        11.7504         11.0004
 -14741909.05147 -11397529.88646  20938720.4454   20938722.9064
        24.7504         23.5004
 -19983371.63246 -15538512.06446  22248208.0394   22248211.9534
        17.2504         15.0004
 03 10 28  2  3 30.0000000  0  6G 9G24G30G 7G 4G 5
  -8545211.81847  -5884860.19946  21467678.0704   21467681.7624
        21.5004         20.2504
 -21603716.50246 -16730529.59346  21649414.0864   21649418.3524
        19.2504         17.7504
 -17389813.00041                  24922369.8834
         3.2504
  20455043.19345  15986680.24245  22930542.1484   22930545.6524
        11.7504         11.0004
 -14666574.77047 -11338827.83046  20953056.2114   20953058.7074
        25.2504         23.5004
 -19997859.89946 -15549801.55446  22245450.8834   22245454.2344
        17.5004         15.5004
 03 10 28  2  4  0.0000000  0  6G 9G24G30G 7G 4G 5
 -10012143.52247  -7027923.85946  21188530.3754   21188533.7034
        21.7504         20.2504
 -23186799.09846 -17964100.37746  21348163.0864   21348166.9064
        19.7504         17.5004
 -18926882.46851                  24615244.5474
         3.5004
  19012296.91845  14862462.36245  22655996.4614   22655999.7664
        11.7504         11.5004
 -16166123.81047 -12507307.58246  20667701.1954   20667703.9384
        25.0004         23.5004
 -21587639.08146 -16788590.44446  21942925.9614   21942929.8284
        16.7504         15.2504
 03 10 28  2  4 30.0000000  0  6G 9G24G30G 7G 4G 5
  -9903179.35947  -6943016.71646  21209265.2814   21209268.5514
        21.2504         20.2504
 -23194088.53447 -17969780.39446  21346776.2114   21346780.1724
        20.0004         18.0004
 -18965486.88842                  24607898.4454
         4.2504
  19144980.09645  14965851.86345  22681245.4064   22681249.0744
        11.2504         11.2504
 -16089716.28447 -12447769.23046  20682241.0234   20682243.7194
        24.7504         23.5004
 -21601860.70246 -16799672.14846  21940219.4144   21940223.4574
        16.2504         15.5004
 03 10 28  2  5  0.0000000  0  6G 9G24G30G 7G 4G 5
  -9793752.85847  -6857749.29846  21230088.8444   21230091.7974
        21.5004         20.0004
 -23201018.42646 -17975180.24046  21345457.2194   21345461.3554
        19.7504         17.7504
 -19004181.26843 -14752311.89055  24600535.3984   24600542.4804
         5.0004          5.0004
  19277661.21045  15069239.73045  22706493.7734   22706498.0044
        11.5004         11.5004
 -16012785.71347 -12387823.31446  20696880.6644   20696883.5004
        25.0004         23.5004
 -21615958.44746 -16810657.31846  21937536.7814   21937540.4614
        16.5004         15.2504
 03 10 28  2  5 30.0000000  0  6G 9G24G30G 7G 4G 5
  -9683860.48047  -6772118.86446  21251000.3524   21251003.6094
        21.2504         19.7504
 -23207581.36946 -17980294.15146  21344208.0084   21344211.9694
        19.5004         18.0004
 -19042959.21243 -14782528.15045  24593155.5164   24593163.9104
         5.7504          5.2504
  19410344.95345  15172629.64945  22731742.9534   22731747.1024
        11.5004         11.0004
 -15935327.69647 -12327466.39646  20711620.3134   20711623.2194
        25.0004         23.5004
 -21629925.31446 -16821540.52246  21934879.5554   21934883.7624
        17.7504         16.0004
 03 10 28  2  6  0.0000000  0  6G 9G24G30G 7G 4G 5
  -9573500.38747  -6686123.98846  21272001.3054   21272004.4224
        21.5004         19.7504
 -23213772.01447 -17985117.97146  21343030.1024   21343034.0164
        20.0004         18.0004
 -19081815.74643 -14812805.70144  24585761.8204   24585766.7424
         6.0004          4.0004
  19543034.11645  15276023.79845  22756993.1644   22756996.4224
        11.2504         11.0004
 -15857339.86047 -12266696.63846  20726460.9534   20726463.5084
        25.0004         23.5004
 -21643756.13046 -16832317.69946  21932247.6024   21932250.8484
        18.0004         16.2504
 03 10 28  2  6 30.0000000  0  6G 9G24G30G 7G 4G 5
  -9462675.95647  -6599767.27646  21293090.1564   21293093.3094
        21.2504         20.0004
 -23219590.38746 -17989651.70546  21341922.7274   21341926.9924
        19.7504         18.0004
 -19120751.35543 -14843144.85143  24578352.3594   24578358.4414
         6.5004          3.2504
  19675726.44545  15379420.41245  22782243.3444   22782247.0124
        11.2504         10.7504
 -15778824.32047 -12205515.68446  20741402.0784   20741404.8094
        25.2504         23.5004
 -21657450.52546 -16842988.58746  21929641.3524   21929644.7034
        17.5004         15.5004
 03 10 28  2  7  0.0000000  0  6G 9G24G30G 7G 4G 5
  -9351389.09747  -6513050.22946  21314267.2814   21314270.3754
        21.2504         20.0004
 -23225034.11746 -17993893.51146  21340886.8674   21340890.8524
        19.7504         18.0004
 -19159764.35144 -14873544.50145  24570929.0474   24570936.5164
         7.0004          6.0004
  19808421.47145  15482819.11545  22807494.3674   22807498.1414
        11.0004         10.7504
 -15699781.96447 -12143924.22246  20756443.1024   20756445.8094
        25.0004         23.5004
 -21671006.38446 -16853551.51046  21927060.9224   21927064.6844
        17.0004         15.0004
 03 10 28  2  7 30.0000000  0  6G 9G24G30G 7G 4G 5
  -9239640.91247  -6425973.71146  21335532.3984   21335535.7034
        21.0004         19.5004
 -23230100.44846 -17997841.23946  21339922.4924   21339926.5474
        19.7504         18.0004
 -19198852.39743 -14904002.40645  24563488.8524   24563494.5354
         6.5004          5.5004
  19941119.64345  15586220.29145  22832745.5944   22832749.9184
        10.7504         10.0004
 -15620213.04047 -12081922.44046  20771584.6024   20771587.3444
        25.2504         23.5004
 -21684421.08146 -16864004.47446  21924508.5864   21924511.8444
        17.5004         15.5004
 03 10 28  2  8  0.0000000  0  6G 9G24G30G 7G 4G 5
  -9127425.34747  -6338533.01046  21356886.4304   21356889.8054
        21.0004         19.5004
 -23234779.92447 -18001487.53246  21339032.3134   21339036.1214
        20.0004         18.2504
 -19238006.74943 -14934512.11545  24556038.9844   24556046.8754
         6.2504          5.2504
  20073827.64445  15689629.08945  22857999.7194   22858002.8834
        10.5004         10.0004
 -15540111.11547 -12019505.33446  20786827.6644   20786830.4304
        25.2504         23.5004
 -21697685.18146 -16874340.06546  21921984.6414   21921988.3204
        18.0004         15.7504
 03 10 28  2  8 30.0000000  0  6G 9G24G30G 7G 4G 5
  -9014752.25147  -6250735.78446  21378327.5004   21378330.6764
        21.2504         19.7504
 -23239078.45647 -18004836.98046  21338214.2194   21338217.9804
        20.0004         18.2504
 -19277233.80643 -14965078.39945  24548574.7274   24548583.9654
         5.7504          5.0004
  20206537.25545  15793039.19245  22883253.3284   22883257.1604
        10.5004          9.7504
 -15459484.51147 -11956679.38646  20802170.2664   20802172.9024
        25.0004         23.5004
 -21710804.76646 -16884563.04146  21919488.0004   21919491.6214
        17.7504         16.2504
 03 10 28  2  9  0.0000000  0  6G 9G24G30G 7G 4G 5
  -8901618.33647  -6162579.47846  21399855.8594   21399859.0944
        21.0004         19.7504
 -23242989.16147 -18007884.22946  21337470.1334   21337473.9654
        20.2504         18.5004
 -19316526.86343 -14995696.06945  24541096.7734   24541104.4654
         5.0004          5.2504
  20339253.00145  15896454.06845  22908508.5634   22908511.6454
        10.7504          9.7504
 -15378329.33847 -11893441.57246  20817613.5864   20817616.1294
        25.2504         23.5004
 -21723772.29946 -16894667.54646  21917020.0634   21917023.9884
        17.2504         16.5004
 03 10 28  2  9 30.0000000  0  6G 9G24G30G 7G 4G 5
  -8788029.51447  -6074068.70746  21421470.9694   21421474.2734
        20.7504         19.7504
 -23246514.23147 -18010630.98746  21336799.1484   21336802.9454
        20.5004         18.5004
 -19355888.57842 -15026367.37144  24533606.3444   24533613.3324
         4.5004          4.7504
  20471970.37945  15999870.20545  22933763.5004   22933766.8164
        10.7504          9.7504
 -15296650.36747 -11829795.59946  20833156.7424   20833159.2154
        25.2504         23.5004
 -21736589.80146 -16904655.13546  21914580.6564   21914584.9104
        17.0004         15.7504
 03 10 28  2 10  0.0000000  0  6G 9G24G30G 7G 4G 5
  -8673977.98847  -5985197.38546  21443174.7344   21443177.8284
        21.0004         19.7504
 -23249642.26047 -18013068.35546  21336203.9304   21336207.5044
        20.5004         19.0004
 -19395307.73642 -15057083.48244  24526104.4144   24526112.3404
         4.5004          4.5004
  20604698.47145  16103294.65745  22959020.5394   22959024.6414
        10.7504          9.5004
 -15214439.33947 -11765735.03746  20848800.8524   20848803.5354
        25.2504         23.5004
 -21749245.97046 -16914517.02546  21912172.6414   21912176.0274
        17.5004         15.7504
 03 10 28  2 10 30.0000000  0  6G 9G24G30G 7G 4G 5
  -8559471.70347  -5895971.70246  21464964.0634   21464967.1454
        20.5004         19.5004
 -23252377.37147 -18015199.56346  21335683.4774   21335687.2154
        21.0004         19.0004
 -19434788.95642 -15087847.69043  24518593.0554   24518597.3204
         4.5004          3.5004
  20737430.91545  16206722.55145  22984278.2974   22984281.3444
        10.7504         10.0004
 -15131703.07347 -11701265.19846  20864545.0784   20864547.6454
        25.2504         23.5004
 -21761744.70246 -16924256.24546  21909794.0084   21909797.4774
        17.7504         15.5004
 03 10 28  2 11  0.0000000  0  6G 9G24G30G 7G 4G 5
  -8444505.90547  -5806387.96346  21486841.6724   21486845.0004
        20.2504         19.5004
 -23254710.78847 -18017017.76046  21335239.1954   21335243.0864
        21.0004         18.7504
 -19474323.90442 -15118654.07245  24511067.8444   24511069.7894
         4.5004          5.5004
  20870173.79045  16310158.57345  23009539.2664   23009543.6484
        11.0004         10.0004
 -15048435.78447 -11636381.57446  20880389.8914   20880392.4224
        25.2504         23.5004
 -21774077.39646 -16933866.07746  21907447.2504   21907450.3794
        17.7504         15.7504
 03 10 28  2 11 30.0000000  0  6G 9G24G30G 7G 4G 5
  -8329080.39847  -5716445.99846  21508806.1484   21508809.6174
        20.0004         19.2504
 -23256638.32747 -18018519.69046  21334872.7664   21334876.6334
        21.0004         19.0004
 -19513908.88442 -15149499.23244  24503534.5314   24503543.7344
         4.5004          4.0004
  21002928.79645  16413604.02245  23034801.3364   23034803.2814
        11.0004         10.0004
 -14964636.63247 -11571083.50746  20896336.6174   20896339.2194
        25.2504         23.5004
 -21786239.72546 -16943343.16146  21905132.6094   21905136.1484
        18.2504         16.7504
 03 10 28  2 12  0.0000000  0  6G 9G24G30G 7G 4G 5
  -8213202.03747  -5626151.17846  21530857.3524   21530860.6094
        20.2504         19.0004
 -23258163.42147 -18019708.01946  21334581.9694   21334586.1764
        20.5004         19.0004
 -19553547.45042 -15180386.23942  24495991.8284   24496003.7504
         4.7504          2.2504
  21135690.46945  16517054.68545  23060064.6094   23060067.3524
        10.7504         10.2504
 -14880311.21547 -11505375.37446  20912383.2734   20912385.7934
        25.2504         23.2504
 -21798234.59246 -16952689.75046  21902850.1414   21902853.6454
        18.5004         16.7504
 03 10 28  2 12 30.0000000  0  7G 9G24G30G 7G 4G17G 5
  -8096876.54046  -5535507.93046  21552993.0394   21552996.3674
        19.7504         19.0004
 -23259287.85347 -18020584.15446  21334368.1644   21334371.5274
        21.2504         19.2504
 -19593241.67742 -15211316.70944  24488437.7814   24488442.2584
         4.7504          4.7504
  21268454.63345  16620507.26445  23085329.5554   23085331.8754
        10.7504         10.2504
 -14795464.76547 -11439261.23146  20928529.0554   20928531.7504
        25.2504         23.5004
 -18928659.24951                  25222935.5474
         3.5004
 -21810063.86646 -16961907.31146  21900599.0474   21900602.0594
        18.7504         17.0004
 03 10 28  2 13  0.0000000  0  7G 9G24G30G 7G 4G17G 5
  -7980103.67246  -5444516.08546  21575213.9844   21575217.5124
        19.5004         19.0004
 -23260007.92047 -18021145.19946  21334230.8134   21334234.4694
        20.5004         19.2504
 -19632987.90843 -15242287.52744  24480874.1954   24480880.4414
         5.0004          4.5004
  21401223.02945  16723963.16845  23110594.1884   23110597.3404
        10.7504         10.0004
 -14710096.20547 -11372740.25746  20944774.2424   20944776.6804
        25.5004         23.5004
 -18972987.96742                  25214500.6724
         4.7504
 -21821723.49046 -16970992.67746  21898380.0004   21898383.5744
        18.5004         16.5004
 03 10 28  2 13 30.0000000  0  7G 9G24G30G 7G 4G17G 5
  -7862880.92446  -5353173.68846  21597520.9924   21597524.3094
        19.7504         18.7504
 -23260317.38347 -18021386.28346  21334171.9454   21334175.7074
        21.0004         19.0004
 -19672780.23043 -15273294.49343  24473302.4774   24473306.4844
         5.2504          3.2504
  21533999.47945  16827425.33445  23135860.7344   23135863.5474
        10.5004          9.2504
 -14624202.25347 -11305809.88646  20961119.0784   20961121.6564
        25.2504         23.7504
 -19017361.79343                  25206056.6484
         5.7504
 -21833207.13846 -16979940.91946  21896194.7274   21896197.7624
        18.2504         16.5004
 03 10 28  2 14  0.0000000  0  7G 9G24G30G 7G 4G17G 5
  -7745208.26746  -5261480.69746  21619913.3284   21619916.7034
        19.7504         19.0004
 -23260212.09147 -18021304.19346  21334192.0944   21334195.9144
        20.7504         19.0004
 -19712614.74643 -15304334.14744  24465722.9614   24465716.8674
         5.7504          4.5004
  21666785.74645  16930895.15445  23161129.3984   23161132.9844
        10.0004          9.7504
 -14537781.77547 -11238469.23346  20977564.4694   20977567.2234
        25.2504         23.5004
 -19061775.88743                  25197605.7894
         6.2504
 -21844510.04646 -16988748.32546  21894043.8444   21894047.3594
        19.2504         17.0004
 03 10 28  2 14 30.0000000  0  7G 9G24G30G 7G 4G17G 5
  -7627089.19046  -5169439.86046  21642390.5784   21642394.1524
        19.7504         18.7504
 -23259691.92547 -18020898.82446  21334291.1414   21334294.6564
        21.5004         19.5004
 -19752491.38743 -15335406.71845  24458134.5474   24458142.4494
         6.0004          5.7504
  21799580.05845  17034371.21145  23186399.4064   23186403.3794
         9.7504         10.0004
 -14450837.49847 -11170720.43146  20994109.1334   20994111.4884
        25.2504         23.2504
 -19106230.17043 -14746213.54654  25189145.9694   25189151.3484
         5.2504          4.2504
 -21855631.93346 -16997414.67446  21891927.5864   21891930.6684
        19.2504         17.2504
 03 10 28  2 15  0.0000000  0  7G 9G24G30G 7G 4G17G 5
  -7508525.45846  -5077052.54446  21664952.6884   21664955.6764
        19.7504         19.0004
 -23258754.73147 -18020168.50546  21334469.6024   21334473.3524
        21.5004         19.2504
 -19792408.54443 -15366510.78445  24450538.0864   24450540.8984
         6.5004          6.7504
  21932382.03945  17137853.28245  23211670.7344   23211674.3324
         9.5004          9.5004
 -14363370.33847 -11102564.19146  21010753.6644   21010756.3714
        25.2504         23.2504
 -19150721.85442 -14780882.15945  25180679.2664   25180688.7154
         4.2504          5.7504
 -21866570.66746 -17005938.30046  21889845.7894   21889849.3524
        19.2504         17.0004
 03 10 28  2 15 30.0000000  0  7G 9G24G30G 7G 4G17G 5
  -7389523.17446  -4984323.48846  21687597.9614   21687601.6174
        19.7504         19.2504
 -23257403.02447 -18019115.18246  21334726.8524   21334730.5554
        22.0004         19.5004
 -19832368.35143 -15397648.04845  24442933.2734   24442939.4964
         6.7504          6.0004
  22065187.18345  17241337.80445  23236942.4064   23236946.4844
         9.2504          9.5004
 -14275385.86547 -11034004.84446  21027496.5864   21027499.2464
        25.2504         23.5004
 -19195252.98341 -14815581.57944  25172204.3054   25172215.0904
         3.0004          4.2504
 -21877328.58746 -17014321.04746  21887798.6024   21887801.9774
        19.0004         16.7504
 03 10 28  2 16  0.0000000  0  7G 9G24G30G 7G 4G17G 5
  -7270087.32546  -4891256.58546  21710325.8204   21710329.0204
        19.7504         19.5004
 -23255638.35747 -18017740.07346  21335062.6414   21335066.2384
        21.2504         19.5004
 -19872372.29043 -15428819.72145  24435321.1954   24435325.6024
         6.7504          6.2504
  22197992.29645  17344822.29845  23262214.3754   23262220.1174
         9.0004          9.2504
 -14186887.91847 -10965045.38746  21044336.9844   21044339.6564
        25.2504         23.2504
 -18921386.17451                  25163722.7114
         2.7504
 -21887905.93746 -17022563.07646  21885785.9774   21885789.2814
        19.7504         17.5004
 03 10 28  2 16 30.0000000  0  7G 9G24G30G 7G 4G17G 5
  -7150215.33046  -4797849.84346  21733136.7974   21733140.2074
        19.7504         19.2504
 -23253454.19447 -18016038.08946  21335477.9304   21335481.6564
        22.0004         19.7504
 -19912413.98643 -15460020.81345  24427701.3754   24427703.6724
         6.2504          7.0004
  22330801.61845  17448310.07745  23287486.9224   23287490.6724
         8.7504          9.7504
 -14097873.20447 -10895683.26446  21061276.0554   21061278.4924
        25.2504         23.2504
 -18965990.02641                  25155233.8754
         3.5004
 -21898296.47647 -17030659.53846  21883808.9454   21883812.3204
        20.0004         17.5004
 03 10 28  2 17  0.0000000  0  7G 9G24G30G 7G 4G17G 5
  -8605327.23546  -5931703.27046  21456238.4304   21456241.8404
        19.7504         19.2504
 -24826270.44247 -19241609.15746  21036181.2194   21036184.9574
        21.5004         19.5004
 -21527914.98443 -16718852.60445  24120280.6884   24120281.7304
         5.0004          6.0004
  20888197.39245  16324202.88645  23012968.6724   23012973.2194
         8.7504          8.7504
 -15583761.76747 -12053518.49146  20778520.9224   20778523.5234
        25.2504         23.2504
 -20586048.09642                  24846947.1564
         4.5004
 -23483920.29947 -18266210.50646  21582074.2424   21582077.6174
        20.0004         17.7504
 03 10 28  2 17 30.0000000  0  7G 9G24G30G 7G 4G17G 5
  -8484601.99046  -5837631.65246  21479211.4224   21479214.8094
        19.7504         19.0004
 -24823254.65047 -19239259.14646  21036754.8054   21036758.4734
        21.7504         19.7504
 -21568039.83442 -16750118.37445  24112644.9534   24112653.9344
         4.0004          5.2504
  21021001.26945  16427686.38945  23038240.5084   23038243.8714
         9.0004          9.7504
 -15493729.93247 -11983363.80046  20795653.2584   20795655.6484
        25.2504         23.2504
 -20630724.31042                  24838446.2194
         4.7504
 -23493943.34447 -18274020.60946  21580167.1414   21580170.2234
        20.0004         18.0004
 03 10 28  2 18  0.0000000  0  7G 9G24G30G 7G 4G17G 5
  -8363458.02946  -5743233.76146  21502264.4224   21502267.7384
        19.5004         18.7504
 -24819825.07447 -19236586.70246  21037407.3914   21037410.9884
        21.7504         19.5004
 -21608208.50641 -16781418.36244  24105000.9534   24105003.4614
         3.2504          4.7504
  21153797.26445  16531163.77645  23063510.4534   23063515.1414
         9.0004          9.5004
 -15403196.08047 -11912817.92746  20812881.2034   20812883.7464
        25.2504         23.5004
 -20675437.84643                  24829937.3914
         5.0004
 -23503783.70747 -18281688.36546  21578294.8054   21578297.8404
        20.5004         18.0004
 03 10 28  2 18 30.0000000  0  7G 9G24G30G 7G 4G17G 5
  -8241897.13346  -5648510.98946  21525396.7664   21525400.3164
        19.5004         18.5004
 -24815980.23147 -19233590.68546  21038138.9774   21038142.4574
        21.7504         20.2504
 -21648419.01942 -16812750.99244  24097349.8444   24097355.1524
         4.2504          4.0004
  21286585.20745  16634634.89745  23088779.6644   23088784.2934
         9.2504          9.2504
 -15312161.28747 -11841881.71946  20830204.7194   20830207.1454
        25.2504         23.2504
 -20720186.37643                  24821421.7344
         5.5004
 -23513439.17047 -18289212.04946  21576456.9694   21576460.1684
        20.2504         18.2504
 03 10 28  2 19  0.0000000  0  7G 9G24G30G 7G 4G17G 5
  -8119921.19246  -5553464.79146  21548607.5234   21548610.8404
        19.0004         18.2504
 -24811718.48347 -19230269.79846  21038949.7664   21038953.5514
        21.7504         20.0004
 -21688669.57543 -16844114.83244  24089689.7504   24089691.8364
         5.7504          4.7504
  21419364.82245  16738099.55145  23114046.3524   23114050.6414
         9.2504          9.0004
 -15220626.74847 -11770556.09546  20847623.0634   20847625.4414
        25.0004         23.0004
 -20764967.18143                  24812900.4454
         5.5004
 -23522907.84647 -18296590.16646  21574655.1094   21574658.8364
        20.0004         18.2504
 03 10 28  2 19 30.0000000  0  7G 9G24G30G 7G 4G17G 5
  -7997527.90746  -5458093.39646  21571898.7504   21571901.7624
        19.0004         18.2504
 -24807033.33347 -19226618.98846  21039841.4144   21039845.3054
        22.0004         20.2504
 -21728953.95243 -16875504.99844  24082023.4694   24082030.5864
         6.5004          4.5004
  21552140.35545  16841561.00545  23139313.3524   23139316.8094
         9.5004          9.0004
 -15128589.38847 -11698838.65546  20865137.1414   20865139.7194
        24.7504         23.0004
 -20809773.87942 -15992549.77354  24804372.8834   24804376.0594
         4.7504          4.7504
 -23532183.19347 -18303817.64246  21572890.1644   21572893.8324
        20.5004         18.5004
 03 10 28  2 20  0.0000000  0  7G 9G24G30G 7G 4G17G 5
  -7874726.00746  -5362403.60446  21595266.6094   21595270.0904
        19.0004         18.2504
 -24801929.84047 -19222642.20446  21040812.4064   21040816.0044
        21.7504         19.7504
 -21769276.79544 -16906925.29144  24074351.2274   24074360.5824
         7.2504          4.2504
  21684904.97445  16945013.94745  23164577.2194   23164581.5664
         9.5004          8.7504
 -15036057.11747 -11626735.58046  20882745.5474   20882747.9734
        24.7504         23.0004
 -20854610.77142 -16027487.44344  24795841.3204   24795848.3204
         4.2504          4.2504
 -23541269.61747 -18310897.91646  21571160.9844   21571164.1484
        20.7504         18.2504
 03 10 28  2 20 30.0000000  0  7G 9G24G30G 7G 4G17G 5
  -7751523.17246  -5266401.38746  21618711.7814   21618715.2034
        18.7504         18.0004
 -24796411.80147 -19218342.39346  21041862.7814   21041866.4264
        22.0004         20.2504
 -21809642.09544                  24066669.9924
         7.2504
  21817652.79345  17048453.80445  23189838.2664   23189841.0314
         9.5004          9.0004
 -14943036.90347 -11554252.29046  20900446.5634   20900449.2344
        24.7504         22.7504
 -20899480.78841 -16062450.88444  24787301.9454   24787316.1994
         3.5004          4.7504
 -23550170.04747 -18317833.25946  21569467.1334   21569470.4144
        20.2504         18.0004
 03 10 28  2 21  0.0000000  0  7G 9G24G30G 7G 4G17G 5
  -7627922.13646  -5170088.89246  21642232.0314   21642235.4184
        19.0004         17.7504
 -24790478.03347 -19213718.64446  21042991.6804   21042995.3954
        21.7504         20.5004
 -21850048.42443                  24058980.6254
         6.7504
  21950383.08645  17151880.00845  23215095.8284   23215099.7424
         9.7504          8.7504
 -14849530.36147 -11481390.04146  20918240.4924   20918243.2584
        24.7504         22.7504
 -20944382.29041 -16097438.67944  24778756.3594   24778752.5634
         3.2504          4.0004
 -23558883.25947 -18324622.72146  21567808.9304   21567811.8954
        20.2504         18.2504
 03 10 28  2 21 30.0000000  0  7G 9G24G30G 7G 4G17G 5
  -7503921.41846  -5073464.95446  21665828.5634   21665831.7974
        18.5004         18.0004
 -24784123.64247 -19208767.13746  21044200.6804   21044204.4184
        21.7504         20.2504
 -21890490.35043                  24051283.0944
         6.0004
  22083099.23045  17255295.16245  23240351.1094   23240353.9574
         9.7504          9.0004
 -14755535.45247 -11408147.24946  20936127.3054   20936130.0704
        24.7504         23.0004
 -20989309.40141 -16132446.69744  24770209.7424   24770217.4224
         3.7504          4.2504
 -23567403.11647 -18331261.51746  21566187.6414   21566191.0164
        20.7504         18.5004
 03 10 28  2 22  0.0000000  0  7G 9G24G30G 7G 4G17G 5
  -7379522.96546  -4976531.08846  21689501.1174   21689504.7034
        18.7504         17.7504
 -24777346.86447 -19203486.49646  21045490.4844   21045494.0704
        22.0004         20.5004
 -21930965.95743                  24043581.8594
         5.5004
  22215801.15045  17358699.28845  23265603.6254   23265608.1254
         9.5004          8.5004
 -14661053.18647 -11334524.69346  20954106.4534   20954109.0204
        24.5004         22.7504
 -21034259.67342 -16167472.47443  24761654.8754   24761662.0044
         4.2504          3.2504
 -23575727.29847 -18337747.83846  21564603.7584   21564606.9454
        21.0004         19.0004
 03 10 28  2 22 30.0000000  0  7G 9G24G30G 7G 4G17G 5
  -7254729.30846  -4879289.27746  21713248.3754   21713251.7974
        18.7504         17.7504
 -24770146.40947 -19197875.71246  21046860.8134   21046864.7274
        22.0004         20.2504
 -21971473.88342 -15975636.77155  24035872.3204   24035876.6334
         4.7504          5.5004
  22348487.85645  17462091.53545  23290852.7114   23290855.8054
         9.5004          8.2504
 -14566085.74447 -11260524.07946  20972178.0634   20972180.6644
        24.5004         22.2504
 -21079231.10143 -16202515.10344  24753097.4224   24753100.1054
         5.5004          4.5004
 -23583854.47147 -18344080.65146  21563056.8834   21563060.2934
        20.5004         18.7504
 03 10 28  2 23  0.0000000  0  7G 9G24G30G 7G 4G17G 5
  -7129541.76246  -4781740.53146  21737070.8834   21737074.1174
        18.5004         18.0004
 -24762519.85447 -19191932.90746  21048311.8834   21048315.3874
        22.0004         20.7504
 -22012011.40043 -16007224.33945  24028158.3834   24028164.2774
         5.0004          5.7504
  22481160.38845  17565472.70945  23316099.3834   23316102.1254
         9.2504          8.5004
 -14470633.53147 -11186145.71846  20990342.0004   20990344.5314
        24.5004         22.5004
 -21124220.81043 -16237571.77745  24744536.3054   24744538.9654
         6.2504          5.7504
 -23591781.36147 -18350257.39946  21561548.4614   21561551.5084
        21.0004         18.7504
 03 10 28  2 23 30.0000000  0  7G 9G24G30G 7G 4G17G 5
  -7003967.28246  -4683890.27546  21760966.8754   21760969.7814
        19.2504         18.2504
 -24754470.61347 -19185660.73846  21049843.3594   21049846.9804
        21.7504         20.5004
 -22052581.14743 -16038836.95145  24020437.2194   24020444.1954
         5.2504          5.7504
  22613813.68945  17668838.93845  23341343.1094   23341347.4694
         9.0004          8.2504
 -14374702.62147 -11111394.35546  21008597.0474   21008599.6024
        24.5004         22.7504
 -21169230.77143 -16272644.20245  24735969.3914   24735979.4024
         6.5004          5.7504
 -23599510.42547 -18356279.99346  21560077.9454   21560081.1804
        21.5004         19.2504
 03 10 28  2 24  0.0000000  0  7G 9G24G30G 7G 4G17G 5
  -6878015.05646  -4585745.67846  21784934.7584   21784937.8984
        18.7504         18.0004
 -24746003.82147 -19179063.20046  21051454.7114   21051458.5784
        22.2504         21.0004
 -22093188.21043 -16070478.70445  24012710.8834   24012711.8444
         6.0004          5.7504
  22746440.66745  17772184.62145  23366581.3444   23366585.0824
         8.7504          8.5004
 -14278301.27047 -11036276.40646  21026941.6484   21026943.9694
        24.5004         22.0004
 -21214265.90343 -16307736.38645  24727400.9924   24727408.6134
         6.2504          5.7504
 -23607045.92047 -18362151.77246  21558643.7894   21558647.3404
        21.0004         19.2504
 03 10 28  2 24 30.0000000  0  7G 9G24G30G 7G 4G17G 5
  -6751679.51646  -4487302.39246  21808975.7894   21808978.9654
        19.0004         18.0004
 -24737110.22147 -19172133.09146  21053146.8674   21053150.3364
        22.2504         20.5004
 -22133823.00443 -16102142.09145  24004978.5084   24004984.2734
         6.2504          6.0004
  22879048.98545  17875515.77045  23391815.1334   23391818.0744
         8.5004          8.2504
 -14181423.31447 -10960787.07946  21045376.8524   21045379.2424
        24.2504         22.2504
 -21259315.76643 -16342839.98145  24718826.8914   24718838.3554
         5.7504          5.0004
 -23614378.50147 -18367865.41146  21557248.0944   21557251.9024
        20.5004         19.2504
 03 10 28  2 25  0.0000000  0  7G 9G24G30G 7G 4G17G 5
  -6624964.75446  -4388563.61046  21833088.5394   21833091.5394
        18.5004         17.7504
 -24727790.21547 -19164870.71346  21054920.6724   21054924.3754
        22.0004         20.7504
 -22174485.28943 -16133826.85645  23997240.7424   23997246.3324
         6.7504          5.5004
  23011636.53945  17978830.74345  23417046.4144   23417049.0514
         8.2504          7.7504
 -14084072.04047 -10884928.93346  21063902.0394   21063904.2304
        24.2504         22.2504
 -21304380.00142 -16377954.61344  24710251.3594   24710256.9384
         4.7504          4.0004
 -23621507.28947 -18373420.27546  21555891.6564   21555895.0904
        21.2504         19.2504
 03 10 28  2 25 30.0000000  0  7G 9G24G30G 7G 4G17G 5
  -6497861.82646  -4289522.36846  21857275.7664   21857278.6844
        18.5004         17.5004
 -24718031.57547 -19157266.53846  21056777.4924   21056781.1134
        22.2504         20.7504
 -22215162.28844 -16165523.07545  23989500.1334   23989508.3984
         7.0004          5.5004
  23144214.16645  18082137.97945  23442274.3284   23442276.6254
         8.0004          8.2504
 -13986237.88347 -10808694.51346  21082519.4224   21082521.8714
        24.0004         22.2504
 -21349445.61142 -16413070.48445  24701674.7584   24701689.6914
         4.0004          5.0004
 -23628419.18247 -18378806.12446  21554576.5004   21554579.7464
        21.7504         19.7504
 03 10 28  2 26  0.0000000  0  7G 9G24G30G 7G 4G17G 5
  -6370376.67046  -4190183.27246  21881535.3284   21881538.2344
        18.5004         17.5004
 -24707836.29047 -19149322.12446  21058717.7194   21058721.5864
        22.2504         21.0004
 -22255855.74743 -16197232.19245  23981754.8674   23981757.8444
         6.7504          6.5004
  23276777.90444  18185434.41245  23467501.1094   23467506.0664
         7.5004          8.2504
 -13887925.96647 -10732087.81246  21101227.6884   21101230.0904
        24.5004         22.2504
 -21394513.35541 -16448188.02244  24693098.2974   24693103.7704
         3.7504          4.0004
 -23635115.77147 -18384024.19646  21553302.0234   21553305.0704
        21.7504         20.0004
 03 10 28  2 26 30.0000000  0  7G 9G24G30G 7G 4G17G 5
  -6242517.20446  -4090552.53046  21905866.4454   21905869.6804
        18.7504         17.2504
 -24697208.52547 -19141040.71546  21060740.1564   21060743.7664
        22.7504         21.0004
 -22296569.30343 -16228956.88745  23974008.6254   23974013.4064
         6.2504          5.7504
  23409322.11144  18288715.61045  23492723.2894   23492727.4024
         7.5004          7.7504
 -13789143.45947 -10655114.41646  21120025.0634   21120027.5354
        24.2504         22.2504
 -21439586.71742 -16483309.71844  24684521.6564   24684530.1334
         4.0004          4.2504
 -23641600.42847 -18389077.13246  21552068.0474   21552071.5044
        21.5004         20.0004
 03 10 28  2 27  0.0000000  0  7G 9G24G30G 7G 4G17G 5
  -6114298.36546  -3990641.74046  21930265.0864   21930267.9574
        18.5004         17.2504
 -24686159.65947 -19132431.17446  21062842.7894   21062846.4104
        23.0004         21.2504
 -22337313.70543 -16260705.70945  23966253.7344   23966258.5984
         5.2504          6.0004
  23541833.83044  18391971.46445  23517938.3364   23517942.7664
         7.2504          7.5004
 -13689904.68847 -10577785.49846  21138909.5474   21138911.9734
        24.2504         22.0004
 -21484676.17042 -16518444.07645  24675940.3204   24675944.4104
         4.5004          5.7504
 -23647883.89047 -18393973.29446  21550872.7114   21550876.2974
        22.0004         20.0004
 03 10 28  2 27 30.0000000  0  7G 9G24G30G 7G 4G17G 5
  -5985707.70646  -3890441.22046  21954734.7734   21954737.6564
        18.5004         17.0004
 -24674673.62747 -19123480.97746  21065028.4144   21065032.0004
        23.0004         21.2504
 -22378072.30342 -16292465.53444  23958496.7974   23958501.5204
         4.7504          4.7504
  23674327.64544  18495213.40145  23543151.6334   23543153.7774
         7.2504          8.0004
 -13590196.50947 -10500090.79446  21157883.6884   21157886.2664
        24.2504         22.2504
 -21529764.68143 -16553577.72845  24667361.1094   24667372.5634
         5.5004          5.5004
 -23653948.68847 -18398699.07546  21549718.1644   21549721.3524
        22.2504         20.0004
 03 10 28  2 28  0.0000000  0  7G 9G24G30G 7G 4G17G 5
  -5856756.07346  -3789959.41746  21979274.0004   21979277.2114
        18.2504         17.2504
 -24662757.53047 -19114195.67746  21067295.8134   21067299.5274
        23.0004         21.2504
 -22418851.66443 -16324241.41745  23950738.3134   23950739.0864
         5.0004          6.2504
  23806794.89444  18598434.64045  23568359.5004   23568364.3284
         7.5004          8.0004
 -13490028.96547 -10422038.15146  21176944.8834   21176947.2154
        24.2504         22.2504
 -21574858.56643 -16588715.54145  24658780.4304   24658783.5594
         6.5004          6.2504
 -23659801.40147 -18403259.60146  21548604.3134   21548607.6644
        21.7504         20.0004
 03 10 28  2 28 30.0000000  0  7G 9G24G30G 7G 4G17G 5
  -5727436.35746  -3689190.80346  22003882.4774   22003886.0274
        17.7504         17.0004
 -24650400.92047 -19104567.11846  21069647.2504   21069651.1644
        23.0004         21.5004
 -22459640.42343 -16356024.73245  23942976.4304   23942981.6214
         6.0004          6.5004
  23939244.80744  18701642.29745  23593563.7664   23593568.3134
         7.5004          8.2504
 -13389394.29847 -10343621.52246  21196094.7734   21196097.3754
        24.2504         22.0004
 -21619945.97743 -16623848.34745  24650200.2584   24650206.5164
         5.2504          5.5004
 -23665430.19147 -18407645.62846  21547533.1724   21547536.7814
        21.5004         20.2504
 03 10 28  2 29  0.0000000  0  7G 9G24G30G 7G 4G17G 5
  -5597751.78046  -3588137.87746  22028560.5634   22028563.8554
        17.5004         16.5004
 -24637602.99747 -19094594.67746  21072082.4454   21072085.9024
        22.7504         21.5004
 -22500437.47843 -16387814.44945  23935213.4844   23935220.8484
         6.7504          7.0004
  24071676.26244  18804835.70745  23618764.3984   23618769.9064
         7.7504          8.0004
 -13288295.07647 -10264842.89646  21215333.5474   21215335.9144
        24.2504         22.0004
 -21665025.63941 -16658975.08445  24641619.4304   24641626.2274
         3.7504          5.2504
 -23670833.78147 -18411856.17746  21546504.9694   21546508.4144
        22.0004         20.2504
 03 10 28  2 29 30.0000000  0  7G 9G24G30G 7G 4G17G 5
  -5467702.89646  -3486801.08446  22053307.7034   22053310.8444
        17.5004         16.7504
 -24624360.77547 -19084276.02846  21074602.6334   21074605.9614
        23.2504         21.5004
 -22541239.05644 -16419607.72945  23927448.6644   23927451.6524
         7.0004          7.5004
  24204091.03245  18908016.00245  23643962.6174   23643966.9414
         8.0004          8.7504
 -13186731.13547 -10185702.15246  21234660.4144   21234662.9574
        24.0004         21.7504
 -21710093.48342 -16694092.58445  24633046.6024   24633054.2114
         4.5004          5.0004
 -23676008.14547 -18415888.11446  21545520.1484   21545523.2544
        22.2504         20.2504
 03 10 28  2 30  0.0000000  0  7G 9G24G30G 7G 4G17G 5
  -6912712.91246  -4612782.91246  21778331.5864   21778334.7624
        17.7504         17.0004
 -26186097.61547 -20301213.79146  20777413.7114   20777417.0634
        23.0004         21.7504
 -24157469.85343 -17679008.25045  23619890.1484   23619893.6884
         6.7504          7.5004
  22761068.15445  17783582.60445  23369364.3284   23369369.5784
         8.2504          8.2504
 -14660125.76447 -11333801.85046  20954282.6954   20954284.9454
        24.2504         22.0004
 -23330573.65643 -17956804.11445  24324677.4224   24324682.0984
         6.2504          5.5004
 -25256376.61547 -19647344.02446  21244786.1644   21244789.3634
        22.2504         20.2504
 03 10 28  2 30 30.0000000  0  7G 9G24G30G 7G 4G17G 5
  -6781952.30446  -4510891.52446  21803214.5784   21803218.2344
        17.0004         16.7504
 -26171972.67347 -20290207.30846  20780101.7584   20780105.1214
        23.2504         21.7504
 -24198284.24743 -17710811.52645  23612122.7274   23612123.3714
         6.7504          6.0004
  22893439.40045  17886729.03145  23394553.5314   23394558.2304
         8.2504          8.7504
 -14557646.78447 -11253948.08946  20973783.8594   20973786.1564
        24.0004         21.7504
 -23375620.13743 -17991905.11745  24316104.5314   24316109.0084
         6.0004          5.5004
 -25261095.79747 -19651021.27446  21243888.1804   21243891.5204
        22.7504         20.7504
 03 10 28  2 31  0.0000000  0  7G 9G24G30G 7G 4G17G 5
  -6650844.25146  -4408729.39546  21828163.9064   21828167.6564
        17.2504         16.5004
 -26157409.42047 -20278859.28046  20782872.8914   20782876.3134
        22.7504         21.5004
 -24239106.99444 -17742621.28545  23604354.6254   23604356.1484
         7.0004          6.2504
  23025783.68445  17989854.43545  23419738.1804   23419743.6764
         8.7504          8.7504
 -14454717.80347 -11173743.67846  20993370.5474   20993372.9494
        24.0004         21.7504
 -23420657.37142 -18026998.81744  24307533.1644   24307541.3244
         4.7504          4.7504
 -25265588.82047 -19654522.28946  21243033.1724   21243036.1484
        22.7504         20.5004
 03 10 28  2 31 30.0000000  0  7G 9G24G30G 7G 4G17G 5
  -6519384.79946  -4306293.46446  21853179.7274   21853182.7974
        17.2504         16.5004
 -26142399.98147 -20267163.58646  20785729.0784   20785732.3834
        23.0004         21.5004
 -24279929.56345 -17774430.98045  23596586.7344   23596591.1054
         8.0004          6.2504
  23158107.46445  18092963.84545  23444918.6024   23444922.0594
         8.7504          8.5004
 -14351334.07347 -11093184.92046  21013043.8834   21013046.5664
        23.7504         21.7504
 -23465676.58343 -18062078.37745  24298968.1484   24298978.6644
         5.2504          6.0004
 -25269846.97147 -19657840.29646  21242222.8364   21242226.0004
        22.5004         20.5004
 03 10 28  2 32  0.0000000  0  7G 9G24G30G 7G 4G17G 5
  -6387574.14446  -4203583.85446  21878262.3054   21878266.0554
        17.0004         16.7504
 -26126941.21147 -20255117.76246  20788670.8444   20788674.3714
        23.0004         21.5004
 -24320747.67245 -17806237.18245  23588819.0084   23588821.6334
         8.0004          6.5004
  23290412.78845  18196058.91945  23470095.3204   23470099.8554
         8.7504          8.2504
 -14247495.18547 -11012271.48746  21032803.7114   21032806.2424
        23.7504         21.5004
 -23510673.36743 -18097140.49345  24290405.6254   24290413.8324
         6.0004          6.2504
 -25273865.59247 -19660971.65846  21241458.0634   21241461.0164
        22.7504         20.7504
 03 10 28  2 32 30.0000000  0  7G 9G24G30G 7G 4G17G 5
  -6255416.56246  -4100603.92646  21903411.4694   21903414.8444
        17.5004         16.7504
 -26111033.82347 -20242722.36346  20791697.9694   20791701.4734
        23.0004         21.7504
 -24361561.43943 -17838040.03645  23581052.0704   23581056.0084
         6.7504          6.2504
  23422697.56645  18299137.99445  23495267.9614   23495272.5784
         8.7504          8.2504
 -14143204.68547 -10931006.15246  21052649.5234   21052652.1024
        23.5004         21.5004
 -23555647.55343 -18132185.04145  24281846.6334   24281853.4534
         6.0004          6.7504
 -25277644.75447 -19663916.42346  21240738.8674   21240741.8204
        23.0004         20.7504
 03 10 28  2 33  0.0000000  0  7G 9G24G30G 7G 4G17G 5
  -6122914.72746  -3997355.72746  21928625.2974   21928628.8244
        17.0004         16.2504
 -26094676.98547 -20229976.74046  20794810.6024   20794814.0474
        23.5004         21.7504
 -24402369.01543 -17869838.01645  23573286.3364   23573292.3594
         5.0004          5.5004
  23554961.20845  18402200.52845  23520437.9614   23520441.5594
         8.5004          8.2504
 -14038464.82447 -10849390.67246  21072580.6484   21072582.9224
        23.5004         21.2504
 -23600597.11643 -18167210.41945  24273293.1254   24273294.7074
         5.7504          5.5004
 -25281182.87347 -19666673.36146  21240065.6024   21240068.7074
        23.0004         20.7504
 03 10 28  2 33 30.0000000  0  7G 9G24G30G 7G 4G17G 5
  -5990073.12746  -3893842.79846  21953904.3594   21953907.5594
        17.2504         17.0004
 -26077871.59147 -20216881.59746  20798008.4304   20798011.9804
        23.2504         21.7504
 -24443170.25342 -17901631.04344  23565521.0704   23565534.3634
         4.7504          4.2504
  23687201.98845  18505245.26345  23545602.1954   23545604.1294
         8.2504          7.7504
 -13933278.96047 -10767427.64946  21092597.0084   21092599.4924
        23.5004         21.0004
 -23645521.38643 -18202216.03344  24264743.3204   24264748.6764
         5.7504          4.5004
 -25284479.13747 -19669241.83646  21239438.1884   21239441.5394
        22.7504         20.7504
 03 10 28  2 34  0.0000000  0  7G 9G24G30G 7G 4G17G 5
  -5856884.87846  -3790059.74146  21979249.1484   21979251.9614
        17.0004         16.2504
 -26060607.11847 -20203428.73246  20801293.6954   20801296.8834
        23.2504         22.0004
 -24483953.84643 -17933410.31645  23557760.8054   23557763.2194
         6.2504          5.7504
  23819428.84944  18608279.20245  23570763.8204   23570765.3674
         7.7504          7.5004
 -13827639.86247 -10685111.46046  21112699.3914   21112701.8054
        23.2504         21.2504
 -23690409.10843 -18237193.35645  24256202.3594   24256208.0434
         6.0004          5.7504
 -25287522.07547 -19671612.93046  21238859.4924   21238862.5864
        23.2504         21.0004
 03 10 28  2 34 30.0000000  0  7G 9G24G30G 7G 4G17G 5
  -5723363.34946  -3686016.98146  22004657.7194   22004661.0594
        17.0004         16.2504
 -26042893.55647 -20189625.92646  20804664.2274   20804667.6484
        23.2504         21.7504
 -24524728.54444 -17965182.75345  23550001.3054   23550007.0004
         7.2504          6.0004
  23951630.91044  18711293.83645  23595920.7114   23595926.1134
         7.7504          6.7504
 -13721560.11247 -10602451.91146  21132885.7584   21132888.4774
        23.2504         21.0004
 -23735268.55642 -18272148.47345  24247664.3204   24247667.1334
         4.7504          5.0004
 -25290320.18647 -19673793.23946  21238326.8984   21238329.9804
        23.5004         21.2504
 03 10 28  2 35  0.0000000  0  7G 9G24G30G 7G 4G17G 5
  -5589512.59546  -3581717.69246  22030128.7034   22030131.8794
        17.2504         16.2504
 -26024731.17147 -20175473.38646  20808120.5944   20808123.9694
        23.0004         21.7504
 -24565493.79944 -17996947.80645  23542245.2194   23542248.1134
         7.5004          7.0004
  24083806.52544  18814287.79945  23621073.6884   23621078.0704
         7.2504          7.5004
 -13615043.03847 -10519451.58446  21153155.0554   21153157.3054
        23.2504         21.2504
 -23780099.26043 -18307081.14745  24239135.0084   24239139.0514
         6.5004          5.7504
 -25292872.93047 -19675782.35346  21237840.6484   21237843.9184
        23.2504         21.7504
 03 10 28  2 35 30.0000000  0  7G 9G24G30G 7G 4G17G 5
  -5455327.26046  -3477157.68146  22055663.3834   22055666.5824
        16.7504         15.7504
 -26006111.19847 -20160964.28246  20811663.8054   20811667.2034
        23.2504         22.0004
 -24606239.78744 -18028697.88545  23534490.8594   23534493.5434
         7.2504          7.2504
  24215963.34043  18917267.10145  23646221.8754   23646224.8754
         6.7504          7.0004
 -13508082.88947 -10436106.00646  21173509.0554   21173511.8674
        23.2504         21.0004
 -23824891.17643 -18341983.76245  24230610.0004   24230612.0984
         6.0004          6.2504
 -25295170.62347 -19677572.73346  21237403.3754   21237406.9264
        23.0004         21.5004
 03 10 28  2 36  0.0000000  0  7G 9G24G30G 7G 4G17G 5
  -5320811.27746  -3372340.04846  22081260.7194   22081263.8484
        16.7504         15.7504
 -25987033.99047 -20146098.89546  20815293.9844   20815297.8874
        23.0004         22.0004
 -24646965.98543 -18060432.39645  23526740.9774   23526746.2154
         6.5004          7.2504
  24348099.92243  19020230.67345  23671366.4774   23671371.9964
         6.2504          6.5004
 -13400682.70347 -10352417.55046  21193946.6644   21193949.3364
        23.0004         21.0004
 -23869643.22943 -18376855.29645  24222093.8594   24222100.3634
         5.7504          5.2504
 -25297211.70547 -19679163.16046  21237015.3284   21237018.4224
        23.2504         21.2504
 03 10 28  2 36 30.0000000  0  7G 9G24G30G 7G 4G17G 5
  -5185975.59346  -3267273.28846  22106919.0394   22106922.2274
        16.5004         15.5004
 -25967507.05347 -20130883.07346  20819009.7734   20819013.1134
        22.7504         21.7504
 -24687678.50843 -18092156.33045  23518993.4614   23518997.3634
         6.5004          7.5004
  24480207.73843  19123171.82845  23696505.2664   23696509.8714
         6.0004          6.5004
 -13292852.70647 -10268394.16846  21214465.9064   21214468.4734
        23.0004         20.7504
 -23914361.80843 -18411700.57945  24213583.5164   24213588.1214
         6.2504          5.7504
 -25299002.60647 -19680558.63646  21236674.4534   21236677.5124
        23.5004         21.5004
 03 10 28  2 37  0.0000000  0  7G 9G24G30G 7G 4G17G 5
  -5050811.24046  -3161950.40546  22132639.9774   22132643.0124
        16.2504         15.2504
 -25947518.02247 -20115307.16846  20822813.4384   20822816.8834
        22.7504         22.2504
 -24728363.97543 -18123859.18745  23511250.7274   23511253.6914
         6.7504          7.7504
  24612298.10643  19226099.36545  23721641.8674   23721645.9924
         5.7504          6.7504
 -13184583.59647 -10184028.61846  21235068.8284   21235071.6294
        22.7504         20.7504
 -23959033.06244 -18446509.27345  24205083.0704   24205086.6684
         7.2504          7.2504
 -25300529.87147 -19681748.68446  21236383.7504   21236386.9384
        23.7504         21.7504
 03 10 28  2 37 30.0000000  0  7G 9G24G30G 7G 4G17G 5
  -4915324.58146  -3056376.38646  22158422.3984   22158425.1884
        16.2504         15.5004
 -25927069.94147 -20099373.56846  20826704.4224   20826708.1254
        22.7504         22.0004
 -24769024.23844 -18155542.36945  23503513.6484   23503518.8984
         7.2504          7.2504
  24744367.06043  19329010.22745  23746773.4064   23746777.0984
         5.7504          6.2504
 -13075881.14847 -10099325.40646  21255754.4064   21255756.8914
        22.7504         20.7504
 -24003658.62244 -18481282.20845  24196590.5864   24196595.3914
         7.2504          6.7504
 -25301794.97347 -19682734.44446  21236143.0004   21236146.1524
        23.7504         21.7504
 03 10 28  2 38  0.0000000  0  7G 9G24G30G 7G 4G17G 5
  -4779518.86846  -2950553.76246  22184265.3834   22184268.3834
        16.2504         15.5004
 -25906162.24647 -20083081.83046  20830683.0394   20830686.6724
        22.7504         22.2504
 -24809657.70944 -18187204.77145  23495781.2504   23495786.3134
         7.5004          6.2504
  24876413.91243  19431903.76545  23771901.0474   23771905.1604
         5.7504          6.7504
 -12966747.76047 -10014286.39746  21276521.5004   21276523.9384
        23.0004         20.5004
 -24048236.96843 -18516018.40345  24188108.2034   24188111.4384
         6.5004          6.5004
 -25302796.66847 -19683514.96146  21235952.0944   21235955.1294
        23.7504         21.7504
 03 10 28  2 38 30.0000000  0  7G 9G24G30G 7G 4G17G 5
  -4643388.49546  -2844478.13946  22210170.2034   22210173.4964
        15.7504         15.2504
 -25884786.12547 -20066425.08446  20834750.9064   20834754.4574
        23.0004         22.0004
 -24850254.13345 -18218838.28345  23488055.8834   23488059.4104
         8.2504          7.2504
  25008446.53743  19534786.40145  23797026.3134   23797034.0044
         6.2504          5.5004
 -12857177.15647  -9928906.69246  21297372.2814   21297374.8134
        22.7504         20.7504
 -24092757.61144 -18550709.56345  24179635.1094   24179640.9804
         7.2504          6.7504
 -25303524.51547 -19684082.08946  21235813.7034   21235816.5514
        24.2504         22.0004
 03 10 28  2 39  0.0000000  0  7G 9G24G30G 7G 4G17G 5
  -4506932.97546  -2738149.18046  22236137.0314   22236139.8094
        15.7504         15.2504
 -25862937.27747 -20049399.97546  20838908.9144   20838912.2194
        23.2504         22.2504
 -24890808.20845 -18250438.82345  23480339.1954   23480343.2504
         8.5004          7.2504
  25140468.29743  19637660.49945  23822148.9224   23822153.7154
         6.5004          6.2504
 -12747168.22247  -9843185.43346  21318306.4064   21318308.8914
        23.0004         21.0004
 -24137214.97044 -18585351.52445  24171175.9924   24171181.2544
         7.2504          7.0004
 -25303973.08247 -19684431.59046  21235728.6254   21235731.7424
        24.5004         21.7504
 03 10 28  2 39 30.0000000  0  7G 9G24G30G 7G 4G17G 5
  -4370174.76146  -2631584.32846  22262160.6884   22262164.0864
        15.7504         15.2504
 -25840634.78247 -20032021.37746  20843152.5234   20843155.7344
        23.2504         22.5004
 -24931337.66545 -18282020.09845  23472626.1564   23472629.2504
         8.2504          7.0004
  25272459.03643  19740510.41245  23847265.9844   23847270.0744
         6.7504          7.0004
 -12636742.97747  -9757139.77646  21339319.5314   21339322.0634
        22.7504         20.5004
 -24181626.97243 -18619958.14245  24162722.8284   24162727.9024
         6.5004          7.2504
 -25304160.05247 -19684577.26046  21235692.7734   21235695.9614
        24.5004         22.0004
 03 10 28  2 40  0.0000000  0  7G 9G24G30G 7G 4G17G 5
  -4233109.41046  -2524780.15746  22288243.2504   22288246.4844
        15.5004         14.7504
 -25817871.00147 -20014283.34246  20847484.5704   20847487.9224
        23.5004         22.2504
 -24971833.68544 -18313575.38645  23464919.6024   23464923.1764
         7.5004          7.0004
  25404425.56244  19843341.42845  23872378.1564   23872383.8984
         7.2504          6.7504
 -12525896.26647  -9670765.70746  21360413.0164   21360415.2544
        22.7504         20.5004
 -24225984.44443 -18654522.17345  24154283.0234   24154290.7384
         6.5004          6.2504
 -25304076.51647 -19684512.14246  21235708.5394   21235711.4694
        24.2504         22.0004
 03 10 28  2 40 30.0000000  0  7G 9G24G30G 7G 4G17G 5
  -4095739.30046  -2417738.52146  22314384.2894   22314387.5124
        15.7504         15.2504
 -25794645.09547 -19996185.20546  20851904.2424   20851907.5004
        23.0004         22.2504
 -25012293.91744 -18345102.75845  23457220.1254   23457223.6054
         7.2504          7.7504
  25536367.97144  19946153.71945  23897487.2424   23897491.8014
         7.2504          8.0004
 -12414630.12247  -9584064.80946  21381586.3054   21381588.6604
        22.7504         20.5004
 -24270285.12943 -18689042.01845  24145853.2424   24145859.3364
         6.7504          7.0004
 -25303719.94147 -19684234.26146  21235776.4774   21235779.3594
        24.7504         22.5004
 03 10 28  2 41  0.0000000  0  7G 9G24G30G 7G 4G17G 5
  -3958069.59946  -2310463.43146  22340581.9144   22340585.1724
        15.5004         15.0004
 -25770958.52347 -19977728.11246  20856411.6094   20856414.9264
        23.2504         22.7504
 -25052718.39744 -18376602.19845  23449527.7974   23449530.6454
         7.0004          7.5004
  25668284.03444  20048945.42045  23922589.5084   23922594.1484
         7.7504          8.2504
 -12302948.66647  -9497040.28546  21402838.7814   21402841.2194
        22.7504         20.5004
 -24314528.98943 -18723517.64045  24137432.4224   24137433.6054
         6.0004          6.7504
 -25303090.47947 -19683743.73546  21235896.2734   21235899.3554
        24.7504         22.5004
 03 10 28  2 41 30.0000000  0  7G 9G24G30G 7G 4G17G 5
  -3820090.68946  -2202947.39146  22366837.8674   22366841.1254
        15.0004         14.7504
 -25746798.16847 -19958901.83546  20861009.1884   20861012.5514
        23.0004         22.2504
 -25093092.84744 -18408062.74945  23441845.6484   23441850.6884
         7.2504          7.5004
  25800185.63545  20151725.87545  23947689.0394   23947693.7274
         8.0004          8.0004
 -12190841.79647  -9409684.28446  21424171.7274   21424174.1294
        22.2504         20.2504
 -24358701.70243 -18757937.82544  24129026.4844   24129033.0594
         5.7504          4.7504
 -25302173.80447 -19683029.42346  21236070.9534   21236073.8014
        25.0004         22.7504
 03 10 28  2 42  0.0000000  0  7G 9G24G30G 7G 4G17G 5
  -3681812.98146  -2095198.52846  22393151.9534   22393155.0234
        15.2504         14.5004
 -25722170.94447 -19939711.76846  20865695.2504   20865698.6954
        23.0004         22.5004
 -25133422.73444 -18439488.49645  23434170.1724   23434175.1994
         7.2504          7.2504
  25932065.20445  20254489.19345  23972785.1094   23972789.6804
         8.0004          8.0004
 -12078319.19547  -9322004.31946  21445584.0004   21445586.2154
        22.5004         20.2504
 -24402808.44443 -18792306.58545  24120634.2424   24120636.5164
         6.7504          5.7504
 -25300975.28747 -19682095.48346  21236299.1024   21236301.9024
        24.7504         22.5004
 03 10 28  2 42 30.0000000  0  7G 9G24G30G 7G 4G17G 5
  -3543242.09646  -1987221.22446  22419520.6804   22419524.2424
        15.2504         14.5004
 -25697079.53547 -19920159.99746  20870470.1884   20870473.6564
        23.0004         22.5004
 -25173709.04844 -18470880.38645  23426504.1724   23426509.0944
         7.2504          6.5004
  26063919.62545  20357232.87245  23997876.3914   23997880.1174
         8.0004          8.0004
 -11965386.02447  -9234004.44246  21467074.5164   21467077.0004
        22.2504         20.2504
 -24446850.17544 -18826624.61645  24112253.0864   24112258.0434
         7.0004          6.7504
 -25299495.90347 -19680942.69146  21236580.4144   21236583.3914
        25.0004         22.5004
 03 10 28  2 43  0.0000000  0  7G 9G24G30G 7G 4G17G 5
  -3404374.18246  -1879012.46246  22445946.1954   22445949.6174
        15.5004         14.7504
 -25671516.61947 -19900240.80746  20875334.4694   20875337.9264
        23.0004         22.2504
 -25213943.08144 -18502231.52645  23418847.2734   23418850.2854
         7.5004          7.0004
  26195755.22344  20459961.89345  24022963.3204   24022967.1644
         7.7504          8.2504
 -11852037.82747  -9145681.16246  21488644.0944   21488646.5904
        22.2504         20.2504
 -24490818.36644 -18860885.42945  24103886.5234   24103891.7734
         7.2504          6.5004
 -25297726.71647 -19679564.07246  21236916.7424   21236919.8244
        24.7504         22.7504
 03 10 28  2 43 30.0000000  0  7G 9G24G30G 7G 4G17G 5
  -4840629.50246  -2998172.45646  22172636.5704   22172639.5944
        15.5004         14.7504
 -27220902.83447 -21107554.71046  20580496.3754   20580499.7854
        23.2504         22.5004
 -26829546.43345 -19761143.15345  23111408.4144   23111411.0634
         8.0004          7.2504
  24752153.98644  19335077.81545  23748255.1954   23748260.4574
         7.5004          7.2504
 -13313695.15847 -10284634.92746  21210499.7424   21210502.0864
        22.0004         20.0004
 -26110134.53143 -20122690.16645  23795740.5864   23795748.5354
         6.5004          6.2504
 -26871088.24947 -20905560.04346  20937516.4304   20937519.4534
        25.2504         23.0004
 03 10 28  2 44  0.0000000  0  7G 9G24G30G 7G 4G17G 5
  -4701182.05146  -2889512.10046  22199171.5704   22199174.2664
        15.2504         15.0004
 -27194401.38647 -21086904.19946  20585539.2194   20585543.0164
        23.2504         22.5004
 -26869676.07945 -19792412.96345  23103773.0164   23103773.2384
         8.7504          7.7504
  24883945.14143  19437772.20745  23773334.7344   23773338.2034
         6.7504          7.2504
 -13199529.79247 -10195674.89146  21232224.8594   21232227.3204
        22.0004         19.7504
 -26153955.53544 -20156836.27445  23787401.2664   23787405.7774
         7.2504          6.5004
 -26868740.17547 -20903730.34546  20937963.0634   20937966.0044
        25.2504         23.0004
 03 10 28  2 44 30.0000000  0  7G 9G24G30G 7G 4G17G 5
  -4561454.90646  -2780633.80846  22225761.0164   22225764.2154
        15.0004         14.5004
 -27167435.93647 -21065892.13946  20590670.4924   20590673.7154
        23.2504         23.0004
 -26909756.33945 -19823644.23645  23096144.4534   23096147.3954
         8.2504          7.7504
  25015707.98143  19540444.52745  23798408.0164   23798412.8674
         6.2504          7.0004
 -13084965.03747 -10106403.64346  21254025.6414   21254028.1484
        22.0004         20.0004
 -26197705.62544 -20190927.17145  23779075.1414   23779080.5314
         7.2504          6.2504
 -26866105.50447 -20901677.33046  20938464.3754   20938467.5164
        25.2504         23.0004
 03 10 28  2 45  0.0000000  0  7G 9G24G30G 7G 4G17G 5
  -4421442.34946  -2671533.12446  22252404.5314   22252408.1054
        14.7504         14.2504
 -27139997.40747 -21044511.45246  20595891.9844   20595895.1484
        23.7504         22.7504
 -26949776.61645 -19854828.78445  23088529.2734   23088533.2584
         8.2504          7.7504
  25147450.78143  19643101.30045  23823477.8284   23823482.0474
         6.0004          7.0004
 -12969994.49847 -10016816.21546  21275903.8134   21275906.3444
        21.7504         19.7504
 -26241374.19444 -20224954.51545  23770766.0784   23770770.9304
         7.2504          6.7504
 -26863173.30647 -20899392.48346  20939022.2344   20939025.0594
        25.2504         23.0004
 03 10 28  2 45 30.0000000  0  7G 9G24G30G 7G 4G17G 5
  -4281143.77946  -2562209.55946  22279103.2274   22279106.1684
        15.2504         14.5004
 -27112081.74647 -21022758.97246  20601204.0004   20601207.1294
        23.5004         22.5004
 -26989731.22945 -19885962.19345  23080926.6414   23080931.1884
         8.0004          8.5004
  25279177.00043  19745745.08345  23848544.5394   23848546.0744
         5.7504          6.7504
 -12854617.08847  -9926911.72646  21297859.5164   21297862.0124
        22.0004         19.7504
 -26284955.60544 -20258913.98445  23762472.7814   23762474.9264
         7.5004          7.2504
 -26859938.36247 -20896871.72546  20939637.7504   20939640.6684
        25.0004         23.0004
 03 10 28  2 46  0.0000000  0  7G 9G24G30G 7G 4G17G 5
  -4140572.83046  -2452673.75746  22305853.3834   22305856.2774
        15.0004         14.2504
 -27083699.35647 -21000642.79846  20606605.0554   20606608.1484
        23.7504         22.7504
 -27029629.01245 -19917051.29145  23073334.0234   23073336.5084
         8.7504          8.5004
  25410875.53943  19848367.32345  23873605.6484   23873608.6024
         5.7504          6.0004
 -12738845.90047  -9836700.40446  21319889.7814   21319892.0434
        21.7504         19.7504
 -26328458.90543 -20292812.55945  23754193.7664   23754196.8014
         6.7504          7.2504
 -26856409.51547 -20894121.94646  20940309.5704   20940312.5234
        25.2504         23.0004
 03 10 28  2 46 30.0000000  0  7G 9G24G30G 7G 4G17G 5
  -3999725.42246  -2342922.54046  22332655.1804   22332658.3324
        15.0004         14.2504
 -27054842.99447 -20978157.29546  20612096.2344   20612099.4804
        23.5004         23.2504
 -27069460.81645 -19948088.99645  23065754.7114   23065757.9574
         9.7504          9.5004
  25542553.10243  19950973.16745  23898663.7274   23898666.0944
         5.2504          5.5004
 -12622676.08847  -9746178.46646  21341996.1254   21341998.2584
        21.5004         19.7504
 -26371874.85043 -20326643.04845  23745931.5164   23745936.6254
         6.2504          7.5004
 -26852577.95247 -20891136.28346  20941038.3594   20941041.3364
        25.2504         23.0004
 03 10 28  2 47  0.0000000  0  7G 9G24G30G 7G 4G17G 5
  -3858608.01946  -2232960.91946  22359508.3444   22359511.7544
        14.5004         13.7504
 -27025516.14947 -20955305.17746  20617677.1724   20617680.4654
        23.7504         22.7504
 -27109228.56645 -19979076.79845  23058186.6334   23058189.8444
         9.7504          9.0004
  25674205.80143  20053559.68445  23923716.9224   23923722.1604
         5.2504          5.5004
 -12506113.76847  -9655350.68046  21364177.2734   21364179.9344
        21.2504         19.5004
 -26415205.50543 -20360407.07245  23737685.3754   23737688.6914
         6.5004          6.7504
 -26848445.06447 -20887915.83346  20941824.7814   20941827.6414
        25.2504         23.0004
 03 10 28  2 47 30.0000000  0  7G 9G24G30G 7G 4G17G 5
  -3717218.74746  -2122787.47046  22386413.8834   22386417.0124
        14.0004         14.0004
 -26995713.73347 -20932082.49846  20623348.3444   20623351.5554
        23.7504         23.0004
 -27148925.22145 -20010009.21045  23050632.5704   23050635.7934
         8.7504          8.5004
  25805838.36042  20156130.53245  23948764.3204   23948772.7734
         4.7504          5.7504
 -12389156.58447  -9564215.19646  21386433.5314   21386436.2274
        21.2504         19.2504
 -26458443.88644 -20394099.23445  23729458.2424   23729463.8094
         7.0004          7.0004
 -26844004.17347 -20884455.36346  20942669.9534   20942672.9304
        25.2504         23.2504
 03 10 28  2 48  0.0000000  0  7G 9G24G30G 7G 4G17G 5
  -3575563.06946  -2012406.41746  22413370.1724   22413374.1094
        14.0004         14.0004
 -26965437.50447 -20908490.60846  20629109.6644   20629112.8524
        23.5004         23.0004
 -27188551.06745 -20040886.42245  23043091.5864   23043095.5354
         8.0004          8.0004
  25937448.16342  20258683.53243  23973808.9534   23973809.7504
         4.7504          3.0004
 -12271809.10347  -9472775.59546  21408763.9844   21408766.5394
        21.2504         19.0004
 -26501590.16144 -20427719.62745  23721248.3524   23721253.8134
         7.0004          6.7504
 -26839255.57447 -20880755.13746  20943573.5474   20943576.4534
        25.2504         23.2504
 03 10 28  2 48 30.0000000  0  7G 9G24G30G 7G 4G17G 5
  -3433636.87246  -1901814.58046  22440378.4614   22440381.5314
        14.0004         13.7504
 -26934680.36947 -20884523.98046  20634962.2274   20634965.0394
        23.5004         23.0004
 -27228097.06945 -20071701.44145  23035566.3444   23035570.2114
         8.5004          7.2504
  26069041.90343  20361224.15345  23998850.5554   23998853.3674
         5.0004          5.5004
 -12154066.69747  -9381028.25746  21431169.7894   21431172.2974
        21.2504         19.2504
 -26544635.56444 -20461261.40245  23713057.3364   23713063.3134
         7.7504          7.2504
 -26834190.35947 -20876808.19346  20944537.4224   20944540.3984
        25.5004         23.5004
 03 10 28  2 49  0.0000000  0  7G 9G24G30G 7G 4G17G 5
  -3291449.34346  -1791019.12146  22467435.6334   22467438.2344
        14.2504         13.5004
 -26903448.63947 -20860187.53646  20640905.7734   20640908.9844
        23.5004         23.0004
 -27267567.71045 -20102457.71845  23028055.7664   23028059.1294
         8.5004          7.2504
  26200612.93843  20463747.11844  24023887.9224   24023889.7034
         5.2504          4.5004
 -12035938.26747  -9288980.12446  21453648.6884   21453651.3954
        21.2504         19.0004
 -26587584.65644 -20494728.12645  23704882.5084   23704888.0394
         7.2504          7.7504
 -26828812.95447 -20872617.98246  20945560.7664   20945563.8364
        26.0004         23.5004
 03 10 28  2 49 30.0000000  0  7G 9G24G30G 7G 4G17G 5
  -3149001.19446  -1680020.56546  22494542.3984   22494545.5044
        14.2504         13.7504
 -26871739.67147 -20835479.21746  20646939.6414   20646942.9454
        23.5004         23.0004
 -27306958.58845 -20133151.85645  23020559.4614   23020562.2974
         8.2504          7.5004
  26332163.36643  20566253.85745  24048921.7114   24048924.6294
         5.5004          5.7504
 -11917423.75147  -9196631.14846  21476201.0784   21476203.5164
        21.0004         19.0004
 -26630433.18944 -20528116.51645  23696729.7584   23696734.8554
         7.2504          7.5004
 -26823119.53247 -20868181.52246  20946644.0944   20946646.6724
        26.0004         23.7504
 03 10 28  2 50  0.0000000  0  7G 9G24G30G 7G 4G17G 5
  -3006298.11446  -1568823.35546  22521697.8754   22521700.7814
        14.0004         13.7504
 -26839556.40047 -20810401.32346  20653063.6804   20653066.7624
        23.5004         23.0004
 -27346270.55945 -20163784.49645  23013078.8134   23013083.3014
         8.7504          8.2504
  26463690.06043  20668742.31944  24073949.5004   24073954.1174
         5.7504          4.5004
 -11798528.67247  -9103985.62146  21498826.3754   21498828.9654
        21.0004         18.5004
 -26673182.09645 -20561427.23845  23688595.0474   23688598.2344
         8.0004          7.7504
 -26817110.84447 -20863499.39546  20947787.4534   20947790.0904
        26.0004         23.7504
 03 10 28  2 50 30.0000000  0  7G 9G24G30G 7G 4G17G 5
  -2863337.33546  -1457425.34946  22548902.5234   22548906.4494
        13.7504         13.7504
 -26806892.42147 -20784948.86346  20659279.6024   20659282.9184
        23.7504         22.7504
 -27385495.41345 -20194349.27345  23005615.1564   23005618.8244
         9.2504          9.0004
  26595198.78643  20771216.56245  24098974.6174   24098980.2194
         6.0004          5.5004
 -11679249.27247  -9011040.63246  21521524.0944   21521526.4384
        20.5004         18.7504
 -26715823.30344 -20594654.07445  23680480.7664   23680485.8404
         7.7504          7.5004
 -26810779.17247 -20858565.59946  20948992.4224   20948995.5044
        26.0004         23.7504
 03 10 28  2 51  0.0000000  0  7G 9G24G30G 7G 4G17G 5
  -2720114.10446  -1345822.84046  22576157.9064   22576161.5394
        14.2504         13.2504
 -26773739.81047 -20759115.63946  20665588.1334   20665591.1454
        23.5004         23.2504
 -27424623.42845 -20224838.54345  22998168.8134   22998172.4574
        10.0004         10.2504
  26726697.23543  20873682.98245  24123998.1254   24124002.0044
         6.0004          5.2504
 -11559580.33947  -8917792.10146  21544296.4924   21544298.9184
        20.5004         18.2504
 -26758347.41145 -20627789.63845  23672388.8054   23672391.9344
         8.2504          8.5004
 -26804114.62547 -20853372.40846  20950260.3524   20950263.2234
        26.0004         24.0004
 03 10 28  2 51 30.0000000  0  7G 9G24G30G 7G 4G17G 5
  -2576635.11446  -1234021.03046  22603459.7274   22603462.8324
        13.5004         13.2504
 -26740102.23547 -20732904.52246  20671989.2504   20671992.6484
        23.5004         23.2504
 -27463656.20145 -20255253.60845  22990740.9694   22990744.1804
        10.0004          9.7504
  26858181.25043  20976138.01745  24149018.7814   24149023.9844
         6.2504          5.7504
 -11439527.99747  -8824244.81846  21567141.7344   21567144.6414
        20.5004         18.2504
 -26800755.65545 -20660834.96145  23664318.2734   23664321.9064
         8.0004          8.0004
 -26797119.15547 -20847921.35846  20951591.8364   20951594.6134
        26.2504         23.7504
 03 10 28  2 52  0.0000000  0  7G 9G24G30G 7G 4G17G 5
  -2432905.07046  -1122023.59046  22630811.2974   22630815.3284
        13.5004         12.7504
 -26705981.61247 -20706316.99246  20678482.3984   20678485.5514
        23.5004         23.2504
 -27502593.63145 -20285594.40745  22983331.1884   22983333.1684
         9.5004          9.0004
  26989648.87043  21078580.29245  24174036.4384   24174037.0354
         6.5004          6.0004
 -11319096.65247  -8730402.20046  21590059.0704   21590061.3324
        20.2504         18.2504
 -26843048.50244 -20693790.34345  23656269.3984   23656276.1374
         7.7504          8.0004
 -26789792.32047 -20842212.09846  20952986.0234   20952988.6374
        26.5004         24.2504
 03 10 28  2 52 30.0000000  0  7G 9G24G30G 7G 4G17G 5
  -2288918.92546  -1009826.58446  22658210.8444   22658214.3484
        13.2504         13.2504
 -26671369.92247 -20679346.82446  20685068.2974   20685071.3324
        23.5004         23.2504
 -27541425.55545 -20315852.99245  22975941.7504   22975944.8204
         9.0004          8.2504
  27121107.83643  21181015.93645  24199052.4924   24199058.1414
         6.7504          5.7504
 -11198280.48547  -8636259.73146  21613049.6334   21613051.9304
        20.5004         18.2504
 -26885215.77545 -20726647.84045  23648246.7344   23648250.2154
         9.0004          8.5004
 -26782124.59047 -20836237.20846  20954444.9614   20954447.5634
        26.7504         24.0004
 03 10 28  2 53  0.0000000  0  7G 9G24G30G 7G 4G17G 5
  -2144678.43746   -897431.41046  22685658.8444   22685662.4654
        13.5004         13.0004
 -26636265.85747 -20651992.97746  20691748.7114   20691751.9804
        23.7504         23.5004
 -27580148.70445 -20346026.79445  22968572.5704   22968574.5864
         9.0004          8.5004
  27252559.17443  21283445.49345  24224067.7894   24224073.5314
         6.7504          7.0004
 -11077080.97847  -8541818.55446  21636113.1024   21636115.4104
        20.0004         18.2504
 -26927254.49845 -20759405.19645  23640246.7584   23640251.2814
         8.7504          8.5004
 -26774112.77347 -20829994.19746  20955969.5864   20955972.4344
        26.7504         24.2504
 03 10 28  2 53 30.0000000  0  7G 9G24G30G 7G 4G17G 5
  -2000186.93546   -784840.62346  22713154.2974   22713157.9774
        13.0004         13.0004
 -26600669.84347 -20624255.80146  20698522.5164   20698525.7034
        23.7504         23.2504
 -27618761.18945 -20376114.37145  22961224.8364   22961227.5664
         9.5004          8.5004
  27384002.33543  21385868.83245  24249079.8674   24249086.1484
         6.5004          7.0004
 -10955500.88547  -8447080.81446  21659249.1254   21659251.7734
        20.2504         18.0004
 -26969163.06545 -20792061.13645  23632272.9454   23632277.9614
         8.5004          8.2504
 -26765755.79847 -20823482.23346  20957560.0474   20957562.6484
        27.0004         24.2504
 03 10 28  2 54  0.0000000  0  7G 9G24G30G 7G 4G17G 5
  -1855450.04846   -672058.64046  22740698.9924   22740701.8284
        13.2504         12.5004
 -26564583.94047 -20596136.90446  20705389.2584   20705392.5984
        23.5004         23.5004
 -27657263.45245 -20406116.05845  22953898.5784   22953901.6844
        10.0004          9.5004
  27515434.55043  21488283.52245  24274089.6724   24274093.1764
         6.5004          6.7504
 -10833545.17447  -8352050.38546  21682456.3594   21682458.5394
        20.2504         18.5004
 -27010942.09045 -20824616.14445  23624320.1024   23624321.8714
         8.2504          8.0004
 -26757053.94047 -20816701.52446  20959215.4454   20959218.1294
        26.7504         24.5004
 03 10 28  2 54 30.0000000  0  7G 9G24G30G 7G 4G17G 5
  -1710468.20846   -559085.75646  22768286.5474   22768290.3914
        13.0004         12.2504
 -26528006.30647 -20567634.81646  20712349.6024   20712352.8364
        23.5004         23.5004
 -27695651.02345 -20436028.37745  22946593.4534   22946597.1564
        10.5004          9.5004
  27646858.09543  21590691.49945  24299099.7344   24299103.3674
         6.2504          6.5004
 -10711214.14447  -8256727.50146  21705735.2504   21705737.6054
        20.0004         18.2504
 -27052587.30645 -20857066.89845  23616396.1804   23616399.1684
         9.2504          8.2504
 -26748002.45847 -20809648.38346  20960938.1334   20960940.9344
        26.7504         24.5004
 03 10 28  2 55  0.0000000  0  7G 9G24G30G 7G 4G17G 5
  -1565247.03546   -445926.42246  22795920.6334   22795924.1954
        12.7504         12.5004
 -26490939.13047 -20538751.28646  20719403.4144   20719406.7194
        23.5004         23.2504
 -27733924.16745 -20465851.53245  22939310.4064   22939313.1134
        10.7504         10.5004
  27778270.30643  21693090.67645  24324105.8754   24324111.6764
         6.0004          6.5004
 -10588512.44047  -8161115.77446  21729084.9614   21729086.9774
        20.0004         18.2504
 -27094099.34245 -20889413.84245  23608497.0004   23608501.8054
         9.7504          9.0004
 -26738602.37047 -20802323.60746  20962726.9454   20962729.6414
        27.0004         24.5004
 03 10 28  2 55 30.0000000  0  8G 9G24G30G10G 7G 4G17G 5
  -1419791.98146   -332584.82746  22823599.7274   22823603.3714
        12.2504         12.5004
 -26453385.00547 -20509488.30846  20726549.6254   20726552.8834
        23.5004         23.5004
 -27772083.25245 -20495585.80345  22932049.0084   22932052.4064
        10.2504         10.0004
 -23639414.12751                  25059545.8984
         3.0004
  27909668.60243  21795478.91345  24349110.5864   24349115.2974
         5.7504          6.5004
 -10465445.13547  -8065219.17046  21752503.5474   21752506.0084
        20.0004         18.2504
 -27135478.70445 -20921657.45345  23600622.5864   23600627.9884
         8.5004          8.0004
 -26728854.43547 -20794727.77646  20964581.8594   20964584.3914
        26.7504         24.5004
 03 10 28  2 56  0.0000000  0  8G 9G24G30G10G 7G 4G17G 5
  -1274106.17046   -219063.40246  22851323.8284   22851327.0044
        12.7504         12.7504
 -26415344.19847 -20479846.10046  20733788.7424   20733791.8484
        24.0004         23.7504
 -27810126.29745 -20525229.66545  22924809.6804   22924813.6414
         9.5004          9.7504
 -23688172.32941                  25050269.2664
         3.7504
  28041052.70443  21897856.22145  24374112.5554   24374118.8834
         5.5004          5.2504
 -10342014.85646  -7969039.73746  21775991.8284   21775994.0084
        19.7504         18.2504
 -27176723.64145 -20953796.24445  23592774.3204   23592779.9694
         8.7504          8.2504
 -26718756.67747 -20786859.36246  20966503.3674   20966506.2154
        26.7504         24.7504
 03 10 28  2 56 30.0000000  0  8G 9G24G30G10G 7G 4G17G 5
  -1128194.40646   -105365.94946  22879089.2734   22879091.9574
        12.2504         12.5004
 -26376818.54847 -20449826.09046  20741119.9774   20741122.9884
        23.7504         23.7504
 -27848052.73945 -20554782.66545  22917592.0004   22917594.0274
        10.0004          9.7504
 -23737053.44342                  25040967.0314
         4.0004
  28172420.64443  22000220.83045  24399110.8134   24399115.0664
         5.0004          6.0004
 -10218225.52147  -7872580.50646  21799548.2274   21799550.7814
        20.0004         17.5004
 -27217833.75945 -20985830.04545  23584949.9614   23584953.7814
         8.7504          8.7504
 -26708308.80247 -20778718.12846  20968491.5004   20968494.2194
        26.7504         24.7504
 03 10 28  2 57  0.0000000  0  8G 9G24G30G10G 7G 4G17G 5
   -982056.49946      8507.74346  22906898.3364   22906902.1684
        12.2504         12.5004
 -26337804.84247 -20419425.77046  20748543.7584   20748546.9574
        23.7504         23.5004
 -27885857.38745 -20584240.76845  22910398.0314   22910400.2464
        10.0004          9.0004
 -23786051.50942                  25031642.7114
         4.5004
  28303775.23142  22102575.04045  24424106.2274   24424113.4494
         4.7504          5.7504
 -10094076.80646  -7775841.24646  21823172.8284   21823175.0664
        19.7504         17.7504
 -27258804.24045 -21017755.02645  23577154.4844   23577159.3244
         9.2504          9.2504
 -26697506.38847 -20770300.63346  20970547.1884   20970549.7074
        26.5004         24.7504
 03 10 28  2 57 30.0000000  0  8G 9G24G30G10G 7G 4G17G 5
  -2411111.42046  -1105041.55546  22634958.4144   22634960.7704
        12.5004         12.5004
 -27873722.94347 -21616245.05246  20456268.4304   20456271.4414
        24.2504         23.7504
 -29498960.36645 -21841204.07045  22603434.0784   22603437.2074
        10.0004          9.7504
 -25410586.06043                  24722503.8524
         5.0004
  26859699.91242  20977321.56645  24149307.5004   24149311.8244
         4.5004          5.2504
 -11544988.04646  -8906421.43446  21547073.3524   21547075.6374
        19.5004         17.5004
 -28875055.61145 -22277171.63545  23269592.1644   23269595.9264
         9.5004          9.5004
 -28261768.26547 -21989205.97146  20672877.8364   20672880.6374
        26.5004         24.7504
 03 10 28  2 58  0.0000000  0  9G 9G24G30G10G 7G 4G 6G17G 5
  -2264535.68246   -990826.69546  22662849.6804   22662853.0204
        12.0004         12.2504
 -27833739.29247 -21585088.93546  20463876.8204   20463879.9494
        23.7504         23.7504
 -29536520.42545 -21870471.64545  22596287.3204   22596289.5594
        10.5004          9.7504
 -25459814.80543                  24713135.9224
         5.7504
  26991022.01142  21079650.47145  24174297.8754   24174302.8444
         4.5004          5.7504
 -11420133.59746  -8809132.25546  21570832.3594   21570834.7974
        19.2504         17.7504
 -25211135.77251                  25282455.8524
         3.7504
 -28915746.66745 -22308878.91345  23261847.4774   23261851.8484
         9.2504          8.5004
 -28250256.82347 -21980235.99146  20675068.4534   20675071.2424
        26.5004         24.7504
 03 10 28  2 58 30.0000000  0  9G 9G24G30G10G 7G 4G 6G17G 5
  -2117741.01845   -876441.24545  22690784.5004   22690788.5204
        11.7504         11.7504
 -27793266.49247 -21553551.66346  20471578.5234   20471581.5234
        24.0004         23.5004
 -29573950.22745 -21899637.68845  22589164.6884   22589167.2194
        10.0004          9.2504
 -25509149.67643 -19677481.88255  24703748.0864   24703752.0124
         6.2504          6.0004
  27122332.37442  21181970.15545  24199284.9064   24199289.6294
         4.2504          5.2504
 -11294925.53246  -8711567.51846  21594658.6414   21594661.0664
        19.2504         17.5004
 -25237637.72442                  25277412.4454
         4.2504
 -28956290.70045 -22340471.59445  23254132.0784   23254135.8404
         9.0004          9.0004
 -28238382.83047 -21970983.50346  20677327.9064   20677330.5904
        26.7504         25.0004
 03 10 28  2 59  0.0000000  0  9G 9G24G30G10G 7G 4G 6G17G 5
  -1970742.04546   -761896.61446  22718757.5314   22718761.3754
        12.5004         12.0004
 -27752316.50547 -21521642.55546  20479371.0004   20479373.9654
        24.0004         23.5004
 -29611259.59845 -21928709.90045  22582064.6564   22582068.7584
         9.5004          9.7504
 -25558599.62743 -19716014.23545  24694337.5004   24694342.7384
         6.5004          6.7504
  27253618.76442  21284271.36345  24224268.6334   24224272.1374
         4.2504          5.0004
 -11169378.14846  -8613738.38846  21618549.8204   21618551.9774
        19.0004         17.2504
 -25264163.74641                  25272364.6644
         3.7504
 -28996697.53845 -22371957.39045  23246442.5864   23246446.7814
         8.7504          8.7504
 -28226156.53647 -21961456.50746  20679654.5084   20679657.2734
        26.7504         25.0004
 03 10 28  2 59 30.0000000  0  9G 9G24G30G10G 7G 4G 6G17G 5
  -1823536.77945   -647191.22046  22746770.0704   22746773.7274
        11.7504         12.2504
 -27710884.40947 -21489357.78246  20487255.4924   20487258.4804
        23.7504         23.7504
 -29648440.98745 -21957682.34345  22574988.9304   22574992.9734
         9.5004          9.7504
 -25608156.71943 -19754630.12245  24684907.1884   24684914.5984
         6.2504          6.5004
  27384886.39842  21386557.78945  24249250.4614   24249256.2624
         4.5004          5.5004
 -11043488.74346  -8515642.74446  21642505.5394   21642507.6604
        19.2504         17.2504
 -25290708.58842 -19654010.91854  25267313.4304   25267316.4304
         4.0004          4.5004
 -29036960.24945 -22403330.86745  23238782.0004   23238786.3594
         9.2504          9.0004
 -28213571.26647 -21951649.78746  20682049.4844   20682052.3794
        26.7504         24.7504
 03 10 28  3  0  0.0000000  0  9G 9G24G30G10G 7G 4G 6G17G 5
  -1676117.28146   -532318.90046  22774823.5394   22774826.4694
        12.5004         12.0004
 -27668959.60547 -21456689.07846  20495233.3594   20495236.4534
        23.7504         23.7504
 -29685481.38845 -21986544.94345  22567940.6884   22567943.9224
        10.0004          9.5004
 -25657807.15543 -19793318.64545  24675459.0704   24675463.5594
         5.5004          6.5004
  27516145.90642  21488837.87345  24274226.5084   24274231.1024
         4.5004          5.0004
 -10917249.10246  -8417274.19846  21666528.2664   21666530.7624
        18.7504         16.7504
 -25317261.21241 -19674700.98443  25262258.3444   25262270.9924
         3.2504          3.5004
 -29077066.12945 -22434582.15145  23231148.7814   23231152.7894
         8.7504          9.0004
 -28200613.84847 -21941553.08446  20684515.0944   20684517.8014
        26.7504         25.0004
 03 10 28  3  0 30.0000000  0  9G 9G24G30G10G 7G 4G 6G17G 5
  -1528497.56146   -417290.57546  22802914.8754   22802917.6174
        12.7504         12.0004
 -27626553.05147 -21423644.98746  20503303.0704   20503306.0354
        24.0004         24.0004
 -29722389.55145 -22015304.51845  22560916.8134   22560919.7774
        10.7504          9.7504
 -25707558.63042 -19832085.95845  24665992.2194   24665999.1374
         4.5004          5.2504
  27647386.23543  21591103.07744  24299199.3914   24299205.3094
         5.0004          4.2504
 -10790672.65046  -8318643.18746  21690614.9454   21690617.2774
        18.7504         17.2504
 -25221778.35951                  25257205.6484
         3.0004
 -29117024.22645 -22465718.28345  23223545.8524   23223549.4964
         9.0004          9.5004
 -28187294.03547 -21931173.99146  20687049.8594   20687052.4024
        26.7504         25.0004
 03 10 28  3  1  0.0000000  0  9G 9G24G30G10G 7G 4G 6G17G 5
  -1380675.45445   -302104.52645  22831044.0004   22831047.5044
        11.7504         11.7504
 -27583659.88647 -21390221.72246  20511465.5554   20511468.8014
        23.7504         23.7504
 -29759157.78245 -22043955.05145  22553920.4384   22553924.0474
        11.0004         10.0004
 -25757403.10641 -19870925.71245  24656507.0864   24656511.9264
         3.7504          5.2504
  27778612.52643  21693357.35244  24324170.5704   24324174.1564
         5.5004          4.5004
 -10663756.49346  -8219747.47546  21714766.2584   21714768.7304
        18.7504         16.5004
 -25248362.68141                  25252146.6254
         3.2504
 -29156827.20645 -22496733.51445  23215971.3594   23215975.6844
         9.0004          8.7504
 -28173604.13647 -21920506.52346  20689654.9304   20689657.8364
        26.7504         25.2504
 03 10 28  3  1 30.0000000  0  9G 9G24G30G10G 7G 4G 6G17G 5
  -1232648.90046   -186759.17845  22859212.2114   22859215.6334
        12.0004         11.5004
 -27540275.40847 -21356415.61446  20519721.0004   20519724.0474
        23.7504         24.0004
 -29795779.02745 -22072491.05045  22546951.5234   22546954.2894
        11.0004         10.2504
 -25807332.34041 -19909831.58445  24647006.3284   24647016.8554
         3.0004          5.0004
  27909829.64443  21795604.47044  24349141.7274   24349143.1804
         5.5004          4.7504
 -10536498.19446  -8120585.17446  21738982.9454   21738984.9494
        18.7504         16.7504
 -25274954.93841                  25247083.1644
         3.7504
 -29196468.53745 -22527622.84645  23208429.9064   23208435.9534
        10.0004          9.2504
 -28159537.68947 -21909545.63546  20692331.4614   20692334.1914
        26.7504         25.0004
 03 10 28  3  2  0.0000000  0  9G 9G24G30G10G 7G 4G 6G17G 5
  -1084431.15145    -71264.83645  22887417.2424   22887420.3954
        11.7504         11.7504
 -27496410.45847 -21322235.11246  20528068.5474   20528071.5124
        23.7504         24.0004
 -29832261.27745 -22100918.74045  22540009.1024   22540012.3244
        10.7504          9.7504
 -25215062.04351 -19948809.43743  24637485.6414   24637488.1954
         2.7504          3.0004
  28041027.17643  21897836.28845  24374106.7114   24374109.1724
         5.7504          5.2504
 -10408910.61146  -8021166.27146  21763261.8914   21763264.3754
        18.5004         16.5004
 -25301565.23042                  25242022.2584
         4.2504
 -29235956.46145 -22558392.60245  23200914.2974   23200918.1994
         9.0004          9.0004
 -28145103.52747 -21898298.23046  20695078.3914   20695081.1684
        26.7504         25.2504
 03 10 28  3  2 30.0000000  0  9G 9G24G30G10G 7G 4G 6G17G 5
   -936014.82545     44384.22045  22915660.3984   22915663.1644
        11.7504         11.5004
 -27452054.37047 -21287671.89946  20536508.7664   20536511.9304
        23.5004         24.0004
 -29868591.76345 -22129228.14345  22533096.1564   22533099.3324
        11.2504         10.5004
 -25265162.34242 -19987848.44145  24627953.5944   24627955.8094
         4.0004          5.7504
  28172215.44943  22000061.03144  24399072.0554   24399076.4844
         5.7504          4.2504
 -10280985.80046  -7921484.60946  21787605.2034   21787607.1024
        18.5004         16.2504
 -25328182.94841                  25236953.2504
         3.7504
 -29275278.72545 -22589033.28345  23193430.9224   23193434.9414
         9.2504          9.2504
 -28130288.63747 -21886754.14646  20697897.5704   20697900.2664
        26.7504         25.2504
 03 10 28  3  3  0.0000000  0  9G 9G24G30G10G 7G 4G 6G17G 5
   -787411.32446    160179.14845  22943939.3524   22943942.3874
        12.2504         11.2504
 -27407216.17747 -21252733.02846  20545041.3444   20545044.4494
        23.7504         24.0004
 -29904776.69245 -22157424.15045  22526210.0394   22526213.0274
        11.2504         10.5004
 -25315346.46643 -20026953.04945  24618402.7194   24618412.3794
         5.0004          5.2504
  28303386.03843  22102271.83644  24424032.1024   24424036.9774
         5.7504          4.7504
 -10152734.80646  -7821548.76046  21812010.3284   21812012.5784
        18.2504         16.2504
 -25354816.30842                  25231885.5634
         4.0004
 -29314442.05145 -22619550.10945  23185978.8204   23185982.6414
         9.2504          9.2504
 -28115100.07847 -21874918.88846  20700787.9144   20700790.7154
        26.7504         25.2504
 03 10 28  3  3 30.0000000  0  9G 9G24G30G10G 7G 4G 6G17G 5
   -638611.41045    276127.10745  22972254.0864   22972257.2734
        11.2504         11.5004
 -27361884.13447 -21217409.34046  20553668.0004   20553671.1764
        23.7504         23.7504
 -29940801.51145 -22185495.37445  22519354.9144   22519356.8714
        11.0004         10.7504
 -25365599.15442 -20066110.85445  24608839.1724   24608846.6994
         4.5004          5.2504
  28434550.98943  22204478.20144  24448992.3364   24448996.5314
         6.0004          4.5004
 -10024147.95646  -7721351.22146  21836479.6954   21836481.8634
        18.2504         16.2504
 -25381452.90342                  25226817.8914
         4.0004
 -29353432.08845 -22649931.89845  23178559.7194   23178563.7854
        10.0004          9.5004
 -28099523.28747 -21862781.11646  20703752.1254   20703754.9024
        27.0004         25.5004
 03 10 28  3  4  0.0000000  0  9G 9G24G30G10G 7G 4G 6G17G 5
   -489623.90145    392221.26345  23000604.2734   23000607.4144
        11.5004         11.2504
 -27316064.14747 -21181705.43446  20562386.9224   20562389.8284
        23.7504         23.7504
 -29976669.61245 -22213444.49245  22512529.4304   22512531.9964
        11.5004         10.0004
 -25415922.83342 -20105324.06245  24599262.7274   24599268.9264
         4.0004          5.0004
  28565704.50743  22306675.81644  24473949.6644   24473957.1684
         6.0004          4.7504
  -9895233.28546  -7620898.22246  21861011.4224   21861014.0124
        18.0004         16.2504
 -25408098.05642                  25221748.9534
         4.2504
 -29392252.83445 -22680181.79545  23171171.7114   23171175.7544
        10.2504          9.5004
 -28083563.11047 -21850344.59746  20706789.0004   20706791.8484
        27.0004         25.5004
 03 10 28  3  4 30.0000000  0  9G 9G24G30G10G 7G 4G 6G17G 5
   -340449.92845    508460.71545  23028992.5314   23028996.1414
        11.2504         11.0004
 -27269754.64747 -21145620.08946  20571199.1174   20571201.9774
        24.0004         23.7504
 -30012376.99545 -22241268.36845  22505734.4454   22505736.8714
        11.7504         10.7504
 -25466312.90741 -20144589.03344  24589674.8524   24589684.9104
         2.7504          4.2504
  28696848.44443  22408865.93045  24498904.9224   24498906.7854
         5.7504          5.2504
  -9765991.59946  -7520190.41646  21885605.3054   21885607.8954
        18.0004         16.2504
 -25434749.91641                  25216674.4064
         3.7504
 -29430900.58445 -22710296.85945  23163816.5474   23163820.5084
         9.7504         10.0004
 -28067215.37347 -21837606.08746  20709900.3594   20709903.0904
        27.2504         25.5004
 03 10 28  3  5  0.0000000  0  9G 9G24G30G10G 7G 4G 6G17G 5
   -191092.49645    624843.10045  23057413.6254   23057415.6644
        11.5004         11.0004
 -27222955.79547 -21109153.43046  20580104.9614   20580107.9844
        23.7504         24.0004
 -30047921.18946 -22268965.07445  22498970.7424   22498973.8834
        12.2504         11.5004
 -25245405.25651 -20183902.15043  24580074.5394   24580085.8284
         3.7504          3.7504
  28827982.55043  22511048.32145  24523859.3284   24523865.4804
         5.7504          5.5004
  -9636425.50646  -7419229.82546  21910260.6254   21910262.9454
        17.7504         16.2504
 -25461408.18242                  25211601.9924
         4.0004
 -29469373.34845 -22740275.57745  23156496.0634   23156500.2704
        10.5004         10.2504
 -28050477.88647 -21824563.87346  20713084.9454   20713087.6414
        26.7504         25.5004
 03 10 28  3  5 30.0000000  0  9G 9G24G30G10G 7G 4G 6G17G 5
    -41549.01545    741370.48145  23085870.6804   23085874.1134
        11.0004         10.5004
 -27175663.13047 -21072301.98546  20589104.4694   20589107.3524
        23.7504         24.0004
 -30083294.48446 -22296528.63045  22492239.5164   22492241.6024
        12.2504         11.2504
 -25295913.38543                  24570463.0864
         5.5004
  28959112.32743  22613227.41045  24548812.9304   24548818.8594
         5.5004          5.7504
  -9506531.81846  -7318013.96646  21934978.7734   21934981.1764
        17.5004         16.0004
 -25488067.38042                  25206530.0084
         4.2504
 -29507664.07445 -22770112.47045  23149208.4454   23149212.5234
        10.2504         10.0004
 -28033344.50247 -21811213.16746  20716345.3054   20716348.1524
        27.0004         25.5004
 03 10 28  3  6  0.0000000  0  9G 9G24G30G10G 7G 4G 6G17G 5
    108174.59245    858038.22745  23114362.2814   23114366.1604
        11.0004         11.0004
 -27127879.95347 -21035068.32146  20598197.3754   20598200.4924
        23.7504         24.2504
 -30118497.46446 -22323959.46445  22485540.0634   22485541.1764
        12.2504         11.5004
 -25346475.99943                  24560840.6884
         6.0004
  29090234.89943  22715400.74744  24573764.1334   24573768.7034
         5.0004          4.5004
  -9376316.06946  -7216547.14746  21959757.7894   21959760.4024
        17.5004         16.5004
 -25514730.01542                  25201456.0004
         4.5004
 -29545773.72145 -22799808.25945  23141957.4694   23141960.9494
        10.7504         10.7504
 -28015815.67047 -21797554.31846  20719680.8364   20719683.3324
        27.0004         25.5004
 03 10 28  3  6 30.0000000  0  9G 9G24G30G10G 7G 4G 6G17G 5
    258076.29945    974844.74245  23142887.7504   23142891.5944
        10.2504         10.7504
 -27079605.39647 -20997451.76246  20607383.4304   20607386.7344
        23.7504         24.0004
 -30153526.63445 -22351254.85445  22478874.4224   22478877.5274
        11.7504         11.2504
 -25397088.68443 -19644229.77055  24551209.3984   24551210.4064
         5.7504          5.0004
  29221351.29142  22817569.56045  24598715.8204   24598714.6134
         4.7504          5.2504
  -9245779.62046  -7114830.42746  21984598.4384   21984601.0274
        17.7504         16.0004
 -25541394.73742                  25196382.3524
         4.7504
 -29583699.31745 -22829360.62445  23134741.8364   23134745.3054
        11.0004         10.5004
 -27997888.76847 -21783585.28246  20723092.0784   20723094.7854
        26.7504         25.5004
 03 10 28  3  7  0.0000000  0  9G 9G24G30G10G 7G 4G 6G17G 5
    408154.65945   1091788.88545  23171447.2114   23171450.4104
        10.7504         10.5004
 -27030838.90347 -20959451.88446  20616663.4774   20616666.5944
        23.5004         24.2504
 -30188378.41745 -22378412.04445  22472242.2344   22472244.7664
        11.5004         11.0004
 -25447747.35143 -19683704.03545  24541568.4144   24541573.3834
         5.7504          5.2504
  29352462.46742  22919734.06845  24623664.5164   24623667.5864
         4.7504          5.5004
  -9114923.97146  -7012864.99146  22009499.3674   22009502.1334
        17.5004         16.0004
 -25568060.18043                  25191306.2974
         5.0004
 -29621437.89445 -22858767.25145  23127558.4774   23127561.3594
        10.7504         10.0004
 -27979560.60547 -21769303.57546  20726579.9454   20726582.6884
        27.0004         25.7504
 03 10 28  3  7 30.0000000  0  9G 9G24G30G10G 7G 4G 6G17G 5
    558403.88645   1208866.21045  23200038.1174   23200042.2544
        10.5004         11.0004
 -26981583.29347 -20921070.87046  20626036.6644   20626039.9344
        23.7504         24.2504
 -30223053.10545 -22405431.20045  22465643.1414   22465646.9264
        11.5004         11.0004
 -25498451.29843 -19723213.46045  24531920.3134   24531923.0784
         6.0004          6.0004
 -25158652.97652                  24648612.8594
         4.5004
  -8983753.99346  -6910654.63246  22034460.0004   22034462.5084
        17.2504         15.7504
 -25594728.59742 -19647140.32753  25186230.1804   25186234.5744
         4.5004          3.7504
 -29658989.97645 -22888028.56245  23120412.3364   23120415.5474
        10.5004         10.5004
 -27960831.81647 -21754709.69846  20730144.0634   20730146.8754
        27.0004         25.7504
 03 10 28  3  8  0.0000000  0  9G 9G24G30G10G 7G 4G 6G17G 5
    708823.74845   1326076.47045  23228661.1804   23228664.1334
        10.5004         11.0004
 -26931836.53347 -20882307.14046  20635502.7424   20635505.8134
        23.5004         24.0004
 -30257545.61845 -22432308.43245  22459080.2664   22459083.4774
        11.7504         11.0004
 -25549194.52143 -19762753.59945  24522264.1724   24522267.6644
         6.2504          5.5004
 -25027554.36942                  24673558.9694
         4.0004
  -8852269.65246  -6808199.30346  22059480.8054   22059483.8524
        17.0004         16.0004
 -25621397.12742 -19667920.81943  25181157.0864   25181162.9924
         4.2504          3.0004
 -29696351.39845 -22917141.30845  23113304.1644   23113308.1844
        11.5004         11.0004
 -27941698.17747 -21739800.34846  20733785.0944   20733787.8484
        27.0004         25.7504
 03 10 28  3  8 30.0000000  0  9G 9G24G30G10G 7G 4G 6G17G 5
    859411.91445   1443417.90445  23257318.6414   23257322.1914
        10.5004         10.7504
 -26881598.56247 -20843160.65446  20645063.0004   20645065.9414
        23.7504         23.7504
 -30291853.06745 -22459041.46345  22452551.0234   22452553.9064
        11.7504         11.5004
 -25599973.59543 -19802321.69945  24512600.4304   24512606.7114
         5.0004          5.5004
 -24896460.42142                  24698507.1094
         4.0004
  -8720472.93446  -6705500.57346  22084560.9384   22084563.5744
        16.7504         15.5004
 -25648065.12542 -19688700.87443  25176082.1094   25176092.9884
         4.0004          3.5004
 -29733519.81145 -22946103.68245  23106231.0704   23106235.1484
        11.0004         10.5004
 -27922157.54647 -21724573.86446  20737503.2814   20737506.0354
        27.0004         25.7504
 03 10 28  3  9  0.0000000  0  9G 9G24G30G10G 7G 4G 6G17G 5
   1010163.31145   1560886.49245  23286006.1024   23286009.4414
        10.5004         10.2504
 -26830872.02647 -20803633.46446  20654715.6724   20654718.8484
        23.5004         23.7504
 -30325975.21546 -22485630.08645  22446057.7424   22446059.7464
        12.2504         11.7504
 -25650787.32743 -19841916.64345  24502931.4614   24502936.7934
         5.5004          6.2504
 -24765373.26741                  24723452.5164
         3.7504
  -8588368.56946  -6602562.10546  22109699.2584   22109701.8594
        16.7504         15.7504
 -25674734.46941 -19709482.11544  25171004.2584   25171005.7114
         3.7504          4.7504
 -29770495.16245 -22974915.56045  23099193.7504   23099197.5354
        10.7504         11.2504
 -27902210.27347 -21709030.51646  20741299.4844   20741302.0164
        27.0004         25.7504
 03 10 28  3  9 30.0000000  0  9G 9G24G30G10G 7G 4G 6G17G 5
   1161078.22845   1678482.52245  23314722.8754   23314727.9264
        10.0004         10.0004
 -26779654.37547 -20763723.59146  20664461.9844   20664464.9614
        23.7504         24.0004
 -30359906.33546 -22512069.85545  22439601.3834   22439603.4924
        12.5004         11.7504
 -25701628.99943 -19881533.43145  24493256.6564   24493261.1454
         6.2504          6.5004
 -24634289.46841 -19641604.39855  24748395.0004   24748395.9614
         3.2504          5.0004
  -8455955.39146  -6499383.01846  22134896.9844   22134899.9144
        16.5004         15.5004
 -25701401.58842 -19730261.63444  25165932.5704   25165936.3554
         4.0004          4.0004
 -29807272.30145 -23003573.01645  23092194.9304   23092198.6334
        10.7504         10.7504
 -27881851.27647 -21693166.34146  20745173.3984   20745176.2114
        27.2504         25.7504
 03 10 28  3 10  0.0000000  0  9G 9G24G30G10G 7G 4G 6G17G 5
   1312146.67245   1796198.15945  23343470.1484   23343473.8634
        10.0004         10.5004
 -26727952.95547 -20723436.75546  20674300.6724   20674303.8834
        23.7504         24.2504
 -30393650.81246 -22538364.20145  22433179.8754   22433182.0904
        12.5004         11.2504
 -25752502.45643 -19921174.98245  24483576.7734   24483579.2114
         6.2504          7.2504
 -24503215.94541 -19539469.42144  24773339.2194   24773342.5124
         2.7504          4.0004
  -8323243.01346  -6395970.78246  22160151.0554   22160153.9844
        16.5004         15.0004
 -25728073.10341 -19751044.45544  25160856.5784   25160860.1994
         3.7504          4.5004
 -29843856.55245 -23032080.19745  23085234.4384   23085237.4024
        11.0004         10.5004
 -27861085.78247 -21676985.41846  20749125.0784   20749127.6454
        27.0004         25.7504
 03 10 28  3 10 30.0000000  0  9G 9G24G30G10G 7G 4G 6G17G 5
   1463375.87045   1914039.08845  23372249.2194   23372252.0554
        10.5004         10.0004
 -26675757.87747 -20682765.24346  20684232.9384   20684235.8674
        23.7504         24.0004
 -30427196.13045 -22564503.35045  22426795.8524   22426798.2664
        11.7504         10.7504
 -25803394.27641 -19960830.93144  24473890.1484   24473895.6914
         3.7504          4.0004
 -24372142.54341 -19437334.41843  24798279.0004   24798289.5274
         3.0004          3.7504
  -8190223.76746  -6292319.43946  22185463.6724   22185466.4024
        16.2504         15.0004
 -25754738.45241 -19771822.47643  25155780.3204   25155788.9144
         3.5004          3.2504
 -29880235.93545 -23060427.73545  23078311.0784   23078315.4494
        10.7504         10.5004
 -27839901.57847 -21660478.22446  20753155.9924   20753158.9924
        26.7504         25.5004
 03 10 28  3 11  0.0000000  0  9G 9G24G30G10G 7G 4G 6G17G 5
   1614759.34945   2032000.23445  23401056.1094   23401060.1764
        10.0004         10.0004
 -26623073.43547 -20641712.41846  20694258.3834   20694261.5594
        23.5004         24.0004
 -30460543.62646 -22590488.36545  22420450.0314   22420453.2774
        12.0004         11.2504
 -25854305.06842                  24464202.7734
         4.5004
 -24241072.95241                  24823223.2114
         3.2504
  -8056903.80446  -6188433.74946  22210833.7584   22210836.7584
        16.2504         15.2504
 -25781401.23941 -19792598.39244  25150710.7424   25150719.8634
         3.7504          4.7504
 -29916412.31745 -23088617.07245  23071426.7034   23071430.3954
        11.2504         10.7504
 -27818300.77647 -21643646.41046  20757266.5634   20757269.3054
        26.7504         25.7504
 03 10 28  3 11 30.0000000  0  9G 9G24G30G10G 7G 4G 6G17G 5
   1766286.93645   2150073.67245  23429891.6884   23429895.5554
        10.7504         10.5004
 -26569907.52647 -20600284.42746  20704375.9144   20704378.8204
        23.7504         24.2504
 -30493697.97146 -22616322.87745  22414140.5704   22414143.5234
        12.0004         11.5004
 -25905238.65943                  24454511.1334
         5.0004
 -24110014.32041                  24848160.9924
         3.2504
  -7923292.83246  -6084321.30746  22236258.7584   22236260.6334
        16.0004         14.7504
 -25808068.49342 -19813378.06344  25145633.9224   25145638.1644
         4.0004          4.7504
 -29952390.81845 -23116652.22745  23064580.0634   23064584.3634
        10.5004         11.0004
 -27796289.01847 -21626494.37246  20761455.3134   20761457.9964
        27.0004         25.7504
 03 10 28  3 12  0.0000000  0  9G 9G24G30G10G 7G 4G 6G17G 5
    342549.49845   1040667.86145  23158964.1884   23158967.4104
        10.7504         10.2504
 -28091670.33647 -21786073.61646  20414793.7274   20414796.9144
        23.7504         24.2504
 -32102069.17446 -23869599.06446  22108078.4614   22108080.5594
        12.7504         12.0004
 -27531604.76642                  24145023.0554
         4.2504
 -25554373.62841 -20835163.29354  24573309.1094   24573312.7194
         3.2504          4.0004
  -9364800.13846  -7207573.77046  21961949.4144   21961951.3244
        16.0004         14.7504
 -27410152.13442 -21061754.85244  24840769.3524   24840774.2504
         4.2504          4.7504
 -31563582.34445 -24372126.09545  22757981.6414   22757986.0234
        11.0004         10.7504
 -29349275.38047 -22836613.59347  20465931.6254   20465934.4494
        27.0004         26.0004
 03 10 28  3 12 30.0000000  0  9G 9G24G30G10G 7G 4G 6G17G 5
    494369.06845   1158968.79045  23187852.2114   23187856.5944
         9.0004          9.7504
 -28037531.04747 -21743887.13646  20425096.1024   20425099.1484
        23.7504         24.0004
 -32134817.52046 -23895117.20446  22101846.5474   22101849.1254
        13.2504         12.2504
 -27582561.58143                  24135326.6724
         5.7504
 -25423324.45942 -20733047.23344  24598247.8594   24598255.0944
         4.2504          4.0004
  -9230601.95646  -7103003.77346  21987486.1804   21987488.7464
        15.7504         14.2504
 -27436814.75642 -21082530.75945  24835693.0394   24835694.5044
         4.0004          5.0004
 -31599147.47845 -24399839.15045  22751212.8674   22751216.8054
        11.2504         11.0004
 -29326424.13947 -22818807.41447  20470280.2504   20470282.9104
        27.2504         26.0004
 03 10 28  3 13  0.0000000  0  9G 9G24G30G10G 7G 4G 6G17G 5
    646329.76245   1277379.71145  23216771.3054   23216775.5004
        10.0004         10.2504
 -27982906.19247 -21701322.30846  20435490.9454   20435494.0164
        23.7504         24.2504
 -32167359.31046 -23920474.40046  22095654.2034   22095657.2154
        13.0004         12.0004
 -27633525.49043 -20889055.66055  24125628.7504   24125632.0204
         6.0004          5.7504
 -25292280.31043 -20630934.90744  24623184.3834   24623187.6994
         5.0004          4.7504
  -9096114.27146  -6998208.17646  22013078.7894   22013080.9694
        15.7504         14.5004
 -27463474.86842 -21103304.79444  24830619.7664   24830621.8054
         4.0004          4.2504
 -31634503.43645 -24427389.21245  22744485.0554   22744488.8164
        11.5004         11.0004
 -29303150.49247 -22800672.09047  20474708.9774   20474711.6954
        27.0004         26.2504
 03 10 28  3 13 30.0000000  0  9G 9G24G30G10G 7G 4G 6G17G 5
    798428.66745   1395898.33045  23245714.4144   23245718.1884
        10.5004         10.2504
 -27927796.28147 -21658379.50346  20445978.2274   20445981.2154
        23.7504         24.5004
 -32199692.36246 -23945668.91846  22089501.4534   22089504.2424
        12.7504         12.2504
 -27684493.36342 -20928770.72144  24115929.0314   24115932.6644
         4.7504          4.7504
 -25161241.14043 -20528826.49345  24648119.9774   24648123.9734
         5.0004          5.7504
  -8961339.49546  -6893188.87746  22038725.4924   22038728.2464
        15.7504         14.2504
 -27490132.41642 -21124076.86044  24825547.7734   24825551.0904
         4.2504          4.7504
 -31669648.82645 -24454775.18845  22737796.4774   22737800.3914
        11.5004         10.5004
 -29279453.37947 -22782206.78647  20479218.4774   20479220.9844
        27.5004         26.2504
 03 10 28  3 14  0.0000000  0  9G 9G24G30G10G 7G 4G 6G17G 5
    950660.43245   1514520.44845  23274682.5474   23274685.5824
         9.5004         10.2504
 -27872204.92647 -21615061.54546  20456556.5944   20456559.6764
        23.5004         24.5004
 -32231816.65446 -23970700.77346  22083387.9614   22083390.5744
        12.7504         12.2504
 -27735464.36344 -20968488.20345  24106230.2504   24106232.8524
         7.0004          6.2504
 -25030209.61542 -20426724.04945  24673055.7344   24673061.8284
         4.5004          5.0004
  -8826282.90646  -6787949.97046  22064425.6334   22064428.0004
        15.5004         14.2504
 -27516789.63742 -21144848.55644  24820474.0864   24820480.1804
         4.5004          4.7504
 -31704584.00346 -24481997.35845  22731149.0004   22731152.4694
        12.2504         11.2504
 -29255333.47147 -22763412.03147  20483808.3674   20483810.9694
        27.2504         26.2504
 03 10 28  3 14 30.0000000  0  9G 9G24G30G10G 7G 4G 6G17G 5
   1103025.05845   1633246.12545  23303675.8984   23303679.3324
        10.0004         10.2504
 -27816129.82847 -21571366.64646  20467227.2974   20467230.4844
        23.5004         24.0004
 -32263726.91946 -23995565.83846  22077315.9774   22077317.7234
        13.2504         12.2504
 -27786432.00144 -21008203.27345  24096532.0004   24096537.1914
         7.0004          5.7504
 -24899182.65043 -20324625.18644  24697988.6484   24697986.3054
         5.0004          4.2504
  -8690943.96446  -6682491.05346  22090179.7974   22090182.7034
        15.5004         14.2504
 -27543443.47242 -21165617.73844  24815403.0394   24815407.5274
         4.7504          4.2504
 -31739304.38145 -24509052.15046  22724542.0314   22724546.1914
        11.7504         12.0004
 -29230785.99747 -22744284.11247  20488479.5004   20488482.2194
        27.5004         26.2504
 03 10 28  3 15  0.0000000  0  9G 9G24G30G10G 7G 4G 6G17G 5
   1255522.81245   1752075.56045  23332696.1724   23332699.1134
         9.7504          9.5004
 -27759568.57547 -21527292.92646  20477990.5864   20477993.5274
        23.5004         24.2504
 -32295417.34046 -24020259.60446  22071285.5164   22071287.7074
        14.0004         12.5004
 -27837390.04543 -21047910.82345  24086833.3834   24086839.5824
         5.7504          5.2504
 -24768157.05943 -20222527.28445  24722921.7274   24722926.0514
         5.7504          5.7504
  -8555321.87146  -6576811.51646  22115987.8364   22115990.1214
        15.7504         14.2504
 -27570090.28943 -21186381.46743  24810331.7894   24810336.0664
         5.0004          3.2504
 -31773804.94545 -24535935.67645  22717976.7034   22717980.8524
        11.7504         11.5004
 -29205806.42547 -22724819.48947  20493233.0164   20493235.5594
        27.7504         26.5004
 03 10 28  3 15 30.0000000  0  9G 9G24G30G10G 7G 4G 6G17G 5
   1408140.75345   1870998.59945  23361738.3054   23361741.6804
         9.5004         10.0004
 -27702532.11247 -21482848.91446  20488844.1414   20488847.1414
        23.5004         24.2504
 -32326895.69846 -24044788.14346  22065294.7584   22065296.5274
        14.0004         12.2504
 -27888345.30043 -21087616.07445  24077138.1414   24077142.6294
         6.7504          6.7504
 -24637142.84743 -20120438.30945  24747853.0004   24747857.2894
         6.2504          5.7504
  -8419429.15046  -6470921.08846  22141847.7424   22141849.0434
        15.2504         14.2504
 -27596739.98443 -21207147.40345  24805260.0704   24805261.3484
         5.0004          5.5004
 -31808094.11746 -24562654.46345  22711451.7114   22711454.8874
        12.2504         11.7504
 -29180403.17947 -22705024.73947  20498067.0554   20498069.7274
        27.5004         26.2504
 03 10 28  3 16  0.0000000  0  9G 9G24G30G10G 7G 4G 6G17G 5
   1560876.74945   1990013.62645  23390803.5004   23390806.6174
         9.5004          9.5004
 -27645020.22047 -21438034.43946  20499788.3524   20499791.4694
        23.5004         24.5004
 -32358158.45946 -24069148.69546  22059346.1484   22059348.1884
        13.5004         12.0004
 -27939293.41343 -21127315.75444  24067442.2584   24067446.1134
         5.0004          4.7504
 -24506139.26643 -20018357.58145  24772782.2664   24772790.3794
         6.0004          6.0004
  -8283267.67046  -6364821.22046  22167758.3054   22167761.1644
        15.0004         13.7504
 -27623391.24843 -21227914.64745  24800188.6094   24800190.5434
         5.5004          5.5004
 -31842169.25346 -24589206.49946  22704967.6094   22704971.3594
        12.2504         12.0004
 -29154573.99247 -22684898.08647  20502982.1484   20502984.6684
        27.5004         26.2504
 03 10 28  3 16 30.0000000  0  9G 9G24G30G10G 7G 4G 6G17G 5
   1713730.24445   2109120.24245  23419889.0784   23419893.2154
         9.2504          9.5004
 -27587031.26747 -21392848.22646  20510823.2664   20510826.2894
        23.7504         24.5004
 -32389200.81846 -24093337.49446  22053438.7344   22053440.9264
        13.2504         12.5004
 -27990228.72543 -21167005.56945  24057748.6884   24057751.6414
         6.5004          6.5004
 -24375143.60043 -19916283.15345  24797710.5314   24797710.1804
         5.5004          5.7504
  -8146837.17846  -6258511.76446  22193719.9924   22193722.5354
        14.7504         13.5004
 -27650041.29143 -21248680.90443  24795116.2814   24795122.3984
         5.0004          3.0004
 -31876026.15746 -24615588.44745  22698524.4304   22698527.9454
        12.2504         11.5004
 -29128314.27047 -22664435.94647  20507979.1564   20507981.7114
        27.2504         26.0004
 03 10 28  3 17  0.0000000  0  9G 9G24G30G10G 7G 4G 6G17G 5
   1866701.15345   2228318.32145  23448998.7894   23449002.0704
         8.7504          8.7504
 -27528563.39447 -21347288.83046  20521949.4384   20521952.3674
        23.7504         24.5004
 -32420017.63346 -24117350.51046  22047574.4144   22047577.0984
        13.5004         13.0004
 -28041145.20343 -21206680.74145  24048060.5554   24048066.6254
         6.7504          6.2504
 -24244153.30543 -19814212.63943  24822636.7894   24822655.4494
         5.5004          3.7504
  -8010137.65546  -6151992.64746  22219733.1804   22219735.8164
        14.7504         13.7504
 -27676687.30043 -21269444.03043  24790046.7664   24790051.4414
         5.0004          3.5004
 -31909660.60946 -24641797.06346  22692123.9924   22692127.2624
        12.2504         12.5004
 -29101619.86147 -22643635.09347  20513059.0314   20513061.5274
        27.2504         26.2504
 03 10 28  3 17 30.0000000  0  9G 9G24G30G10G 7G 4G 6G17G 5
   2019785.24345   2347604.61945  23478129.2344   23478133.0664
         8.7504          9.0004
 -27469618.35347 -21301357.61646  20533166.2664   20533169.3954
        23.5004         24.5004
 -32450607.59446 -24141186.77946  22041753.5394   22041756.1524
        14.5004         13.0004
 -28092041.13343 -21246339.80945  24038375.4304   24038378.8164
         5.7504          5.5004
 -24113169.57743                  24847561.4224
         5.7504
  -7873172.55646  -6045266.61146  22245796.7114   22245799.3594
        14.7504         13.5004
 -27703330.25343 -21290204.59344  24784976.4694   24784977.8164
         5.0004          4.5004
 -31943071.60046 -24667831.55646  22685765.6174   22685769.3794
        12.5004         12.2504
 -29074490.47647 -22622495.29647  20518221.5084   20518224.0394
        27.0004         26.0004
 03 10 28  3 18  0.0000000  0  9G 9G24G30G10G 7G 4G 6G17G 5
   2172977.22445   2466974.97145  23507281.4844   23507285.2344
         8.7504          9.5004
 -27410199.56847 -21255057.25146  20544473.4224   20544476.4574
        23.7504         24.5004
 -32480970.61946 -24164846.21746  22035975.5234   22035977.9494
        14.5004         12.7504
 -28142915.03644 -21285981.79945  24028694.8984   24028697.5944
         7.5004          5.7504
 -23982194.69143                  24872486.0634
         5.7504
  -7735946.94546  -5938337.56646  22271909.4694   22271911.2854
        14.7504         13.5004
 -27729972.20342 -21310964.54244  24779906.4384   24779907.1414
         4.7504          4.2504
 -31976260.16146 -24693692.75045  22679450.7034   22679455.3674
        12.2504         11.7504
 -29046926.84247 -22601017.12347  20523466.5084   20523469.1684
        27.0004         26.0004
 03 10 28  3 18 30.0000000  0  9G 9G24G30G10G 7G 4G 6G17G 5
   2326277.49245   2586429.71945  23536454.0234   23536457.5634
         9.2504          9.5004
 -27350304.76147 -21208385.96246  20555870.7894   20555873.7424
        23.5004         24.2504
 -32511100.71346 -24188324.16646  22030241.9774   22030244.3794
        14.0004         12.7504
 -28193760.43043 -21325601.53445  24019018.8204   24019024.7384
         5.7504          6.7504
 -23851225.17543                  24897408.1804
         5.5004
  -7598459.90846  -5831204.82246  22298072.7194   22298075.3914
        14.5004         13.7504
 -27756609.55943 -21331720.87744  24774838.1484   24774847.9024
         5.0004          4.5004
 -32009220.87446 -24719376.36546  22673178.2194   22673182.8014
        12.0004         12.0004
 -29018924.24247 -22579196.90247  20528795.4924   20528798.1414
        27.2504         26.2504
 03 10 28  3 19  0.0000000  0  9G 9G24G30G10G 7G 4G 6G17G 5
   2479681.94545   2705965.62245  23565646.9064   23565650.7974
        10.0004          9.0004
 -27289935.49947 -21161344.96246  20567358.8364   20567361.9064
        23.5004         24.5004
 -32540996.93846 -24211619.86746  22024552.8674   22024554.8364
        14.0004         12.7504
 -28244575.05744 -21365197.18845  24009349.4534   24009357.4734
         7.7504          5.5004
 -23720262.40442                  24922328.6484
         4.5004
  -7460715.14346  -5723871.22846  22324284.6724   22324287.6254
        14.7504         13.7504
 -27783243.51142 -21352474.63845  24769769.8834   24769772.8714
         4.7504          5.2504
 -32041953.85246 -24744882.54246  22666948.8834   22666952.5164
        12.5004         12.5004
 -28990482.22247 -22557034.27147  20534207.8364   20534210.5084
        27.2504         26.2504
 03 10 28  3 19 30.0000000  0  9G 9G24G30G10G 7G 4G 6G17G 5
   2633189.36345   2825581.80245  23594857.8134   23594860.4144
         9.2504          9.2504
 -27229091.30447 -21113933.89046  20578936.9454   20578939.9574
        23.7504         24.5004
 -32570655.08046 -24234730.06446  22018909.1094   22018910.5044
        14.5004         13.2504
 -28295354.07541 -21404765.48244  23999685.2814   23999687.9774
         3.5004          4.5004
 -23589304.56842                  24947250.5704
         4.0004
  -7322713.56746  -5616337.54446  22350545.8834   22350548.6954
        14.7504         13.5004
 -27809872.13642 -21373224.13143  24764702.4844   24764707.6174
         4.5004          3.5004
 -32074455.33446 -24770208.32846  22660764.9454   22660768.1914
        13.0004         12.5004
 -28961597.75347 -22534526.88147  20539704.1254   20539706.7734
        27.5004         26.5004
 03 10 28  3 20  0.0000000  0  9G 9G24G30G10G 7G 4G 6G17G 5
   2786792.55045   2945272.55745  23624085.8204   23624089.5594
         8.2504          9.0004
 -27167777.43147 -21066156.83846  20590604.5474   20590607.6884
        23.5004         24.5004
 -32600076.90546 -24257656.11746  22013310.2274   22013311.9144
        14.5004         13.7504
 -28346098.68943                  23990029.2974
         6.0004
 -23458355.96741                  24972169.4384
         3.7504
  -7184461.92146  -5508608.99346  22376854.2664   22376855.7424
        14.7504         14.0004
 -27836499.27442 -21393972.45045  24759635.1484   24759640.7384
         4.2504          5.2504
 -32106728.01846 -24795355.83646  22654623.7034   22654627.2774
        13.0004         12.7504
 -28932274.02447 -22511677.20547  20545284.3984   20545286.8714
        27.5004         26.5004
 03 10 28  3 20 30.0000000  0  9G 9G24G30G10G 7G 4G 6G17G 5
   2940494.81045   3065040.52645  23653334.4924   23653338.3244
         8.5004          8.7504
 -27105988.83547 -21018009.86346  20602362.3594   20602365.3594
        23.5004         24.5004
 -32629253.62546 -24280391.17746  22007757.3594   22007759.8914
        14.2504         13.7504
 -28396798.79341                  23980380.2274
         3.2504
 -23327410.35142                  24997086.8914
         4.0004
  -7045956.50746  -5400682.69946  22403210.5634   22403213.5164
        14.7504         13.7504
 -27863118.38142 -21414714.54944  24754570.1174   24754572.0984
         4.0004          4.2504
 -32138764.14446 -24820319.01646  22648526.6094   22648530.1254
        12.7504         12.0004
 -28902502.88447 -22488478.90347  20550949.5554   20550952.0984
        27.7504         26.5004
 03 10 28  3 21  0.0000000  0  9G 9G24G30G10G 7G 4G 6G17G 5
   3094287.60445   3184879.07945  23682600.8984   23682604.1914
         8.2504          8.5004
 -27043731.79447 -20969497.86846  20614209.6414   20614212.5824
        23.5004         24.2504
 -32658188.58046 -24302937.84746  22002251.5784   22002253.6174
        14.5004         13.5004
 -28447456.91044 -20875775.84055  23970742.8054   23970749.5554
         7.5004          8.2504
 -23196473.55942                  25022004.0554
         4.0004
  -6907205.51846  -5292565.04946  22429614.1564   22429616.6524
        14.5004         13.2504
 -27889735.02342 -21435454.74344  24749504.0944   24749511.5164
         4.0004          4.0004
 -32170567.38546 -24845100.70946  22642475.1954   22642479.8134
        12.7504         12.5004
 -28872288.42647 -22464935.15447  20556699.1484   20556701.7504
        27.5004         26.5004
 03 10 28  3 21 30.0000000  0  9G 9G24G30G10G 7G 4G 6G17G 5
   3248167.55645   3304785.54045  23711883.6644   23711887.1804
         8.0004          8.7504
 -26981007.90347 -20920622.09146  20626145.6174   20626148.4064
        23.5004         24.5004
 -32686879.53146 -24325294.38046  21996791.8444   21996793.9414
        14.7504         13.2504
 -28498070.12242 -20915214.63945  23961109.2584   23961116.7034
         4.7504          6.7504
 -23065545.61141                  25046918.1724
         3.2504
  -6768211.67146  -5184258.16146  22456063.9614   22456066.3984
        14.5004         13.5004
 -27916349.12642 -21456192.90145  24744441.0314   24744443.5634
         4.5004          5.5004
 -32202136.68046 -24869700.11446  22636466.8914   22636470.5824
        12.7504         12.7504
 -28841629.72247 -22441045.24047  20562533.4064   20562536.0784
        27.2504         26.5004
