     2.10           OBSERVATION DATA    G (GPS)             RINEX VERSION / TYPE
teqc  2007Feb5      UNAVCO Archive Ops  20070321 07:52:09UTCPGM / RUN BY / DATE
Solaris 5.10|UltraSparc IIIi|cc -xarch=v9 SC5.8|=+-|*Sparc  COMMENT
BIT 2 OF LLI FLAGS DATA COLLECTED UNDER A/S CONDITION       COMMENT
GARL                                                        MARKER NAME
49721S001                                                   MARKER NUMBER
Davis, Jim          Harvard-Smithsonian CfA                 OBSERVER / AGENCY
3609A14796          TRIMBLE 4000SSI     7.19B               REC # / TYPE / VERS
0220062100          TRM29659.00     SCIS                    ANT # / TYPE
 -2384509.0615 -4239524.8940  4114370.6286                  APPROX POSITION XYZ
        0.0884        0.0000        0.0000                  ANTENNA: DELTA H/E/N
     1     1                                                WAVELENGTH FACT L1/2
     7    L1    L2    C1    P2    P1    S1    S2            # / TYPES OF OBSERV
    30.0000                                                 INTERVAL
RINEX file created by UNAVCO GPS Archive.                   COMMENT
For more information contact archive@unavco.org             COMMENT
Monument ID: 11764                                          COMMENT
UNAVCO 4-char name:   GARL                                  COMMENT
4-char name from Log or data file: GARL                     COMMENT
Monument location: 40.416527 -119.355457 1640.2266          COMMENT
Visit ID: 59421                                             COMMENT
                                                            COMMENT
GARL-BRGN-NV1996                                            COMMENT
                                                            COMMENT
End of DB comments                                          COMMENT
 SNR is mapped to RINEX snr flag value [1-9]                COMMENT
  L1: 3 -> 1; 8 -> 5; 40 -> 9                               COMMENT
  L2: 1 -> 1; 5 -> 5; 60 -> 9                               COMMENT
  2003    11     1     0     0   30.0000000     GPS         TIME OF FIRST OBS
                                                            END OF HEADER
 03 11  1  0  0 30.0000000  0  8G28G 9G 4G11G 8G 7G26G29
   1392577.58356   1071253.74256  21845309.8834   21845313.9614
        17.7504         15.5004
  -9449799.54456  -7247967.53756  22002411.2194   22002417.6644
        13.7504         13.5004
  -7679573.25355  -5714032.44455  22764983.2034   22764991.2234
         9.2504          9.7504
     77174.15152                  25038738.7664
         4.0004
  11640830.01455  11161092.09255  23858739.7344   23858748.1174
         8.2504          6.5004
  -9950876.96657  -7601632.73056  20623674.4774   20623679.5394
        21.5004         23.7504
   3814644.69555   3603368.30255  23421212.5164   23421221.4964
         8.5004          7.7504
   5250477.77153  11434028.61855  23856343.5554   23856352.6174
         5.7504          6.0004
 03 11  1  0  1  0.0000000  0  8G28G 9G 4G11G 8G 7G26G29
   1461418.23646   1124895.79746  21858409.8594   21858414.3834
        17.5004         16.0004
  -9506004.75946  -7291763.70146  21991715.8834   21991721.9184
        14.0004         13.2504
  -7758194.52545  -5775295.56245  22750022.0394   22750028.1564
         9.5004          9.2504
    178064.04342                  25057937.7274
         4.0004
  11771773.70744  11263125.94045  23883657.7664   23883667.6954
         7.0004          7.0004
  -9906642.70247  -7567164.46546  20632091.8204   20632096.7664
        21.5004         24.0004
   3911150.70845   3678567.66045  23439577.5474   23439586.4694
         8.0004          8.5004
   5354756.18643  11515284.42645  23876187.1564   23876193.6954
         6.0004          6.2504
 03 11  1  0  1 30.0000000  0  8G28G 9G 4G11G 8G 7G26G29
   1530403.77346   1178650.72246  21871537.0864   21871541.1994
        17.2504         15.5004
  -9561865.93446  -7335291.77746  21981085.3834   21981090.8204
        13.5004         13.5004
  -7836619.67445  -5836405.91445  22735097.7504   22735103.8914
         9.5004          9.0004
    279200.18642                  25077183.7664
         4.0004
  11902809.29644  11365231.33745  23908593.1644   23908600.3284
         7.2504          6.7504
  -9862126.14247  -7532476.22646  20640563.4064   20640568.3984
        21.5004         23.7504
   4007864.55744   3753928.96545  23457980.1564   23457988.3164
         7.7504          7.7504
   5459115.55343  11596603.37245  23896045.0164   23896054.7814
         5.5004          6.2504
 03 11  1  0  2  0.0000000  0  8G28G 9G 4G11G 8G 7G26G29
   1599536.18146   1232520.10446  21884693.2194   21884697.3794
        17.5004         15.7504
  -9617378.60446  -7378548.29446  21970521.8444   21970527.7974
        13.5004         13.2504
  -7914843.77645  -5897359.59745  22720212.1564   22720220.1644
        10.5004          9.7504
    380582.09441                  25096475.3204
         3.7504
  12033936.46043  11467408.18045  23933545.9224   23933556.0044
         6.7504          7.0004
  -9817326.70047  -7497567.55846  20649088.0704   20649092.9574
        21.5004         24.0004
   4104785.32445   3829451.53945  23476424.6334   23476433.4024
         8.2504          8.7504
   5563555.50743  11677985.02044  23915921.9144   23915925.6524
         5.7504          4.5004
 03 11  1  0  2 30.0000000  0  8G28G 9G 4G11G 8G 7G26G29
   1668818.56246   1286506.34546  21897876.8054   21897881.0944
        17.5004         15.5004
  -9672537.10346  -7421528.87346  21960025.4844   21960032.0004
        14.2504         14.2504
  -7992860.22745  -5958151.52345  22705366.4774   22705373.8164
        10.7504          9.7504
    482211.26141                  25115814.4844
         3.7504
  12165156.23344  11569657.10145  23958516.4064   23958524.7074
         7.0004          7.2504
  -9772242.77647  -7462437.22146  20657667.5474   20657672.3874
        21.5004         24.0004
   4201912.96245   3905135.30545  23494907.2504   23494916.2194
         8.2504          8.7504
   5668076.06143  11759429.40345  23935810.5864   23935821.5824
         5.7504          5.7504
 03 11  1  0  3  0.0000000  0  8G28G 9G 4G11G 8G 7G26G29
   1738245.53446   1340605.25346  21911088.3524   21911092.4654
        17.2504         15.5004
  -9727344.34746  -7464235.73346  21949596.0004   21949602.1884
        14.5004         14.2504
  -8070671.49545  -6018783.54945  22690558.9384   22690565.6764
        10.7504         10.0004
    584078.63841                  25135196.5864
         3.2504
  12296460.98142  11671972.30145  23983502.5634   23983514.9534
         4.2504          6.2504
  -9726881.09947  -7427090.45346  20666299.3364   20666304.2934
        21.5004         24.0004
   4299239.16245   3980973.74245  23513429.3674   23513436.9534
         8.7504          8.2504
   5772668.60343  11840929.98145  23955716.0164   23955725.1604
         5.7504          5.7504
 03 11  1  0  3 30.0000000  0  8G28G 9G 4G11G 8G 7G26G29
   1807823.10346   1394821.50646  21924328.4774   21924333.7034
        17.2504         15.5004
  -9781792.07246  -7506662.41746  21939234.7664   21939241.2344
        14.0004         13.2504
  -8148268.33045  -6079248.47245  22675793.0004   22675800.4574
        11.2504         10.5004
    686188.32941                  25154627.9064
         3.2504
  12427854.87442  11774356.87045  24008507.5944   24008519.4574
         4.0004          5.7504
  -9681237.26647  -7391523.83246  20674985.3914   20674990.2424
        21.5004         23.7504
   4396766.72245   4056969.16245  23531987.2194   23531993.6054
         8.2504          7.5004
   5877335.89443  11922488.79945  23975634.5864   23975645.8754
         6.2504          6.2504
 03 11  1  0  4  0.0000000  0  8G28G 9G 4G11G 8G 7G26G29
   1877549.52546   1449153.75146  21937596.6644   21937600.6604
        17.0004         15.5004
  -9835879.37546  -7548808.30146  21928941.9224   21928948.0164
        14.2504         14.2504
  -8225649.15045  -6139545.04045  22661067.6804   22661074.9614
        11.0004         10.5004
    788536.52341                  25174105.0554
         3.2504
  12559333.83243  11876807.75345  24033526.5004   24033536.1724
         6.5004          7.5004
  -9635314.14147  -7355739.57346  20683724.2424   20683729.2344
        21.7504         23.7504
   4494490.93445   4133117.78645  23550583.6644   23550590.7934
         8.0004          7.5004
   5982073.30143  12004102.22645  23995566.2894   23995573.9344
         5.7504          6.2504
 03 11  1  0  4 30.0000000  0  8G28G 9G 4G11G 8G 7G26G29
   1947427.14246   1503603.80446  21950894.3134   21950898.8134
        16.7504         15.0004
  -9889601.35246  -7590669.46446  21918719.4924   21918725.2704
        15.2504         13.7504
  -8302808.30145  -6199668.91045  22646384.1414   22646390.2704
        10.2504         10.5004
     58155.38951                  25193628.0634
         3.2504
  12690898.27143  11979325.22645  24058561.7664   24058573.2544
         6.5004          6.7504
  -9589110.83347  -7319736.99746  20692516.3834   20692521.1764
        21.5004         24.0004
   4592411.22144   4209419.19445  23569217.6024   23569226.8054
         7.7504          8.2504
   6086880.21843  12085769.81445  24015510.0004   24015518.6994
         5.0004          6.0004
 03 11  1  0  5  0.0000000  0  8G28G 9G 4G11G 8G 7G26G29
   2017453.36546   1558169.65046  21964219.7344   21964224.0704
        16.7504         15.2504
  -9942958.31646  -7632246.24546  21908565.8204   21908571.4694
        15.7504         14.7504
  -8379745.63845  -6259619.92145  22631744.3594   22631752.9184
        11.2504         10.7504
    160974.81341                  25213193.1564
         3.0004
  12822543.41243  12081905.68144  24083614.6334   24083631.2664
         5.7504          4.7504
  -9542631.52247  -7283519.35346  20701361.1174   20701366.0864
        21.5004         23.7504
   4690521.81145   4285868.90345  23587886.8834   23587896.2504
         8.0004          8.5004
   6191751.12843  12167487.25245  24035463.9454   24035468.6684
         5.0004          6.0004
 03 11  1  0  5 30.0000000  0  8G28G 9G 4G11G 8G 7G26G29
   2087627.25046   1612850.55646  21977573.5474   21977577.8594
        16.7504         15.0004
  -9995948.93046  -7673537.57046  21898481.5864   21898487.3754
        15.0004         14.2504
  -8456458.69045  -6319396.14445  22617146.0554   22617151.5164
        11.5004         10.7504
     17187.38051                  25232802.8524
         3.0004
  12954266.04643  12184546.52545  24108679.4304   24108689.8874
         5.0004          5.7504
  -9495878.60047  -7247088.50846  20710258.0084   20710263.0944
        21.5004         23.7504
   4788818.53045   4362463.65945  23606592.2974   23606599.9654
         8.0004          8.2504
   6296681.46443  12249251.05945  24055433.9694   24055443.6884
         5.2504          6.2504
 03 11  1  0  6  0.0000000  0  8G28G 9G 4G11G 8G 7G26G29
   2157954.30946   1667650.81246  21990956.6024   21990960.7504
        16.5004         15.0004
 -10048565.11546  -7714537.15046  21888469.4694   21888476.0904
        15.0004         14.2504
  -8532939.04345  -6378991.12945  22602592.3984   22602599.9964
        11.7504         11.7504
     58551.31651                  25252457.3284
         2.7504
  13086069.53143  12287250.28745  24133762.0164   24133773.1414
         6.5004          7.5004
  -9448848.16147  -7210441.41846  20719207.4844   20719212.3834
        21.5004         23.7504
   4887303.81444   4439205.33145  23625332.8984   23625341.0474
         7.7504          8.2504
   6401673.62842  12331062.96845  24075410.7194   24075419.5124
         4.5004          5.2504
 03 11  1  0  6 30.0000000  0  8G28G 9G 4G11G 8G 7G26G29
   2228434.20946   1722570.17646  22004368.1024   22004372.9304
        16.2504         14.5004
 -10100804.63046  -7755243.18246  21878528.2114   21878534.5744
        15.5004         15.2504
  -8609183.54945  -6438402.28645  22588083.0164   22588089.6254
        11.5004         11.2504
     58681.97951                  25272153.8284
         2.7504
  13217951.58843  12390015.30345  24158857.7424   24158865.1644
         6.7504          7.0004
  -9401541.64647  -7173579.20446  20728209.5554   20728214.4534
        21.5004         23.5004
   4985974.32444   4516091.33045  23644110.3444   23644119.1484
         7.7504          8.7504
   6506724.73942  12412920.81845  24095402.1094   24095413.5744
         4.7504          6.0004
 03 11  1  0  7  0.0000000  0  8G28G 9G 4G11G 8G 7G26G29
   2299066.45746   1777608.24646  22017809.1804   22017814.0784
        16.2504         14.7504
 -10152665.65846  -7795654.29346  21868659.4844   21868666.0354
        15.7504         15.2504
  -8685189.76945  -6497627.77645  22573619.2114   22573626.1294
        11.7504         10.5004
     38060.20651                  25291894.7584
         2.5004
  13349909.42143  12492839.42045  24183968.9144   24183979.0314
         5.0004          5.5004
  -9353961.22147  -7136503.55446  20737263.9304   20737268.8284
        21.5004         23.7504
   5084826.45344   4593118.86445  23662920.3134   23662927.6414
         7.2504          8.5004
   6611831.01643  12494821.61845  24115404.1884   24115413.6374
         5.7504          6.0004
 03 11  1  0  7 30.0000000  0  8G28G 9G 4G11G 8G 7G26G29
   2369845.27546   1832760.53546  22031278.2114   22031283.1804
        16.2504         15.0004
 -10204151.89046  -7835773.32746  21858861.9144   21858867.3874
        15.0004         14.2504
  -8760960.22945  -6556669.54745  22559200.6484   22559207.5084
        11.7504         10.7504
                                  25311678.3284
         2.2504
  13481935.24941  12595716.54744  24209092.4774   24209097.1174
         3.2504          4.0004
  -9306113.92947  -7099219.94746  20746368.8204   20746373.9304
        21.5004         23.5004
   5183851.33945   4670281.00045  23681765.2584   23681774.0394
         8.0004          8.0004
   6716983.67142  12576758.65145  24135411.9844   24135424.6804
         4.7504          5.7504
 03 11  1  0  8  0.0000000  0  8G28G 9G 4G11G 8G 7G26G29
   2440779.72946   1888034.09146  22044776.2344   22044780.5944
        16.0004         14.7504
 -10255251.64346  -7875591.24846  21849137.7664   21849143.4844
        15.0004         14.2504
  -8836482.82645  -6615518.17545  22544829.2974   22544835.5314
        11.7504         10.2504
     38223.86551                  25331504.0474
         2.2504
  13614035.81542  12698651.57844  24234230.2344   24234243.5514
         4.2504          4.5004
  -9257992.38247  -7061722.64646  20755525.8204   20755530.9654
        21.5004         23.5004
   5283055.07644   4747582.51645  23700642.0314   23700650.8714
         7.5004          8.5004
   6822188.55343  12658736.34945  24155430.9454   24155441.4144
         5.0004          6.2504
 03 11  1  0  8 30.0000000  0  8G28G 9G 4G11G 8G 7G26G29
   2511864.56246   1943424.83646  22058303.1024   22058307.8244
        16.0004         14.7504
 -10305967.41646  -7915109.96946  21839487.2664   21839492.8554
        15.7504         14.7504
  -8911759.63546  -6674175.29645  22530504.3984   22530509.6954
        12.0004         10.7504
    142630.43341                  25351369.1254
         2.2504
  13746203.94443  12801639.56345  24259381.2034   24259392.0704
         5.2504          6.0004
  -9209603.22347  -7024016.81446  20764734.1254   20764739.0594
        21.5004         23.5004
   5382429.38244   4825016.92745  23719553.2814   23719563.1294
         7.5004          7.5004
   6927437.75543  12740748.55745  24175462.4224   24175474.5664
         5.5004          6.0004
 03 11  1  0  9  0.0000000  0  8G28G 9G 4G11G 8G 7G26G29
   2583104.06346   1998936.07646  22071859.6174   22071864.2704
        16.0004         14.5004
 -10356292.97046  -7954324.61446  21829910.5394   21829916.1884
        15.7504         15.5004
  -8986783.30045  -6732635.16945  22516227.1884   22516233.7384
        11.2504         10.5004
                                  25371279.6644
         2.0004
  13878441.62443  12904681.62945  24284545.3284   24284555.6334
         5.2504          6.5004
  -9160943.42947  -6986100.10146  20773993.8914   20773998.8714
        21.5004         23.5004
   5481975.15644   4902584.89645  23738496.9064   23738506.1334
         7.7504          7.7504
   7032732.25442  12822796.02945  24195498.5084   24195503.8164
         4.5004          5.0004
 03 11  1  0  9 30.0000000  0  8G28G 9G 4G11G 8G 7G26G29
   2654499.25546   2054568.64346  22085445.7664   22085450.3594
        15.7504         14.2504
 -10406224.85646  -7993232.53246  21820408.5314   21820414.7894
        15.2504         15.5004
  -9061549.55446  -6790894.46445  22501999.8204   22502007.2074
        12.2504         11.5004
     17485.89651                  25391231.3054
         2.2504
  14010747.86143  13007777.08945  24309723.1174   24309738.0274
         5.0004          6.5004
  -9112013.75947  -6947973.09746  20783304.8054   20783309.6804
        21.2504         23.2504
   5581690.47444   4980285.04445  23757471.7034   23757479.8874
         7.5004          7.0004
   7138069.31142  12904876.70145  24215543.2114   24215552.6954
         4.2504          5.7504
 03 11  1  0 10  0.0000000  0  8G28G 9G 4G11G 8G 7G26G29
   2726048.46946   2110321.24046  22099061.0864   22099065.9494
        16.0004         14.7504
 -10455762.09846  -8031832.86346  21810982.0394   21810987.2304
        15.0004         14.7504
  -9136056.75746  -6848951.90945  22487821.8594   22487828.1994
        12.5004         11.0004
                                  25411222.9774
         2.2504
  14143118.97543  13110923.15545  24334911.7194   24334922.7624
         5.5004          6.2504
  -9062816.95747  -6909637.93746  20792666.5554   20792671.5474
        21.2504         23.5004
   5681570.78944   5058113.76645  23776477.9844   23776486.6724
         7.2504          7.2504
   7243445.55442  12986987.90545  24235595.2194   24235604.9734
         4.0004          5.2504
 03 11  1  0 10 30.0000000  0  8G28G 9G 4G11G 8G 7G26G29
   2797745.88546   2166189.31646  22112705.1484   22112709.8484
        15.7504         14.2504
 -10504908.41246  -8070128.64046  21801629.3914   21801634.6994
        15.2504         14.7504
  -9210307.91546  -6906809.80745  22473692.3984   22473698.8554
        13.0004         11.2504
     17554.61651                  25431254.0704
         2.2504
  14275546.87643  13214113.43245  24360112.8834   24360122.8954
         6.0004          6.0004
  -9013360.63747  -6871100.55846  20802077.7194   20802082.8164
        21.2504         23.2504
   5781606.85244   5136063.78545  23795514.4534   23795523.0944
         7.5004          7.2504
   7348851.60642  13069122.26545  24255656.1254   24255668.5744
         4.7504          5.0004
 03 11  1  0 11  0.0000000  0  7G28G 9G 4G 8G 7G26G29
   2869598.98546   2222178.69646  22126378.0004   22126382.5354
        15.5004         14.2504
 -10553653.83846  -8108112.02846  21792353.7194   21792358.9344
        15.7504         15.0004
  -9284292.16646  -6964459.76145  22459613.2974   22459619.6024
        12.5004         11.2504
  14408036.87543  13317352.24344  24385325.2664   24385327.1764
         6.7504          4.0004
  -8963638.56147  -6832356.09246  20811539.5084   20811544.4184
        21.2504         23.2504
   5881803.50044   5214138.97345  23814581.3674   23814589.6334
         7.5004          7.7504
     38662.46651                  24275717.8914
         3.7504
 03 11  1  0 11 30.0000000  0  7G28G 9G 4G 8G 7G26G29
   2941609.22546   2278290.54046  22140081.3754   22140086.4964
        15.7504         14.5004
 -10601994.68446  -8145780.14946  21783154.5004   21783160.1134
        15.7504         15.5004
  -9358005.21346  -7021898.38145  22445586.3674   22445592.5664
        12.5004         10.5004
  14540588.20343  13420638.68744  24410548.5634   24410554.9024
         6.5004          4.2504
  -8913650.90247  -6793404.68246  20821052.1254   20821057.2584
        21.2504         23.2504
   5982158.78544   5292337.81145  23833678.4614   23833688.7774
         7.2504          8.0004
    144134.96742                  24295789.0634
         4.5004
 03 11  1  0 12  0.0000000  0  7G28G 9G 4G 8G 7G26G29
   3013773.69246   2334522.56346  22153814.3984   22153819.2274
        15.5004         14.2504
 -10649931.76246  -8183133.68546  21774031.9144   21774037.9844
        15.7504         16.0004
  -9431447.06346  -7079125.65545  22431610.4924   22431617.3014
        12.2504         11.5004
  14673195.60343  13523969.07243  24435783.5004   24435796.0434
         5.7504          3.5004
  -8863402.20847  -6754249.86646  20830614.1414   20830619.2734
        21.2504         23.2504
   6082666.43444   5370655.30745  23852803.5474   23852813.9924
         7.2504          7.5004
    249634.01442                  24315867.3134
         4.5004
 03 11  1  0 12 30.0000000  0  8G28G 9G 4G 8G 7G26G 5G29
   3086091.93146   2390874.39946  22167575.7114   22167580.4224
        15.7504         14.0004
 -10697462.83146  -8220170.78146  21764987.3134   21764993.0314
        15.7504         15.5004
  -9504614.53346  -7136139.18045  22417686.8754   22417694.6254
        12.2504         11.5004
  14805857.00742  13627341.18844  24461029.0944   24461039.0474
         4.7504          4.5004
  -8812894.04947  -6714892.87146  20840225.5704   20840230.6334
        21.2504         23.2504
   6183323.38443   5449089.19845  23871958.6644   23871966.6844
         6.7504          7.7504
    -25122.77251                  25320412.8444
         3.7504
    355156.08942                  24335948.2974
         4.7504
 03 11  1  0 13  0.0000000  0  8G28G 9G 4G 8G 7G26G 5G29
   3158560.45746   2447343.35146  22181365.2344   22181370.0274
        15.2504         13.7504
 -10744589.29346  -8256892.64946  21756019.3134   21756025.1024
        15.7504         15.5004
  -9577508.45346  -7192939.51645  22403816.0944   22403822.2934
        13.0004         11.5004
  14938566.42742  13730750.82843  24486282.0474   24486295.2464
         4.5004          3.7504
  -8762131.52747  -6675337.67146  20849885.3674   20849890.2894
        21.2504         23.5004
   6284122.73143   5527634.00645  23891139.3674   23891147.1764
         6.5004          7.5004
   -100547.86641                  25306061.2974
         3.2504
    460694.90441     10962.86054  24356027.4614   24356036.3834
         3.7504          4.0004
 03 11  1  0 13 30.0000000  0  8G28G 9G 4G 8G 7G26G 5G29
   3231183.50046   2503932.71746  22195185.6804   22195189.9104
        15.7504         14.2504
 -10791304.54146  -8293294.10346  21747129.6884   21747135.8754
        16.0004         15.2504
  -9650121.30746  -7249520.81246  22389998.1174   22390004.3404
        13.0004         12.2504
  15071326.00642  13834199.50443  24511545.7664   24511559.3754
         4.0004          3.2504
  -8711112.07247  -6635582.26746  20859593.9534   20859599.0394
        21.2504         23.0004
   6385065.68844   5606290.71645  23910350.9224   23910357.8164
         7.2504          7.2504
                                  25291694.8914
         2.7504
    566250.93643     93214.06145  24376119.1414   24376125.4924
         5.5004          5.2504
 03 11  1  0 14  0.0000000  0  8G28G 9G 4G 8G 7G26G 5G29
   3303952.44746   2560635.76446  22209033.2504   22209037.7274
        15.7504         14.0004
 -10837614.78946  -8329379.91246  21738317.1334   21738322.2424
        16.5004         16.0004
  -9722458.89646  -7305887.66046  22376232.1174   22376237.0514
        13.0004         12.0004
  15204124.96842  13937678.94444  24536817.3984   24536831.7704
         4.0004          4.2504
  -8659845.53447  -6595634.32246  20869349.7034   20869354.7074
        21.2504         23.0004
   6486140.61043   5685050.22645  23929581.8834   23929589.9024
         6.2504          6.5004
                                  25277311.1644
         2.5004
    671813.56742    175470.53844  24396204.6724   24396215.5744
         4.2504          4.5004
 03 11  1  0 14 30.0000000  0  8G28G 9G 4G 8G 7G26G 5G29
   3376871.74446   2617455.96446  22222908.9384   22222913.3324
        15.2504         13.7504
 -10883513.34946  -8365144.96946  21729583.2194   21729588.5864
        16.5004         16.0004
  -9794513.26646  -7362033.84145  22362520.7584   22362527.4384
        13.0004         11.7504
  15336965.75342  14041191.04345  24562095.6954   24562107.4884
         4.2504          5.0004
  -8608328.89447  -6555491.49746  20879152.9454   20879158.0664
        21.2504         22.7504
   6587348.90544   5763913.73145  23948843.5164   23948852.5434
         7.5004          7.0004
    -27741.09651                  25262918.6724
         3.0004
    777383.88642    257732.97344  24416295.7274   24416303.2194
         4.7504          4.7504
 03 11  1  0 15  0.0000000  0  8G28G 9G 4G 8G 7G26G 5G29
   3449942.55446   2674394.22546  22236814.0634   22236819.4184
        15.2504         13.7504
 -10928996.97046  -8400586.70246  21720927.6724   21720933.2034
        16.2504         16.0004
  -9866280.29146  -7417956.07746  22348864.1024   22348870.4184
        13.2504         12.2504
  15469847.25842  14144734.69545  24587382.9774   24587390.5864
         4.7504          6.2504
  -8556562.55647  -6515154.10246  20889003.9774   20889008.8524
        21.2504         22.7504
   6688688.52843   5842879.57445  23968127.9144   23968138.3954
         6.5004          7.2504
    -58051.97752                  25248510.7814
         4.0004
    882959.57242    339999.53645  24436383.0554   24436393.5944
         4.2504          6.0004
 03 11  1  0 15 30.0000000  0  8G28G 9G 4G 8G 7G26G 5G29
   3523162.12846   2731448.43046  22250746.9534   22250751.9924
        15.2504         13.5004
 -10974065.99646  -8435705.35446  21712351.3834   21712356.9964
        16.7504         15.7504
  -9937759.83046  -7473654.29046  22335261.4304   22335268.1564
        13.2504         12.7504
  15602764.58143  14248306.36345  24612676.5314   24612686.6254
         5.5004          6.0004
  -8504550.91347  -6474625.55346  20898901.1484   20898906.2234
        21.0004         22.5004
   6790153.75344   5921943.21945  23987435.9064   23987443.0944
         7.5004          6.2504
   -133837.28142                  25234090.8834
         4.5004
    988535.47842    422266.33545  24456476.2424   24456484.5664
         4.7504          5.7504
 03 11  1  0 16  0.0000000  0  8G28G 9G 4G 8G 7G26G 5G29
   3596533.63946   2788621.00446  22264709.3134   22264713.9414
        15.2504         13.5004
 -11018715.07546  -8470496.79546  21703855.2034   21703860.5474
        17.0004         16.0004
 -10008945.79046  -7529123.77646  22321715.1334   22321722.3324
        13.5004         12.2504
  15735718.66543  14351906.60045  24637976.8284   24637990.1214
         5.7504          6.2504
  -8452292.03947  -6433904.35546  20908845.9924   20908851.0314
        21.2504         23.0004
   6891744.56743   6001104.79245  24006766.9844   24006773.9384
         6.5004          7.5004
   -209691.52742    -11824.21755  25219654.8054   25219663.7274
         4.7504          5.0004
   1094111.50943    504533.16045  24476566.9144   24476577.7344
         5.0004          5.7504
 03 11  1  0 16 30.0000000  0  8G28G 9G 4G 8G 7G26G 5G29
   3670063.46846   2845916.94346  22278701.6024   22278706.6294
        14.7504         13.5004
 -11062935.46546  -8504954.19346  21695439.8594   21695445.1804
        17.0004         16.5004
 -10079828.43946  -7584356.91046  22308226.9384   22308234.4534
        13.2504         12.5004
  15868713.64843  14455538.79845  24663285.3914   24663295.9304
         6.0004          6.2504
  -8399781.15847  -6392986.79446  20918838.1484   20918843.2234
        21.0004         22.7504
   6993464.22344   6080366.73045  24026126.7504   24026133.1484
         7.7504          7.2504
   -285607.58143    -70979.57445  25205208.4924   25205219.5234
         5.5004          5.7504
   1199691.17241    586802.87045  24496656.6884   24496669.7464
         3.7504          5.0004
 03 11  1  0 17  0.0000000  0  8G28G 9G 4G 8G 7G26G 5G29
   3743752.70446   2903337.09446  22292724.2584   22292728.5234
        14.7504         13.5004
 -11106723.68546  -8539074.82846  21687107.4224   21687112.9064
        17.0004         16.7504
 -10150403.63246  -7639350.45446  22294796.9534   22294803.5044
        13.5004         12.2504
  16001748.91243  14559202.29445  24688601.6564   24688616.1684
         5.7504          5.2504
  -8347018.54047  -6351873.07446  20928878.6724   20928883.7464
        21.2504         22.7504
   7095310.79643   6159727.60245  24045504.8984   24045516.1884
         6.5004          7.5004
   -361583.78443   -130181.77345  25190750.8594   25190762.0904
         5.7504          5.5004
   1305272.54342    669073.76844  24516749.3204   24516756.5434
         4.5004          4.0004
 03 11  1  0 17 30.0000000  0  8G28G 9G 4G 8G 7G26G 5G29
   3817604.09146   2960883.59746  22306777.7894   22306782.5824
        14.5004         13.2504
 -11150074.81946  -8572854.87446  21678858.0784   21678863.0824
        17.5004         16.2504
 -10220665.62346  -7694099.95146  22281425.9924   22281432.1334
        13.5004         12.5004
  16134824.86343  14662897.58145  24713925.5004   24713938.0204
         5.5004          5.0004
  -8294002.81047  -6310562.12346  20938967.3134   20938972.3754
        21.2504         22.7504
   7197284.29944   6239187.30045  24064912.3364   24064921.8444
         7.5004          7.5004
   -437616.18643   -189427.78045  25176284.0394   25176296.9574
         5.5004          6.0004
   1410855.49541    751346.13143  24536839.5164   24536854.0164
         3.2504          3.2504
 03 11  1  0 18  0.0000000  0  8G28G 9G 4G 8G 7G26G 5G29
   3891611.35246   3018551.56746  22320861.1094   22320865.9144
        14.5004         13.2504
 -11192993.17046  -8606297.69546  21670690.7974   21670696.2344
        17.2504         16.7504
 -10290617.77646  -7748607.98746  22268114.6644   22268119.8324
        14.2504         12.7504
  16267933.08843  14766617.94945  24739254.1094   24739268.8674
         5.0004          5.0004
  -8240742.01647  -6269060.21346  20949102.4924   20949107.6024
        21.2504         22.7504
   7299374.93743   6318738.29945  24084337.4924   24084347.1054
         6.5004          7.2504
   -513711.04743   -248722.45245  25161802.9384   25161814.3674
         5.2504          6.0004
   1516430.58741                  24556932.0004
         3.5004
 03 11  1  0 18 30.0000000  0  8G28G 9G 4G 8G 7G26G 5G29
   3965775.11446   3076341.49546  22334973.9144   22334978.5904
        14.2504         13.2504
 -11235475.63746  -8639400.86146  21662606.3284   21662611.8834
        17.5004         16.7504
 -10360256.40746  -7802871.74546  22254862.9144   22254868.5274
        14.0004         12.7504
  16401072.01942  14870362.29245  24764590.3524   24764601.3954
         4.5004          5.2504
  -8187236.91347  -6227367.92946  20959284.2664   20959289.3404
        21.2504         22.7504
   7401580.20443   6398378.64845  24103787.1724   24103796.0594
         6.5004          7.2504
   -589867.31542   -308065.00444  25147310.8914   25147324.2194
         4.7504          4.7504
   1621995.49842                  24577018.1804
         4.0004
 03 11  1  0 19  0.0000000  0  8G28G 9G 4G 8G 7G26G 5G29
   4040097.22246   3134254.78846  22349116.7974   22349121.6844
        14.2504         13.0004
 -11277518.42846  -8672161.42046  21654605.9924   21654610.8204
        17.5004         16.5004
 -10429576.68846  -7856887.48346  22241671.2664   22241677.0554
        14.0004         12.2504
  16534241.32141  14974130.21843  24789932.2034   24789945.0044
         3.7504          3.5004
  -8133487.10947  -6185484.96646  20969512.2814   20969517.1914
        21.2504         22.7504
   7503899.05344   6478107.47345  24123257.8524   24123267.5004
         7.0004          7.2504
   -666082.36342   -367453.30745  25132806.4694   25132814.3834
         4.0004          5.0004
   1727549.10042                  24597107.1254
         4.2504
 03 11  1  0 19 30.0000000  0  8G28G 9G 4G 8G 7G26G 5G29
   4114583.17446   3192295.78246  22363290.8594   22363295.6524
        14.2504         13.0004
 -11319113.82346  -8704573.37746  21646690.4384   21646696.2274
        17.0004         16.2504
 -10498569.97546  -7910648.33746  22228541.7274   22228547.9734
        13.2504         12.5004
  16667444.53241                  24815280.5084
         3.0004
  -8079488.38347  -6143408.04246  20979787.8834   20979793.0394
        21.2504         22.5004
   7606334.04744   6557926.86945  24142749.9534   24142759.2624
         7.0004          6.5004
   -742349.66941                  25118294.1804
         3.2504
   1833093.94042     60307.25354  24617190.2034   24617203.4264
         4.0004          4.7504
 03 11  1  0 20  0.0000000  0  8G28G 9G 4G 8G 7G26G 5G29
   4189231.66346   3250463.40446  22377496.3364   22377501.3754
        14.2504         13.0004
 -11360260.91646  -8736635.99346  21638860.5474   21638865.9384
        17.5004         16.5004
 -10567234.50646  -7964153.06546  22215475.7584   22215482.0164
        14.0004         13.2504
  16800678.16041                  24840634.1094
         2.5004
  -8025243.69947  -6101139.45746  20990110.5944   20990115.7854
        21.2504         22.5004
   7708880.64643   6637833.16645  24162265.9064   24162273.4344
         6.7504          7.5004
   -818670.28441                  25103769.1484
         2.7504
   1938625.66841    142539.61244  24637271.9924   24637275.1094
         3.7504          4.5004
 03 11  1  0 20 30.0000000  0  8G28G 9G 4G 8G 7G26G 5G29
   4264040.19746   3308755.74146  22391732.3444   22391737.8054
        14.2504         12.7504
 -11400959.89346  -8768349.41946  21631115.9144   21631121.4344
        17.7504         17.2504
 -10635569.96546  -8017401.37246  22202472.0864   22202478.9694
        14.7504         13.2504
                                  24865992.1334
         2.0004
  -7970757.02447  -6058682.31146  21000478.9694   21000483.9844
        21.2504         22.5004
   7811533.44043   6717822.21245  24181798.1804   24181807.9104
         6.5004          7.2504
                                  25089235.9454
         2.2504
   2044138.95241                  24657353.2034
         3.7504
 03 11  1  0 21  0.0000000  0  8G28G 9G 4G 8G 7G26G 5G29
   4339013.25446   3367176.29146  22405998.6804   22406004.4454
        13.7504         12.7504
 -11441204.26446  -8799708.62546  21623457.5554   21623462.6054
        17.7504         17.0004
 -10703568.90146  -8070387.42446  22189532.1334   22189538.0984
        15.0004         13.0004
                                  24891356.4064
         1.2504
  -7916025.39647  -6016034.29646  21010894.0554   21010899.2814
        21.0004         22.2504
   7914293.37044   6797894.76145  24201354.2814   24201366.4734
         7.0004          7.5004
                                  25074691.6334
         1.2504
   2149635.82642                  24677428.7114
         4.2504
 03 11  1  0 21 30.0000000  0  6G28G 9G 4G 7G26G29
   4414145.52346   3425720.88146  22420295.9224   22420300.5984
        14.0004         13.2504
 -11480997.21746  -8830716.05846  21615885.0234   21615890.4494
        17.5004         16.7504
 -10771233.52946  -8123112.98446  22176656.1254   22176661.6684
        14.7504         13.2504
  -7861055.46947  -5973200.58846  21021354.5634   21021359.5904
        21.0004         22.2504
   8017152.53843   6878044.59145  24220927.3054   24220935.6994
         6.5004          6.2504
   2255107.44642      5475.22754  24697497.7274   24697509.8714
         4.2504          4.0004
 03 11  1  0 22  0.0000000  0  6G28G 9G 4G 7G26G29
   4489444.49046   3484395.36846  22434624.7664   22434629.9104
        14.2504         12.7504
 -11520329.00346  -8861364.14646  21608400.5394   21608405.6484
        17.7504         17.2504
 -10838553.24946  -8175569.80046  22163845.3364   22163850.7624
        14.7504         12.7504
  -7805841.09947  -5930176.41446  21031861.5314   21031866.3954
        21.2504         22.0004
   8120115.36743   6958275.25145  24240519.8204   24240529.9494
         6.2504          7.2504
   2360558.15742     87644.52645  24717565.1484   24717571.6884
         4.2504          5.5004
 03 11  1  0 22 30.0000000  0  7G28G 9G 4G 7G26G 5G29
   4564907.64846   3543197.79946  22448985.4064   22448990.0474
        14.2504         13.0004
 -11559200.34546  -8891653.44046  21601003.5864   21601008.8594
        18.2504         17.2504
 -10905527.89546  -8227757.71146  22151100.5164   22151105.3094
        15.0004         13.7504
  -7750386.50347  -5886965.04446  21042413.7814   21042419.0204
        21.0004         22.0004
   8223176.02343   7038582.11445  24260131.7504   24260142.6994
         6.0004          7.2504
    -71469.25652                  25031004.8284
         4.5004
   2465982.94042    169793.50944  24737627.7274   24737641.3594
         4.2504          4.0004
 03 11  1  0 23  0.0000000  0  7G28G 9G 4G 7G26G 5G29
   4640538.20446   3602130.66046  22463377.1484   22463382.0704
        13.7504         13.2504
 -11597605.52046  -8921579.49346  21593695.2344   21593700.3674
        18.2504         18.0004
 -10972151.27246  -8279671.90546  22138422.3134   22138428.0434
        15.5004         13.5004
  -7694689.88847  -5843565.08946  21053012.6414   21053017.6334
        21.2504         22.2504
   8326334.82543   7118965.44045  24279761.2194   24279767.2664
         5.5004          6.7504
   -148088.53743                  25016425.1804
         5.7504
   2571382.13642    251922.43545  24757684.5554   24757693.1844
         4.5004          5.0004
 03 11  1  0 23 30.0000000  0  7G28G 9G 4G 7G26G 5G29
   4716333.41946   3661191.82546  22477800.9694   22477805.8444
        14.0004         12.5004
 -11635545.39546  -8951142.96146  21586475.0784   21586480.5044
        17.7504         17.5004
 -11038423.17046  -8331312.23946  22125810.8054   22125816.6644
        14.5004         13.5004
  -7638755.39747  -5799979.77246  21063656.5704   21063661.4924
        21.2504         22.2504
   8429585.97043   7199420.73145  24299409.9534   24299420.8324
         5.7504          7.2504
   -224754.19343                  25001835.2424
         6.5004
   2676749.93041    334027.15644  24777731.7734   24777750.8094
         3.7504          4.0004
 03 11  1  0 24  0.0000000  0  7G28G 9G 4G 7G26G 5G29
   4792292.40946   3720380.60446  22492255.3134   22492259.3444
        13.7504         13.0004
 -11673018.67446  -8980342.85246  21579344.5084   21579350.1334
        18.0004         17.2504
 -11104341.28846  -8382676.86946  22113267.3444   22113272.5354
        14.7504         13.0004
  -7582585.48747  -5756211.02046  21074345.3204   21074350.3364
        21.2504         22.0004
   8532925.42443   7279944.85345  24319075.3204   24319081.5434
         5.5004          6.5004
   -301466.56244                  24987238.7734
         7.2504
   2782082.72541    416104.50143  24797778.8984   24797782.3794
         3.7504          3.0004
 03 11  1  0 24 30.0000000  0  7G28G 9G 4G 7G26G 5G29
   4868420.64246   3779701.27646  22506741.5084   22506746.2424
        13.5004         13.0004
 -11710017.85546  -9009173.31646  21572303.7664   21572308.9454
        18.2504         17.7504
 -11169897.57346  -8433759.58746  22100792.0784   22100797.9494
        14.7504         13.0004
  -7526175.97247  -5712255.55446  21085079.8984   21085084.8554
        21.2504         22.0004
   8636355.77243   7360539.71645  24338757.9224   24338766.7624
         5.7504          6.5004
   -378219.12344    -55819.69655  24972632.1254   24972639.4304
         7.2504          6.7504
   2887382.82841    498156.31044  24817817.7584   24817829.1054
         3.5004          4.0004
 03 11  1  0 25  0.0000000  0  7G28G 9G 4G 7G26G 5G29
   4944712.40946   3839149.35846  22521259.8834   22521265.0984
        13.5004         12.7504
 -11746546.37446  -9037637.02946  21565352.4614   21565357.3484
        18.5004         17.7504
 -11235094.51546  -8484562.28146  22088385.2894   22088390.5514
        15.0004         13.5004
  -7469534.15847  -5668119.07746  21095858.6564   21095863.4614
        21.0004         22.0004
   8739868.13443   7441198.62445  24358456.8984   24358465.3754
         6.2504          6.0004
   -455017.42243   -115662.25045  24958017.4144   24958030.4614
         6.5004          7.2504
   2992641.53541    580175.70445  24837845.2344   24837860.6604
         3.2504          5.0004
 03 11  1  0 25 30.0000000  0  8G28G 9G 4G24G 7G26G 5G29
   5021164.30646   3898722.21946  22535808.0314   22535812.8364
        13.5004         12.5004
 -11782605.83146  -9065735.23746  21558490.6174   21558495.9024
        18.2504         17.7504
 -11299933.03546  -8535085.69246  22076046.6884   22076052.2774
        14.5004         13.5004
                                  24652767.9304
         3.0004
  -7412664.81247  -5623805.29746  21106680.6254   21106685.7934
        21.0004         21.7504
   8843456.05543   7521916.33945  24378167.7974   24378176.8014
         6.0004          6.5004
   -531863.96243   -175542.38645  24943393.5314   24943404.3524
         5.5004          6.2504
   3097852.86341    662158.37444  24857867.8134   24857876.6994
         3.7504          4.2504
 03 11  1  0 26  0.0000000  0  8G28G 9G 4G24G 7G26G 5G29
   5097783.91146   3958425.75646  22550388.2814   22550393.6374
        13.5004         12.2504
 -11818186.55546  -9093460.40746  21551719.8674   21551725.0474
        18.7504         18.0004
 -11364402.14246  -8585321.23846  22063778.8834   22063784.4264
        14.7504         13.7504
    -92014.86742                  24634654.3204
         4.2504
  -7355561.74047  -5579309.39846  21117546.7114   21117551.9844
        20.7504         21.5004
   8947124.24143   7602696.55845  24397893.8054   24397903.8874
         5.5004          6.5004
   -608750.23142   -235453.47245  24928761.3524   24928772.5824
         4.5004          6.5004
   3203021.86742                  24877882.6954
         4.0004
 03 11  1  0 26 30.0000000  0  8G28G 9G 4G24G 7G26G 5G29
   5174571.96246   4018260.56446  22565000.5634   22565005.4734
        13.5004         12.5004
 -11853285.91046  -9120810.48546  21545040.7974   21545045.7074
        18.5004         18.0004
 -11428498.31346  -8635266.19846  22051581.9614   22051587.1994
        16.0004         14.0004
   -187227.40143                  24616535.6954
         5.0004
  -7298225.57847  -5534631.86846  21128457.1644   21128462.2504
        20.7504         21.5004
   9050870.52343   7683537.69545  24417636.6414   24417648.5044
         5.5004          5.5004
   -685674.76341   -295394.36445  24914123.6334   24914134.4884
         3.7504          6.7504
     80586.77452                  24897889.6564
         4.0004
 03 11  1  0 27  0.0000000  0  8G28G 9G 4G24G 7G26G 5G29
   5251522.54546   4078222.01746  22579644.1954   22579649.6454
        14.0004         12.2504
 -11887908.03746  -9147788.69446  21538452.1564   21538456.9734
        18.7504         18.0004
 -11492224.78746  -8684923.07846  22039455.5634   22039460.3794
        16.2504         14.2504
   -282465.71943                  24598411.6334
         5.2504
  -7240664.16247  -5489778.81246  21139410.9384   21139416.1174
        20.5004         21.5004
   9154685.50743   7764432.33645  24437393.0554   24437402.5394
         5.7504          5.7504
   -762643.18641   -355369.56645  24899476.2424   24899489.2664
         2.7504          6.0004
    185656.71441                  24917876.0004
         2.7504
 03 11  1  0 27 30.0000000  0  8G28G 9G 4G24G 7G26G 5G29
   3753220.07946   2910713.57146  22294526.3984   22294531.0984
        13.5004         12.2504
 -13497469.76246 -10401992.56946  21232162.8984   21232167.9024
        19.0004         18.5004
 -13130998.72446  -9961889.67646  21727606.6254   21727612.3204
        15.7504         14.2504
  -1953147.99643                  24280492.8134
         5.5004
  -8758294.59047  -6672347.97446  20850615.4694   20850620.6374
        20.5004         21.5004
   7683151.88743   6617782.62845  24157371.0314   24157382.2734
         5.7504          6.2504
                                  24585027.3054
         2.0004
  -1284744.08741                  24638071.9384
         3.2504
 03 11  1  0 28  0.0000000  0  8G28G 9G 4G24G 7G26G 5G29
   3830498.86346   2970930.77246  22309232.1414   22309237.0514
        13.0004         12.5004
 -13531127.47146 -10428219.28946  21225757.5234   21225762.9384
        18.5004         18.2504
 -13193973.62546 -10010960.92646  21715622.5634   21715628.5864
        15.7504         14.5004
  -2048425.87543  -1291941.74755  24262360.6174   24262373.8634
         6.2504          5.7504
  -8700283.00647  -6627144.13446  20861654.7974   20861659.8834
        20.7504         21.5004
   7787099.10143   6698780.21245  24177151.3674   24177161.2384
         5.7504          5.2504
                                  24570364.6564
         2.0004
  -1179786.46741                  24658045.4384
         3.5004
 03 11  1  0 28 30.0000000  0  8G28G 9G 4G24G 7G26G 5G29
   3907940.75246   3031275.08646  22323968.8674   22323974.5634
        13.2504         12.2504
 -13564301.14846 -10454068.84346  21219444.6804   21219449.5554
        18.5004         18.0004
 -13256569.65346 -10059736.92146  21703711.0474   21703716.8244
        16.0004         14.5004
  -2143720.66043  -1366197.05945  24244227.5164   24244240.1054
         5.7504          6.2504
  -8642049.53547  -6581767.39946  20872736.1024   20872741.2704
        20.5004         21.5004
   7891106.63543   6779824.89845  24196944.6564   24196954.4344
         6.0004          6.0004
  -1649940.62141                  24555697.3834
         3.2504
  -1074890.27241                  24678004.1644
         2.7504
 03 11  1  0 29  0.0000000  0  8G28G 9G 4G24G 7G26G 5G29
   3985543.99846   3091745.13245  22338736.1804   22338740.6564
        13.0004         11.5004
 -13596990.78146 -10479541.21246  21213224.1724   21213229.5274
        18.7504         18.2504
 -13318785.83946 -10108216.96346  21691871.5004   21691876.7854
        16.0004         14.2504
  -2239031.13743  -1440464.60445  24226088.4384   24226103.8754
         5.0004          5.5004
  -8583597.67347  -6536220.48746  20883859.2114   20883864.1334
        20.7504         21.5004
   7995169.82943   6860912.91745  24216746.7504   24216750.0434
         5.5004          5.5004
  -1727073.64342                  24541019.2114
         4.5004
   -970060.45641                  24697953.1024
         3.2504
 03 11  1  0 29 30.0000000  0  8G28G 9G 4G24G 7G26G 5G29
   4063312.92946   3152344.27845  22353535.1254   22353539.8484
        12.5004         11.5004
 -13629189.90246 -10504631.37446  21207097.1024   21207102.5044
        18.7504         18.2504
 -13380614.61446 -10156395.14246  21680105.3284   21680111.3054
        15.2504         14.0004
  -2334349.97842  -1514738.75345  24207950.0704   24207968.0984
         4.0004          5.2504
  -8524924.03547  -6490500.75146  20895024.4454   20895029.4384
        21.0004         21.5004
   8099290.21643   6942045.58545  24236558.5864   24236574.8674
         5.0004          6.0004
  -1804242.86743                  24526334.7894
         5.5004
   -865295.30641                  24717890.1884
         2.7504
 03 11  1  0 30  0.0000000  0  8G28G 9G 4G24G 7G26G 5G29
   4141245.38746   3213070.83345  22368365.1484   22368369.7074
        12.5004         11.2504
 -13660898.89746 -10529339.62046  21201062.6484   21201067.7464
        18.2504         18.2504
 -13442055.55346 -10204271.08746  21668413.6334   21668418.6724
        16.2504         14.7504
  -2429676.70941  -1589018.98944  24189809.4694   24189821.2734
         3.2504          4.2504
  -8466032.34947  -6444611.12246  20906231.2344   20906236.2974
        21.0004         21.5004
   8203462.61843   7023218.68745  24256381.3674   24256394.7664
         5.0004          5.2504
  -1881449.90543                  24511643.0554
         6.2504
   -760599.69841  -1189537.86153  24737812.8834   24737828.1214
         2.7504          3.0004
 03 11  1  0 30 30.0000000  0  8G28G 9G 4G24G 7G26G 5G29
   4219343.75546   3273926.69245  22383226.0394   22383231.6054
        12.2504         11.7504
 -13692113.41146 -10553662.54446  21195122.5394   21195127.3914
        18.7504         18.2504
 -13503103.03046 -10251840.46146  21656797.0164   21656802.3244
        16.5004         15.0004
  -2525006.05441  -1663301.39843  24171670.8984   24171680.3834
         3.0004          3.0004
  -8406921.76647  -6398550.92146  20917479.6024   20917484.6414
        21.0004         21.5004
   8307686.40843   7104431.75945  24276215.0314   24276222.5234
         5.0004          5.2504
  -1958691.88043  -1263715.03154  24496943.7734   24496951.5004
         6.0004          4.2504
   -655973.88841  -1108011.58044  24757724.2664   24757736.2344
         3.5004          4.2504
 03 11  1  0 31  0.0000000  0  8G28G 9G 4G24G 7G26G 5G29
   4297600.62046   3334906.07045  22398118.4614   22398123.2774
        12.0004         11.0004
 -13722838.92746 -10577604.43546  21189276.5314   21189281.5594
        19.2504         18.5004
 -13563762.25946 -10299107.29046  21645252.7974   21645258.0594
        16.2504         15.2504
  -2620342.74041  -1737589.22143  24153526.6644   24153538.4694
         3.7504          3.2504
  -8347600.81847  -6352326.79346  20928767.7664   20928772.9224
        20.7504         21.2504
   8411951.18143   7185676.90545  24296056.5314   24296063.6374
         5.5004          5.5004
  -2035975.42343  -1323936.02844  24482236.7114   24482246.3594
         5.5004          4.2504
   -551428.19241                  24777619.9844
         3.2504
 03 11  1  0 31 30.0000000  0  8G28G 9G 4G24G 7G26G 5G29
   4376019.93146   3396011.98845  22413041.4384   22413046.0434
        12.2504         11.2504
 -13753069.35746 -10601160.55546  21183523.2734   21183527.9264
        19.0004         18.7504
 -13624025.94946 -10346065.91346  21633786.3674   21633791.4534
        16.7504         15.0004
  -2715679.79943  -1811877.67245  24135384.4924   24135392.6294
         5.2504          5.2504
  -8288067.28147  -6305937.01846  20940096.9384   20940101.8834
        20.7504         21.7504
   8516257.93143   7266954.78145  24315906.6174   24315913.6174
         5.7504          6.5004
  -2113295.39342  -1384185.09144  24467521.5004   24467525.0164
         4.5004          4.5004
   -446961.95141                  24797498.1954
         3.0004
 03 11  1  0 32  0.0000000  0  7G28G 9G 4G24G 7G26G 5
   4454607.16146   3457248.77845  22427996.1804   22428000.8444
        12.2504         11.2504
 -13782797.45546 -10624325.23246  21177865.9924   21177871.1954
        18.7504         18.5004
 -13683886.12946 -10392710.12146  21622394.7734   21622399.6604
        16.7504         15.2504
  -2811008.96343  -1886159.81845  24117244.5944   24117257.5704
         6.0004          6.0004
  -8228316.97747  -6259378.33946  20951467.0864   20951472.0664
        20.7504         21.0004
                                  24335763.4304
         6.0004
  -2190645.74042  -1444457.98144  24452803.9774   24452811.6684
         4.0004          4.5004
 03 11  1  0 32 30.0000000  0  8G28G 9G 4G24G 7G26G 5G29
   4533355.76845   3518611.31645  22442981.2814   22442986.4494
        11.5004         10.7504
 -13812028.14646 -10647102.32846  21172303.4924   21172308.2974
        19.2504         18.5004
 -13743346.66646 -10439042.91046  21611079.2664   21611084.1524
        16.5004         14.7504
  -2906334.17743  -1960438.94745  24099104.3594   24099119.2934
         6.5004          6.0004
  -8168357.81847  -6212656.90746  20962876.6804   20962881.5664
        20.5004         21.0004
  -1474516.71743                  24355628.0164
         5.7504
  -2268031.96442  -1504758.84145  24438075.8524   24438082.2974
         4.0004          5.0004
  -1537188.89051                  24837210.7974
         2.7504
 03 11  1  0 33  0.0000000  0  8G28G 9G 4G24G 7G26G 5G29
   4612270.18145   3580103.07445  22457998.3134   22458003.7274
        11.7504         10.5004
 -13840754.93146 -10669486.76146  21166837.0704   21166842.0044
        19.7504         18.7504
 -13802400.23246 -10485058.58346  21599841.7114   21599846.7274
        16.2504         15.5004
  -3001647.91343  -2034709.16545  24080966.7664   24080978.2544
         6.2504          6.0004
  -8108186.79747  -6165770.39746  20974327.1174   20974332.1334
        20.5004         20.7504
  -1370094.10943                  24375499.2814
         5.7504
  -2345449.10442  -1565083.73645  24423346.0164   24423356.2274
         4.2504          6.2504
  -1432968.29441                  24857045.1414
         3.7504
 03 11  1  0 33 30.0000000  0  8G28G 9G 4G24G 7G26G 5G29
   4691347.11645   3641721.46045  22473045.8444   22473050.4384
        11.2504         10.7504
 -13868979.45646 -10691479.82146  21161466.0554   21161471.0354
        19.2504         18.5004
 -13861047.53946 -10530757.69146  21588682.0634   21588686.8094
        17.0004         15.2504
  -3096950.97143  -2108971.02045  24062830.4304   24062842.2344
         6.2504          6.5004
  -8047808.69447  -6118722.52546  20985816.3054   20985821.4024
        20.5004         20.7504
  -1265641.40343  -1195044.53055  24395377.2894   24395385.5084
         6.0004          6.7504
  -2422899.24842  -1625434.40145  24408605.9844   24408617.2734
         4.7504          5.2504
  -1328837.42641                  24876859.3284
         3.2504
 03 11  1  0 34  0.0000000  0  8G28G 9G 4G24G 7G26G 5G29
   4770581.39445   3703462.42245  22488124.2344   22488130.1174
        11.7504         10.7504
 -13896704.94146 -10713084.01946  21156189.7344   21156194.8914
        19.2504         18.5004
 -13919290.64846 -10576141.85646  21577598.6174   21577603.3984
        17.0004         15.2504
  -3192245.25943  -2183226.03645  24044695.3204   24044707.8754
         5.0004          5.0004
  -7987229.83247  -6071518.22146  20997344.0864   20997349.0204
        20.5004         20.7504
  -1161166.52943  -1113635.72945  24415257.8284   24415268.4384
         5.5004          6.5004
  -2500386.79943  -1685814.02645  24393861.3674   24393872.7624
         5.5004          5.5004
  -1224804.41341                  24896657.5314
         3.2504
 03 11  1  0 34 30.0000000  0  8G28G 9G 4G24G 7G26G 5G29
   4849979.48145   3765331.08645  22503233.1564   22503238.2544
        11.7504         11.0004
 -13923923.27746 -10734293.04546  21151009.9304   21151015.1334
        19.0004         18.5004
 -13977120.62446 -10621204.07246  21566593.7274   21566598.7664
        16.7504         15.5004
  -3287521.43942  -2257466.93945  24026566.4064   24026576.8754
         4.2504          5.7504
  -7926445.41347  -6024153.74346  21008911.0864   21008916.0314
        20.5004         20.7504
  -1056666.06243  -1032206.89545  24435143.5704   24435155.5394
         5.5004          5.7504
  -2577904.77443  -1746217.61245  24379110.2114   24379122.1804
         6.0004          6.5004
  -1120865.84241                  24916436.5394
         3.2504
 03 11  1  0 35  0.0000000  0  8G28G 9G 4G24G 7G26G 5G29
   4929538.56345   3827325.15945  22518372.5634   22518377.9414
        11.5004         10.5004
 -13950635.43346 -10755107.64946  21145927.0554   21145932.1764
        19.2504         18.5004
 -14034537.53946 -10665944.43346  21555667.3754   21555672.6954
        16.5004         15.5004
  -3382779.62942  -2331693.72445  24008437.4534   24008444.4534
         4.0004          5.0004
  -7865459.38747  -5976632.17246  21020516.3524   21020521.4734
        20.5004         20.7504
   -952145.70643   -950762.69844  24455031.1724   24455044.5704
         5.0004          4.7504
  -2655454.70243  -1806646.07345  24364353.2814   24364358.8834
         6.2504          5.7504
  -1017026.73941                  24936197.2344
         3.7504
 03 11  1  0 35 30.0000000  0  8G28G 9G 4G24G 7G26G 5G29
   5009260.52045   3889446.18045  22533543.3284   22533548.7774
        11.5004         10.5004
 -13976837.82046 -10775525.02446  21140941.0634   21140945.7974
        19.5004         19.0004
 -14091536.64046 -10710359.23146  21544821.2584   21544826.4144
        17.5004         15.5004
  -3478015.28242  -2405903.04345  23990316.6804   23990328.2034
         4.5004          6.0004
  -7804271.44847  -5928953.26346  21032160.2814   21032165.2504
        20.5004         20.5004
   -847606.40843   -869303.64445  24474924.7274   24474935.4304
         5.0004          6.5004
  -2733033.67743  -1867097.10445  24349589.7194   24349594.3014
         6.2504          5.2504
   -913288.00541                  24955937.6094
         3.2504
 03 11  1  0 36  0.0000000  0  8G28G 9G 4G24G 7G26G 5G29
   5089141.13445   3951690.81145  22548744.1644   22548749.3204
        11.5004         11.2504
 -14002532.96046 -10795547.14646  21136051.2114   21136056.3794
        19.2504         19.0004
 -14148119.72446 -10754449.86546  21534053.0944   21534058.5204
        16.2504         15.0004
  -3573229.26543  -2480095.45145  23972196.5864   23972208.8244
         5.0004          6.2504
  -7742887.14047  -5881121.33646  21043841.1024   21043846.2814
        20.7504         20.5004
   -743055.42943   -787835.56545  24494822.1564   24494831.3364
         5.5004          6.5004
  -2810645.33943  -1927573.66044  24334820.0234   24334827.9384
         5.7504          4.7504
   -809656.85141                  24975656.2424
         2.2504
 03 11  1  0 36 30.0000000  0  8G28G 9G 4G24G 7G26G 5G29
   5169179.83945   4014058.62845  22563974.7344   22563980.3484
        11.2504         10.7504
 -14027719.56146 -10815173.00946  21131258.1484   21131262.6954
        19.5004         19.2504
 -14204284.37246 -10798214.43446  21523365.5944   21523370.6564
        16.2504         15.5004
  -3668419.55343  -2554269.30745  23954083.2894   23954091.2384
         5.5004          5.5004
  -7681308.14847  -5833137.70346  21055559.4454   21055564.4384
        20.5004         20.7504
   -638496.24942   -706360.95845  24514717.8914   24514725.4884
         4.7504          5.0004
  -2888289.35142  -1988075.40845  24320045.1804   24320050.6994
         4.7504          5.2504
   -706136.12941                  24995355.7424
         2.2504
 03 11  1  0 37  0.0000000  0  8G28G 9G 4G24G 7G26G 5G29
   5249372.52846   4076546.43845  22579235.5634   22579239.9574
        12.0004         11.5004
 -14052399.97646 -10834404.44146  21126561.8984   21126566.8444
        19.7504         19.2504
 -14260032.16946 -10841654.18646  21512756.9694   21512762.2664
        17.0004         15.5004
  -3763587.50043  -2628425.85245  23935971.7664   23935984.2384
         5.5004          6.0004
  -7619540.05447  -5785006.71346  21067313.3204   21067318.2894
        20.2504         20.7504
   -533935.70842   -624885.35745  24534614.6024   24534625.8204
         4.0004          5.5004
  -2965968.73242  -2048604.65544  24305264.3134   24305274.5474
         4.2504          4.5004
  -1496158.71251                  25015034.9844
         3.7504
 03 11  1  0 37 30.0000000  0  8G28G 9G 4G24G 7G26G 5G29
   5329722.08245   4139156.48245  22594524.5164   22594529.3674
        11.5004         11.0004
 -14076569.75347 -10853237.98646  21121962.4454   21121967.1804
        20.0004         19.0004
 -14315357.54646 -10884764.78146  21502229.1484   21502234.4344
        17.5004         15.7504
  -3858727.31243  -2702560.45545  23917868.2344   23917877.7664
         6.7504          5.2504
  -7557581.38047  -5736727.23046  21079103.5314   21079108.6414
        20.2504         20.5004
   -429373.99942   -543408.90643  24554513.7274   24554516.6454
         4.7504          3.5004
  -3043679.41242  -2109158.32044  24290476.3204   24290485.7704
         4.0004          4.5004
  -1392872.38342                  25034690.6414
         4.5004
 03 11  1  0 38  0.0000000  0  8G28G 9G 4G24G 7G26G 5G29
   5410225.33245   4201886.27945  22609844.1884   22609849.8714
        11.5004         11.2504
 -14100230.36046 -10871674.77346  21117459.6414   21117464.5984
        19.7504         19.2504
 -14370261.08246 -10927546.69046  21491781.5704   21491786.3054
        17.7504         15.5004
  -3953839.09843  -2776673.10045  23899768.5554   23899780.8404
         6.2504          6.0004
  -7495436.56847  -5688302.70146  21090929.1804   21090934.0204
        20.2504         20.7504
   -324816.89643   -461935.95945  24574411.0474   24574420.9534
         5.2504          5.0004
  -3121424.03042  -2169738.43945  24275680.7424   24275689.3954
         4.0004          5.5004
  -1289709.06942                  25054320.9844
         4.7504
 03 11  1  0 38 30.0000000  0  8G28G 9G 4G24G 7G26G 5G29
   5490879.48045   4264733.65045  22625191.7344   22625197.2774
        11.5004         11.2504
 -14123382.76146 -10889715.56646  21113054.1254   21113058.9774
        19.7504         19.0004
 -14424742.90946 -10969999.97546  21481413.5164   21481418.5084
        18.0004         16.0004
  -4048922.53443  -2850763.86345  23881674.2034   23881682.8204
         6.5004          6.0004
  -7433109.83547  -5639736.40646  21102789.6334   21102794.4614
        20.0004         20.5004
   -220270.34442   -380471.30545  24594304.6644   24594318.7544
         4.2504          5.2504
  -3199204.14842  -2230346.12145  24260880.7194   24260891.8914
         4.2504          5.5004
  -1186674.20343                  25073928.2974
         5.0004
 03 11  1  0 39  0.0000000  0  8G28G 9G 4G24G 7G26G 5G29
   5571678.23945   4327693.74445  22640567.1174   22640572.2734
        11.0004         11.0004
 -14146031.71946 -10907364.06546  21108744.0474   21108748.7934
        19.7504         19.5004
 -14478806.66046 -11012127.50346  21471125.8524   21471130.4694
        18.5004         16.2504
  -4143981.41943  -2924835.30245  23863585.2504   23863593.4804
         6.7504          5.7504
  -7370608.62547  -5591034.16546  21114683.4064   21114688.6684
        20.0004         20.2504
   -115743.41242   -299021.85545  24614193.7974   24614207.4064
         4.5004          5.2504
  -3277025.00042  -2290985.56945  24246070.3834   24246083.5704
         4.7504          6.0004
  -1083776.64442  -1200888.16453  25093509.3134   25093525.4654
         4.7504          3.5004
 03 11  1  0 39 30.0000000  0  8G28G 9G 4G24G 7G26G 5G29
   5652625.15345   4390769.26645  22655971.3134   22655976.2114
        11.5004         11.0004
 -14168172.24247 -10924616.37846  21104530.9064   21104535.4534
        20.2504         19.5004
 -14532446.19246 -11053924.44746  21460917.7974   21460923.1644
        17.5004         16.2504
  -4239009.34243  -2998882.65945  23845501.2504   23845514.6254
         6.2504          6.7504
  -7307931.02547  -5542194.48146  21126610.3444   21126615.6994
        20.0004         20.0004
    -11235.35542   -217587.16544  24634083.4694   24634095.6724
         4.7504          4.5004
  -3354882.73243  -2351653.74045  24231256.0554   24231263.9224
         5.2504          6.2504
   -981015.28842  -1120814.64443  25113065.3204   25113077.2774
         4.0004          3.5004
 03 11  1  0 40  0.0000000  0  8G28G 9G 4G24G 7G26G 5G29
   5733717.31045   4453957.91345  22671402.4384   22671407.5594
        11.0004         10.5004
 -14189805.50347 -10941473.43246  21100414.1644   21100419.0044
        20.0004         19.2504
 -14585662.03446 -11095391.26646  21450791.2664   21450796.1884
        17.7504         16.0004
  -4334006.18343  -3072905.78245  23827424.2194   23827434.2304
         5.5004          7.0004
  -7245081.13847  -5493220.53846  21138570.3054   21138575.4734
        20.0004         20.0004
     93247.83742   -136171.78545  24653965.8204   24653980.1454
         4.2504          5.0004
  -3432778.95443  -2412351.99645  24216432.4614   24216441.9694
         5.7504          6.0004
   -878396.05141                  25132591.5234
         3.0004
 03 11  1  0 40 30.0000000  0  7G28G 9G 4G24G 7G26G 5
   5814951.23145   4517257.05945  22686860.8284   22686865.4804
        11.0004         11.0004
 -14210933.22946 -10957936.56446  21096393.4614   21096398.2304
        19.7504         19.5004
 -14638454.73146 -11136528.34646  21440744.8674   21440749.8014
        18.0004         16.2504
  -4428972.35942  -3146904.95145  23809350.9144   23809358.9694
         4.5004          6.2504
  -7182063.66547  -5444116.00946  21150562.1094   21150567.1844
        20.0004         20.0004
    197700.09143    -54780.66645  24673841.2584   24673850.0744
         5.0004          5.5004
  -3510715.81943  -2473081.84645  24201601.1884   24201608.4224
         6.0004          6.7504
 03 11  1  0 41  0.0000000  0  7G28G 9G 4G24G 7G26G 5
   5896328.51345   4580667.90545  22702347.5394   22702352.6374
        11.2504         10.2504
 -14231552.26447 -10974003.31346  21092469.8984   21092474.5864
        20.0004         19.5004
 -14690820.45546 -11177332.73646  21430780.2424   21430785.1294
        18.2504         16.5004
  -4523903.58642  -3220876.92745  23791286.8444   23791298.2034
         4.5004          6.5004
  -7118878.37747  -5394880.72046  21162585.7584   21162591.1254
        20.0004         20.0004
    302120.10443     26585.51445  24693713.0234   24693721.7704
         5.0004          5.7504
  -3588691.05743  -2533841.55245  24186762.7504   24186773.1024
         5.7504          6.5004
 03 11  1  0 41 30.0000000  0  7G28G 9G 4G24G 7G26G 5
   5977846.51645   4644188.41745  22717859.1254   22717862.8524
        11.0004         11.0004
 -14251663.69747 -10989674.52146  21088642.9534   21088647.5704
        20.0004         19.7504
 -14742758.74646 -11217804.05546  21420896.4694   21420901.0634
        18.2504         16.7504
  -4618799.10243  -3294821.06245  23773229.7584   23773238.8554
         6.0004          7.5004
  -7055529.16147  -5345517.69846  21174640.7584   21174645.7034
        20.0004         20.0004
    406502.53742    107922.34645  24713575.5314   24713585.8594
         4.5004          5.0004
  -3666705.85843  -2594632.13645  24171916.6414   24171924.3554
         5.5004          6.0004
 03 11  1  0 42  0.0000000  0  7G28G 9G 4G24G 7G26G 5
   6059507.13845   4707820.06345  22733398.7194   22733403.8404
        11.0004         10.2504
 -14271264.17047 -11004947.58446  21084913.3284   21084918.3914
        20.0004         19.7504
 -14794265.66946 -11257939.24346  21411095.5164   21411100.1094
        19.2504         17.0004
  -4713654.33744  -3368733.92445  23755178.4774   23755187.5274
         7.2504          7.5004
  -6992015.52047  -5296026.54046  21186727.1564   21186732.2424
        20.0004         19.7504
    510846.21743    189228.92845  24733432.5784   24733440.4454
         5.0004          5.0004
  -3744757.87643  -2655451.71745  24157064.3674   24157070.1564
         5.5004          5.0004
 03 11  1  0 42 30.0000000  0  7G28G 9G 4G24G 7G26G 5
   6141304.55345   4771558.25745  22748964.0474   22748968.7584
        10.5004         10.5004
 -14290357.97347 -11019825.83246  21081279.6024   21081284.5704
        20.0004         19.5004
 -14845344.41746 -11297740.79046  21401375.7034   21401380.3094
        19.5004         17.5004
  -4808472.23044  -3442617.56645  23737135.3524   23737144.5314
         7.5004          6.2504
  -6928344.45846  -5246412.73246  21198843.3444   21198848.6994
        19.7504         19.7504
    615142.71842    270498.76545  24753279.6564   24753285.0474
         4.5004          5.5004
  -3822851.72243  -2716303.88345  24142202.9774   24142213.3054
         5.7504          5.5004
 03 11  1  0 43  0.0000000  0  7G28G 9G 4G24G 7G26G 5
   6223236.45445   4835401.25745  22764555.1564   22764560.3484
        10.2504          9.7504
 -14308945.86647 -11034309.87346  21077742.5864   21077747.2384
        20.5004         19.5004
 -14895994.93946 -11337208.65046  21391736.6024   21391741.0314
        18.7504         17.2504
  -4903252.41844  -3516471.97345  23719097.9144   23719107.9734
         7.2504          6.2504
  -6864519.65746  -5196679.11546  21210988.8674   21210993.9774
        19.7504         19.5004
    719386.75043    351727.77545  24773116.4534   24773129.1954
         5.0004          5.5004
  -3900988.44443  -2777189.48244  24127334.1644   24127338.3954
         6.0004          4.2504
 03 11  1  0 43 30.0000000  0  7G28G 9G 4G24G 7G26G 5
   6305303.08845   4899349.26445  22780172.0704   22780176.5124
        10.0004         10.2504
 -14327026.22247 -11048398.42946  21074301.7664   21074306.4414
        20.0004         19.7504
 -14946214.19346 -11376340.45546  21382180.5084   21382185.5704
        19.2504         17.7504
  -4997991.91743  -3590294.74445  23701070.1484   23701081.7544
         6.5004          6.7504
  -6800542.14046  -5146826.51046  21223163.6254   21223168.6294
        19.7504         19.7504
    823575.90042    432913.99644  24792941.5784   24792954.7894
         4.5004          4.5004
  -3979166.66943  -2838107.43045  24112457.6414   24112465.1564
         6.5004          6.0004
 03 11  1  0 44  0.0000000  0  7G28G 9G 4G24G 7G26G 5
   6387506.01245   4963403.46045  22795814.8364   22795820.2384
        10.2504          9.0004
 -14344595.91547 -11062089.05446  21070958.2974   21070962.9614
        20.0004         20.0004
 -14995998.21246 -11415133.11846  21372706.8754   21372711.5394
        19.5004         17.7504
  -5092685.58343  -3664081.66645  23683049.7814   23683055.8984
         6.0004          6.5004
  -6736411.56846  -5096854.64746  21235367.0784   21235372.0944
        19.7504         19.5004
    927708.92042    514056.39645  24812759.1954   24812769.1024
         4.5004          5.2504
  -4057384.00543  -2899055.92945  24097571.9064   24097578.7034
         6.7504          6.0004
 03 11  1  0 44 30.0000000  0  7G28G 9G 4G24G 7G26G 5
   6469841.81745   5027561.23245  22811482.9304   22811488.2854
        10.2504          9.5004
 -14361656.83447 -11075383.23346  21067711.7504   21067716.6254
        20.0004         20.0004
 -15045347.90746 -11453587.34946  21363315.8204   21363320.4494
        19.0004         17.2504
  -5187333.86343  -3737833.31345  23665039.6174   23665052.8874
         6.5004          7.2504
  -6672132.58046  -5046767.12746  21247599.0554   21247604.3874
        19.7504         19.5004
   1031779.67941    595150.53643  24832562.1334   24832569.6134
         3.7504          3.2504
  -4135642.98644  -2960036.73245  24082681.0164   24082686.4414
         7.2504          5.2504
 03 11  1  0 45  0.0000000  0  7G28G 9G 4G24G 7G26G 5
   6552307.12645   5091819.89445  22827175.1954   22827179.9414
        11.0004         10.0004
 -14378210.80247 -11088282.38346  21064561.8204   21064566.5554
        20.5004         20.0004
 -15094264.34746 -11491703.98146  21354006.8674   21354011.3914
        19.0004         17.2504
  -5281937.27143  -3811549.90345  23647036.1884   23647046.2114
         6.7504          7.0004
  -6607709.85246  -4996567.60946  21259857.9614   21259862.7424
        19.7504         19.7504
   1135782.07842    676191.17943  24852354.6174   24852368.5554
         4.5004          3.7504
  -4213945.62444  -3021051.71845  24067779.8594   24067787.5274
         7.0004          5.7504
 03 11  1  0 45 30.0000000  0  7G28G 9G 4G24G 7G26G 5
   6634905.29645   5156182.03945  22842893.1954   22842899.5004
        10.5004          9.2504
 -14394252.96947 -11100782.74146  21061508.8754   21061513.3054
        20.2504         20.0004
 -15142741.48346 -11529478.28946  21344782.0864   21344786.4344
        19.0004         17.7504
  -5376489.56443  -3885226.77545  23629043.1414   23629051.5824
         6.5004          6.5004
  -6543141.14246  -4946254.33446  21272145.1254   21272150.2584
        19.7504         19.7504
   1239716.62642    757178.94644  24872132.5944   24872146.4024
         4.0004          4.7504
  -4292287.35943  -3082097.14345  24052872.3754   24052879.7734
         6.7504          5.7504
 03 11  1  0 46  0.0000000  0  7G28G 9G 4G24G 7G26G 5
   6717637.67845   5220648.82945  22858637.2894   22858642.6804
        11.5004         10.0004
 -14409780.88647 -11112882.37046  21058553.8914   21058558.7544
        20.2504         20.0004
 -15190775.71646 -11566907.48246  21335641.8754   21335646.3634
        19.5004         17.5004
  -5470986.59243  -3958860.55745  23611059.6484   23611069.6484
         5.5004          6.5004
  -6478426.42446  -4895827.27846  21284459.9304   21284464.8284
        19.7504         19.7504
   1343581.94841    838112.72144  24891896.0314   24891904.8594
         3.5004          4.5004
  -4370665.97843  -3143171.19745  24037957.1414   24037967.9144
         6.2504          7.0004
 03 11  1  0 46 30.0000000  0  7G28G 9G 4G24G 7G26G 5
   6800500.02945   5285216.85545  22874404.9844   22874409.7664
        11.0004         10.2504
 -14424797.52947 -11124583.60746  21055696.6024   21055701.4064
        20.5004         20.2504
 -15238369.01446 -11603993.09646  21326584.8674   21326589.2274
        19.7504         17.7504
  -5565429.55242  -4032452.27145  23593087.3914   23593095.6214
         4.5004          5.5004
  -6413571.44746  -4845290.93746  21296801.5704   21296806.6914
        19.7504         19.5004
   1447370.85042                  24911646.3284
         4.0004
  -4449084.77743  -3204276.65145  24023034.4774   24023041.3714
         5.7504          6.7504
 03 11  1  0 47  0.0000000  0  7G28G 9G 4G24G 7G26G 5
   6883491.77045   5349885.74445  22890197.3444   22890200.9654
        10.7504          9.5004
 -14439301.63547 -11135885.46646  21052936.3594   21052940.9184
        20.7504         20.5004
 -15285519.30246 -11640733.50846  21317612.1414   21317616.1604
        19.5004         17.5004
  -5659815.94442  -4105999.75245  23575126.9384   23575136.2704
         4.7504          5.7504
  -6348577.69346  -4794646.46046  21309169.2504   21309174.5354
        19.7504         19.5004
   1551080.31742                  24931382.6094
         4.5004
  -4527542.35643  -3265412.23345  24008103.6644   24008113.3714
         5.5004          6.0004
 03 11  1  0 47 30.0000000  0  7G28G 9G 4G24G 7G26G 5
   6966611.25145   5414654.13245  22906015.0634   22906020.5124
        10.7504          9.5004
 -14453293.85747 -11146788.45646  21050273.4384   21050277.8674
        20.2504         20.5004
 -15332226.14546 -11677128.37446  21308724.2114   21308728.8404
        19.2504         17.7504
  -5754144.56543  -4179502.29745  23557175.8674   23557183.7234
         6.7504          8.5004
  -6283448.04046  -4743896.08346  21321563.3594   21321568.5274
        19.5004         19.5004
   1654705.60642                  24951101.9924
         4.5004
  -4606040.07843  -3326579.11045  23993165.9454   23993172.0864
         5.5004          6.2504
 03 11  1  0 48  0.0000000  0  7G28G 9G 4G24G 7G26G 5
   7049849.52745   5479515.16545  22921854.3444   22921859.5124
        10.0004          9.0004
 -14466781.56247 -11157298.31246  21047707.0554   21047711.6254
        20.5004         20.0004
 -15378495.59946 -11713182.42846  21299919.2584   21299923.3244
        19.5004         17.7504
  -5848421.15545  -4252964.25945  23539236.6094   23539247.1254
         8.7504          9.0004
  -6218192.64546  -4693047.71846  21333980.8674   21333986.0354
        19.5004         19.5004
   1758235.72042                  24970803.3914
         4.2504
  -4684585.45343  -3387783.14945  23978218.9384   23978226.8984
         5.7504          6.0004
 03 11  1  0 48 30.0000000  0  7G28G 9G 4G24G 7G26G 5
   7133210.85545   5544472.02145  22937717.9384   22937723.5044
        10.5004          9.5004
 -14479759.49747 -11167410.94646  21045237.3284   21045241.8284
        20.5004         20.2504
 -15424321.41446 -11748890.78546  21291198.9774   21291203.4534
        19.5004         17.7504
  -5942638.35245  -4326379.95245  23521307.4534   23521316.6094
         8.2504          9.5004
  -6152808.46846  -4642099.00146  21346423.3134   21346428.3984
        19.5004         19.2504
   1861671.81742                  24990486.2344
         4.7504
  -4763173.15143  -3449020.12845  23963264.2424   23963270.8874
         6.0004          7.0004
 03 11  1  0 49  0.0000000  0  7G28G 9G 4G24G 7G26G 5
   7216695.18745   5609524.78145  22953604.8284   22953610.7464
        10.0004          9.5004
 -14492226.21047 -11177125.22546  21042864.9454   21042869.8204
        20.5004         20.2504
 -15469701.25546 -11784251.63346  21282563.4064   21282567.6374
        19.5004         17.7504
  -6036793.57343  -4399747.35545  23503389.4614   23503398.1724
         6.7504          8.2504
  -6087296.80746  -4591050.94346  21358889.6724   21358894.8404
        19.5004         19.2504
   1965011.27043                  25010151.9454
         5.0004
  -4841801.67743  -3510288.93745  23948302.1484   23948311.2464
         6.5004          6.0004
 03 11  1  0 49 30.0000000  0  7G28G 9G 4G24G 7G26G 5
   7300306.41345   5674676.38645  22969515.0784   22969520.0474
         9.7504          9.2504
 -14504176.56347 -11186437.14746  21040590.9774   21040595.5004
        20.5004         20.5004
 -15514628.89146 -11819260.11446  21274013.8134   21274018.1954
        19.2504         18.0004
  -6130879.96943  -4473061.03845  23485485.3594   23485496.6954
         6.0004          6.7504
  -6021654.97546  -4539901.46446  21371380.5004   21371385.3404
        19.2504         18.7504
   2068254.97642  -1198114.19154  25029799.1564   25029810.1294
         4.7504          4.7504
  -4920466.20843  -3571585.81945  23933332.9534   23933340.8554
         6.7504          7.2504
 03 11  1  0 50  0.0000000  0  7G28G 9G 4G24G 7G26G 5
   7384043.06845   5739925.77245  22985449.9144   22985454.8834
         9.5004          9.5004
 -14515610.69647 -11195346.82146  21038415.1804   21038419.5044
        20.7504         20.5004
 -15559103.71646 -11853915.75846  21265550.5704   21265555.0354
        19.7504         18.2504
  -6224895.59943  -4546319.66145  23467594.9924   23467602.0514
         6.5004          6.7504
  -5955885.60746  -4488652.58946  21383895.9454   21383901.2194
        18.7504         19.0004
   2171399.10742  -1117742.38245  25049426.6724   25049444.2194
         4.5004          5.0004
  -4999167.22344  -3632911.08345  23918356.0864   23918363.3674
         7.0004          7.0004
 03 11  1  0 50 30.0000000  0  7G28G 9G 4G24G 7G26G 5
   7467907.01645   5805274.29845  23001408.9694   23001413.4804
         9.7504          9.5004
 -14526525.48747 -11203851.81346  21036337.5864   21036342.3914
        20.2504         20.2504
 -15603121.34146 -11888215.13546  21257174.3524   21257178.8404
        19.5004         17.7504
  -6318835.88044  -4619519.64745  23449718.6174   23449727.5274
         7.2504          6.2504
  -5889988.00346  -4437303.79846  21396436.0314   21396441.2584
        18.7504         18.2504
   2274442.93642  -1037448.59343  25069035.3444   25069049.1054
         4.7504          3.7504
  -5077901.32944  -3694262.12745  23903373.4304   23903380.0634
         7.0004          7.7504
 03 11  1  0 51  0.0000000  0  7G28G 9G 4G24G 7G26G 5
   7551891.86745   5870717.08745  23017390.5084   23017395.9104
         8.7504          9.5004
 -14536926.09647 -11211956.14846  21034358.9144   21034363.6374
        21.0004         20.2504
 -15646685.88746 -11922161.47846  21248884.0314   21248888.3204
        19.5004         18.0004
  -6412704.42244  -4692663.70845  23431855.1094   23431864.2074
         7.0004          8.0004
  -5823969.65346  -4385860.92146  21408998.6954   21409003.8054
        18.7504         18.5004
   2377377.17142   -957240.35644  25088623.8204   25088638.4384
         4.5004          4.7504
  -5156674.00543  -3755643.24745  23888383.6334   23888394.6764
         6.7504          7.5004
 03 11  1  0 51 30.0000000  0  7G28G 9G 4G24G 7G26G 5
   7635998.87245   5936254.96345  23033395.0554   23033400.2814
         9.0004          8.7504
 -14546810.19647 -11219658.00646  21032478.0784   21032482.5314
        21.0004         20.5004
 -15689793.79846 -11955752.00546  21240680.9224   21240685.1644
        19.7504         18.0004
  -6506496.70543  -4765748.26745  23414006.4774   23414016.3954
         6.0004          7.2504
  -5757830.35646  -4334323.79346  21421584.9064   21421590.2854
        18.7504         18.5004
   2480200.71041                  25108189.4224
         3.7504
  -5235482.47544  -3817052.23745  23873386.8834   23873396.1214
         7.2504          7.5004
 03 11  1  0 52  0.0000000  0  7G28G 9G 4G24G 7G26G 5
   7720233.47645   6001892.35045  23049423.9844   23049430.0084
         8.5004          9.2504
 -14556171.00647 -11226952.10146  21030696.5314   21030701.2424
        20.5004         20.5004
 -15732437.43747 -11988980.75046  21232566.2194   21232570.5084
        20.0004         18.2504
  -6600204.33443  -4838766.90045  23396174.6174   23396183.6564
         6.0004          7.2504
  -5691565.92146  -4282689.15746  21434194.4454   21434199.5314
        18.7504         18.5004
   2582916.39741                  25127735.4694
         3.2504
  -5314320.07744  -3878483.89545  23858384.4224   23858391.1844
         7.7504          8.0004
 03 11  1  0 52 30.0000000  0  7G28G 9G 4G24G 7G26G 5
   7804591.36345   6067625.77845  23065476.8594   23065481.2424
         8.7504          8.7504
 -14565011.69747 -11233840.90846  21029014.1174   21029018.6994
        21.0004         20.5004
 -15774619.01547 -12021849.45046  21224539.0164   21224543.9964
        20.0004         18.5004
  -6693828.37943  -4911720.40845  23378358.4774   23378367.6214
         6.7504          7.2504
  -5625181.86446  -4230961.31646  21446826.8364   21446832.0864
        18.7504         18.2504
   2685517.08442                  25147261.2274
         4.0004
  -5393190.01644  -3939940.83345  23843375.6884   23843383.4494
         7.7504          7.2504
 03 11  1  0 53  0.0000000  0  7G28G 9G 4G24G 7G26G 5
   7889068.14845   6133451.83645  23081552.8054   23081557.0824
         8.7504          8.5004
 -14573335.28647 -11240326.78946  21027430.0164   21027434.3984
        21.0004         20.5004
 -15816340.64847 -12054359.75646  21216599.6804   21216604.6844
        20.0004         18.2504
  -6787370.34344  -4984610.02945  23360558.4384   23360565.7074
         7.7504          7.7504
  -5558683.61046  -4179144.48246  21459481.3674   21459486.2664
        18.5004         18.2504
   2787995.81042                  25166763.7344
         4.0004
  -5472095.45844  -4001425.37145  23828360.2114   23828367.5514
         7.7504          6.7504
 03 11  1  0 53 30.0000000  0  7G28G 9G 4G24G 7G26G 5
   7973670.05445   6199375.37245  23097651.8364   23097657.0864
         8.2504          8.7504
 -14581134.65747 -11246404.19246  21025945.8754   21025950.7034
        20.5004         20.5004
 -15857593.88947 -12086505.08846  21208749.3594   21208753.5784
        20.0004         18.5004
  -6880821.09645  -5057428.62845  23342775.0394   23342782.7074
         8.0004          8.2504
  -5492065.96546  -4127234.60746  21472157.8284   21472162.8794
        18.5004         18.0004
   2890356.42641                  25186239.7194
         3.0004
  -5551028.39044  -4062931.41645  23813339.1334   23813348.5234
         7.5004          7.2504
 03 11  1  0 54  0.0000000  0  7G28G 9G 4G24G 7G26G 5
   8058395.94145   6265395.57445  23113774.3914   23113780.4024
         8.7504          8.5004
 -14588409.98147 -11252073.23546  21024561.5394   21024565.9804
        21.0004         20.5004
 -15898377.80647 -12118284.70446  21200988.1564   21200992.0944
        20.2504         18.7504
  -6974178.71845  -5130174.57045  23325010.3444   23325018.6214
         9.0004          8.5004
  -5425331.31546  -4075233.55546  21484857.4144   21484862.8524
        18.7504         18.0004
   2992595.03641                  25205696.3594
         3.0004
  -5629989.12944  -4124459.09745  23798313.4924   23798322.6254
         7.2504          7.0004
 03 11  1  0 54 30.0000000  0  7G28G 9G 4G24G 7G26G 5
   8143247.76945   6331513.86645  23129920.3364   23129926.2664
         8.7504          8.0004
 -14595158.07947 -11257331.46346  21023277.3834   21023281.8134
        21.0004         20.7504
 -15938688.06247 -12149695.23246  21193317.8134   21193322.0904
        20.7504         19.0004
  -7067437.87345  -5202843.85645  23307262.8364   23307269.9884
         9.0004          8.7504
  -5358478.70146  -4023140.59146  21497579.0634   21497584.1484
        18.7504         18.5004
   3094711.04541                  25225126.6804
         3.7504
  -5708974.47543  -4186005.93245  23783282.6644   23783291.2814
         6.5004          7.2504
 03 11  1  0 55  0.0000000  0  7G28G 9G 4G24G 7G26G 5
   8228230.72745   6397734.35545  23146093.4384   23146098.8054
         8.0004          7.7504
 -14601372.85147 -11262174.11346  21022094.6024   21022099.0084
        20.7504         20.5004
 -15978517.68747 -12180731.25346  21185738.1644   21185742.7704
        20.2504         19.0004
  -7160590.60145  -5275430.16745  23289536.6724   23289544.6094
         9.0004          9.0004
  -5291504.20646  -3970952.64446  21510323.7814   21510328.4804
        18.7504         18.0004
   3196706.98841  -1217012.14855  25244537.4144   25244549.6644
         3.5004          5.5004
  -5787977.86643  -4247566.85045  23768248.8834   23768256.2464
         6.5004          6.5004
 03 11  1  0 55 30.0000000  0  7G28G 9G 4G24G 7G26G 5
   8313338.55945   6464052.07645  23162288.2974   23162293.1374
         9.2504          8.0004
 -14607059.35247 -11266605.13046  21021012.4924   21021016.9804
        20.7504         20.5004
 -16017870.42847 -12211395.67446  21178249.5084   21178253.8914
        20.5004         19.2504
  -7253640.16244  -5347936.14045  23271829.1954   23271835.8984
         7.5004          8.5004
  -5224414.99446  -3918675.31646  21523090.1484   21523095.5274
        18.5004         17.7504
   3298574.34441  -1137635.24144  25263921.4454   25263933.8014
         3.2504          4.7504
  -5867004.11543  -4309145.51545  23753210.4454   23753216.5394
         6.7504          7.0004
 03 11  1  0 56  0.0000000  0  7G28G 9G 4G24G 7G26G 5
   8398569.92945   6530466.14845  23178506.8594   23178511.5354
         8.7504          8.0004
 -14612217.78347 -11270624.66246  21020030.9694   21020035.4454
        21.0004         20.5004
 -16056745.75847 -12241688.08146  21170852.0394   21170856.6094
        20.7504         19.2504
  -7346584.81745  -5420360.34945  23254142.7974   23254150.7704
         8.2504          8.2504
  -5157213.58446  -3866310.56746  21535878.3134   21535883.0944
        18.5004         18.0004
   3400309.08742  -1058361.75443  25283281.0084   25283292.4494
         4.0004          3.7504
  -5946053.25944  -4370742.08545  23738168.0864   23738174.4384
         7.2504          7.0004
 03 11  1  0 56 30.0000000  0  7G28G 9G 4G24G 7G26G 5
   8483926.67545   6596977.92145  23194751.0704   23194755.9104
         9.7504          8.5004
 -14616845.28447 -11274230.48546  21019150.6174   21019155.3284
        21.0004         20.7504
 -16095139.59747 -12271605.30646  21163545.8444   21163550.0274
        21.0004         19.2504
  -7439419.60345  -5492698.93645  23236477.6094   23236485.8164
         9.0004          8.7504
  -5089899.09546  -3813857.70146  21548687.8834   21548693.1454
        18.2504         18.5004
   3501910.55942                  25302617.3754
         4.7504
  -6025122.07344  -4432353.94145  23723121.7894   23723129.3054
         7.5004          8.0004
 03 11  1  0 57  0.0000000  0  7G28G 9G 4G24G 7G26G 5
   8569407.80445   6663586.54145  23211016.8754   23211022.2194
         9.2504          8.5004
 -14620941.92947 -11277422.64946  21018371.0164   21018375.5044
        21.2504         21.0004
 -16133050.86747 -12301146.50046  21156331.2034   21156335.9024
        20.5004         19.2504
  -7532142.73645  -5564950.53945  23218831.7274   23218837.2584
         8.2504          7.7504
  -5022473.50946  -3761318.27046  21561518.3524   21561523.6254
        18.2504         18.0004
   3603375.18442                  25321925.0634
         4.5004
  -6104210.18044  -4493980.87045  23708070.8594   23708076.2384
         7.7504          6.5004
 03 11  1  0 57 30.0000000  0  7G28G 9G 4G24G 7G26G 5
   8655009.55145   6730289.21645  23227305.9924   23227309.0984
         9.2504          8.5004
 -14624510.60547 -11280203.40846  21017691.7504   21017696.1454
        21.0004         20.7504
 -16170481.33647 -12330313.04946  21149208.9144   21149213.4384
        21.5004         20.0004
  -7624754.86744  -5637115.63045  23201206.8444   23201212.7504
         7.2504          7.5004
  -4954941.63646  -3708696.02446  21574369.6954   21574374.9104
        18.2504         18.0004
   3704696.82641                  25341205.2584
         3.2504
  -6183320.15344  -4555624.78745  23693016.5314   23693021.8984
         7.2504          7.0004
 03 11  1  0 58  0.0000000  0  7G28G 9G 4G24G 7G26G 5
   8740731.85945   6797085.80145  23243619.5944   23243624.2344
         9.5004          9.0004
 -14627550.36747 -11282572.03446  21017113.1094   21017117.5744
        21.0004         20.7504
 -16207429.13247 -12359103.48846  21142177.8134   21142182.1724
        21.5004         19.5004
  -7717252.68644  -5709191.62845  23183605.6094   23183614.2274
         7.5004          7.5004
  -4887304.86046  -3655992.04146  21587240.1484   21587245.6684
        18.2504         17.7504
   3805872.82241                  25360457.4614
         2.5004
  -6262450.42643  -4617284.54545  23677958.0944   23677962.7934
         6.7504          6.7504
 03 11  1  0 58 30.0000000  0  7G28G 9G 4G24G 7G26G 5
   8826577.59845   6863978.59545  23259954.6334   23259960.5634
         8.7504          7.7504
 -14630057.36747 -11284525.51346  21016636.1954   21016640.7074
        21.0004         20.7504
 -16243889.47847 -12387514.09046  21135239.4224   21135243.6524
        21.2504         19.5004
  -7809630.58945  -5781174.22845  23166026.7974   23166033.3014
         8.2504          8.0004
  -4819561.22146  -3603204.78746  21600131.3754   21600136.2854
        18.2504         17.7504
   3906903.55041  -1219735.83054  25379686.2034   25379699.6954
         3.7504          4.5004
  -6341596.96644  -4678956.98845  23662897.8204   23662905.0554
         7.0004          8.0004
 03 11  1  0 59  0.0000000  0  7G28G 9G 4G24G 7G26G 5
   8912551.91045   6930971.51545  23276315.1174   23276320.8484
         9.2504          8.7504
 -14632025.47547 -11286059.07346  21016261.9064   21016266.3594
        21.2504         20.7504
 -16279854.84647 -12415538.99646  21128395.5554   21128399.8324
        21.7504         19.7504
  -7901880.00245  -5853056.69945  23148471.3524   23148477.7384
         8.2504          8.7504
  -4751706.48246  -3550330.95346  21613043.7584   21613048.7504
        18.2504         17.5004
   4007791.86442  -1141121.62343  25398885.0554   25398906.5204
         4.5004          3.2504
  -6420753.30844  -4740637.03645  23647833.8054   23647841.2154
         7.2504          7.5004
 03 11  1  0 59 30.0000000  0  7G28G 9G 4G24G 7G26G 5
   8998643.73545   6998056.01945  23292698.0004   23292700.7774
         8.0004          7.7504
 -14633464.85147 -11287180.63746  21015987.7664   21015992.2544
        21.2504         21.0004
 -16315334.55647 -12443185.46946  21121644.0944   21121648.3134
        21.2504         19.5004
  -7994009.20045  -5924845.47945  23130941.1094   23130948.0044
         8.7504          8.7504
  -4683752.70646  -3497379.96246  21625974.9694   21625979.8794
        18.0004         17.2504
   4108524.08241                  25418052.3054
         3.5004
  -6499928.50044  -4802331.80445  23632768.2894   23632776.1564
         7.7504          8.5004
 03 11  1  1  0  0.0000000  0  7G28G 9G 4G24G 7G26G 5
   9084859.66145   7065237.25545  23309104.1024   23309108.1804
         8.5004          8.7504
 -14634368.10247 -11287884.44446  21015816.0234   21015820.3714
        21.0004         20.7504
 -16350320.07547 -12470446.86446  21114986.5314   21114990.4574
        21.7504         20.2504
  -8086008.50645  -5996533.00745  23113433.1484   23113442.4694
         8.7504          8.2504
  -4615694.28046  -3444347.41646  21638925.9924   21638931.0434
        18.0004         17.2504
  -1538562.51951                  25437192.6094
         2.7504
  -6579114.98845  -4864035.33245  23617699.2894   23617706.5354
         8.0004          8.0004
 03 11  1  1  0 30.0000000  0  7G28G 9G 4G24G 7G26G 5
   9171199.06945   7132514.68945  23325533.6334   23325538.8134
         8.0004          8.0004
 -14634735.19547 -11288170.46146  21015746.0394   21015750.3404
        21.0004         20.7504
 -16384810.07647 -12497322.12846  21108423.0474   21108427.3834
        21.5004         20.0004
  -8177875.49145  -6068117.49645  23095951.7734   23095958.4774
         9.7504          9.2504
  -4547532.84746  -3391234.60446  21651896.7584   21651901.3984
        17.7504         17.2504
                                  25456303.8754
         3.7504
  -6658311.73845  -4925746.89145  23602628.6724   23602636.0824
         8.5004          8.5004
 03 11  1  1  1  0.0000000  0  7G28G 9G 4G24G 7G26G 5
   9257664.54044   7199890.36945  23341987.6884   23341994.6764
         7.2504          7.5004
 -14634562.73747 -11288036.05146  21015778.5004   21015783.1174
        21.2504         20.7504
 -16418799.96447 -12523807.70146  21101954.9064   21101959.2894
        21.2504         20.0004
  -8269604.40345  -6139594.36445  23078496.8054   23078504.8954
        10.5004          9.0004
  -4479266.85946  -3338040.33246  21664887.2194   21664892.3164
        17.7504         17.2504
  -1478498.33542                  25475384.5554
         4.2504
  -6737515.07945  -4987463.60145  23587556.4614   23587561.6524
         8.5004          8.2504
 03 11  1  1  1 30.0000000  0  7G28G 9G 4G24G 7G26G 5
   9344256.10244   7267364.32245  23358465.7814   23358470.6914
         7.5004          7.5004
 -14633849.72447 -11287480.43346  21015914.2584   21015918.5594
        21.0004         20.7504
 -16452287.90547 -12549902.14246  21095582.4534   21095586.5434
        21.5004         20.5004
  -8361192.21245  -6210961.28945  23061067.2584   23061075.7114
         9.0004          9.5004
  -4410897.27746  -3284765.34146  21677897.4694   21677902.4844
        17.5004         17.0004
  -1378384.91741                  25494435.6804
         3.7504
  -6816723.32144  -5049184.18145  23572482.7344   23572488.3594
         7.7504          7.7504
 03 11  1  1  2  0.0000000  0  7G28G 9G 4G24G 7G26G 5
   9430975.16944   7334937.59445  23374967.6954   23374973.5434
         7.2504          7.5004
 -14632593.94847 -11286501.87746  21016153.4224   21016158.0164
        21.0004         20.7504
 -16485270.57347 -12575602.86346  21089306.1254   21089310.3914
        21.7504         20.2504
  -8452634.64845  -6282214.91745  23043665.4144   23043674.4774
         8.0004          9.0004
  -4342423.58246  -3231409.21946  21690927.5314   21690932.6294
        17.5004         17.0004
  -1278429.50541                  25513455.2894
         3.0004
  -6895933.62444  -5110906.33945  23557409.0704   23557415.3404
         7.7504          7.5004
 03 11  1  1  2 30.0000000  0  7G28G 9G 4G24G 7G26G 5
   9517820.02144   7402608.88445  23391494.0704   23391498.6524
         7.7504          7.7504
 -14630796.14347 -11285100.96346  21016495.0634   21016499.5164
        21.0004         21.0004
 -16517747.58747 -12600909.56546  21083125.8754   21083130.0234
        21.5004         20.2504
  -8543929.94445  -6353353.90145  23026292.6414   23026300.2034
         8.5004          9.0004
  -4273848.24746  -3177973.92446  21703977.1484   21703981.9774
        17.5004         16.7504
                                  25532447.1174
         2.7504
  -6975146.01245  -5172630.10745  23542336.3834   23542344.5204
         8.0004          8.2504
 03 11  1  1  3  0.0000000  0  7G28G 9G 4G24G 7G26G 5
   9604791.68244   7470378.97945  23408044.1724   23408049.4104
         7.5004          7.2504
 -14628454.99147 -11283276.65146  21016940.7034   21016944.8524
        21.0004         20.7504
 -16549716.53547 -12625820.38146  21077042.2584   21077046.3834
        21.5004         20.2504
  -8635074.25545  -6424375.25145  23008948.8754   23008955.3324
         9.2504          9.2504
  -4205171.50946  -3124459.60146  21717046.0314   21717051.3634
        17.7504         16.5004
  -1479117.25941                  25551404.5004
         3.5004
  -7054358.13145  -5234353.72645  23527262.3054   23527271.6954
         8.5004          8.7504
 03 11  1  1  3 30.0000000  0  7G28G 9G 4G24G 7G26G 5
   9691885.43344   7538244.26145  23424616.8754   23424622.5594
         7.7504          7.7504
 -14625573.98547 -11281031.68246  21017489.2114   21017493.4884
        21.0004         20.7504
 -16581180.00847 -12650337.31546  21071054.6954   21071058.7974
        21.5004         20.2504
  -8726069.06545  -6495280.10845  22991633.5164   22991641.7234
         9.7504          9.7504
  -4136398.76846  -3070870.48046  21730132.8364   21730137.8524
        17.7504         16.7504
  -1379658.18042                  25570329.4384
         4.0004
  -7133573.03745  -5296079.49445  23512188.5944   23512195.9104
         8.2504          8.2504
 03 11  1  1  4  0.0000000  0  7G28G 9G 4G24G 7G26G 5
   9779103.11244   7606205.99945  23441213.6414   23441218.2704
         7.2504          7.2504
 -14622150.74747 -11278364.18446  21018140.5944   21018145.0234
        21.0004         21.0004
 -16612134.46947 -12674457.61946  21065164.4224   21065168.2664
        21.5004         20.5004
  -8816909.43945  -6566064.62645  22974346.6094   22974353.5744
         9.5004          9.5004
  -4067529.19146  -3017205.90846  21743238.4774   21743242.9064
        17.7504         17.0004
  -1280370.26041                  25589225.9614
         3.7504
  -7212787.46744  -5357804.86445  23497113.6414   23497122.4344
         7.5004          9.0004
 03 11  1  1  4 30.0000000  0  7G28G 9G 4G24G 7G26G 5
   9866441.83144   7674262.20645  23457834.2894   23457840.2664
         7.2504          8.5004
 -14618187.60347 -11275275.98346  21018894.5474   21018899.3874
        21.0004         21.0004
 -16642581.03447 -12698182.15346  21059370.3984   21059374.5944
        21.5004         20.5004
  -8907595.62845  -6636729.03245  22957087.8444   22957094.9144
         8.2504          9.2504
  -3998566.69046  -2963468.92946  21756361.6174   21756366.5044
        17.5004         16.7504
                                  25608082.1414
         1.7504
  -7292002.63043  -5419530.85745  23482039.7194   23482046.2584
         6.7504          8.0004
 03 11  1  1  5  0.0000000  0  6G28G 9G 4G24G 7G 5
   9953905.66044   7742415.74945  23474478.8674   23474484.4104
         7.7504          7.5004
 -14613679.50547 -11271763.14146  21019752.4694   21019756.8404
        21.0004         21.0004
 -16672513.76047 -12721506.30546  21053674.2344   21053678.2894
        21.2504         20.5004
  -8998120.22545  -6707267.42245  22939863.3834   22939869.6524
         9.5004          9.2504
  -3929507.84746  -2909656.87846  21769502.8914   21769507.7194
        17.5004         16.7504
  -7371212.85144  -5481252.91445  23466966.5314   23466973.9064
         7.2504          8.0004
 03 11  1  1  5 30.0000000  0  7G28G 9G 4G24G 7G26G 5
  10041495.35444   7810667.45345  23491146.2504   23491151.6994
         7.0004          7.5004
 -14608625.29047 -11267824.75646  21020713.7034   21020718.0044
        20.7504         21.0004
 -16701930.04747 -12744428.02846  21048076.7814   21048081.2464
        21.2504         20.2504
  -9088479.18145  -6777676.87945  22922667.8284   22922676.4454
        10.0004          9.5004
  -3860352.83246  -2855769.87746  21782662.8204   21782667.7894
        17.5004         16.7504
  -1539231.34652                  25645705.8984
         4.0004
  -7450416.23144  -5542969.72845  23451894.2894   23451901.7464
         7.2504          8.0004
 03 11  1  1  6  0.0000000  0  7G28G 9G 4G24G 7G26G 5
  10129212.23244   7879018.17845  23507838.4224   23507845.7154
         7.7504          8.2504
 -14603023.14047 -11263459.40546  21021780.1174   21021784.4884
        21.2504         21.0004
 -16730826.84647 -12766944.95846  21042577.7814   21042582.1294
        21.0004         20.2504
  -9178668.14345  -6847953.83145  22905505.3364   22905512.4654
        10.2504          9.2504
  -3791101.18746  -2801807.58646  21795840.8284   21795845.8444
        17.5004         16.5004
  -1440647.22743                  25664468.5084
         5.0004
  -7529609.48245  -5604678.63545  23436824.9224   23436832.3444
         8.0004          8.0004
 03 11  1  1  6 30.0000000  0  6G28G 9G 4G24G 7G 5
  10217054.78345   7947466.94345  23524554.4454   23524559.8954
         8.0004          7.5004
 -14596874.03547 -11258667.86646  21022950.3914   21022954.8094
        21.0004         21.0004
 -16759204.25547 -12789057.16846  21037177.6724   21037181.7384
        21.5004         20.5004
  -9268685.54445  -6918097.12545  22888376.0704   22888383.6094
         9.2504          9.7504
  -3721755.53846  -2747772.02046  21809037.0634   21809041.7854
        17.2504         16.5004
  -7608792.63545  -5666379.67245  23421756.7114   23421762.8404
         8.2504          8.5004
 03 11  1  1  7  0.0000000  0  6G28G 9G 4G24G 7G 5
  10305019.70444   8016011.01245  23541293.3444   23541299.6134
         7.5004          7.7504
 -14590180.50747 -11253452.09746  21024223.7584   21024227.8714
        21.0004         21.0004
 -16787063.87047 -12810765.90346  21031876.0704   21031880.3834
        21.0004         20.2504
  -9358532.17045  -6988107.30345  22871277.3754   22871285.3714
         8.7504          9.2504
  -3652319.83046  -2693666.28846  21822250.0314   21822254.6724
        17.2504         17.0004
  -7687967.12145  -5728073.94245  23406690.2664   23406699.3754
         8.2504          8.0004
 03 11  1  1  7 30.0000000  0  6G28G 9G 4G24G 7G 5
  10393111.93745   8084654.23845  23558056.9924   23558062.8164
         9.2504          9.0004
 -14582937.06247 -11247807.81546  21025602.2664   21025606.6844
        20.7504         21.0004
 -16814399.03147 -12832065.97146  21026674.3594   21026678.2624
        21.2504         20.7504
  -9448199.65345  -7057977.90845  22854215.7974   22854222.3014
        10.7504          9.5004
  -3582790.05746  -2639487.24046  21835481.1804   21835486.2074
        17.0004         16.7504
  -7767126.77345  -5789756.63845  23391626.3364   23391632.5944
         8.0004          8.0004
 03 11  1  1  8  0.0000000  0  6G28G 9G 4G24G 7G 5
  10481328.45745   8153394.39745  23574843.8284   23574847.4494
         8.5004          7.5004
 -14575146.09347 -11241736.89746  21027085.0164   21027089.4574
        21.0004         21.0004
 -16841210.79847 -12852958.19846  21021571.9224   21021576.3404
        21.0004         20.5004
  -9537687.74945  -7127708.75245  22837185.6724   22837192.0234
         9.7504         10.0004
  -3513169.83446  -2585237.73446  21848729.3984   21848734.4264
        16.7504         16.5004
  -7846272.74845  -5851428.69845  23376564.6254   23376572.2814
         8.2504          8.5004
 03 11  1  1  8 30.0000000  0  6G28G 9G 4G24G 7G 5
  10569664.98744   8222228.08145  23591653.6254   23591657.3874
         7.7504          7.2504
 -14566811.47347 -11235242.34546  21028670.7894   21028675.3134
        20.7504         21.2504
 -16867502.12747 -12873444.88746  21016569.0704   21016573.3954
        21.5004         20.5004
  -9626997.77745  -7197300.81645  22820190.3364   22820199.2344
         8.7504          9.2504
  -3443464.58546  -2530921.96046  21861993.5474   21861998.9614
        16.7504         16.7504
  -7925408.07445  -5913092.42145  23361506.2814   23361512.3284
         9.0004          9.0004
 03 11  1  1  9  0.0000000  0  6G28G 9G 4G24G 7G 5
  10658121.14945   8291154.88345  23608486.7424   23608493.0354
         9.0004          8.0004
 -14557933.04547 -11228324.06346  21030360.4384   21030364.6334
        21.2504         21.5004
 -16893271.75847 -12893525.06646  21011665.2814   21011669.4304
        21.5004         20.5004
  -9716127.16945  -7266752.14145  22803230.5084   22803237.4264
        10.5004         10.2504
  -3373675.35846  -2476540.75046  21875274.4064   21875279.5744
        16.5004         15.7504
  -8004530.87845  -5974746.44545  23346448.7584   23346455.5204
         9.0004          9.2504
 03 11  1  1  9 30.0000000  0  6G28G 9G 4G24G 7G 5
  10746700.26944   8360177.58445  23625343.1804   23625347.1294
         7.2504          7.0004
 -14548506.77347 -11220978.88146  21032154.1724   21032158.1094
        21.2504         21.5004
 -16918514.69947 -12913194.84246  21006861.1954   21006865.3914
        21.0004         20.7504
  -9805069.17645  -7336057.43545  22786304.6334   22786311.5984
        11.2504         10.7504
  -3303799.54846  -2422092.06846  21888571.5234   21888576.8444
        16.5004         16.0004
  -8083636.49745  -6036387.03145  23331396.5164   23331404.3484
         9.2504          9.0004
 03 11  1  1 10  0.0000000  0  6G28G 9G 4G24G 7G 5
  10835399.58743   8429293.79144  23642221.1804   23642229.9844
         6.2504          4.7504
 -14538535.09347 -11213208.70546  21034051.7894   21034056.1024
        21.2504         21.2504
 -16943232.07547 -12932455.08446  21002157.7894   21002162.1374
        20.5004         20.7504
  -9893823.58446  -7405216.57445  22769416.3444   22769422.9534
        12.5004         11.0004
  -3233840.84046  -2367578.78846  21901884.4534   21901889.6914
        16.5004         16.0004
  -8162725.85445  -6098014.94445  23316345.6024   23316352.3754
         9.0004          9.2504
 03 11  1  1 10 30.0000000  0  6G28G 9G 4G24G 7G 5
  10924217.74544   8498502.89945  23659123.4924   23659127.1724
         7.5004          6.2504
 -14528019.09547 -11205014.39346  21036052.7274   21036057.0044
        21.2504         21.0004
 -16967423.89347 -12951305.80946  20997554.6804   20997558.9924
        21.2504         20.5004
  -9982388.55945  -7474228.09145  22752560.0864   22752566.2034
         9.5004          9.7504
  -3163801.39346  -2313002.60546  21915212.4924   21915217.7894
        16.5004         15.7504
  -8241798.64845  -6159629.93645  23301298.5554   23301303.8054
         8.7504          8.5004
 03 11  1  1 11  0.0000000  0  6G28G 9G 4G24G 7G 5
  11013150.43643   8567801.05845  23676045.9454   23676050.3284
         5.5004          6.2504
 -14516962.46947 -11196398.81546  21038156.7814   21038161.2704
        21.5004         21.5004
 -16991092.86947 -12969749.12246  20993050.3134   20993054.6024
        21.2504         20.7504
 -10070765.58145  -7543093.12245  22735743.7504   22735750.2424
        11.0004         10.2504
  -3093686.10546  -2258367.31746  21928555.1954   21928560.4104
        16.2504         15.7504
  -8320857.60545  -6221234.20645  23286254.4384   23286261.4614
         9.0004          9.5004
 03 11  1  1 11 30.0000000  0  6G28G 9G 4G24G 7G 5
  11102200.11242   8637190.36743  23692991.7114   23692997.9104
         4.7504          3.5004
 -14505362.22647 -11187359.63546  21040364.2974   21040368.6914
        21.0004         21.2504
 -17014234.84447 -12987781.78646  20988646.1724   20988650.4964
        21.2504         20.7504
 -10158949.12845  -7611807.43245  22718963.1644   22718969.3164
        11.0004         10.7504
  -3023493.36346  -2203671.67046  21941912.2344   21941916.8284
        16.2504         15.5004
  -8399898.82845  -6282824.61645  23271213.1644   23271220.4454
         9.2504          9.7504
 03 11  1  1 12  0.0000000  0  6G28G 9G 4G24G 7G 5
  11191367.18343   8706671.20545  23709958.7424   23709965.0704
         5.7504          5.7504
 -14493217.71047 -11177896.34246  21042675.4144   21042679.7154
        21.0004         21.0004
 -17036847.94447 -13005402.33946  20984343.3594   20984347.7074
        21.2504         20.7504
 -10246935.39345  -7680368.03845  22702219.5084   22702225.9774
        10.7504         11.0004
  -2953223.40246  -2148915.83146  21955284.0314   21955289.5044
        16.2504         15.5004
  -8478919.66145  -6344399.15045  23256176.0554   23256183.5944
         9.5004         10.0004
 03 11  1  1 12 30.0000000  0  6G28G 9G 4G24G 7G 5
  11280641.06143   8776235.27945  23726948.4534   23726950.0704
         5.7504          6.0004
 -14480539.35447 -11168017.08246  21045087.8134   21045092.0784
        21.2504         21.2504
 -17058941.53047 -13022618.08646  20980138.8284   20980142.9774
        21.2504         20.7504
 -10334731.91145  -7748780.75345  22685512.3594   22685519.5474
        10.5004         10.7504
  -2882887.53546  -2094108.63846  21968668.2974   21968673.1954
        16.0004         15.2504
  -8557929.37245  -6405965.03545  23241140.6414   23241147.5704
         9.2504         10.0004
 03 11  1  1 13  0.0000000  0  6G28G 9G 4G24G 7G 5
  11370022.93943   8845883.36645  23743956.3674   23743964.5744
         5.2504          6.0004
 -14467325.64547 -11157720.65346  21047602.2424   21047606.3554
        21.2504         21.0004
 -17080512.94647 -13039426.93746  20976033.8204   20976037.7934
        21.5004         20.7504
 -10422334.65045  -7817042.46345  22668841.9694   22668849.6254
        11.0004         10.7504
  -2812485.56346  -2039249.92346  21982065.5784   21982070.5354
        16.0004         15.7504
  -8636924.86245  -6467519.82545  23226108.1334   23226115.1914
         8.5004         10.0004
 03 11  1  1 13 30.0000000  0  6G28G 9G 4G24G 7G 5
  11459520.93743   8915622.03145  23760986.7974   23760992.8444
         6.5004          7.0004
 -14453568.15647 -11147000.51246  21050220.1174   21050224.3954
        21.0004         21.0004
 -17101552.67447 -13055821.48946  20972030.4224   20972034.7114
        21.7504         21.2504
 -10509732.45945  -7885144.52545  22652210.9384   22652216.7734
        11.2504         10.7504
  -2742009.99846  -1984333.86146  21995476.3444   21995481.3954
        16.0004         15.2504
  -8715896.19145  -6529055.80045  23211080.2734   23211086.0744
         8.7504          9.2504
 03 11  1  1 14  0.0000000  0  6G28G 9G 4G24G 7G 5
  11549123.85045   8985442.49845  23778038.7814   23778042.5204
         8.0004          8.0004
 -14439277.56047 -11135864.95346  21052939.2814   21052943.6764
        21.2504         21.0004
 -17122070.51747 -13071809.37446  20968126.0394   20968129.9774
        21.7504         21.0004
 -10596933.46845  -7953093.23445  22635616.3284   22635623.7034
        11.0004         11.2504
  -2671472.63746  -1929369.64046  22008899.2424   22008904.6214
        15.7504         15.0004
  -8794852.96845  -6590580.46945  23196054.8834   23196062.4804
         9.2504          9.7504
 03 11  1  1 14 30.0000000  0  6G28G 9G 4G24G 7G 5
  11638835.74844   9055347.81545  23795110.1484   23795116.3954
         7.5004          6.7504
 -14424449.56147 -11124310.64546  21055761.3054   21055765.6294
        21.0004         21.0004
 -17142060.75047 -13087386.14046  20964321.9844   20964325.8524
        22.0004         21.2504
 -10683930.38245  -8020882.87945  22619061.8284   22619067.5824
        11.7504         11.7504
  -2600870.18246  -1874354.69246  22022334.2974   22022339.8634
        15.7504         15.0004
  -8873789.26245  -6652089.17045  23181033.8674   23181040.9144
        10.0004          9.7504
 03 11  1  1 15  0.0000000  0  6G28G 9G 4G24G 7G 5
  11728659.14044   9125340.08045  23812202.7584   23812207.2704
         7.0004          7.2504
 -14409081.34847 -11112335.39246  21058685.7894   21058690.1254
        21.2504         21.2504
 -17161519.63047 -13102548.86346  20960618.9774   20960622.6684
        22.0004         21.5004
 -10770717.45046  -8088509.05346  22602546.8204   22602553.8794
        12.7504         12.0004
  -2530200.54246  -1819287.39546  22035782.0394   22035787.2424
        15.7504         15.0004
  -8952700.29345  -6713578.16745  23166017.4144   23166022.8754
         9.7504          9.7504
 03 11  1  1 15 30.0000000  0  6G28G 9G 4G24G 7G 5
  11818587.28344   9195413.89645  23829315.7664   23829322.8594
         7.7504          8.0004
 -14393179.51347 -11099944.32946  21061711.4844   21061715.5984
        20.7504         21.0004
 -17180452.62547 -13117301.80346  20957015.9844   20957019.9924
        22.0004         21.5004
 -10857298.45845  -8155974.64645  22586070.5084   22586077.1294
        11.5004         11.0004
  -2459471.33346  -1764173.66646  22049241.1884   22049245.8524
        15.7504         14.7504
  -9031591.59545  -6775051.78345  23151004.8134   23151011.1294
         9.5004          9.2504
 03 11  1  1 16  0.0000000  0  6G28G 9G 4G24G 7G 5
  11908626.01345   9265573.94745  23846450.9304   23846455.1724
         8.7504          8.7504
 -14376737.98047 -11087132.72246  21064840.3674   21064844.7734
        21.0004         21.2504
 -17198852.52847 -13131639.36046  20953514.7034   20953518.6524
        22.0004         21.5004
 -10943664.51345  -8223272.74045  22569635.8674   22569641.9494
        11.5004         11.2504
  -2388677.30746  -1709009.44746  22062713.1564   22062717.8324
        15.7504         15.0004
  -9110454.81345  -6836503.58145  23135998.1884   23136005.0084
         9.7504          8.7504
 03 11  1  1 16 30.0000000  0  6G28G 9G 4G24G 7G 5
  11998772.63444   9335818.07245  23863603.8204   23863610.1954
         7.0004          7.7504
 -14359759.49647 -11073902.70846  21068071.3134   21068075.4264
        20.7504         21.2504
 -17216720.76847 -13145562.63446  20950114.4694   20950118.5004
        22.0004         21.5004
 -11029815.34646  -8290403.11845  22553241.6564   22553248.2664
        12.0004         11.2504
  -2317822.04046  -1653797.50346  22076196.1804   22076201.3954
        15.2504         14.7504
  -9189291.48545  -6897934.68445  23120995.4224   23121001.9844
         9.5004          9.0004
 03 11  1  1 17  0.0000000  0  6G28G 9G 4G24G 7G 5
  12089029.26143   9406147.95445  23880779.2274   23880785.6724
         5.0004          5.2504
 -14342241.40947 -11060252.23446  21071404.9454   21071409.2464
        21.0004         21.2504
 -17234053.87047 -13159068.91246  20946816.1564   20946820.0944
        22.0004         21.5004
 -11115745.47045  -8357361.59045  22536889.5164   22536896.5864
        11.5004         11.7504
  -2246903.76346  -1598536.47446  22089691.6094   22089696.0984
        15.2504         14.7504
  -9268097.19845  -6959341.68045  23105999.0164   23106004.5124
         9.2504          9.2504
 03 11  1  1 17 30.0000000  0  6G28G 9G 4G24G 7G 5
  12179390.42844   9476559.20245  23897974.7734   23897978.7584
         7.0004          6.2504
 -14324189.22047 -11046185.56546  21074839.7894   21074843.9734
        21.0004         21.0004
 -17250856.22647 -13172161.62346  20943618.5704   20943622.6374
        22.2504         21.5004
 -11201457.58545  -8424150.07445  22520578.6414   22520584.4654
        11.0004         11.5004
  -2175928.64446  -1543231.14146  22103197.8754   22103202.3284
        15.0004         14.5004
  -9346875.63845  -7020727.34645  23091007.8594   23091013.4264
         9.2504          9.0004
 03 11  1  1 18  0.0000000  0  6G28G 9G 4G24G 7G 5
  12269855.51044   9547051.47845  23915189.5634   23915195.2464
         7.7504          9.0004
 -14305603.35147 -11031703.04846  21078376.6884   21078380.9304
        21.0004         21.2504
 -17267126.82347 -13184839.97946  20940522.1094   20940526.1764
        22.0004         21.5004
 -11286949.06546  -8490766.73745  22504310.3284   22504316.4694
        12.2504         11.7504
  -2104897.82246  -1487882.40446  22116714.4614   22116719.9344
        15.0004         14.7504
  -9425625.27045  -7082090.60945  23076021.8444   23076028.7734
         8.7504          9.0004
 03 11  1  1 18 30.0000000  0  6G28G 9G 4G24G 7G 5
  12360425.97041   9617625.89444  23932422.5314   23932430.3524
         3.7504          4.7504
 -14286482.35847 -11016803.54346  21082015.3914   21082019.7504
        20.5004         20.7504
 -17282863.26447 -13197102.10946  20937527.7974   20937531.9924
        22.2504         21.5004
 -11372215.31246  -8557207.85745  22488084.7734   22488090.7734
        12.7504         11.5004
  -2033810.66546  -1432489.78846  22130241.7424   22130247.2624
        15.0004         14.5004
  -9504343.08245  -7143429.03245  23061042.8054   23061050.4264
         9.0004          9.7504
 03 11  1  1 19  0.0000000  0  6G28G 9G 4G24G 7G 5
  -1542164.51052                  23949679.2584
         4.2504
 -14266825.78647 -11001486.70846  21085755.6954   21085759.9264
        21.0004         21.0004
 -17298063.99747 -13208946.79446  20934635.1414   20934639.3014
        22.0004         21.7504
 -11457252.85946  -8623470.75145  22471902.5704   22471908.5004
        12.0004         11.5004
  -1962667.05046  -1377053.18046  22143780.1254   22143785.0594
        14.7504         14.5004
  -9583026.79845  -7204740.86545  23046070.2894   23046076.1134
         9.7504          9.5004
 03 11  1  1 19 30.0000000  0  6G28G 9G 4G24G 7G 5
  -1451387.76645                  23966953.1954
         8.0004
 -14246638.67947 -10985756.47246  21089597.2424   21089601.6254
        20.7504         21.0004
 -17312733.11747 -13220377.23546  20931843.8984   20931847.5084
        22.2504         21.7504
 -11542064.13446  -8689557.33045  22455763.3204   22455769.1094
        12.0004         11.7504
  -1891473.05846  -1321577.30146  22157327.8594   22157332.8284
        14.5004         14.2504
  -9661679.81345  -7266028.83945  23031102.1884   23031108.6684
        10.0004          9.5004
 03 11  1  1 20  0.0000000  0  6G28G 9G 4G24G 7G 5
  -1360503.78043  -1220517.13055  23984248.3834   23984253.1294
         6.2504          7.5004
 -14225914.15647 -10969607.46746  21093541.0164   21093545.3634
        20.5004         21.0004
 -17326862.54647 -13231387.12246  20929155.2664   20929159.2274
        22.7504         22.0004
 -11626638.98246  -8755459.66146  22439670.1884   22439675.5434
        13.5004         12.2504
  -1820222.25246  -1266057.16546  22170885.9144   22170891.2344
        14.5004         14.2504
  -9740293.39845  -7327286.04045  23016142.1334   23016146.5744
        10.0004          9.7504
 03 11  1  1 20 30.0000000  0  6G28G 9G 4G24G 7G 5
  -1269512.08641  -1149614.71644  24001561.4384   24001571.5784
         2.2504          4.7504
 -14204652.03447 -10953039.55146  21097587.0474   21097591.1134
        20.7504         21.0004
 -17340451.08647 -13241975.54046  20926569.1094   20926573.1294
        22.7504         21.7504
 -11710974.60946  -8821175.62946  22423620.3204   22423625.7704
        12.7504         12.2504
  -1748915.29246  -1210493.26346  22184455.5084   22184460.2544
        14.5004         14.5004
  -9818865.01845  -7388510.59045  23001191.0864   23001196.7584
         9.7504          9.7504
 03 11  1  1 21  0.0000000  0  6G28G 9G 4G24G 7G 5
  -1178413.14043  -1078628.55845  24018899.2894   24018904.0594
         6.5004          5.7504
 -14182852.57147 -10936052.93446  21101735.3674   21101739.5634
        20.7504         21.0004
 -17353497.87047 -13252141.80646  20924086.3134   20924089.9454
        22.5004         21.7504
 -11795067.64546  -8886702.54945  22407617.4224   22407623.2704
        12.5004         11.7504
  -1677552.63446  -1154885.94346  22198035.3054   22198040.5314
        14.5004         14.0004
  -9897393.54445  -7449701.50245  22986247.0944   22986253.0354
         9.2504          9.7504
 03 11  1  1 21 30.0000000  0  6G28G 9G 4G24G 7G 5
  -1087212.07045  -1007562.56244  24036254.2114   24036257.3634
         8.5004          4.5004
 -14160520.62547 -10918651.37646  21105985.0084   21105989.3554
        20.7504         21.0004
 -17366006.81747 -13261888.97746  20921705.9844   20921710.0044
        22.2504         22.0004
 -11878920.18646  -8952042.06146  22391661.9614   22391667.8204
        13.2504         12.5004
  -1606139.99546  -1099239.70146  22211624.7034   22211629.6954
        14.5004         14.0004
  -9975881.79745  -7510861.03445  22971310.5234   22971317.9804
         9.5004         10.2504
 03 11  1  1 22  0.0000000  0  6G28G 9G 4G24G 7G 5
   -995902.41044   -936411.91345  24053629.7894   24053629.6844
         7.0004          5.7504
 -14137649.72347 -10900829.86446  21110337.2894   21110341.7074
        20.7504         21.0004
 -17377970.22047 -13271211.03846  20919429.1024   20919432.8634
        22.7504         21.5004
 -11962522.59546  -9017186.67046  22375751.7504   22375757.6914
        13.0004         12.2504
  -1534671.25746  -1043549.72646  22225224.4224   22225228.9574
        14.2504         14.2504
 -10054321.03845  -7571982.39145  22956385.0164   22956391.3914
        10.0004         10.0004
 03 11  1  1 22 30.0000000  0  6G28G 9G 4G24G 7G 5
   -904489.15942   -865181.00245  24071022.7114   24071028.4534
         4.0004          7.0004
 -14114245.49547 -10882592.77746  21114790.5314   21114794.7154
        21.0004         20.7504
 -17389392.50447 -13280111.44646  20917255.6254   20917259.2584
        22.7504         22.0004
 -12045877.39146  -9082138.35646  22359890.6414   22359896.3364
        12.7504         12.2504
  -1463152.35446   -987820.69246  22238834.1564   22238839.3594
        14.2504         13.7504
 -10132714.92145  -7633068.37545  22941467.2584   22941472.1804
        11.2504         11.0004
 03 11  1  1 23  0.0000000  0  6G28G 9G 4G24G 7G 5
   -812970.73943   -793868.05545  24088440.7424   24088445.0554
         5.7504          7.0004
 -14090306.37947 -10863938.88946  21119346.2424   21119350.5554
        20.7504         21.0004
 -17400270.94547 -13288588.08846  20915185.4694   20915189.3364
        22.7504         22.0004
 -12128979.74746  -9146893.31446  22344076.2504   22344081.2894
        13.0004         12.2504
  -1391582.06246   -932051.59846  22252453.5944   22252458.1884
        14.2504         13.7504
 -10211059.25246  -7694115.80745  22926559.0864   22926565.6374
        12.5004         11.7504
 03 11  1  1 23 30.0000000  0  6G28G 9G 4G24G 7G 5
   -721353.15144   -722477.69745  24105874.6174   24105879.8794
         7.5004          7.7504
 -14065838.18247 -10844872.72946  21124002.4694   21124006.7584
        20.7504         21.0004
 -17410610.37347 -13296644.71046  20913217.8674   20913221.5824
        22.7504         22.0004
 -12211832.40146  -9211453.71546  22328310.0004   22328316.3874
        13.0004         12.5004
  -1319966.81246   -876247.48046  22266081.9064   22266087.1454
        14.2504         13.7504
 -10289358.45746  -7755128.02046  22911658.8284   22911664.6884
        12.5004         12.0004
 03 11  1  1 24  0.0000000  0  6G28G 9G 4G24G 7G 5
   -629630.41043   -651005.38545  24123329.1174   24123335.3984
         6.7504          5.5004
 -14040834.86647 -10825389.59846  21128760.1414   21128764.4064
        20.7504         21.0004
 -17420403.88547 -13304275.96146  20911354.1804   20911357.6724
        22.7504         22.0004
 -12294426.32746  -9275812.45946  22312592.4064   22312598.5594
        12.7504         12.5004
  -1248300.82846   -820403.83346  22279719.0864   22279723.9494
        14.2504         13.5004
 -10367604.16245  -7816098.56946  22896769.1414   22896776.3284
        11.5004         12.0004
 03 11  1  1 24 30.0000000  0  6G28G 9G 4G24G 7G 5
   -537802.69242   -579451.27444  24140802.5314   24140811.7584
         4.7504          4.0004
 -14015297.05347 -10805489.97246  21133619.6094   21133623.8404
        20.5004         21.0004
 -17429650.67347 -13311481.17646  20909594.9384   20909598.7234
        23.0004         22.0004
 -12376758.88746  -9339967.57446  22296925.3444   22296931.4264
        13.2504         12.5004
  -1176585.12946   -764521.45146  22293366.0004   22293370.9924
        14.0004         13.5004
 -10445794.69245  -7877026.08245  22881889.5864   22881895.4574
        11.5004         11.5004
 03 11  1  1 25  0.0000000  0  6G28G 9G 4G24G 7G 5
   -445872.16841   -507817.02344  24158297.4304   24158299.1764
         3.2504          4.2504
 -13989226.96047 -10785175.58046  21138580.7114   21138584.9414
        20.5004         21.2504
 -17438352.16747 -13318261.50346  20907938.8914   20907942.4414
        22.7504         22.5004
 -12458829.01646  -9403918.16746  22281308.2814   22281314.2344
        14.0004         13.2504
  -1104822.16746   -708602.25446  22307022.6024   22307027.8404
        14.0004         13.2504
 -10523930.19445  -7937910.76445  22867020.9924   22867026.6994
        11.7504         11.5004
 03 11  1  1 25 30.0000000  0  6G28G 9G 4G24G 7G 5
   -353838.29242                  24175811.1644
         4.2504
 -13962624.37047 -10764446.25246  21143643.2974   21143647.5514
        20.5004         21.0004
 -17446506.96247 -13324615.80846  20906387.1024   20906390.7814
        23.0004         22.2504
 -12540633.33546  -9467661.67246  22265740.8134   22265746.8954
        13.2504         13.2504
  -1033011.96846   -652646.24146  22320687.6644   22320691.6724
        14.2504         13.2504
 -10602007.83445  -7998750.33845  22852163.1024   22852168.1994
        11.5004         11.5004
 03 11  1  1 26  0.0000000  0  6G28G 9G 4G24G 7G 5
   -261700.63743                  24193343.1094
         5.5004
 -13935488.88047 -10743301.68946  21148807.0084   21148811.1914
        20.7504         21.0004
 -17454113.30847 -13330542.77146  20904939.3134   20904942.9104
        22.5004         22.2504
 -12622167.89546  -9531194.95646  22250224.7814   22250231.0274
        12.7504         13.0004
   -961154.27146   -596653.22046  22334361.2194   22334366.0944
        14.2504         13.2504
 -10680025.18245  -8059542.95045  22837316.2664   22837323.0164
        11.5004         10.7504
 03 11  1  1 26 30.0000000  0  6G28G 9G 4G24G 7G 5
   -169459.66243  -1213220.86355  24210896.7734   24210901.1214
         6.0004          6.2504
 -13907821.09447 -10721742.33846  21154071.5164   21154075.8284
        20.5004         21.0004
 -17461170.89547 -13336042.11846  20903596.1484   20903599.6174
        22.5004         22.2504
 -12703429.95646  -9594515.88246  22234761.1804   22234767.6724
        13.2504         12.7504
   -889249.85246   -540623.78846  22348044.3524   22348049.4144
        14.0004         13.0004
 -10757980.50845  -8120287.23045  22822482.5084   22822488.7424
        11.7504         11.0004
 03 11  1  1 27  0.0000000  0  6G28G 9G 4G24G 7G 5
    -77114.29843  -1141263.35045  24228469.5474   24228478.7274
         5.0004          6.0004
 -13879620.51947 -10699767.83046  21159438.2424   21159442.3914
        21.0004         21.2504
 -17467678.04047 -13341112.55446  20902357.9534   20902361.7504
        22.7504         22.2504
 -12784416.17346  -9657621.88546  22219349.9534   22219356.0944
        13.5004         13.0004
   -817298.44846   -484557.75846  22361736.2974   22361740.9844
        13.7504         13.0004
 -10835871.00245  -8180981.00645  22807660.2734   22807665.1024
        11.7504         11.2504
 03 11  1  1 27 30.0000000  0  6G28G 9G 4G24G 7G 5
     15338.84142  -1069222.02943  24246062.8524   24246059.7344
         4.2504          3.7504
 -13850883.77747 -10677375.53046  21164906.4694   21164910.3834
        20.5004         21.0004
 -17473630.40047 -13345750.69446  20901225.2344   20901228.9024
        22.7504         22.5004
 -12865119.83846  -9720507.66946  22203992.8914   22203998.6804
        14.0004         13.0004
   -745296.81246   -428452.56446  22375437.3834   22375442.2934
        14.0004         13.0004
 -10913690.93845  -8241619.81645  22792851.3204   22792857.5204
        11.5004         11.7504
 03 11  1  1 28  0.0000000  0  6G28G 9G 4G24G 7G 5
    107892.77442                  24263675.0784
         4.7504
 -13821618.19847 -10654571.14046  21170475.6094   21170479.6174
        20.7504         21.0004
 -17479034.13147 -13349961.32246  20900196.8284   20900200.4614
        22.5004         22.5004
 -12945545.08346  -9783176.55546  22188687.9384   22188694.1134
        14.0004         13.0004
   -673252.36746   -372314.02446  22389147.1884   22389152.4844
        13.5004         13.0004
 -10991445.08345  -8302207.31145  22778055.0314   22778060.3984
        11.7504         11.2504
 03 11  1  1 28 30.0000000  0  6G28G 9G 4G24G 7G 5
    200550.37043                  24281307.3984
         6.2504
 -13791821.03847 -10631352.53846  21176145.8834   21176150.0314
        21.0004         21.0004
 -17483885.75447 -13353741.74746  20899273.5554   20899277.3404
        22.7504         22.5004
 -13025686.05746  -9845623.93546  22173437.2814   22173443.0004
        13.7504         13.0004
   -601162.45146   -316140.04246  22402865.3754   22402870.5204
        13.2504         12.5004
 -11069128.37745  -8362739.62645  22763271.8984   22763277.2194
        11.5004         11.2504
 03 11  1  1 29  0.0000000  0  6G28G 9G 4G24G 7G 5
    293314.11544  -1213139.90355  24298959.4534   24298967.1454
         7.5004          6.0004
 -13761490.31147 -10607718.17446  21181917.5004   21181921.4384
        21.0004         21.2504
 -17488181.95747 -13357089.36846  20898456.0164   20898459.5904
        22.7504         22.5004
 -13105536.88146  -9907845.20846  22158242.3594   22158247.2114
        14.5004         13.5004
   -529025.10846   -259929.11146  22416592.6254   22416597.5234
        13.2504         13.2504
 -11146736.13545  -8423213.09145  22748503.6484   22748509.5784
        11.5004         11.0004
 03 11  1  1 29 30.0000000  0  6G28G 9G 4G24G 7G 5
    386178.41144  -1140778.17145  24316631.0784   24316638.1484
         7.5004          6.0004
 -13730631.72547 -10583672.48046  21187789.4774   21187793.7424
        20.5004         20.7504
 -17491927.28047 -13360007.74246  20897742.9224   20897746.5904
        22.7504         22.7504
 -13185100.24446  -9969842.50346  22143101.8524   22143107.2074
        14.5004         13.7504
   -456846.11946   -203685.73846  22430327.7664   22430333.1684
        13.2504         13.0004
 -11224271.42745  -8483630.10845  22733749.3984   22733756.1254
        11.7504         11.5004
 03 11  1  1 30  0.0000000  0  6G28G 9G 4G24G 7G 5
    479147.25043  -1068334.92445  24334322.5084   24334327.5824
         6.2504          6.2504
 -13699241.75447 -10559212.72646  21193762.7734   21193766.9104
        20.5004         20.7504
 -17495117.53847 -13362493.60146  20897136.1954   20897139.9924
        22.7504         22.5004
 -13264369.19246 -10031610.37546  22128017.7424   22128023.2154
        14.5004         13.7504
   -384621.84246   -147407.06746  22444071.6564   22444076.7774
        13.0004         12.5004
 -11301728.93545  -8543986.47145  22719009.3284   22719015.3404
        11.2504         10.7504
 03 11  1  1 30 30.0000000  0  6G28G 9G 4G24G 7G 5
    572218.95042   -995811.54144  24352032.4534   24352041.1294
         4.7504          4.2504
 -13667322.43747 -10534340.48646  21199836.8364   21199840.9384
        20.5004         21.0004
 -17497753.40547 -13364547.46546  20896634.5864   20896638.2424
        22.7504         22.2504
 -13343342.63146 -10093147.99946  22112989.0704   22112994.2504
        14.7504         14.0004
   -312354.34446    -91094.71946  22457824.0394   22457829.2304
        13.0004         13.0004
 -11379107.74645  -8604281.52645  22704284.5704   22704290.0784
        11.5004         11.5004
 03 11  1  1 31  0.0000000  0  6G28G 9G 4G24G 7G 5
    665394.18542   -923207.52845  24369762.4384   24369768.5664
         4.0004          5.0004
 -13634873.63347 -10509055.66446  21206011.4844   21206015.4694
        20.5004         20.7504
 -17499833.59847 -13366168.34446  20896238.6484   20896242.0704
        22.7504         22.5004
 -13422016.84946 -10154452.44246  22098018.1484   22098023.3634
        15.2504         14.2504
   -240043.34046    -34748.47646  22471584.4064   22471589.6564
        13.0004         12.7504
 -11456404.95045  -8664513.02345  22689575.5634   22689581.7854
        11.5004         11.5004
 03 11  1  1 31 30.0000000  0  6G28G 9G 4G24G 7G 5
    758674.74742   -850521.45844  24387514.2504   24387518.0824
         4.5004          4.2504
 -13601893.73647 -10483356.99646  21212287.5784   21212291.7854
        20.2504         20.7504
 -17501355.55847 -13367354.24046  20895948.8754   20895952.4614
        22.2504         22.5004
 -13500386.87046 -10215519.85546  22083105.1174   22083110.3204
        15.0004         14.2504
   -167687.08946     21633.03046  22485352.7194   22485357.6644
        12.7504         12.5004
 -11533616.56045  -8724677.75545  22674882.5554   22674888.6484
        11.7504         11.2504
 03 11  1  1 32  0.0000000  0  6G28G 9G 4G24G 7G 5
    852054.25843   -777758.25345  24405283.3754   24405285.9414
         5.5004          5.0004
 -13568389.52847 -10457249.78746  21218663.2114   21218667.3364
        20.2504         20.7504
 -17502324.98547 -13368109.59946  20895764.2034   20895767.7544
        22.7504         22.5004
 -13578455.95046 -10276352.79646  22068248.0234   22068253.6484
        14.7504         14.0004
    -95292.35446     78044.48346  22499129.0634   22499134.1604
        13.0004         12.2504
 -11610746.45846  -8784778.85946  22660205.0084   22660210.6094
        12.5004         12.0004
 03 11  1  1 32 30.0000000  0  6G28G 9G 4G24G 7G 5
    945533.10543   -704917.49445  24423072.4694   24423075.1884
         5.7504          5.0004
 -13534361.10147 -10430734.08646  21225138.6644   21225142.7424
        20.2504         21.0004
 -17502740.85447 -13368433.61646  20895685.2974   20895688.7074
        22.7504         22.5004
 -13656220.50446 -10336948.41146  22053450.3524   22053455.8594
        15.0004         14.2504
    -22858.66046    134486.33946  22512912.9304   22512918.2504
        13.0004         12.5004
 -11687792.18746  -8844814.38845  22645543.6644   22645548.7974
        12.5004         11.7504
 03 11  1  1 33  0.0000000  0  6G28G 9G 4G24G 7G 5
   1039115.57643   -631996.04545  24440880.7584   24440886.0554
         5.2504          5.2504
 -13499804.80047 -10403807.06646  21231714.5164   21231718.7704
        20.2504         20.7504
 -17502598.60947 -13368322.73846  20895712.4454   20895715.8444
        23.0004         22.7504
 -13733673.91646 -10397301.59346  22038711.2344   22038716.2154
        15.0004         14.0004
     49617.49046    190961.26746  22526705.1414   22526710.1914
        13.0004         13.2504
 -11764747.74246  -8904779.64746  22630898.8134   22630905.1524
        12.2504         12.2504
 03 11  1  1 33 30.0000000  0  6G28G 9G 4G24G 7G 5
   1132801.82042   -558993.94145  24458709.5474   24458718.7384
         4.0004          5.2504
 -13464720.87847 -10376468.91246  21238390.2344   21238394.1724
        20.0004         20.7504
 -17501897.32547 -13367776.24146  20895845.7734   20895849.3484
        22.7504         22.7504
 -13810812.70746 -10457409.61646  22024031.7504   22024036.6374
        14.7504         14.2504
    122136.27146    247469.41946  22540504.5474   22540508.9414
        13.0004         12.2504
 -11841609.86246  -8964672.08546  22616273.1644   22616278.0984
        12.5004         12.2504
 03 11  1  1 34  0.0000000  0  6G28G 9G 4G24G 7G 5
   1226587.32341   -485914.32345  24476554.5704   24476556.4804
         2.7504          5.0004
 -13429114.45247 -10348723.61546  21245166.1954   21245170.4144
        20.5004         20.7504
 -17500641.13447 -13366797.35546  20896084.8284   20896088.3444
        22.7504         22.7504
 -13887638.79646 -10517273.95846  22009412.2664   22009417.8674
        15.0004         14.7504
    194692.70846    304006.87846  22554311.4454   22554317.8444
        12.7504         12.5004
 -11918381.09646  -9024493.71746  22601664.0314   22601669.2584
        12.5004         12.5004
 03 11  1  1 34 30.0000000  0  6G28G 9G 4G24G 7G 5
                                  24494423.5864
         2.2504
 -13392987.56647 -10320572.76246  21252040.6564   21252044.5824
        20.0004         20.5004
 -17498831.12147 -13365386.91646  20896429.1024   20896432.6644
        22.7504         22.7504
 -13964150.60246 -10576893.42346  21994852.7814   21994857.5864
        15.5004         14.5004
    267285.19046    360572.48446  22568125.6334   22568130.1454
        12.7504         12.7504
 -11995061.27846  -9084244.40345  22587071.7814   22587077.3954
        12.0004         11.7504
 03 11  1  1 35  0.0000000  0  6G28G 9G 4G24G 7G 5
                                  24512303.8674
         3.2504
 -13356341.68347 -10292017.50646  21259014.4694   21259018.5124
        20.2504         20.7504
 -17496467.58047 -13363545.16046  20896878.8364   20896882.1764
        22.7504         22.7504
 -14040346.06146 -10636266.41246  21980353.2974   21980358.4534
        15.7504         14.5004
    339912.43846    417165.15546  22581946.0784   22581949.8874
        13.0004         12.5004
 -12071648.16646  -9143922.36946  22572497.4924   22572502.8364
        12.5004         12.5004
 03 11  1  1 35 30.0000000  0  6G28G 9G 4G24G 7G 5
  -1522097.57852                  24530209.5084
         4.2504
 -13319170.30347 -10263052.76746  21266087.7664   21266091.8204
        20.0004         20.5004
 -17493543.07547 -13361266.27646  20897435.1884   20897438.6684
        22.7504         23.0004
 -14116215.25846 -10695385.14446  21965915.1724   21965920.8914
        14.7504         14.0004
    412581.37946    473790.32046  22595774.4224   22595778.8164
        13.0004         12.5004
 -12148132.78546  -9203520.64946  22557943.4774   22557948.9494
        13.0004         12.5004
 03 11  1  1 36  0.0000000  0  6G28G 9G 4G24G 7G 5
  -1427918.21743  -1168886.81055  24548129.7194   24548135.0634
         5.2504          6.2504
 -13281481.82347 -10233685.09246  21273259.6094   21273263.8164
        20.2504         20.5004
 -17490064.87347 -13358555.94346  20898097.1884   20898100.5984
        22.7504         22.5004
 -14191763.01146 -10754253.37946  21951539.6644   21951545.4534
        15.5004         15.0004
    485283.99446    530441.74546  22609609.1024   22609614.2344
        12.7504         12.5004
 -12224520.50746  -9263043.43646  22543406.9454   22543412.2664
        13.2504         13.0004
 03 11  1  1 36 30.0000000  0  6G28G 9G 4G24G 7G 5
  -1333635.33143  -1095419.69745  24566071.4144   24566078.9774
         6.0004          6.0004
 -13243269.17947 -10203908.99146  21280531.1884   21280535.0434
        20.2504         20.7504
 -17486024.89647 -13355407.86946  20898865.9304   20898869.5634
        22.7504         22.7504
 -14266978.59946 -10812862.82846  21937225.8444   21937230.3674
        16.0004         14.7504
    558027.87146    587125.29746  22623452.1954   22623456.4494
        12.5004         12.7504
 -12300801.07246  -9322482.73146  22528891.4694   22528897.0234
        13.2504         13.2504
 03 11  1  1 37  0.0000000  0  6G28G 9G 4G24G 7G 5
  -1239255.53343  -1021876.98545  24584031.7034   24584037.3054
         6.2504          5.5004
 -13204539.55347 -10173730.03846  21287901.0704   21287904.8674
        20.2504         20.7504
 -17481429.40047 -13351826.92446  20899740.3674   20899743.8484
        22.7504         22.7504
 -14341865.82246 -10871216.39846  21922975.5234   21922980.7274
        15.7504         15.2504
    630806.13546    643835.64946  22637301.1644   22637305.7464
        12.2504         12.0004
 -12376978.95646  -9381841.99346  22514395.0084   22514400.2114
        13.2504         13.0004
 03 11  1  1 37 30.0000000  0  6G28G 9G 4G24G 7G 5
  -1144776.76543   -948257.19245  24602010.3524   24602011.6644
         6.2504          6.0004
 -13165291.38647 -10143147.03746  21295369.9694   21295374.0234
        20.2504         20.5004
 -17476275.75047 -13347811.05146  20900721.3444   20900724.7074
        23.0004         22.7504
 -14416419.72546 -10929310.24246  21908788.2664   21908793.3054
        16.2504         15.2504
    703620.88546    700574.44045  22651157.3834   22651162.8674
        12.2504         11.2504
 -12453049.88546  -9441117.92546  22499919.1174   22499924.5554
        13.5004         12.7504
 03 11  1  1 38  0.0000000  0  6G28G 9G 4G24G 7G 5
  -1050200.16643   -874561.24444  24620008.1174   24620012.5824
         6.0004          4.7504
 -13125526.77147 -10112161.60746  21302937.0394   21302940.7194
        20.0004         20.5004
 -17470564.82047 -13343360.94246  20901807.8204   20901810.9964
        23.0004         22.7504
 -14490638.56846 -10987143.00146  21894664.5944   21894670.2664
        15.7504         15.0004
    776470.69846    757340.55945  22665020.3594   22665025.9024
        12.2504         11.5004
 -12529012.69246  -9500309.60746  22485463.8834   22485469.5434
        13.2504         12.7504
 03 11  1  1 38 30.0000000  0  6G28G 9G 4G24G 7G 5
   -955527.23843   -800790.05245  24638023.4534   24638031.8834
         5.5004          5.0004
 -13085247.90847 -10080775.45946  21310601.5084   21310605.6214
        20.0004         20.5004
 -17464297.97847 -13338477.65546  20903000.3444   20903003.6604
        22.7504         22.7504
 -14564520.89946 -11044713.53646  21880604.8054   21880609.5514
        15.7504         15.0004
    849354.04745    814132.78345  22678889.0864   22678893.7734
        11.7504         11.5004
 -12604866.33846  -9559416.21046  22471028.7344   22471033.9264
        13.2504         13.0004
 03 11  1  1 39  0.0000000  0  6G28G 9G 4G24G 7G 5
   -860754.65143   -726941.33144  24656058.3284   24656063.3324
         5.0004          4.7504
 -13044451.79547 -10048986.26246  21318364.9844   21318369.1684
        20.0004         20.5004
 -17457471.29147 -13333158.12946  20904299.4224   20904302.9734
        22.7504         22.7504
 -14638060.58146 -11102017.09846  21866610.7194   21866615.4884
        15.7504         15.0004
    922273.98445    870953.55345  22692765.0864   22692769.1524
        11.5004         11.5004
 -12680605.10946  -9618433.32746  22456616.7894   22456621.1844
        14.0004         13.7504
 03 11  1  1 39 30.0000000  0  6G28G 9G 4G24G 7G 5
   -765881.70042   -653014.40443  24674111.8834   24674104.5904
         4.5004          3.0004
 -13003138.36847 -10016793.96246  21326226.4774   21326230.4024
        20.0004         20.7504
 -17450083.75147 -13327401.57146  20905705.0944   20905708.6564
        22.7504         22.7504
 -14711253.88246 -11159050.72646  21852682.0944   21852687.6374
        15.7504         15.0004
    995231.17845    927803.34645  22706648.5234   22706654.5004
        11.5004         11.2504
 -12756226.08246  -9677358.64246  22442226.2274   22442231.2304
        14.0004         12.7504
 03 11  1  1 40  0.0000000  0  6G28G 9G 4G24G 7G 5
   -670908.81442                  24692184.4774
         4.0004
 -12961309.19247  -9984199.77646  21334186.4924   21334190.4774
        20.0004         20.5004
 -17442135.59247 -13321208.17146  20907217.6174   20907220.9104
        22.7504         22.7504
 -14784098.44046 -11215812.61446  21838821.5394   21838826.2384
        16.7504         15.7504
   1068225.23445    984681.82945  22720539.3134   22720544.2464
        11.5004         11.2504
 -12831726.73646  -9736190.20346  22427858.8674   22427863.1454
        14.0004         13.5004
 03 11  1  1 40 30.0000000  0  6G28G 9G 4G24G 7G 5
   -575842.23441                  24710274.8754
         3.5004
 -12918971.14047  -9951209.07046  21342243.1024   21342246.8524
        20.2504         20.5004
 -17433632.66047 -13314582.47046  20908835.7504   20908839.2074
        23.0004         22.7504
 -14856597.36546 -11272305.18146  21825023.9384   21825028.7074
        16.0004         15.7504
   1141249.81545   1041584.14145  22734435.3204   22734440.0664
        11.2504         11.2504
 -12907111.25846  -9794931.26646  22413513.3984   22413518.3554
        13.5004         13.5004
 03 11  1  1 41  0.0000000  0  7G28G 9G 4G24G30G 7G 5
   -480679.00241                  24728383.4534
         3.0004
 -12876121.84647  -9917819.98746  21350397.0554   21350401.0394
        20.0004         20.5004
 -17424571.92747 -13307522.12446  20910559.8204   20910563.1254
        23.0004         22.7504
 -14928745.07146 -11328524.08446  21811295.7194   21811300.4774
        16.7504         16.2504
  -1591556.00351                  25147447.5004
         2.7504
   1214307.62545   1098512.32745  22748337.8594   22748342.9694
        11.2504         11.2504
 -12982374.14346  -9853577.56746  22399191.1094   22399196.3134
        13.0004         13.0004
 03 11  1  1 41 30.0000000  0  7G28G 9G 4G24G30G 7G 5
   -385418.50541                  24746513.0164
         2.5004
 -12832761.38647  -9884032.59346  21358648.1804   21358652.2464
        20.0004         20.2504
 -17414952.41147 -13300026.36246  20912390.4384   20912394.0354
        22.7504         22.7504
 -15000538.21246 -11384466.70746  21797633.9844   21797638.8954
        17.0004         16.2504
  -1688439.41941                  25129011.8134
         3.2504
   1287399.46845   1155467.03045  22762246.4694   22762251.4734
        11.2504         11.0004
 -13057512.45846  -9912126.80146  22384892.6414   22384898.1604
        13.5004         13.2504
 03 11  1  1 42  0.0000000  0  7G28G 9G 4G24G30G 7G 5
   -290061.94741                  24764658.4064
         2.2504
 -12788891.92047  -9849848.57046  21366996.4534   21367000.3914
        20.2504         20.2504
 -17404775.06847 -13292095.92246  20914326.9924   20914330.4024
        23.0004         23.2504
 -15071975.08546 -11440131.70446  21784039.8204   21784044.7424
        17.2504         16.0004
  -1785404.67741                  25110558.0784
         3.7504
   1360524.12945   1212447.31245  22776161.8524   22776167.0554
        11.2504         11.0004
 -13132524.67946  -9970577.79446  22370618.1484   22370623.0474
        13.5004         12.7504
 03 11  1  1 42 30.0000000  0  6G 9G 4G24G30G 7G 5
 -12744506.90147  -9815262.82446  21375442.5864   21375446.5944
        20.2504         20.0004
 -17394032.57847 -13283725.11246  20916371.0634   20916374.2624
        23.0004         23.0004
 -15143045.37746 -11495511.07446  21770515.1174   21770519.6884
        17.0004         16.5004
  -1882442.59442  -1272972.49954  25092093.1024   25092104.7424
         4.5004          4.5004
   1433688.59545   1269458.59545  22790084.4614   22790089.5124
        11.2504         10.7504
 -13207401.09746 -10028922.96946  22356370.3134   22356375.8674
        14.2504         13.5004
 03 11  1  1 43  0.0000000  0  6G 9G 4G24G30G 7G 5
 -12699613.73747  -9780281.11346  21383985.4454   21383989.1374
        20.2504         20.2504
 -17382731.28847 -13274918.87146  20918521.7194   20918525.1524
        22.7504         22.7504
 -15213752.88446 -11550607.75146  21757060.0554   21757064.8244
        17.0004         16.5004
  -1979557.84342  -1348646.34344  25073612.4534   25073618.8874
         4.7504          4.7504
   1506886.40845   1326495.87745  22804013.7114   22804018.6214
        11.2504         11.0004
 -13282146.00146 -10087165.68046  22342146.6024   22342151.6174
        14.7504         14.5004
 03 11  1  1 43 30.0000000  0  6G 9G 4G24G30G 7G 5
 -12654213.42947  -9744904.22746  21392624.5394   21392628.3014
        20.0004         20.0004
 -17370871.14847 -13265677.15946  20920778.7034   20920782.2074
        22.7504         22.7504
 -15284094.87546 -11605419.60246  21743673.8594   21743678.5704
        16.7504         16.2504
  -2076748.70743  -1424379.20644  25055117.2814   25055122.6484
         5.0004          4.5004
   1580117.53245   1383559.12645  22817949.0704   22817954.6134
        11.2504         11.2504
 -13356756.74646 -10145303.85046  22327948.4304   22327953.2704
        14.7504         14.2504
 03 11  1  1 44  0.0000000  0  6G 9G 4G24G30G 7G 5
 -12608306.81847  -9709132.81946  21401360.3984   21401364.0784
        20.2504         20.2504
 -17358452.18847 -13256000.00946  20923141.7194   20923145.3524
        22.7504         22.5004
 -15354068.76246 -11659944.62746  21730358.1414   21730363.0044
        16.5004         16.2504
  -2174013.01043  -1500169.15145  25036607.0394   25036614.5904
         5.0004          5.0004
   1653381.82745   1440648.18545  22831891.1174   22831895.3714
        11.2504         11.5004
 -13431231.00046 -10203335.66746  22313776.7974   22313781.9064
        14.5004         14.2504
 03 11  1  1 44 30.0000000  0  6G 9G 4G24G30G 7G 5
 -12561890.22547  -9672964.02746  21410193.2274   21410197.0594
        20.2504         20.2504
 -17345469.39047 -13245883.50846  20925612.3524   20925615.5744
        23.0004         22.7504
 -15423666.99946 -11714176.94146  21717114.1254   21717118.7894
        17.2504         16.7504
  -2271344.48342  -1576011.61843  25018086.3204   25018099.7664
         4.7504          3.5004
   1726684.07145   1497766.84345  22845839.6484   22845843.8554
        11.2504         11.2504
 -13505561.88146 -10261255.75646  22299631.9534   22299636.9104
        14.5004         14.5004
 03 11  1  1 45  0.0000000  0  6G 9G 4G24G30G 7G 5
 -12514960.94547  -9636395.73846  21419123.5784   21419127.3164
        20.0004         20.0004
 -17331919.49247 -13235325.11946  20928190.9534   20928194.0704
        23.0004         22.7504
 -15492882.99646 -11768111.39646  21703942.8674   21703947.6374
        17.5004         16.7504
  -2368737.50142                  24999552.0784
         4.2504
   1800027.69245   1554917.72745  22859796.6024   22859800.9734
        11.2504         11.2504
 -13579742.86746 -10319059.01846  22285515.4144   22285520.5004
        14.5004         14.2504
 03 11  1  1 45 30.0000000  0  6G 9G 4G24G30G 7G 5
 -12467519.35246  -9599428.23646  21428151.2584   21428155.4304
        19.7504         19.7504
 -17317801.69747 -13224324.20846  20930877.3054   20930880.6804
        22.7504         23.0004
 -15561713.59946 -11821745.55946  21690845.2034   21690850.3014
        17.7504         16.7504
  -2466189.44941                  24981006.8754
         3.7504
   1873413.48345   1612101.49845  22873761.2114   22873766.0394
        11.2504         10.7504
 -13653770.41746 -10376742.71846  22271428.2814   22271432.7114
        14.7504         14.7504
 03 11  1  1 46  0.0000000  0  6G 9G 4G24G30G 7G 5
 -12419574.08947  -9562068.27046  21437274.8284   21437278.7774
        20.0004         19.7504
 -17303123.84347 -13212886.88546  20933670.2734   20933673.6254
        22.7504         22.7504
 -15630164.23946 -11875083.65746  21677818.8754   21677823.1294
        17.5004         16.7504
  -2563706.44341                  24962449.4924
         3.2504
   1946833.28945   1669311.75445  22887731.9924   22887737.1254
        11.0004         11.0004
 -13727650.47946 -10434311.47546  22257369.4384   22257374.2424
        15.2504         14.5004
 03 11  1  1 46 30.0000000  0  6G 9G 4G24G30G 7G 5
 -12371113.19246  -9524306.50846  21446496.5704   21446500.5904
        19.7504         20.0004
 -17287872.80347 -13201002.92846  20936572.4064   20936575.6884
        22.7504         23.0004
 -15698218.74246 -11928113.05146  21664868.6334   21664873.6134
        17.7504         16.7504
  -2661273.36241                  24943882.7274
         2.7504
   2020300.53945   1726559.00145  22901712.8054   22901717.1414
        10.7504         11.2504
 -13801367.56146 -10491753.24146  22243341.4224   22243345.9574
        16.0004         15.0004
 03 11  1  1 47  0.0000000  0  6G 9G 4G24G30G 7G 5
 -12322143.07946  -9486147.95746  21455815.2664   21455819.1094
        19.5004         19.5004
 -17272054.04047 -13188676.58346  20939582.9534   20939586.0234
        23.0004         22.7504
 -15765879.53546 -11980835.67846  21651993.3674   21651997.7974
        18.2504         17.0004
  -2758893.19641                  24925306.5704
         2.7504
   2093809.92645   1783839.06645  22915701.5314   22915706.0784
        10.7504         11.0004
 -13874923.99646 -10549069.83346  22229344.0554   22229348.7424
        15.7504         15.0004
 03 11  1  1 47 30.0000000  0  6G 9G 4G24G30G 7G 5
 -12272666.09946  -9447594.44246  21465230.4224   21465234.1724
        19.7504         19.7504
 -17255668.96247 -13175908.96146  20942700.4384   20942703.5554
        22.7504         22.5004
 -15833145.40646 -12033250.56046  21639193.0474   21639198.0044
        17.7504         17.0004
  -2856565.71041                  24906721.7894
         3.0004
   2167359.99645   1841150.84645  22929697.2734   22929702.5234
        11.0004         11.2504
 -13948318.87046 -10606260.53846  22215377.3834   22215382.4694
        15.5004         15.0004
 03 11  1  1 48  0.0000000  0  6G 9G 4G24G30G 7G 5
 -12222678.51746  -9408643.05646  21474742.9384   21474747.0044
        19.5004         19.5004
 -17238713.21347 -13162696.64446  20945927.1564   20945930.4144
        22.7504         22.7504
 -15900009.39346 -12085352.28946  21626468.6954   21626473.1724
        18.2504         17.5004
  -2954284.20441                  24888126.2114
         3.2504
   2240955.24545   1898497.83045  22943701.3444   22943706.9574
        10.5004         10.5004
 -14021545.33846 -10663319.98846  22201442.1954   22201447.0704
        15.0004         14.7504
 03 11  1  1 48 30.0000000  0  6G 9G 4G24G30G 7G 5
 -12172180.72946  -9369294.11546  21484352.4694   21484356.1604
        19.5004         19.5004
 -17221185.79747 -13149038.87546  20949262.3444   20949265.5314
        22.7504         22.7504
 -15966467.53346 -12137137.77646  21613822.8204   21613827.1564
        18.5004         17.5004
  -3052045.69842                  24869522.3054
         4.0004
   2314596.72545   1955880.82545  22957715.2504   22957720.1844
        10.5004         10.7504
 -14094599.95746 -10720245.56146  22187540.3914   22187545.2074
        15.7504         15.0004
 03 11  1  1 49  0.0000000  0  6G 9G 4G24G30G 7G 5
 -12121174.34746  -9329548.85746  21494058.5944   21494062.2274
        19.5004         19.5004
 -17203087.79647 -13134936.49446  20952706.3754   20952709.8794
        23.0004         23.0004
 -16032518.21846 -12188605.76446  21601253.1804   21601257.3404
        18.0004         18.0004
  -3149849.09142  -1275867.46054  24850910.4534   24850914.9304
         4.7504          4.7504
   2388283.70645   2013299.27845  22971737.5944   22971742.3754
        10.5004         11.0004
 -14167480.48946 -10777035.48146  22173672.0234   22173676.6174
        16.5004         16.0004
 03 11  1  1 49 30.0000000  0  6G 9G 4G24G30G 7G 5
 -12069657.42046  -9289405.77746  21503862.0784   21503865.7114
        19.7504         19.5004
 -17184416.23647 -13120387.18146  20956259.5474   20956263.0514
        23.0004         22.7504
 -16098155.84646 -12239751.87946  21588762.9224   21588767.3754
        18.0004         17.5004
  -3247689.17743  -1352106.30045  24832292.2344   24832299.5634
         5.2504          5.2504
   2462019.39045   2070755.72845  22985768.5634   22985773.5784
        10.5004         10.7504
 -14240181.42546 -10833685.45846  22159837.7734   22159842.1684
        16.5004         15.5004
 03 11  1  1 50  0.0000000  0  6G 9G 4G24G30G 7G 5
 -12017635.08446  -9248868.86246  21513761.4774   21513765.3674
        19.5004         19.2504
 -17165175.16047 -13105394.09346  20959920.8444   20959923.9964
        23.2504         22.7504
 -16163381.55546 -12290577.03646  21576350.6564   21576355.3094
        18.2504         17.7504
  -3345567.80143  -1428375.22244  24813666.2894   24813674.4024
         5.7504          4.5004
   2535799.86645   2128247.02845  22999808.9384   22999813.6724
        10.2504         10.2504
 -14312704.33046 -10890196.70946  22146036.7894   22146041.3484
        15.7504         15.0004
 03 11  1  1 50 30.0000000  0  6G 9G 4G24G30G 7G 5
 -11965102.24146  -9207934.16646  21523758.0704   21523761.7974
        19.5004         19.5004
 -17145358.44247 -13089952.44846  20963691.6484   20963694.9884
        23.0004         23.0004
 -16228186.40246 -12341074.23846  21564018.8364   21564023.6644
        18.2504         17.7504
  -3443476.41043  -1504667.61745  24795034.8204   24795042.8054
         6.2504          5.0004
   2609631.74645   2185778.40145  23013858.7114   23013862.7544
        10.2504         10.5004
 -14385039.74646 -10946561.87446  22132271.4454   22132275.9224
        15.7504         14.5004
 03 11  1  1 51  0.0000000  0  6G 9G 4G24G30G 7G 5
 -11912058.47646  -9166601.33846  21533851.8524   21533855.8014
        19.5004         19.2504
 -17124964.75147 -13074061.20846  20967572.6334   20967576.0204
        23.0004         23.2504
 -16292566.25046 -12391240.26846  21551767.4304   21551772.0354
        18.0004         17.5004
  -3541411.54443  -1580980.62145  24776397.8444   24776403.6804
         6.5004          5.2504
   2683516.50145   2243350.99645  23027918.5164   23027922.9454
         9.7504         10.0004
 -14457183.85146 -11002777.96946  22118542.9694   22118547.2584
        16.2504         15.2504
 03 11  1  1 51 30.0000000  0  6G 9G 4G24G30G 7G 5
 -11858506.42146  -9124872.45046  21544042.4844   21544046.1994
        19.5004         19.0004
 -17103996.05947 -13057721.92046  20971563.0004   20971566.1764
        23.0004         23.0004
 -16356519.89746 -12441074.20246  21539597.2504   21539601.7734
        18.0004         17.7504
  -3639372.68643  -1657313.90245  24757757.0634   24757763.3554
         6.0004          5.7504
   2757452.63245   2300963.62745  23041987.9064   23041992.9344
         9.5004         10.0004
 -14529135.80146 -11058844.34146  22104850.8754   22104854.9774
        16.5004         15.7504
 03 11  1  1 52  0.0000000  0  6G 9G 4G24G30G 7G 5
 -11804445.84546  -9082747.30346  21554329.8204   21554333.7464
        19.5004         19.2504
 -17082451.08747 -13040933.58046  20975662.3054   20975665.7034
        23.0004         23.0004
 -16420043.33746 -12490572.90746  21527509.5164   21527514.1454
        18.5004         17.5004
  -3737356.29343  -1733664.75644  24739111.9534   24739120.5704
         5.7504          4.2504
   2831441.72445   2358617.52345  23056067.4774   23056072.5394
         9.7504          9.7504
 -14600891.42946 -11114757.71046  22091196.0314   22091201.0234
        16.2504         16.0004
 03 11  1  1 52 30.0000000  0  6G 9G 4G24G30G 7G 5
 -11749878.22846  -9040227.06546  21564713.6804   21564717.6764
        19.2504         19.2504
 -17060330.53047 -13023696.73246  20979872.1174   20979875.3284
        23.0004         23.0004
 -16483134.33246 -12539734.63946  21515503.1564   21515508.0904
        18.2504         17.5004
  -3835360.41943  -1810031.44045  24720461.7974   24720469.2304
         5.0004          5.7504
   2905483.67845   2416312.59545  23070157.2814   23070161.6294
         9.7504          9.2504
 -14672448.41746 -11170516.30646  22077578.8364   22077583.8284
        15.7504         15.7504
 03 11  1  1 53  0.0000000  0  6G 9G 4G24G30G 7G 5
 -11694807.99646  -8997315.17946  21575193.1884   21575197.0434
        19.2504         19.2504
 -17037637.61647 -13006013.89346  20984190.3524   20984193.3634
        23.0004         22.7504
 -16545793.45746 -12588559.85246  21503579.9144   21503584.3914
        18.5004         18.0004
  -3933386.28642  -1886415.13943  24701808.3204   24701813.3484
         4.5004          3.7504
   2979575.44145   2474046.50245  23084256.5084   23084261.0434
         9.7504         10.2504
 -14743807.44346 -11226120.63746  22063999.8284   22064004.5634
        16.0004         15.5004
 03 11  1  1 53 30.0000000  0  6G 9G 4G24G30G 7G 5
 -11639232.12846  -8954009.28446  21585769.0554   21585772.6524
        19.2504         19.2504
 -17014368.66747 -12987882.19546  20988617.9844   20988621.2304
        23.0004         22.7504
 -16608014.15446 -12637043.43246  21491739.6644   21491744.3284
        18.7504         18.2504
  -4031427.35542  -1962810.57043  24683151.0704   24683159.8634
         4.2504          3.7504
   3053721.20245   2531822.46245  23098365.7664   23098370.7704
         9.7504         10.2504
 -14814961.41346 -11281565.20446  22050459.6254   22050464.1724
        16.0004         15.5004
 03 11  1  1 54  0.0000000  0  7G 9G 4G24G30G 7G17G 5
 -11583151.59046  -8910310.14946  21596440.7814   21596444.2504
        19.0004         19.0004
 -16990523.74647 -12969301.69046  20993155.7194   20993158.9884
        23.0004         23.0004
 -16669793.36446 -12685182.99446  21479983.0784   21479987.5904
        18.7504         18.5004
  -4129481.35642                  24664491.2194
         4.0004
   3127921.59045   2589641.00345  23112485.7424   23112489.8794
         9.7504          9.2504
  -1609607.01151                  25300396.5234
         3.2504
 -14885907.51246 -11336847.79546  22036959.1484   22036963.2034
        16.2504         15.2504
 03 11  1  1 54 30.0000000  0  7G 9G 4G24G30G 7G17G 5
 -11526570.21246  -8866220.74246  21607207.5314   21607211.5634
        18.5004         18.7504
 -16966105.73447 -12950274.61846  20997802.1564   20997805.3794
        23.0004         22.7504
 -16731131.30246 -12732978.70846  21468310.6954   21468314.7734
        18.7504         18.2504
  -4227548.73242                  24645829.3444
         4.0004
   3202174.06845   2647500.13545  23126614.8914   23126619.3444
        10.0004          9.7504
  -1712179.58842                  25280877.4224
         4.5004
 -14956645.75146 -11391968.42146  22023497.9384   22023502.0984
        16.2504         15.5004
 03 11  1  1 55  0.0000000  0  7G 9G 4G24G30G 7G17G 5
 -11469489.59746  -8821742.32546  21618069.6334   21618073.6994
        18.2504         18.5004
 -16941115.54747 -12930801.69946  21002557.5234   21002560.7344
        23.0004         22.5004
 -16792025.80946 -12780428.88946  21456723.4224   21456727.6764
        19.5004         18.2504
  -4325627.65242                  24627166.3594
         4.0004
   3276478.42345   2705399.70045  23140754.5474   23140758.0864
        10.0004          9.5004
  -1814756.83843                  25261356.4614
         5.7504
 -15027173.81046 -11446925.25946  22010076.9924   22010081.5744
        16.7504         16.2504
 03 11  1  1 55 30.0000000  0  7G 9G 4G24G30G 7G17G 5
 -11411910.81146  -8776875.71746  21629026.7424   21629030.4454
        18.5004         18.7504
 -16915553.30047 -12910883.01246  21007421.7664   21007424.9184
        23.0004         22.7504
 -16852474.49446 -12827531.67646  21445219.6254   21445224.0554
        19.0004         18.5004
  -4423715.78542  -1298934.27954  24608500.5784   24608507.7774
         4.2504          4.7504
   3350834.91645   2763339.87445  23154904.3204   23154908.6334
        10.0004          9.5004
  -1917335.50943  -1291542.31254  25241837.3134   25241844.6994
         5.5004          4.5004
 -15097488.50346 -11501715.83846  21996696.7344   21996701.3874
        17.0004         16.5004
 03 11  1  1 56  0.0000000  0  7G 9G 4G24G30G 7G17G 5
 -11353836.66046  -8731623.11346  21640077.7584   21640082.1764
        18.2504         18.2504
 -16889420.68147 -12890519.89046  21012394.7664   21012398.0004
        23.0004         22.7504
 -16912476.08746 -12874286.08046  21433802.1414   21433806.8754
        18.7504         18.7504
  -4521812.23742  -1375372.84844  24589832.5004   24589835.0784
         4.2504          4.0004
   3425242.54345   2821319.88445  23169063.5234   23169068.7504
         9.7504         10.0004
  -2019914.41243  -1371473.41745  25222316.2584   25222327.7464
         5.0004          5.5004
 -15167588.97646 -11556339.50746  21983356.9144   21983361.1914
        17.2504         16.2504
 03 11  1  1 56 30.0000000  0  7G 9G 4G24G30G 7G17G 5
 -11295267.53346  -8685984.82446  21651223.0474   21651227.0664
        18.2504         18.2504
 -16862717.26647 -12869711.99046  21017476.1174   21017479.2704
        23.2504         23.0004
 -16972027.02646 -12920689.33246  21422469.8754   21422473.9064
        19.2504         18.7504
  -4619913.77742  -1451815.70743  24571165.2034   24571170.8164
         4.5004          3.7504
   3499702.48545   2879340.66045  23183233.2814   23183237.9924
        10.0004         10.0004
  -2122489.47441  -1451401.61445  25202796.4454   25202808.2274
         3.7504          6.0004
 -15237471.43946 -11610793.31246  21970058.3984   21970062.1374
        17.0004         16.0004
 03 11  1  1 57  0.0000000  0  7G 9G 4G24G30G 7G17G 5
 -11236204.48846  -8639961.65446  21662462.0784   21662465.8164
        18.0004         18.5004
 -16835443.36447 -12848459.55146  21022666.2114   21022669.2114
        23.2504         22.7504
 -17031124.71846 -12966739.40646  21411223.8054   21411228.3164
        19.0004         18.7504
  -4718018.02742  -1528260.49242  24552497.1414   24552500.6334
         4.7504          2.5004
   3574215.18645   2937402.54145  23197412.4304   23197417.1764
         9.7504         10.0004
  -2225057.71541  -1531324.26343  25183276.7734   25183287.3594
         2.7504          3.2504
 -15307132.68846 -11665074.72146  21956802.2344   21956806.5124
        17.0004         16.0004
 03 11  1  1 57 30.0000000  0  7G 9G 4G24G30G 7G17G 5
 -11176649.64046  -8593555.25646  21673794.9844   21673799.1804
        18.0004         18.2504
 -16807600.12747 -12826763.47546  21027964.5004   21027967.8284
        23.2504         22.7504
 -17089767.44746 -13012434.94746  21400064.2734   21400068.4804
        19.5004         19.0004
  -4816123.60943                  24533828.2114
         5.0004
   3648779.82845   2995504.89945  23211601.2504   23211605.7274
         9.2504          9.2504
  -2327617.14441                  25163759.3524
         2.2504
 -15376571.11146 -11719182.52546  21943588.8364   21943593.0664
        17.7504         16.5004
 03 11  1  1 58  0.0000000  0  7G 9G 4G24G30G 7G17G 5
 -11116606.65946  -8546768.51246  21685220.9384   21685224.7584
        18.0004         18.5004
 -16779190.39947 -12804625.98446  21033370.8364   21033373.8014
        23.5004         23.0004
 -17147955.28846 -13057776.04446  21388991.3754   21388996.0864
        19.2504         18.5004
  -4914230.60443                  24515158.6414
         5.2504
   3723394.47545   3053646.21745  23225800.1024   23225803.9924
         9.0004          9.7504
  -2430167.25141                  25144245.8364
         3.7504
 -15445786.40746 -11773116.43946  21930417.4454   21930421.7584
        17.7504         16.7504
 03 11  1  1 58 30.0000000  0  7G 9G 4G24G30G 7G17G 5
 -11056074.73246  -8499600.75546  21696739.8444   21696743.8164
        18.0004         18.2504
 -16750212.71447 -12782045.93046  21038885.0944   21038888.2464
        23.0004         22.7504
 -17205683.34946 -13102758.86946  21378006.3204   21378010.5864
        19.7504         19.0004
  -5012334.65843  -1258175.87155  24496489.5944   24496497.2384
         5.7504          5.2504
   3798061.51845   3111828.34945  23240008.6724   23240012.8204
         9.0004          9.7504
  -2532702.65342                  25124733.9844
         4.2504
 -15514773.81146 -11826872.78446  21917289.3594   21917293.6134
        17.5004         16.5004
 03 11  1  1 59  0.0000000  0  7G 9G 4G24G30G 7G17G 5
 -10995058.18346  -8452055.38246  21708351.1334   21708354.8364
        18.2504         18.7504
 -16720670.42147 -12759025.92746  21044506.6094   21044509.6804
        23.0004         23.0004
 -17262952.42946 -13147384.04946  21367107.9844   21367112.2734
        19.5004         19.0004
  -5110436.21043  -1334618.51845  24477822.5164   24477831.6954
         6.0004          5.7504
   3872778.25845   3170049.18845  23254227.1644   23254233.0704
         8.7504          9.0004
  -2635223.76942                  25105224.7274
         4.7504
 -15583533.53546 -11880451.71646  21904204.6884   21904208.8594
        17.5004         16.5004
 03 11  1  1 59 30.0000000  0  7G 9G 4G24G30G 7G17G 5
 -10933562.33646  -8404136.52746  21720053.2344   21720056.9024
        18.0004         18.7504
 -16690567.90247 -12735569.37046  21050234.8444   21050238.1374
        23.0004         22.7504
 -17319763.97447 -13191652.70446  21356297.6174   21356302.0234
        20.0004         19.0004
  -5208536.90643  -1411060.51545  24459153.3914   24459159.0394
         6.2504          5.7504
   3947541.12045   3228306.01645  23268453.5394   23268457.3244
         8.2504          9.2504
  -2737731.39543                  25085717.6724
         5.0004
 -15652066.24346 -11933853.75246  21891163.5474   21891167.1094
        18.2504         17.2504
 03 11  1  2  0  0.0000000  0  7G 9G 4G24G30G 7G17G 5
 -10871586.78346  -8355843.87646  21731846.8054   21731850.5904
        18.2504         18.7504
 -16659903.97347 -12711675.36246  21056070.0944   21056073.0474
        23.0004         22.5004
 -17376113.74546 -13235561.54146  21345573.8984   21345578.4344
        19.5004         19.2504
  -5306632.47443  -1487498.61945  24440487.5784   24440493.8484
         6.2504          6.5004
   4022352.21645   3286600.38445  23282690.0474   23282694.9224
         8.2504          8.7504
  -2840220.78243                  25066214.4844
         5.0004
 -15720368.12646 -11987075.90846  21878166.0704   21878169.8094
        18.2504         17.2504
 03 11  1  2  0 30.0000000  0  7G 9G 4G24G30G 7G17G 5
 -10809140.74146  -8307184.61346  21743730.0164   21743733.7894
        18.2504         18.5004
 -16628686.69447 -12687350.16646  21062010.3674   21062013.5664
        23.0004         22.5004
 -17432006.88847 -13279114.56146  21334937.8754   21334941.8244
        20.0004         19.2504
  -5404728.49843  -1563937.01545  24421819.8444   24421826.2194
         5.7504          6.5004
   4097204.18645   3344926.60945  23296933.4454   23296937.6764
         8.2504          9.0004
  -2942696.78842                  25046713.6414
         4.5004
 -15788443.33646 -12040121.44346  21865211.7664   21865215.8204
        18.5004         17.2504
 03 11  1  2  1  0.0000000  0  7G 9G 4G24G30G 7G17G 5
 -10746227.06946  -8258160.96646  21755701.8834   21755705.7734
        18.0004         18.2504
 -16596918.57847 -12662595.74746  21068055.6254   21068058.4024
        23.0004         22.5004
 -17487442.93446 -13322311.39846  21324388.8364   21324393.0314
        19.7504         19.2504
  -5502824.27442  -1640375.13845  24403152.8284   24403162.2774
         4.5004          6.0004
   4172095.55045   3403283.50745  23311184.8524   23311188.7774
         8.2504          9.0004
  -3045158.14742                  25027215.0164
         4.2504
 -15856290.96646 -12092989.62946  21852300.4224   21852304.4064
        18.5004         17.2504
 03 11  1  2  1 30.0000000  0  7G 9G 4G24G30G 7G17G 5
 -10682849.78846  -8208776.05646  21767762.2424   21767766.5784
        17.7504         18.5004
 -16564602.98347 -12637414.72046  21074205.2814   21074208.1994
        23.0004         22.2504
 -17542422.19847 -13365152.29746  21313926.3364   21313930.6954
        20.0004         19.5004
  -5600920.15441  -1716813.33944  24384485.3054   24384491.4454
         3.5004          4.7504
   4247023.84645   3461669.21245  23325443.0864   23325447.0704
         8.2504          9.5004
  -3147604.68242                  25007719.2114
         4.2504
 -15923911.26546 -12145680.67546  21839432.4534   21839436.5434
        18.5004         17.2504
 03 11  1  2  2  0.0000000  0  7G 9G 4G24G30G 7G17G 5
 -10619015.63546  -8159035.14646  21779909.4844   21779913.2934
        17.7504         18.0004
 -16531745.59447 -12611811.50546  21080458.0004   21080460.8134
        23.0004         22.5004
 -17596947.43246 -13407639.41146  21303550.6954   21303554.7504
        19.7504         19.0004
  -5699018.86441  -1793253.75045  24365817.2194   24365823.8284
         3.2504          5.0004
   4321984.27645   3520079.96945  23339707.4844   23339712.8754
         8.2504          9.0004
  -3250038.74042  -1264845.80754  24988226.9454   24988239.2664
         4.0004          4.2504
 -15991306.81946 -12198196.59046  21826607.7504   21826611.9344
        18.5004         17.7504
 03 11  1  2  2 30.0000000  0  7G 9G 4G24G30G 7G17G 5
 -10554729.17846  -8108941.78846  21792142.5554   21792146.4694
        17.5004         18.0004
 -16498349.98947 -12585788.91646  21086812.5314   21086815.4734
        23.0004         22.5004
 -17651019.30847 -13449773.26446  21293261.0554   21293265.1334
        20.0004         19.5004
  -5797121.15142  -1869696.93844  24347148.6724   24347154.4964
         4.2504          4.5004
   4396974.29045   3578513.76245  23353977.4614   23353982.0204
         8.5004          9.2504
  -3352460.21441  -1344654.28545  24968736.9534   24968746.7664
         3.0004          5.2504
 -16058477.27646 -12250537.10046  21813825.4454   21813829.6524
        18.5004         17.7504
 03 11  1  2  3  0.0000000  0  7G 9G 4G24G30G 7G17G 5
 -10489994.90346  -8058499.49146  21804461.1804   21804464.6724
        17.7504         17.7504
 -16464419.77447 -12559349.74746  21093269.5084   21093272.2504
        23.0004         22.2504
 -17704638.74747 -13491554.56346  21283057.3984   21283061.3134
        20.0004         19.7504
  -5895227.40843  -1946143.21245  24328481.0944   24328488.4104
         5.5004          5.7504
   4471991.27045   3636968.56045  23368252.6644   23368257.4694
         8.7504          8.7504
  -3454869.09141  -1424453.06943  24949246.1884   24949253.4694
         3.0004          3.7504
 -16125423.19946 -12302702.65546  21801086.2034   21801090.1524
        18.7504         18.2504
 03 11  1  2  3 30.0000000  0  7G 9G 4G24G30G 7G17G 5
 -12000230.91546  -9235306.75246  21517072.3204   21517076.5744
        17.2504         17.7504
 -18005373.51047 -13760092.86246  20800035.5634   20800038.7154
        23.0004         22.5004
 -19333223.69247 -14760581.70146  20973148.2424   20973152.2154
        20.0004         19.7504
  -7568757.31843  -3250192.37144  24010019.2814   24010024.8484
         6.2504          4.7504
   2971619.00545   2467847.35645  23082741.6484   23082746.9574
         8.7504          9.0004
  -5132685.03641  -2731841.76643  24629969.5864   24629976.5274
         3.5004          3.7504
 -17767562.52946 -13582291.63146  21488597.1414   21488600.7734
        18.7504         17.7504
 03 11  1  2  4  0.0000000  0  7G 9G 4G24G30G 7G17G 5
 -11934601.92646  -9184167.26546  21529561.6644   21529565.4734
        17.5004         17.5004
 -17970372.78747 -13732819.52946  20806695.9614   20806699.0554
        23.0004         22.2504
 -19385927.24846 -14801649.32446  20963118.4924   20963122.7814
        19.5004         19.5004
  -7666860.86043  -3326636.58644  23991350.1174   23991351.4534
         6.5004          4.5004
   3046694.26845   2526347.55045  23097027.7344   23097031.2154
         9.0004          8.2504
  -5235056.78542  -2811611.67144  24610489.2504   24610495.3674
         4.2504          4.5004
 -17834046.95246 -13634097.57246  21475945.3054   21475949.2664
        18.5004         17.7504
 03 11  1  2  4 30.0000000  0  7G 9G 4G24G30G 7G17G 5
 -11868526.57846  -9132679.96146  21542135.1884   21542139.0904
        17.5004         17.5004
 -17934836.91947 -13705129.19246  20813458.2504   20813461.0394
        22.7504         22.5004
 -19438168.92047 -14842357.03946  20953177.3054   20953181.3714
        20.0004         19.7504
  -7764958.31743                  23972682.6724
         6.7504
   3121800.29745   2584871.75145  23111320.1644   23111324.8054
         9.0004          8.7504
  -5337404.25242  -2891362.71844  24591011.8914   24591021.9024
         4.7504          4.2504
 -17900295.76346 -13685719.91646  21463338.5634   21463342.5594
        18.7504         17.7504
 03 11  1  2  5  0.0000000  0  7G 9G 4G24G30G 7G17G 5
 -11802013.72246  -9080851.75346  21554791.9454   21554795.9064
        17.2504         17.5004
 -17898773.61847 -13677027.87046  20820320.6414   20820323.7114
        22.7504         22.2504
 -19489953.56546 -14882708.63546  20943323.2194   20943327.1094
        19.7504         19.7504
  -7863054.41543                  23954014.8914
         6.2504
   3196930.21145   2643414.54445  23125616.8444   23125621.0274
         9.0004          9.0004
  -5439731.79743  -2971098.16143  24571540.6334   24571551.7464
         5.5004          3.7504
 -17966312.85846 -13737161.70846  21450776.0944   21450780.0314
        19.2504         18.5004
 03 11  1  2  5 30.0000000  0  7G 9G 4G24G30G 7G17G 5
 -11735067.41946  -9028685.78246  21567531.2734   21567534.8834
        17.0004         17.2504
 -17862186.28247 -13648518.20546  20827282.9304   20827285.7774
        22.7504         22.2504
 -19541281.27547 -14922704.16846  20933555.8444   20933559.6524
        20.0004         19.5004
  -7961149.42143  -2478128.80955  23935348.2034   23935350.0664
         5.5004          6.0004
   3272081.86845   2701974.32845  23139917.9614   23139923.6094
         9.0004          8.7504
  -5542039.23243  -3050818.07044  24552072.6094   24552078.5394
         5.7504          4.2504
 -18032098.12946 -13788422.84746  21438257.3834   21438261.4614
        19.2504         18.5004
 03 11  1  2  6  0.0000000  0  7G 9G 4G24G30G 7G17G 5
 -11667689.43846  -8976183.45046  21580353.1174   21580356.6684
        17.2504         17.5004
 -17825075.89347 -13619600.96546  20834344.7194   20834347.6484
        22.5004         22.2504
 -19592150.03047 -14962342.08046  20923875.5164   20923879.4184
        20.2504         19.7504
  -8059241.01542  -2554563.54145  23916681.3914   23916687.2734
         4.7504          5.2504
   3347255.51245   2760551.19645  23154222.8284   23154226.8134
         8.7504          8.5004
  -5644323.56743  -3130519.97645  24532607.9304   24532611.7034
         5.5004          5.5004
 -18097649.17746 -13839501.48646  21425783.2974   21425787.3984
        19.0004         18.2504
 03 11  1  2  6 30.0000000  0  7G 9G 4G24G30G 7G17G 5
 -11599885.56846  -8923349.24346  21593256.0004   21593259.9614
        17.5004         17.5004
 -17787447.29947 -13590279.93246  20841505.4534   20841508.4304
        22.7504         22.0004
 -19642562.05347 -15001624.10146  20914282.3364   20914286.4024
        20.0004         20.0004
  -8157330.87142  -2630996.89945  23898015.6024   23898026.3284
         4.5004          5.2504
   3422447.26245   2819142.23045  23168531.3134   23168535.5784
         8.7504          8.5004
  -5746586.00242  -3210204.82544  24513146.5944   24513151.9494
         4.5004          4.0004
 -18162967.00146 -13890398.39246  21413353.8914   21413357.9104
        19.2504         18.5004
 03 11  1  2  7  0.0000000  0  7G 9G 4G24G30G 7G17G 5
 -11531665.71746  -8870190.90246  21606237.7664   21606241.2344
        17.7504         17.5004
 -17749309.94147 -13560562.45946  20848762.5314   20848765.5664
        22.5004         22.0004
 -19692523.31747 -15040554.88246  20904774.9224   20904778.6954
        20.0004         20.2504
  -8255425.08542  -2707433.58144  23879348.1334   23879352.6334
         4.7504          4.7504
   3497649.24545   2877741.17045  23182841.7974   23182845.6294
         8.2504          8.5004
  -5848832.09241  -3289877.06643  24493691.3134   24493696.0234
         3.7504          3.2504
 -18228057.19646 -13941117.93446  21400967.3444   21400971.3874
        19.7504         18.7504
 03 11  1  2  7 30.0000000  0  7G 9G 4G24G30G 7G17G 5
 -11463025.68346  -8816705.14546  21619299.2814   21619303.1374
        17.7504         17.5004
 -17710658.69147 -13530444.54546  20856117.8204   20856120.6454
        22.5004         22.0004
 -19742026.01447 -15079128.32846  20895355.0234   20895358.9494
        20.2504         20.0004
  -8353515.09643  -2783867.05345  23860682.4144   23860691.5004
         5.2504          6.0004
   3572867.59845   2936352.93645  23197155.6024   23197158.7304
         8.0004          7.5004
  -5951052.79741  -3369529.36544  24474238.6254   24474245.4224
         3.7504          4.5004
 -18292911.71746 -13991653.83146  21388625.9534   21388629.8794
        19.2504         18.7504
 03 11  1  2  8  0.0000000  0  7G 9G 4G24G30G 7G17G 5
 -11393963.01446  -8762890.06546  21632442.0704   21632445.4224
        17.7504         17.2504
 -17671490.47047 -13499923.80546  20863570.9064   20863573.6374
        22.2504         21.7504
 -19791063.85147 -15117339.55446  20886023.4534   20886027.3324
        20.5004         20.2504
  -8451594.57143  -2860292.32145  23842018.5164   23842023.5084
         5.7504          6.0004
   3648106.68445   2994980.82845  23211473.0784   23211476.8754
         8.0004          7.7504
  -6053241.73641  -3449156.79844  24454791.3054   24454804.6914
         3.7504          4.0004
 -18357523.17546 -14042000.32846  21376330.7584   21376334.5314
        19.2504         18.7504
 03 11  1  2  8 30.0000000  0  7G 9G 4G24G30G 7G17G 5
 -11324476.15146  -8708744.43846  21645664.7894   21645668.7034
        17.0004         17.2504
 -17631802.65647 -13468998.18646  20871123.3204   20871126.1334
        22.2504         21.5004
 -19839631.49947 -15155184.40246  20876781.4694   20876785.2194
        20.5004         20.2504
  -8549657.73843  -2936704.95845  23823357.2814   23823361.8284
         6.0004          5.7504
   3723370.29644   3053627.79445  23225794.8594   23225798.0594
         7.7504          8.0004
  -6155392.22341  -3528754.45245  24435353.9774   24435361.5394
         3.7504          6.0004
 -18421885.48746 -14092152.69246  21364082.7424   21364086.3634
        19.7504         19.0004
 03 11  1  2  9  0.0000000  0  7G 9G 4G24G30G 7G17G 5
 -11254574.13446  -8654275.32146  21658966.4384   21658970.2814
        17.2504         17.2504
 -17591603.78247 -13437674.34146  20878772.8134   20878775.5434
        22.0004         21.5004
 -19887734.64647 -15192667.29146  20867627.5084   20867631.4344
        20.5004         20.2504
  -8647709.47643  -3013108.70345  23804698.2274   23804703.2074
         6.2504          6.0004
   3798651.38744   3112288.36445  23240120.8834   23240125.9694
         7.5004          7.7504
  -6257508.96343  -3608325.77845  24415923.3444   24415928.5944
         5.0004          5.2504
 -18486003.58447 -14142114.75546  21351881.7584   21351885.6954
        20.2504         19.2504
 03 11  1  2  9 30.0000000  0  7G 9G 4G24G30G 7G17G 5
 -11184260.59946  -8599485.53246  21672346.8674   21672350.0784
        17.0004         16.5004
 -17550896.62247 -13405954.43246  20886519.1024   20886521.7384
        22.2504         21.5004
 -19935372.92747 -15229787.95546  20858562.2664   20858566.3444
        20.2504         20.2504
  -8745749.22343  -3089503.07245  23786042.2114   23786052.2934
         6.5004          5.7504
   3873948.45544   3170961.38745  23254449.4224   23254453.2424
         7.0004          7.7504
  -6359590.77243  -3687869.85945  24396496.5004   24396501.8914
         6.0004          5.7504
 -18549876.16347 -14191885.51346  21339726.8594   21339730.7274
        20.0004         19.5004
 03 11  1  2 10  0.0000000  0  7G 9G 4G24G30G 7G17G 5
 -11113533.35546  -8544373.37546  21685805.6724   21685809.1644
        17.2504         17.0004
 -17509678.35947 -13373836.26146  20894362.6804   20894365.3284
        22.2504         21.7504
 -19982540.59647 -15266541.91246  20849586.4384   20849590.1884
        20.7504         20.5004
  -8843770.78043  -3165883.34245  23767389.6094   23767395.6564
         6.2504          6.2504
   3949265.60043   3229650.08745  23268780.4844   23268785.0204
         6.7504          8.5004
  -6461631.28143  -3767381.73445  24377078.1174   24377087.1804
         5.2504          6.2504
 -18613496.75847 -14241459.91146  21327620.2114   21327624.2774
        20.0004         19.5004
 03 11  1  2 10 30.0000000  0  7G 9G 4G24G30G 7G17G 5
 -11042396.10046  -8488941.73246  21699342.9454   21699346.3674
        17.0004         16.7504
 -17467951.71247 -13341321.94946  20902302.9614   20902305.5514
        22.2504         21.7504
 -20029237.59047 -15302929.10946  20840700.3204   20840704.1054
        20.7504         20.7504
  -8941773.49943  -3242248.97845  23748739.5084   23748746.3794
         5.7504          5.2504
   4024601.41443   3288353.34145  23283117.6174   23283119.7734
         6.5004          7.2504
  -6563629.26041  -3846860.49745  24357667.2424   24357679.3164
         3.5004          5.0004
 -18676864.70147 -14290837.44446  21315561.9144   21315565.8164
        20.5004         19.5004
 03 11  1  2 11  0.0000000  0  7G 9G 4G24G30G 7G17G 5
 -10970851.48746  -8433192.65546  21712957.0084   21712960.1954
        16.7504         16.7504
 -17425718.68747 -13308413.05446  20910339.7274   20910342.1994
        22.2504         22.0004
 -20075462.43547 -15338948.39846  20831904.0634   20831907.7424
        21.0004         20.7504
  -9039755.57342  -3318598.44345  23730092.9694   23730105.7234
         4.7504          5.2504
   4099955.52343   3347070.77845  23297456.9534   23297463.6914
         6.7504          8.5004
  -6665582.70342  -3926304.46645  24338266.1724   24338269.3834
         4.2504          5.5004
 -18739977.75747 -14340016.37646  21303551.6334   21303555.3244
        20.2504         19.5004
 03 11  1  2 11 30.0000000  0  7G 9G 4G24G30G 7G17G 5
 -10898898.69446  -8377125.52646  21726648.7974   21726652.3484
        16.7504         16.5004
 -17382977.64647 -13275108.30046  20918473.0704   20918475.9184
        22.2504         21.5004
 -20121210.85047 -15374596.43746  20823198.1954   20823201.7704
        21.0004         20.7504
  -9137712.09042  -3394927.94844  23711452.9694   23711460.5434
         4.5004          4.7504
   4175330.54343   3405804.57945  23311799.8914   23311803.9574
         6.7504          7.7504
  -6767486.00743  -4005709.49445  24318877.2114   24318883.0004
         6.2504          5.2504
 -18802830.72147 -14388992.63346  21291590.8594   21291594.5164
        20.0004         19.5004
 03 11  1  2 12  0.0000000  0  7G 9G 4G24G30G 7G17G 5
 -10826547.04146  -8320747.59546  21740417.1644   21740420.6804
        16.2504         16.5004
 -17339737.60147 -13241414.72446  20926701.0004   20926703.6024
        22.0004         21.7504
 -20166488.73847 -15409877.84246  20814582.1804   20814585.8714
        21.2504         21.2504
  -9235648.27943  -3471241.66045  23692816.0634   23692820.5044
         5.0004          6.5004
   4250719.28044   3464549.01245  23326145.5704   23326152.0164
         7.0004          7.5004
  -6869344.28743  -4085079.49345  24299492.6804   24299497.9534
         6.0004          5.7504
 -18865428.91947 -14437770.36046  21279679.1334   21279683.1174
        20.0004         19.5004
 03 11  1  2 12 30.0000000  0  7G 9G 4G24G30G 7G17G 5
 -10753789.87646  -8264053.67246  21754262.0864   21754266.0004
        16.2504         16.5004
 -17295990.83147 -13207326.29246  20935025.9144   20935028.7624
        22.2504         21.5004
 -20211285.80447 -15444784.57546  20806057.4454   20806060.9264
        21.5004         21.0004
  -9333553.11043  -3547530.90745  23674185.5554   23674190.8634
         5.7504          7.0004
   4326130.63244   3523311.10845  23340496.2664   23340500.2854
         7.0004          8.0004
  -6971146.21442  -4164405.45645  24280119.8204   24280125.7274
         4.7504          5.0004
 -18927760.68247 -14486340.47346  21267817.4694   21267821.2074
        20.5004         20.0004
 03 11  1  2 13  0.0000000  0  7G 9G 4G24G30G 7G17G 5
 -10680639.07546  -8207053.02146  21768182.6724   21768186.7624
        16.2504         16.2504
 -17251748.76047 -13172851.92046  20943444.9924   20943447.5594
        22.2504         21.5004
 -20255610.55947 -15479323.28446  20797622.5784   20797626.3984
        21.2504         21.2504
  -9431434.19043  -3623801.70045  23655559.8444   23655565.8914
         6.2504          6.7504
   4401554.84244   3582083.23845  23354849.1644   23354853.2304
         7.2504          8.5004
  -7072899.06743  -4243693.18745  24260757.2974   24260761.7384
         5.5004          5.5004
 -18989833.39947 -14534708.74846  21256005.2814   21256008.7384
        20.2504         19.7504
 03 11  1  2 13 30.0000000  0  7G 9G 4G24G30G 7G17G 5
 -10607096.54646  -8149747.12946  21782177.3444   21782181.2584
        16.0004         16.2504
 -17207012.39847 -13137992.38346  20951957.8984   20951960.6174
        22.0004         21.5004
 -20299460.85547 -15513492.27846  20789278.1724   20789281.7584
        21.5004         21.5004
  -9529288.92643  -3700051.93845  23636938.3984   23636942.4304
         6.5004          7.2504
   4476992.47144   3640865.77345  23369204.6094   23369209.0744
         7.5004          8.5004
  -7174599.69543  -4322940.31745  24241405.2814   24241414.8954
         6.0004          6.5004
 -19051643.88547 -14582872.67846  21244243.2194   21244246.7114
        20.5004         20.0004
 03 11  1  2 14  0.0000000  0  7G 9G 4G24G30G 7G17G 5
 -10533152.95046  -8092128.71146  21796248.1804   21796252.1174
        15.7504         16.2504
 -17161771.64147 -13102739.81046  20960566.8524   20960569.6054
        22.2504         21.5004
 -20342823.43947 -15547281.24046  20781026.3054   20781029.6914
        21.0004         21.2504
  -9627103.48043  -3776270.80245  23618324.2504   23618328.9734
         6.2504          7.0004
   4552455.11044   3699667.83845  23383565.1954   23383569.2624
         7.5004          8.0004
  -7276234.30043  -4402135.92245  24222062.9454   24222068.6174
         5.5004          6.0004
 -19113178.65247 -14630821.74946  21232533.7194   21232537.4694
        21.0004         20.2504
 03 11  1  2 14 30.0000000  0  7G 9G 4G24G30G 7G17G 5
 -10458813.89246  -8034202.13946  21810394.3754   21810398.7114
        16.0004         16.0004
 -17116031.60147 -13067098.18546  20969270.8834   20969273.4384
        22.2504         21.2504
 -20385700.48947 -15580691.86246  20772867.3054   20772870.7974
        21.5004         21.0004
  -9724879.29343  -3852459.51945  23599718.6564   23599726.9344
         6.2504          6.2504
   4627939.27144   3758486.66645  23397929.0784   23397935.3014
         7.7504          8.2504
  -7377803.86343  -4481280.86745  24202736.2194   24202742.3834
         5.7504          6.2504
 -19174438.87047 -14678556.90246  21220876.0084   21220879.6414
        21.0004         20.2504
 03 11  1  2 15  0.0000000  0  7G 9G 4G24G30G 7G17G 5
 -10384086.85446  -7975973.24746  21824614.1804   21824618.0004
        15.7504         16.0004
 -17069798.65347 -13031072.47846  20978068.8134   20978071.3094
        22.0004         21.5004
 -20428095.77647 -15613727.08646  20764799.5474   20764803.1454
        21.2504         21.2504
  -9822619.20243  -3928620.18245  23581118.5634   23581123.4614
         6.7504          5.5004
   4703439.87445   3817318.30145  23412296.1884   23412300.6174
         8.0004          8.2504
  -7479310.62443  -4560376.93445  24183419.5004   24183420.4494
         5.5004          5.2504
 -19235427.06847 -14726080.09046  21209270.4224   21209273.6684
        20.7504         20.0004
 03 11  1  2 15 30.0000000  0  7G 9G 4G24G30G 7G17G 5
 -10308971.97846  -7917442.13446  21838908.8984   21838912.7304
        16.0004         16.0004
 -17023072.45847 -12994662.42246  20986960.2584   20986963.2704
        22.0004         21.0004
 -20470005.84747 -15646384.22146  20756824.7424   20756828.3634
        21.2504         21.5004
  -9920318.95744  -4004749.69245  23562526.8674   23562530.2194
         7.5004          6.2504
   4778958.99045   3876164.40245  23426666.3984   23426671.0864
         8.0004          7.7504
  -7580750.40243  -4639420.84045  24164115.5784   24164124.4304
         5.2504          5.7504
 -19296138.45847 -14773387.58046  21197717.3054   21197720.6334
        21.0004         20.2504
 03 11  1  2 16  0.0000000  0  7G 9G 4G24G30G 7G17G 5
 -10233468.16346  -7858607.95546  21853276.0784   21853280.0044
        16.0004         16.0004
 -16975851.23347 -12957866.63746  20995946.4694   20995949.1884
        21.7504         21.0004
 -20511426.03447 -15678659.63846  20748942.1954   20748945.6764
        21.2504         21.2504
 -10017973.17744  -4080843.79345  23543942.8594   23543949.4344
         7.2504          5.2504
   4854499.85645   3935027.37945  23441042.2814   23441049.4804
         8.0004          8.2504
  -7682117.65643  -4718408.10645  24144827.0164   24144833.8364
         5.2504          6.2504
 -19356567.95047 -14820475.40646  21186217.5554   21186221.4924
        21.0004         20.0004
 03 11  1  2 16 30.0000000  0  7G 9G 4G24G30G 7G17G 5
 -10157586.35446  -7799479.23346  21867715.9924   21867719.8244
        16.0004         16.0004
 -16928145.50147 -12920693.31546  21005024.3054   21005027.2704
        21.7504         21.0004
 -20552363.86347 -15710559.18146  20741152.0784   20741155.5004
        21.2504         21.0004
 -10115588.47743  -4156907.31345  23525366.8444   23525372.4104
         6.0004          5.7504
   4930053.88544   3993900.69345  23455419.2194   23455424.5984
         7.7504          7.2504
  -7783418.37343  -4797343.58245  24125548.6254   24125556.3634
         5.5004          6.0004
 -19416721.55447 -14867348.26146  21174770.7424   21174774.4454
        21.0004         20.2504
 03 11  1  2 17  0.0000000  0  7G 9G 4G24G30G 7G17G 5
 -10081325.12046  -7740054.86646  21882228.2734   21882231.8954
        16.0004         16.2504
 -16879952.93147 -12883140.64146  21014194.8674   21014197.2464
        21.7504         20.7504
 -20592814.35447 -15742078.98546  20733454.6954   20733458.0474
        21.2504         21.5004
 -10213158.80542  -4232935.86245  23506799.6334   23506801.7194
         4.5004          5.0004
   5005624.92444   4052787.23045  23469799.7664   23469806.4224
         7.5004          7.0004
  -7884646.20543  -4876222.29845  24106285.0394   24106293.6804
         6.0004          6.0004
 -19476592.75447 -14914001.05746  21163377.6414   21163381.2734
        21.2504         20.5004
 03 11  1  2 17 30.0000000  0  7G 9G 4G24G30G 7G17G 5
 -10004683.65746  -7680334.20046  21896811.9064   21896815.6214
        15.7504         15.7504
 -16831272.07447 -12845207.47846  21023458.5394   21023461.4574
        21.5004         20.5004
 -20632773.20947 -15773215.70146  20725850.5554   20725853.8594
        21.5004         21.5004
 -10310679.03342  -4308925.40245  23488241.9224   23488243.4574
         4.5004          5.0004
   5081215.89944   4111689.30645  23484184.6804   23484191.5634
         7.2504          7.2504
  -7985796.04343  -4955040.19644  24087036.8984   24087039.8404
         5.0004          4.7504
 -19536176.41347 -14960429.80946  21152039.3674   21152042.6954
        21.5004         20.7504
 03 11  1  2 18  0.0000000  0  7G 9G 4G24G30G 7G17G 5
  -9927665.49146  -7620320.01746  21911468.4144   21911472.0704
        16.0004         15.7504
 -16782105.83647 -12806896.11046  21032814.6094   21032817.1994
        21.5004         20.7504
 -20672240.09547 -15803969.05746  20718340.4224   20718343.8444
        21.5004         21.5004
 -10408148.05243  -4384875.04545  23469693.9534   23469696.8014
         5.7504          5.0004
   5156825.79444   4170606.10645  23498572.3754   23498576.9924
         7.2504          6.7504
  -8086866.45542  -5033796.21545  24067802.9774   24067813.0944
         4.5004          6.0004
 -19595471.87347 -15006633.98346  21140755.6884   21140759.2154
        21.5004         21.0004
 03 11  1  2 18 30.0000000  0  7G 9G 4G24G30G 7G17G 5
  -9850274.75946  -7560015.51246  21926194.8914   21926198.6414
        15.5004         15.5004
 -16732457.59847 -12768209.15846  21042262.5554   21042265.2734
        21.5004         20.7504
 -20711215.49247 -15834339.44146  20710923.5314   20710927.3054
        21.2504         21.2504
 -10505565.36143  -4460784.44645  23451156.6484   23451162.4844
         6.7504          6.0004
   5232452.93343   4229536.37245  23512963.5314   23512968.7114
         6.5004          6.2504
  -8187856.49143  -5112489.59445  24048587.1094   24048595.1054
         6.7504          6.7504
 -19654477.98947 -15052612.69846  21129527.0234   21129530.5394
        21.2504         20.7504
 03 11  1  2 19  0.0000000  0  7G 9G 4G24G30G 7G17G 5
  -9772511.21246  -7499420.49846  21940993.3204   21940996.8594
        15.2504         15.5004
 -16682326.28647 -12729145.78046  21051802.1724   21051804.4924
        21.5004         20.2504
 -20749695.58847 -15864323.87946  20703600.8674   20703604.1484
        21.2504         21.5004
 -10602926.13843  -4536649.79645  23432629.0084   23432635.0554
         6.7504          7.0004
   5308100.04743   4288482.14445  23527359.1174   23527364.2624
         6.2504          6.7504
  -8288761.06143  -5191116.37645  24029384.9774   24029390.8834
         6.7504          6.7504
 -19713189.41447 -15098361.77446  21118354.4144   21118357.9654
        21.2504         20.7504
 03 11  1  2 19 30.0000000  0  7G 9G 4G24G30G 7G17G 5
  -9694378.21546  -7438537.58846  21955861.5944   21955865.1454
        15.0004         15.2504
 -16631714.77447 -12689708.22546  21061433.1724   21061435.7034
        21.2504         20.5004
 -20787680.34847 -15893922.33446  20696372.5634   20696375.9494
        21.2504         21.5004
 -10700229.12843  -4612470.15245  23414112.6954   23414119.6484
         6.5004          7.5004
   5383766.03743   4347442.68845  23541756.7814   23541761.9734
         5.7504          6.5004
  -8389578.95543  -5269675.59945  24010198.0864   24010203.8164
         5.5004          7.2504
 -19771605.88547 -15143881.03246  21107238.2664   21107241.6644
        21.5004         20.7504
 03 11  1  2 20  0.0000000  0  7G 9G 4G24G30G 7G17G 5
  -9615883.70346  -7377372.98846  21970798.2734   21970801.3914
        15.2504         15.5004
 -16580630.10647 -12649901.97446  21071153.9774   21071156.8954
        21.2504         20.2504
 -20825174.09547 -15923138.18046  20689237.5634   20689240.8674
        21.2504         21.5004
 -10797477.47843  -4688247.86945  23395608.2584   23395615.2934
         6.0004          7.0004
   5459445.65743   4406413.87645  23556158.9304   23556159.9024
         5.5004          6.0004
  -8490313.24343  -5348169.64445  23991030.8834   23991039.2424
         6.0004          6.5004
 -19829729.75647 -15189172.28346  21096177.7974   21096181.1134
        21.7504         21.2504
 03 11  1  2 20 30.0000000  0  7G 9G 4G24G30G 7G17G 5
  -9537037.94046  -7315934.68846  21985802.2974   21985805.9304
        14.7504         15.0004
 -16529082.30547 -12609734.83346  21080963.5864   21080966.3404
        21.2504         20.2504
 -20862183.74747 -15951976.81746  20682194.6484   20682198.2464
        21.0004         21.5004
 -10894677.26943  -4763987.74845  23377110.4534   23377116.6764
         5.7504          6.5004
   5535130.72143   4465389.20345  23570561.4384   23570566.8524
         5.2504          5.2504
  -8590969.52443  -5426602.91145  23971876.8284   23971882.5944
         6.7504          7.0004
 -19887566.87547 -15234240.08846  21085171.6254   21085175.1994
        22.0004         21.2504
 03 11  1  2 21  0.0000000  0  7G 9G 4G24G30G 7G17G 5
  -9457833.63846  -7254217.01646  22000874.5554   22000877.7304
        14.7504         15.2504
 -16477063.34847 -12569200.56546  21090862.1094   21090864.8524
        21.0004         20.2504
 -20898698.60347 -15980429.89746  20675246.2664   20675249.9344
        21.2504         21.5004
 -10991816.73043  -4839680.70945  23358626.1254   23358632.8164
         6.2504          7.0004
   5610830.78143   4524376.25545  23584966.7194   23584976.0164
         5.2504          6.0004
  -8691536.11443  -5504966.28045  23952739.3594   23952746.4884
         6.2504          6.2504
 -19945104.96047 -15279074.89446  21074222.4064   21074225.7464
        21.7504         21.2504
 03 11  1  2 21 30.0000000  0  7G 9G 4G24G30G 7G17G 5
  -9378268.93346  -7192218.51346  22016015.4064   22016018.3244
        14.7504         15.2504
 -16424570.60247 -12528297.09846  21100851.3674   21100853.6994
        21.2504         20.2504
 -20934712.96147 -16008492.97246  20668392.9304   20668396.6684
        21.0004         21.5004
 -11088888.94843  -4915321.22645  23340152.9384   23340159.5824
         6.2504          5.5004
   5686550.61943   4583378.72845  23599375.9924   23599384.2234
         5.5004          5.5004
  -8792005.76043  -5583254.06845  23933618.7034   23933623.3094
         6.0004          5.7504
 -20002337.27647 -15323671.41846  21063331.3524   21063334.7624
        22.0004         21.2504
 03 11  1  2 22  0.0000000  0  7G 9G 4G24G30G 7G17G 5
  -9298346.40146  -7129941.16146  22031223.1334   22031226.9884
        14.5004         15.0004
 -16371605.87647 -12487025.86346  21110930.1334   21110932.7584
        21.2504         20.5004
 -20970226.11647 -16036165.50646  20661634.6884   20661638.4384
        21.0004         21.5004
 -11185891.90543  -4990907.88045  23321694.7034   23321697.4924
         6.7504          5.7504
   5762289.96843   4642396.46245  23613787.8984   23613792.3164
         5.7504          6.5004
  -8892376.44543  -5661464.84545  23914519.9844   23914525.8794
         6.0004          7.2504
 -20059262.03347 -15368028.30446  21052499.0234   21052502.2584
        22.2504         21.5004
 03 11  1  2 22 30.0000000  0  7G 9G 4G24G30G 7G17G 5
  -9218067.83246  -7067386.41146  22046500.1564   22046504.3164
        14.5004         15.0004
 -16318170.78947 -12445388.10646  21121098.4774   21121100.9964
        21.2504         20.2504
 -21005236.57647 -16063446.32646  20654972.6884   20654976.1214
        21.2504         21.7504
 -11282822.95544  -5066438.47545  23303248.4694   23303251.9024
         7.7504          6.5004
   5838049.32843   4701429.76645  23628205.6644   23628210.9494
         6.0004          6.7504
  -8992645.15043  -5739596.06445  23895438.6484   23895447.8984
         5.5004          6.5004
 -20115876.23347 -15412143.19846  21041725.6484   21041728.9304
        22.2504         21.5004
 03 11  1  2 23  0.0000000  0  7G 9G 4G24G30G 7G17G 5
  -9137440.90446  -7004560.18146  22061842.1804   22061845.7664
        14.2504         15.0004
 -16264272.22347 -12403389.20546  21131355.0634   21131357.5594
        21.0004         20.2504
 -21039748.35847 -16090338.56446  20648405.2504   20648408.8014
        21.2504         21.7504
 -11379684.93944  -5141915.26445  23284816.3364   23284821.0004
         7.7504          7.0004
   5913823.62343   4760474.66945  23642623.9224   23642626.2304
         6.2504          7.0004
  -9092815.05143  -5817650.21645  23876377.2584   23876378.7934
         5.0004          5.0004
 -20172182.78647 -15456018.36746  21031010.3754   21031013.7734
        22.2504         21.7504
 03 11  1  2 23 30.0000000  0  7G 9G 4G24G30G 7G17G 5
  -9056462.94946  -6941460.43746  22077251.9384   22077255.4414
        14.5004         14.5004
 -16209906.59947 -12361026.34646  21141700.4384   21141702.9924
        21.0004         20.0004
 -21073755.32047 -16116837.44346  20641933.7974   20641937.4304
        21.2504         21.7504
 -11476470.30944  -5217332.33645  23266398.6724   23266404.1214
         7.5004          7.2504
   5989618.03743   4819535.25545  23657047.6024   23657053.4614
         6.5004          7.5004
  -9192878.15143  -5895621.25745  23857335.4534   23857342.6764
         6.0004          5.5004
 -20228174.15647 -15499647.94446  21020355.9384   21020359.2194
        22.5004         21.7504
 03 11  1  2 24  0.0000000  0  7G 9G 4G24G30G 7G17G 5
  -8975141.79446  -6878093.25846  22092726.8984   22092730.1914
        14.5004         14.7504
 -16155081.31547 -12318305.32446  21152133.3834   21152135.9964
        20.7504         20.0004
 -21107262.14147 -16142946.59946  20635557.6804   20635561.1254
        21.2504         21.7504
 -11573182.28444  -5292692.24845  23247994.8984   23247998.8954
         7.0004          7.5004
   6065427.38243   4878607.53445  23671473.5394   23671478.4494
         6.7504          7.0004
  -9292837.66843  -5973511.47645  23838312.4064   23838318.5354
         6.0004          6.0004
 -20283853.02147 -15543034.01846  21009760.2974   21009763.5664
        22.7504         21.7504
 03 11  1  2 24 30.0000000  0  7G 9G 4G24G30G 7G17G 5
  -8893476.20146  -6814457.70046  22108268.0004   22108272.0904
        14.0004         14.5004
 -16099794.51447 -12275224.67746  21162654.0944   21162656.6724
        21.0004         20.0004
 -21140263.87847 -16168662.18046  20629277.7034   20629280.8914
        21.2504         22.0004
 -11669814.74243  -5367990.10745  23229605.7424   23229609.2934
         6.7504          7.2504
   6141255.41144   4937694.31645  23685902.9924   23685905.6644
         7.2504          8.2504
  -9392687.51743  -6051316.37545  23819311.6804   23819314.1994
         6.2504          7.0004
 -20339213.60647 -15586172.07046  20999225.7814   20999228.9924
        23.0004         22.0004
 03 11  1  2 25  0.0000000  0  7G 9G 4G24G30G 7G17G 5
  -8811473.65146  -6750559.55846  22123871.8834   22123875.4694
        14.0004         14.0004
 -16044053.07947 -12231789.77246  21173261.2664   21173263.7854
        21.0004         20.2504
 -21172764.62347 -16193987.38546  20623092.8674   20623096.2894
        21.5004         22.0004
 -11766370.69243  -5443228.40945  23211232.1724   23211233.7774
         6.5004          7.0004
   6217097.13444   4996791.80645  23700335.8284   23700340.9844
         7.2504          8.0004
  -9492430.11143  -6129037.62045  23800332.5234   23800338.6524
         6.5004          6.2504
 -20394258.78347 -15629064.35946  20988751.1174   20988754.4454
        23.0004         22.0004
 03 11  1  2 25 30.0000000  0  7G 9G 4G24G30G 7G17G 5
  -8729134.53446  -6686399.17846  22139540.6254   22139544.2234
        14.0004         14.5004
 -15987856.93047 -12188000.54346  21183954.9304   21183957.5434
        20.7504         20.0004
 -21204761.72847 -16218920.13846  20617003.9924   20617007.3674
        21.2504         21.7504
 -11862845.52743  -5518403.49345  23192873.0474   23192878.6254
         6.7504          7.0004
   6292954.57844   5055901.51245  23714770.2894   23714774.6484
         7.5004          7.2504
  -9592061.33443  -6206672.19245  23781371.9454   23781376.5744
         6.2504          6.5004
 -20448984.02047 -15671707.34146  20978337.0314   20978340.1134
        22.7504         22.0004
 03 11  1  2 26  0.0000000  0  7G 9G 4G24G30G 7G17G 5
  -8646460.91146  -6621978.13146  22155272.8524   22155276.7424
        14.2504         14.2504
 -15931207.39647 -12143858.02946  21194735.1414   21194737.7074
        20.5004         20.0004
 -21236253.85947 -16243459.41146  20611011.1174   20611014.5394
        21.2504         22.0004
 -11959236.47343  -5593513.20645  23174530.4144   23174532.0314
         6.5004          7.0004
   6368828.47444   5115024.10745  23729208.8204   23729212.6174
         7.5004          7.2504
  -9691578.33144  -6284217.65045  23762435.5164   23762442.7504
         7.2504          7.0004
 -20503386.30947 -15714098.66746  20967984.6094   20967987.7624
        23.0004         22.2504
 03 11  1  2 26 30.0000000  0  7G 9G 4G24G30G 7G17G 5
  -8563453.92446  -6557297.34046  22171068.8834   22171072.4694
        14.2504         14.2504
 -15874105.06747 -12099362.69446  21205601.4064   21205603.9384
        20.5004         19.7504
 -21267238.38947 -16267603.14746  20605114.9614   20605118.3834
        21.0004         22.0004
 -12055540.03443  -5668554.82445  23156203.8204   23156206.9024
         6.7504          6.5004
   6444720.14844   5174160.46345  23743650.0634   23743654.3874
         7.2504          6.7504
  -9790977.29144  -6361671.14845  23743520.4614   23743524.5044
         7.2504          7.0004
 -20557462.10047 -15756235.59046  20957694.0394   20957697.1804
        23.0004         22.5004
 03 11  1  2 27  0.0000000  0  7G 9G 4G24G30G 7G17G 5
  -8480120.93146  -6492362.50446  22186926.8914   22186930.4064
        14.5004         14.0004
 -15816556.60347 -12054519.71646  21216552.4844   21216555.2154
        20.5004         19.7504
 -21297719.41147 -16291354.54346  20599314.5394   20599317.9614
        21.0004         21.7504
 -12151758.36944  -5743530.06345  23137894.8444   23137900.3634
         7.2504          6.5004
   6520624.94143   5233307.12845  23758094.1094   23758097.8364
         6.7504          7.7504
  -9890260.53743  -6439034.54445  23724627.1334   23724634.2034
         6.5004          7.0004
 -20611214.15547 -15798120.23646  20947465.1804   20947468.2154
        23.2504         22.5004
 03 11  1  2 27 30.0000000  0  7G 9G 4G24G30G 7G17G 5
  -8396461.22846  -6427173.09946  22202846.3444   22202849.8364
        14.2504         14.2504
 -15758560.79347 -12009328.15246  21227588.6724   21227591.1454
        20.2504         19.7504
 -21327692.91147 -16314710.47846  20593610.9924   20593614.3914
        21.2504         22.2504
 -12247886.28544  -5818434.79745  23119602.9614   23119604.8484
         7.7504          6.0004
   6596546.17043   5292466.53545  23772541.8754   23772547.0204
         6.2504          7.2504
  -9989422.60043  -6516303.41845  23705757.9534   23705763.7664
         6.7504          7.2504
 -20664636.50147 -15839747.97846  20937299.4534   20937302.4774
        23.2504         22.5004
 03 11  1  2 28  0.0000000  0  7G 9G 4G24G30G 7G17G 5
  -8312474.76246  -6361729.07446  22218828.6024   22218831.6844
        14.2504         14.2504
 -15700116.57247 -11963787.17946  21238710.2114   21238712.8484
        20.5004         19.5004
 -21357155.22647 -16337668.08146  20588004.4924   20588007.8444
        21.2504         22.2504
 -12343918.59945  -5893265.03945  23101328.0004   23101332.8754
         8.0004          8.0004
   6672486.70843   5351641.04745  23786992.9304   23786998.5904
         6.0004          6.7504
 -10088458.30243  -6593473.93545  23686910.1804   23686915.7344
         5.7504          7.2504
 -20717724.55647 -15881115.23146  20927197.1334   20927200.0164
        23.0004         22.2504
 03 11  1  2 28 30.0000000  0  7G 9G 4G24G30G 7G17G 5
  -8228171.70446  -6296038.34946  22234870.3834   22234873.9454
        14.0004         14.2504
 -15641234.02047 -11917904.65146  21249915.2034   21249917.7584
        20.2504         19.5004
 -21386113.60447 -16360233.00846  20582493.8364   20582497.3054
        21.5004         22.2504
 -12439860.76344  -5968025.02745  23083070.8134   23083075.6054
         7.7504          8.0004
   6748438.71843   5410824.49245  23801446.1884   23801449.5274
         5.7504          5.7504
 -10187373.47443  -6670550.42745  23668086.4454   23668091.2624
         5.7504          7.0004
 -20770483.52847 -15922226.06346  20917157.3054   20917160.2704
        23.0004         22.5004
 03 11  1  2 29  0.0000000  0  7G 9G 4G24G30G 7G17G 5
  -8143551.67146  -6230100.63446  22250973.4304   22250976.4414
        13.5004         14.0004
 -15581912.00847 -11871679.68246  21261203.8524   21261206.4064
        20.2504         19.5004
 -21414564.50847 -16382402.51046  20577079.8914   20577083.1374
        22.0004         22.5004
 -12535707.44244  -6042710.63745  23064831.2974   23064837.0864
         7.5004          8.0004
   6824405.29843   5470019.16545  23815901.3284   23815906.5434
         5.2504          6.5004
 -10286162.30944  -6747528.52945  23649289.3834   23649296.8634
         7.0004          7.5004
 -20822908.04747 -15963076.27546  20907181.3134   20907184.3484
        23.2504         22.2504
 03 11  1  2 29 30.0000000  0  7G 9G 4G24G30G 7G17G 5
  -8058608.71446  -6163911.29246  22267137.4384   22267141.2584
        13.5004         14.2504
 -15522143.90947 -11825107.11946  21272577.2344   21272579.5434
        20.0004         19.5004
 -21442498.51147 -16404169.22346  20571763.9304   20571767.1994
        21.5004         22.2504
 -12631447.80244  -6117313.35445  23046612.7114   23046616.5204
         7.2504          8.7504
   6900395.03543   5529231.99545  23830362.3444   23830367.0554
         5.2504          5.7504
 -10384814.50943  -6824400.14645  23630516.1804   23630522.2974
         6.5004          6.7504
 -20874987.47747 -16003657.58546  20897270.6484   20897273.8484
        23.2504         22.5004
 03 11  1  2 30  0.0000000  0  7G 9G 4G24G30G 7G17G 5
  -7973351.19246  -6097476.85246  22283361.6414   22283364.1134
        13.5004         14.2504
 -15461937.71947 -11778193.17646  21284034.2274   21284036.6294
        20.0004         19.2504
 -21469920.90447 -16425537.28146  20566545.8444   20566548.8554
        22.0004         22.2504
 -12727085.31945  -6191835.92045  23028413.7114   23028418.3984
         8.0004          8.2504
   6976402.16643   5588458.38144  23844825.5234   23844830.8444
         5.0004          4.5004
 -10483333.31744  -6901167.84745  23611767.5704   23611774.2034
         7.2504          7.5004
 -20926725.55947 -16043972.91646  20887425.3594   20887428.3594
        23.2504         22.5004
 03 11  1  2 30 30.0000000  0  7G 9G 4G24G30G 7G17G 5
  -7887782.94646  -6030800.27446  22299644.1564   22299647.8364
        13.0004         13.5004
 -15401296.55646 -11730940.30246  21295573.6254   21295576.3094
        19.7504         19.2504
 -21496832.07747 -16446506.99646  20561424.4844   20561427.4844
        21.7504         22.5004
 -12822619.00345  -6266277.58845  23010234.2034   23010237.8364
         9.0004          9.0004
   7052425.65442   5647697.51045  23859291.9694   23859295.9184
         4.7504          5.7504
 -10581717.68243  -6977830.76545  23593044.7194   23593050.7894
         6.7504          7.7504
 -20978121.22047 -16084021.42546  20877644.9384   20877647.9264
        23.2504         22.5004
 03 11  1  2 31  0.0000000  0  7G 9G 4G24G30G 7G17G 5
  -7801902.39846  -5963880.34846  22315986.5004   22315989.6764
        13.0004         13.7504
 -15340218.11346 -11683346.69046  21307196.3444   21307198.5124
        19.7504         19.0004
 -21523226.99247 -16467074.42346  20556402.0084   20556405.2774
        21.7504         22.2504
 -12918041.88845  -6340632.92545  22992075.0084   22992079.1564
         9.0004          8.7504
   7128469.86942   5706952.74445  23873763.4534   23873766.3134
         4.5004          5.0004
 -10679960.96144  -7054383.66345  23574349.9144   23574355.3164
         7.0004          7.5004
 -21029167.58247 -16123797.75346  20867931.1484   20867934.1484
        23.5004         23.0004
 03 11  1  2 31 30.0000000  0  7G 9G 4G24G30G 7G17G 5
  -7715714.70746  -5896721.08746  22332387.2194   22332390.7234
        12.7504         13.5004
 -15278707.27046 -11635416.14046  21318901.6644   21318904.2304
        19.5004         19.0004
 -21549107.87347 -16487241.30446  20551476.7274   20551479.9144
        21.7504         22.5004
 -13013354.49444  -6414902.33645  22973937.6804   22973941.1844
         7.7504          8.2504
   7204532.18642   5766222.12744  23888237.0234   23888234.9734
         4.5004          4.2504
 -10778063.75444  -7130827.19245  23555681.6094   23555686.5434
         7.5004          8.2504
 -21079865.03247 -16163302.20146  20858283.6564   20858286.4344
        23.5004         23.0004
 03 11  1  2 32  0.0000000  0  7G 9G 4G24G30G 7G17G 5
  -7629227.81946  -5829328.70146  22348845.5394   22348848.7854
        12.7504         13.5004
 -15216771.26946 -11587154.29646  21330687.5234   21330690.2074
        19.5004         18.7504
 -21574479.29547 -16507011.19746  20546648.5944   20546651.7464
        21.7504         22.5004
 -13108559.73244  -6489088.05345  22955820.6254   22955824.7854
         7.5004          7.0004
   7280607.54842   5825501.62145  23902714.1024   23902716.8444
         4.5004          5.0004
 -10876028.50943  -7207163.14545  23537038.6954   23537046.0354
         6.7504          7.7504
 -21130216.50847 -16202537.06146  20848702.1024   20848705.0904
        23.7504         23.0004
 03 11  1  2 32 30.0000000  0  7G 9G 4G24G30G 7G17G 5
  -7542445.86046  -5761706.37446  22365359.4384   22365362.9064
        12.7504         13.2504
 -15154413.61846 -11538563.89746  21342553.6414   21342556.0314
        19.7504         18.5004
 -21599342.38147 -16526385.00046  20541917.3754   20541920.6564
        21.5004         22.2504
 -13203656.72344  -6563189.41945  22937724.4384   22937728.8674
         7.7504          7.2504
   7356694.42142   5884790.14645  23917191.4384   23917194.1214
         4.7504          5.0004
 -10973855.00744  -7283391.30845  23518423.8364   23518429.9064
         7.5004          7.7504
 -21180221.72847 -16241502.12146  20839186.6334   20839189.6564
        24.0004         23.0004
 03 11  1  2 33  0.0000000  0  7G 9G 4G24G30G 7G17G 5
  -7455364.92546  -5693851.08546  22381930.6724   22381934.2344
        12.7504         13.2504
 -15091629.96446 -11489641.55446  21354501.2344   21354503.9414
        19.5004         18.7504
 -21623690.02147 -16545357.14846  20537284.4384   20537287.6844
        21.7504         22.7504
 -13298636.52844  -6637199.53145  22919649.7894   22919652.2034
         7.7504          7.2504
   7432799.50743   5944092.80945  23931675.4454   23931676.2544
         5.0004          5.5004
 -11071534.38944  -7359504.89545  23499835.0474   23499839.1484
         7.5004          7.7504
 -21229871.60047 -16280190.28146  20829738.2504   20829741.2274
        23.7504         23.2504
 03 11  1  2 33 30.0000000  0  7G 9G 4G24G30G 7G17G 5
  -7367986.09446  -5625763.66746  22398557.9924   22398561.7664
        12.5004         13.5004
 -15028420.89846 -11440387.71346  21366529.3134   21366531.9964
        19.2504         18.2504
 -21647520.12747 -16563926.02646  20532749.4454   20532752.7504
        21.7504         22.7504
 -13393495.35344  -6711115.32945  22901598.8134   22901602.8444
         7.7504          7.5004
   7508924.37943   6003410.97145  23946160.9774   23946163.8014
         5.0004          6.2504
 -11169062.64644  -7435500.73945  23481276.7114   23481280.9774
         7.5004          7.7504
 -21279162.43347 -16318598.67046  20820358.6024   20820361.5204
        23.7504         23.2504
 03 11  1  2 34  0.0000000  0  7G 9G 4G24G30G 7G17G 5
  -7280315.76646  -5557449.11646  22415240.8444   22415244.0904
        12.5004         12.7504
 -14964792.17646 -11390806.86646  21378637.5314   21378640.1094
        19.2504         18.2504
 -21670836.05847 -16582094.24646  20528312.4224   20528315.5864
        21.7504         22.7504
 -13488234.71045  -6784938.06245  22883570.6724   22883573.3444
         8.2504          7.7504
   7585065.18543   6062741.47644  23960650.0394   23960652.6174
         5.2504          4.5004
 -11266441.64345  -7511380.27345  23462746.0554   23462751.0354
         8.2504          8.0004
 -21328095.75647 -16356728.48446  20811046.7424   20811049.5784
        24.2504         23.5004
 03 11  1  2 34 30.0000000  0  7G 9G 4G24G30G 7G17G 5
  -7192353.18046  -5488906.82746  22431980.0394   22431982.9574
        12.7504         13.5004
 -14900742.53346 -11340898.03146  21390825.8674   21390828.4574
        19.2504         18.5004
 -21693633.63847 -16599858.55746  20523974.4454   20523977.5044
        21.7504         22.7504
 -13582848.47345  -6858662.89445  22865566.7584   22865570.9534
         8.7504          9.0004
   7661225.65043   6122087.37843  23975143.0084   23975146.8524
         5.5004          3.7504
 -11363665.34444  -7587138.74445  23444244.3674   23444250.1214
         7.7504          8.2504
 -21376666.46547 -16394575.73346  20801804.0704   20801807.2344
        24.2504         23.7504
 03 11  1  2 35  0.0000000  0  7G 9G 4G24G30G 7G17G 5
  -7104093.00546  -5420132.65146  22448775.7274   22448779.2194
        12.7504         13.0004
 -14836265.96546 -11290656.52046  21403095.0784   21403097.5744
        19.0004         18.0004
 -21715904.47547 -16617212.42246  20519736.2424   20519739.3484
        21.7504         22.5004
 -13677326.42945  -6932281.91145  22847587.1094   22847591.2814
         9.5004         10.0004
   7737413.91343   6181454.76745  23989640.6564   23989639.2854
         5.7504          5.7504
 -11460723.48344  -7662768.26545  23425774.5864   23425778.8754
         7.7504          8.2504
 -21424863.68147 -16432131.95246  20792632.4064   20792635.3954
        24.2504         23.7504
 03 11  1  2 35 30.0000000  0  7G 9G 4G24G30G 7G17G 5
  -7015540.60346  -5351130.77746  22465626.1644   22465629.3524
        12.5004         13.0004
 -14771367.58746 -11240086.32646  21415444.7194   21415447.3204
        18.7504         18.2504
 -21737651.27747 -16634157.94546  20515598.1884   20515601.4694
        21.7504         22.7504
 -13771668.89745  -7005795.39345  22829634.3524   22829637.0234
         9.2504          9.5004
   7813627.10043   6240841.79545  24004143.8914   24004146.5984
         5.7504          6.5004
 -11557616.95944  -7738269.49345  23407335.7894   23407340.8164
         7.7504          8.2504
 -21472688.38047 -16469397.90946  20783531.6484   20783534.4144
        24.5004         23.5004
 03 11  1  2 36  0.0000000  0  7G 9G 4G24G30G 7G17G 5
  -6926693.12546  -5281898.96446  22482533.6724   22482537.1054
        12.5004         12.7504
 -14706044.07846 -11189184.86646  21427875.6644   21427878.1844
        19.0004         18.0004
 -21758868.13447 -16650690.52846  20511560.7194   20511563.8834
        21.7504         22.5004
 -13865868.20145  -7079197.32745  22811708.7584   22811711.3134
         8.7504          9.0004
   7889870.78943   6300252.40345  24018652.9384   24018654.8954
         6.0004          6.0004
 -11654337.88444  -7813636.23645  23388931.2584   23388936.2154
         7.7504          8.5004
 -21520132.37447 -16506367.20646  20774503.5164   20774506.1644
        24.7504         23.7504
 03 11  1  2 36 30.0000000  0  7G 9G 4G24G30G 7G17G 5
  -6837555.63546  -5212441.15746  22499496.1334   22499499.5434
        12.5004         13.0004
 -14640299.73946 -11137955.48246  21440386.2114   21440388.5904
        18.7504         17.7504
 -21779556.80447 -16666811.53946  20507623.4224   20507626.4694
        21.7504         22.7504
 -13959924.02945  -7152487.43945  22793810.2734   22793814.7034
         8.2504          8.2504
   7966142.99043   6359685.40245  24033167.9534   24033172.9344
         6.0004          6.5004
 -11750886.72245  -7888868.93645  23370559.1414   23370561.6374
         8.5004          8.2504
 -21567196.23647 -16543040.30246  20765547.4304   20765550.0314
        25.0004         23.7504
 03 11  1  2 37  0.0000000  0  7G 9G 4G24G30G 7G17G 5
  -6748129.83146  -5142758.71146  22516513.2584   22516516.6214
        12.2504         12.7504
 -14574135.79746 -11086399.12946  21452976.6724   21452978.9454
        18.7504         18.0004
 -21799715.86347 -16682519.85546  20503787.5164   20503790.6564
        21.7504         22.7504
 -14053832.91445  -7225663.10945  22775939.8914   22775943.2304
         8.2504          7.7504
   8042444.66543   6419141.20045  24047686.9774   24047692.0864
         6.0004          6.2504
 -11847259.70844  -7963964.58945  23352218.9064   23352221.6484
         7.7504          8.7504
 -21613876.42947 -16579414.43446  20756664.5864   20756667.1884
        25.0004         24.0004
 03 11  1  2 37 30.0000000  0  7G 9G 4G24G30G 7G17G 5
  -6658419.00646  -5072854.15446  22533585.6564   22533589.1604
        12.2504         12.5004
 -14507554.74346 -11034517.76646  21465646.5554   21465648.8524
        18.7504         17.7504
 -21819345.57547 -16697815.70646  20500051.9694   20500055.1094
        21.7504         23.0004
 -14147593.08245  -7298722.85345  22758098.1954   22758099.5904
         9.0004          8.7504
   8118775.48643   6478619.81945  24062211.9064   24062215.9964
         6.0004          7.0004
 -11943455.09845  -8038921.87945  23333913.6954   23333916.8834
         8.2504          8.0004
 -21660171.41547 -16615488.40046  20747854.6884   20747857.3484
        24.7504         23.7504
 03 11  1  2 38  0.0000000  0  7G 9G 4G24G30G 7G17G 5
  -6568417.41646  -5002723.03346  22550711.6804   22550715.1604
        12.0004         12.2504
 -14440550.79146 -10982306.86946  21478396.9924   21478399.4774
        18.7504         17.7504
 -21838437.47947 -16712692.48046  20496418.9384   20496422.0664
        21.7504         22.7504
 -14241193.69345  -7371658.32645  22740286.0634   22740289.1094
         9.5004          9.5004
   8195143.93443   6538127.68145  24076744.5394   24076746.6604
         5.7504          6.2504
 -12039462.75945  -8113732.85245  23315643.8914   23315648.2504
         8.0004          8.5004
 -21706070.44947 -16651253.83146  20739120.4144   20739123.0984
        25.0004         24.0004
 03 11  1  2 38 30.0000000  0  7G 9G 4G24G30G 7G17G 5
  -6478134.20946  -4932372.47646  22567890.9144   22567894.2424
        12.0004         12.2504
 -14373132.27346 -10929772.94146  21491226.3444   21491228.7584
        18.5004         17.7504
 -21856997.52147 -16727154.82646  20492886.9844   20492890.0664
        21.7504         23.0004
 -14334638.78145  -7444472.56345  22722503.9844   22722507.3594
         9.7504         10.0004
   8271543.62343   6597659.95545  24091282.8524   24091288.0904
         5.7504          6.7504
 -12135286.72045  -8188400.72345  23297410.0234   23297414.5234
         8.5004          8.5004
 -21751578.27847 -16686714.43446  20730460.4454   20730463.2114
        25.0004         24.2504
 03 11  1  2 39  0.0000000  0  7G 9G 4G24G30G 7G17G 5
  -6387568.83945  -4861802.03046  22585126.1174   22585129.6454
        11.7504         12.5004
 -14305298.18546 -10876915.19546  21504135.0634   21504137.5474
        18.7504         18.0004
 -21875022.32347 -16741200.09546  20489456.9844   20489460.0784
        21.7504         23.0004
 -14427922.74045  -7517161.27345  22704753.2274   22704757.7034
         9.7504          9.7504
   8347977.85343   6657219.12745  24105827.2274   24105831.7154
         5.2504          6.7504
 -12230921.71245  -8262921.32045  23279210.2114   23279213.7384
         8.5004          9.5004
 -21796689.53147 -16721866.00846  20721876.1644   20721878.8714
        24.7504         24.0004
 03 11  1  2 39 30.0000000  0  8G10G 9G 4G24G30G 7G17G 5
                                  24797897.6174
         3.2504
  -6296721.83745  -4791012.17146  22602413.2894   22602416.4064
        11.7504         12.2504
 -14237048.72946 -10823733.78346  21517122.2734   21517124.4414
        18.5004         17.7504
 -21892509.60647 -16754826.51146  20486129.4304   20486132.5474
        21.7504         23.0004
 -14521040.98745  -7589720.85445  22687032.9534   22687036.7154
         9.2504         10.0004
   8424448.81643   6716806.89045  24120379.6334   24120383.5234
         5.0004          5.7504
 -12326363.07245  -8337291.09145  23261047.3284   23261051.2424
         8.2504          8.2504
 -21841400.19947 -16756705.43846  20713368.0864   20713370.8874
        24.7504         24.2504
 03 11  1  2 40  0.0000000  0  8G10G 9G 4G24G30G 7G17G 5
  -3251100.50141                  24778161.2584
         3.7504
  -6205598.07545  -4720006.60445  22619754.0394   22619757.4614
        11.5004         11.7504
 -14168388.04546 -10770231.93946  21530187.9304   21530190.2974
        18.5004         17.5004
 -21909460.78147 -16768035.19446  20482903.4224   20482906.3984
        22.0004         23.0004
 -14613992.94745  -7662150.85345  22669344.6804   22669347.4104
         9.0004          9.7504
   8500954.83042   6776421.92945  24134938.6094   24134941.1994
         4.7504          6.5004
 -12421610.83045  -8411509.97645  23242922.8364   23242927.7584
         8.2504          9.0004
 -21885709.21747 -16791231.88646  20704935.9924   20704938.8634
        25.0004         24.0004
 03 11  1  2 40 30.0000000  0  8G10G 9G 4G24G30G 7G17G 5
  -3354887.39142                  24758410.4534
         4.2504
  -6114198.20745  -4648785.93545  22637145.8134   22637149.1414
        11.2504         11.5004
 -14099316.16246 -10716409.67546  21543332.2664   21543334.5514
        18.2504         18.0004
 -21925874.03047 -16780824.70646  20479779.9534   20479783.0354
        21.7504         23.2504
 -14706774.46245  -7734448.02145  22651689.5164   22651692.1644
         9.5004          9.0004
   8577497.84642   6836065.89545  24149502.9534   24149506.4924
         4.5004          5.0004
 -12516661.09845  -8485574.95845  23224835.5634   23224839.9804
         8.5004          9.0004
 -21929612.65547 -16825442.30946  20696581.2504   20696583.9224
        24.5004         24.2504
 03 11  1  2 41  0.0000000  0  8G10G 9G 4G24G30G 7G17G 5
  -3458747.27242                  24738646.5784
         4.7504
  -6022534.48545  -4577359.63646  22654589.4454   22654593.0664
        11.5004         12.2504
 -14029845.25546 -10662276.49346  21556551.9614   21556554.4344
        18.0004         17.7504
 -21941758.72247 -16793202.35946  20476757.3834   20476760.4884
        22.0004         23.2504
 -14799392.49045  -7806617.83845  22634064.1024   22634066.9384
         9.2504          9.2504
   8654068.23842   6895731.10245  24164075.2424   24164079.9654
         4.5004          5.2504
 -12611521.10045  -8559491.72345  23206784.5004   23206789.0004
         8.5004          9.0004
 -21973118.30547 -16859342.76646  20688302.4454   20688305.3404
        24.5004         24.0004
 03 11  1  2 41 30.0000000  0  9G10G 9G 4G24G30G 7G 6G17G 5
  -3562672.58743                  24718868.9144
         5.5004
  -5930605.70645  -4505726.80946  22672082.6884   22672087.0824
        11.0004         12.2504
 -13959973.56546 -10607831.00546  21569847.8754   21569850.6994
        18.0004         17.5004
 -21957110.85747 -16805165.03246  20473835.9384   20473838.5984
        22.2504         23.0004
 -14891840.68845  -7878655.27145  22616471.8984   22616475.3914
         9.5004          9.5004
   8730670.26642   6955421.00945  24178651.1414   24178655.7584
         4.2504          5.2504
                                  25288603.8204
         1.5004
 -12706184.80445  -8633255.51045  23188769.8594   23188773.9384
         8.5004          8.5004
 -22016220.27447 -16892928.66046  20680100.3284   20680103.1524
        24.5004         24.0004
 03 11  1  2 42  0.0000000  0  9G10G 9G 4G24G30G 7G 6G17G 5
  -3666653.79443  -2498416.40155  24699082.6024   24699088.1684
         6.0004          6.0004
  -5838408.61745  -4433884.91845  22689627.4454   22689631.2304
        11.0004         11.5004
 -13889696.92346 -10553069.97446  21583220.9064   21583223.6024
        17.7504         17.5004
 -21971923.97447 -16816707.68546  20471017.3054   20471020.3754
        22.0004         23.0004
 -14984110.31445  -7950553.62645  22598913.7034   22598916.2704
         9.7504          9.5004
   8807310.14142   7015140.47645  24193235.8524   24193242.3674
         4.0004          5.0004
  -3229336.51542                  25273155.8834
         4.2504
 -12800643.99545  -8706859.94145  23170795.1254   23170799.8484
         8.7504          9.2504
 -22058910.13247 -16926193.42946  20671976.6954   20671979.5314
        24.5004         24.2504
 03 11  1  2 42 30.0000000  0  9G10G 9G 4G24G30G 7G 6G17G 5
  -3770692.20543  -2579485.01245  24679283.7424   24679287.9024
         6.0004          6.7504
  -5745950.55145  -4361839.64345  22707220.7034   22707223.5274
        11.5004         11.7504
 -13819022.22446 -10497998.76946  21596669.9694   21596672.1604
        17.7504         17.2504
 -21986202.57647 -16827833.83446  20468299.8284   20468302.7934
        22.0004         23.2504
 -15076203.63245  -8022314.52045  22581388.4924   22581392.8984
         9.2504          9.2504
   8883983.51742   7074885.91244  24207827.1804   24207830.5434
         4.0004          4.7504
  -3310509.01141                  25257707.2814
         3.7504
 -12894900.90445  -8780306.76245  23152857.8524   23152862.0474
         8.2504          9.0004
 -22101190.05447 -16959138.77946  20663931.2344   20663934.0594
        24.7504         24.2504
 03 11  1  2 43  0.0000000  0  9G10G 9G 4G24G30G 7G 6G17G 5
  -3874786.58643  -2660597.16245  24659475.0004   24659480.8244
         5.7504          6.7504
  -5653236.01645  -4289594.56245  22724863.4774   22724867.7774
        10.7504         11.5004
 -13747953.57346 -10442620.58946  21610193.9304   21610196.4024
        17.7504         17.0004
 -21999948.54947 -16838544.94846  20465684.1644   20465687.1884
        22.0004         23.0004
 -15168119.80345  -8093937.40645  22563896.6644   22563900.3444
         8.7504         10.0004
   8960688.60442   7134656.17444  24222422.3674   24222424.4884
         4.2504          4.5004
  -3391649.44741  -2480486.01153  25242267.7034   25242273.9024
         3.5004          3.5004
 -12988955.27745  -8853595.75045  23134960.4064   23134964.0514
         8.7504          8.5004
 -22143060.07847 -16991764.72946  20655963.4384   20655966.1454
        24.5004         24.2504
 03 11  1  2 43 30.0000000  0  9G10G 9G 4G24G30G 7G 6G17G 5
  -3978937.53943  -2741753.41445  24639655.7584   24639662.6174
         5.0004          5.7504
  -5560271.50045  -4217154.66945  22742555.6724   22742558.0274
        11.7504         11.7504
 -13676497.04946 -10386940.16546  21623791.5084   21623793.7584
        17.7504         17.2504
 -22013165.45647 -16848843.80146  20463169.0314   20463171.9614
        22.0004         23.2504
 -15259860.14745  -8165423.26545  22546439.3134   22546442.4184
         8.7504          9.2504
   9037421.80842   7194448.22845  24237023.8674   24237026.0004
         4.2504          5.0004
  -3472761.29241  -2543689.57145  25226831.7894   25226846.0314
         3.2504          5.0004
 -13082808.75045  -8926728.19945  23117100.8284   23117104.3554
         8.2504          9.2504
 -22184522.00247 -17024072.67746  20648073.6484   20648076.2384
        24.7504         24.2504
 03 11  1  2 44  0.0000000  0  9G10G 9G 4G24G30G 7G 6G17G 5
  -4083140.63642  -2822950.37345  24619825.4924   24619829.9804
         4.5004          6.2504
  -5467058.66945  -4144521.27646  22760293.0084   22760296.1484
        11.2504         12.2504
 -13604653.76346 -10330958.36946  21637463.0554   21637465.5864
        17.5004         16.7504
 -22025852.14447 -16858729.50646  20460754.6484   20460757.7664
        22.0004         23.2504
 -15351421.20745  -8236769.41845  22529015.3524   22529018.9144
         9.5004          9.2504
   9114184.24042   7254263.08045  24251632.4384   24251643.0474
         4.5004          5.5004
  -3553843.06041  -2606869.66343  25211400.6954   25211417.0354
         2.5004          3.7504
 -13176457.99145  -8999701.50845  23099278.4064   23099283.0704
         8.7504          9.0004
 -22225572.38447 -17056059.94646  20640262.1334   20640264.7814
        24.7504         24.5004
 03 11  1  2 44 30.0000000  0  9G10G 9G 4G24G30G 7G 6G17G 5
  -4187386.47341  -2904180.60145  24599988.7894   24599993.5124
         3.5004          6.0004
  -5373594.19845  -4071691.81345  22778077.9224   22778080.6054
        10.7504         11.5004
 -13532419.75146 -10274672.11546  21651208.7584   21651210.8794
        17.5004         16.5004
 -22038002.69347 -16868197.43146  20458442.5634   20458445.2584
        22.0004         23.2504
 -15442794.33145  -8307969.14145  22511628.2274   22511631.5314
         9.7504         10.0004
   9190982.29243   7314105.77644  24266246.2664   24266245.7034
         5.0004          4.7504
  -3212968.04551                  25195977.9384
         2.7504
 -13269894.93245  -9072509.43045  23081499.4384   23081505.2624
         8.7504          9.2504
 -22266203.13447 -17087720.22546  20632530.1804   20632532.8524
        24.5004         24.5004
 03 11  1  2 45  0.0000000  0  9G10G 9G 4G24G30G 7G 6G17G 5
  -4291675.59941  -2985444.51144  24580143.5944   24580152.2464
         2.2504          4.7504
  -5279884.53045  -3998671.26945  22795909.9384   22795913.6644
        11.0004         11.7504
 -13459801.40346 -10218086.37346  21665027.8054   21665029.7854
        17.5004         16.5004
 -22049620.82547 -16877250.49346  20456231.5634   20456234.4924
        21.7504         23.2504
 -15533980.91745  -8379023.56245  22494275.3834   22494277.7274
        10.0004         10.0004
   9267812.12343   7373973.28843  24280866.7034   24280872.8674
         5.0004          3.5004
  -3212943.80751                  25180560.4614
         2.7504
 -13363121.60045  -9145153.45545  23063757.8674   23063762.8594
         8.7504          8.7504
 -22306416.14247 -17119054.99246  20624877.8444   20624880.5514
        24.7504         24.5004
 03 11  1  2 45 30.0000000  0  9G10G 9G 4G24G30G 7G 6G17G 5
  -3189095.95351  -3066740.02443  24560289.1254   24560295.8164
         3.0004          3.7504
  -5185931.32645  -3925460.96845  22813789.6254   22813792.4144
        11.0004         11.7504
 -13386799.64246 -10161201.86846  21678919.0164   21678921.5594
        17.2504         16.2504
 -22060705.30947 -16885887.71846  20454122.1804   20454125.1914
        22.0004         23.5004
 -15624977.32045  -8449929.73645  22476959.7504   22476960.9694
        10.2504         10.0004
   9344675.00843   7433866.29044  24295492.6174   24295497.0944
         5.2504          4.2504
  -3293920.81641                  25165152.2194
         3.2504
 -13456134.35145  -9217630.85945  23046058.6024   23046061.8244
         9.2504          9.7504
 -22346208.17147 -17150061.72646  20617305.7664   20617308.5204
        24.7504         24.5004
 03 11  1  2 46  0.0000000  0  9G10G 9G 4G24G30G 7G 6G17G 5
  -3293461.30442  -3148063.32244  24540429.9924   24540442.6054
         4.0004          4.5004
  -5091738.68445  -3852064.11345  22831714.0164   22831717.3094
        11.0004         11.2504
 -13313418.00446 -10104021.35746  21692883.2894   21692885.0354
        17.2504         16.2504
 -22071257.49947 -16894110.18046  20452114.4384   20452117.4264
        22.0004         23.5004
 -15715782.30045  -8520686.76045  22459679.7894   22459682.5204
        10.0004         10.0004
   9421569.85643   7493784.49644  24310125.5634   24310131.0474
         5.2504          4.2504
  -3374863.77241                  25149751.3134
         3.7504
 -13548932.65545  -9289941.11445  23028399.0704   23028402.8674
         9.5004         10.2504
 -22385578.14347 -17180739.59046  20609813.5784   20609816.2734
        24.5004         24.5004
 03 11  1  2 46 30.0000000  0  9G10G 9G 4G24G30G 7G 6G17G 5
  -3397864.20942  -3229416.00745  24520562.6414   24520573.4144
         4.2504          5.0004
  -4997313.39645  -3778485.95445  22849683.0474   22849685.3324
        11.2504         11.5004
 -13239662.80746 -10046549.75046  21706918.1724   21706920.6334
        17.0004         16.0004
 -22081281.69347 -16901921.21246  20450206.8444   20450209.9384
        21.7504         23.2504
 -15806397.25245  -8591295.67745  22442436.4224   22442439.4804
        10.5004         11.0004
   9498492.77243   7553724.33145  24324762.8674   24324763.3714
         5.5004          5.2504
  -3455776.28941                  25134351.8754
         3.5004
 -13641518.17245  -9362085.57145  23010781.2344   23010786.1214
         9.7504          9.7504
 -22424528.43647 -17211090.42946  20602401.5554   20602404.2384
        24.7504         24.5004
 03 11  1  2 47  0.0000000  0  9G10G 9G 4G24G30G 7G 6G17G 5
  -3502299.42642  -3310793.87745  24500688.7114   24500691.7704
         4.2504          5.0004
  -4902656.54745  -3704727.34745  22867694.7814   22867698.2034
        10.5004         10.7504
 -13165534.60746  -9988787.50046  21721024.3524   21721026.5664
        16.7504         16.0004
 -22090776.25147 -16909319.53946  20448400.1484   20448403.1254
        21.7504         23.0004
 -15896817.95745  -8661753.26945  22425229.6564   22425232.2934
        10.5004         10.5004
   9575445.68943   7613687.73844  24339407.7734   24339415.7584
         5.5004          4.5004
  -3536656.39841                  25118961.5164
         3.5004
 -13733887.03845  -9434061.24245  22993204.1954   22993208.6604
         9.2504          9.7504
 -22463055.49547 -17241111.47846  20595069.9534   20595072.5664
        24.7504         25.0004
 03 11  1  2 47 30.0000000  0  9G10G 9G 4G24G30G 7G 6G17G 5
  -3606761.10941                  24480810.3364
         3.7504
  -4807767.99545  -3630788.22845  22885751.5394   22885754.5514
        10.5004         11.2504
 -13091032.76246  -9930734.09046  21735201.6724   21735203.9924
        16.7504         16.0004
 -22099738.48447 -16916303.07246  20446694.4384   20446697.3914
        21.7504         23.7504
 -15987039.03145  -8732055.30845  22408061.7274   22408063.8014
        10.5004          9.7504
   9652431.62943   7673676.76744  24354056.7194   24354059.8134
         5.5004          4.5004
  -3617500.61141                  25103578.6254
         3.7504
 -13826034.49345  -9505864.35645  22975668.4614   22975673.0084
         9.7504         10.2504
 -22501153.88747 -17270798.50146  20587820.2114   20587822.8244
        25.0004         25.0004
 03 11  1  2 48  0.0000000  0  9G10G 9G 4G24G30G 7G 6G17G 5
  -3711246.18541                  24460926.5314
         2.7504
  -4712650.65545  -3556670.83345  22903851.7194   22903854.3324
        10.7504         11.0004
 -13016160.02746  -9872391.68446  21749449.6094   21749452.4694
        16.5004         16.0004
 -22108168.40447 -16922871.81646  20445090.6954   20445093.5784
        22.0004         23.2504
 -16077058.36445  -8802200.16945  22390931.5084   22390933.7934
        10.7504         10.0004
   9729450.35343   7733691.30845  24368713.3204   24368721.4224
         5.2504          5.0004
  -3698308.86642                  25088201.6414
         4.0004
 -13917958.62445  -9577493.49945  22958175.3834   22958178.4884
         9.7504         10.5004
 -22538821.77747 -17300150.07046  20580652.3524   20580654.8834
        25.0004         25.2504
 03 11  1  2 48 30.0000000  0  9G10G 9G 4G24G30G 7G 6G17G 5
  -3815757.05941                  24441038.8914
         3.7504
  -4617313.21245  -3482381.89645  22921994.2584   22921996.7304
        10.0004         11.0004
 -12940924.66146  -9813766.70446  21763766.3984   21763768.5904
        16.5004         16.0004
 -22116072.21947 -16929030.60646  20443586.1334   20443589.1214
        22.0004         23.2504
 -16166879.22245  -8872190.33945  22373838.9384   22373841.6564
        11.2504         10.7504
   9806496.22143   7793727.10444  24383374.6254   24383379.8754
         5.0004          4.2504
  -3779086.51341                  25072826.7584
         3.7504
 -14009663.37545  -9648951.63545  22940725.1724   22940729.8244
         9.7504         10.5004
 -22576063.58147 -17329169.61046  20573565.3204   20573568.0514
        24.7504         25.0004
 03 11  1  2 49  0.0000000  0  9G10G 9G 4G24G30G 7G 6G17G 5
  -3920287.79842  -2517646.20554  24421147.7424   24421154.7664
         4.7504          4.0004
  -4521755.65045  -3407921.46145  22940178.1334   22940181.0164
        10.5004         10.7504
 -12865325.98046  -9754858.62546  21778151.9384   21778154.0704
        16.5004         15.7504
 -22123447.43247 -16934777.50146  20442182.8054   20442185.5944
        21.7504         23.2504
 -16256496.32545  -8942021.74545  22356785.1804   22356788.7074
        11.5004         10.7504
   9883572.00043   7853786.21344  24398040.3284   24398042.0634
         5.0004          4.7504
  -3859830.46942  -2480362.89853  25057461.8754   25057469.6724
         4.0004          3.7504
 -14101144.07845  -9720235.20945  22923316.5784   22923320.9024
         9.7504         10.5004
 -22612874.49347 -17357853.39546  20566560.3284   20566563.1414
        25.0004         25.2504
 03 11  1  2 49 30.0000000  0  9G10G 9G 4G24G30G 7G 6G17G 5
  -4024836.07143  -2599112.10445  24401252.9774   24401257.4304
         5.5004          5.2504
  -4425981.97245  -3333292.62545  22958402.8674   22958407.1214
        10.0004         10.5004
 -12789367.67146  -9695670.30946  21792606.4924   21792609.0704
        16.2504         15.7504
 -22130295.51347 -16940113.64246  20440879.7664   20440882.7424
        22.0004         23.5004
 -16345908.30045  -9011693.32245  22339770.8834   22339773.1334
        11.5004         11.2504
   9960676.73242   7913867.80645  24412713.7114   24412719.8404
         4.7504          5.2504
  -3940541.45842                  25042101.7814
         4.0004
 -14192399.47145  -9791343.20145  22905952.3134   22905957.3404
        10.5004         10.0004
 -22649253.69647 -17386200.79146  20559637.8284   20559640.5004
        25.0004         25.2504
 03 11  1  2 50  0.0000000  0  9G10G 9G 4G24G30G 7G 6G17G 5
  -4129397.10343  -2680588.10745  24381355.3754   24381358.2114
         5.5004          5.7504
  -4329993.48445  -3258496.41445  22976668.8204   22976671.5744
         9.5004         10.0004
 -12713050.34646  -9636202.25046  21807129.4774   21807131.7624
        16.2504         15.7504
 -22136614.95447 -16945037.85746  20439677.3204   20439680.3674
        21.7504         23.5004
 -16435111.08545  -9081201.90445  22322795.7664   22322797.7464
        11.2504         11.0004
  10037812.15842   7973973.33544  24427391.8054   24427400.2584
         4.2504          4.2504
  -4021217.55142                  25026751.2504
         4.5004
 -14283426.14345  -9862272.99745  22888629.2814   22888632.8324
        10.0004         10.2504
 -22685197.73947 -17414209.09646  20552797.6724   20552800.2034
        24.7504         25.0004
 03 11  1  2 50 30.0000000  0  9G10G 9G 4G24G30G 7G 6G17G 5
  -4233972.98243  -2762075.68445  24361455.0634   24361462.1094
         5.0004          5.2504
  -4233798.37545  -3183539.16845  22994975.1564   22994978.2504
         9.7504         10.2504
 -12636381.57746  -9576460.32546  21821719.4144   21821722.3204
        16.5004         16.0004
 -22142411.71347 -16949554.79146  20438573.9694   20438576.8874
        22.0004         23.5004
 -16524107.37745  -9150549.55645  22305860.3134   22305862.7974
        11.0004         10.2504
  10114973.03242   8034098.72445  24442075.2504   24442075.4144
         4.5004          5.7504
  -4101863.60042                  25011404.5784
         4.5004
 -14374227.36045  -9933027.13145  22871350.3984   22871354.2774
        10.0004         10.5004
 -22720709.79747 -17441880.79146  20546040.0864   20546042.7234
        24.7504         25.2504
 03 11  1  2 51  0.0000000  0  8G10G 9G 4G24G30G 6G17G 5
  -4338560.09443  -2843571.88345  24341553.2114   24341557.6994
         5.7504          5.7504
  -4137399.28645  -3108423.01445  23013318.6334   23013321.3984
         9.7504         10.7504
 -12559363.70346  -9516446.39346  21836374.5634   21836377.2464
        16.0004         15.5004
 -22147685.58647 -16953664.27446  20437570.2734   20437573.4614
        21.7504         23.7504
 -16612894.53345  -9219734.26845  22288964.7274   22288967.6094
        10.7504         10.5004
  -4182479.12142                  24996062.7034
         4.0004
 -14464801.41545 -10003604.20445  22854114.8364   22854118.7624
         9.7504         10.5004
 -22755787.09847 -17469213.71946  20539364.8674   20539367.6454
        25.0004         25.5004
 03 11  1  2 51 30.0000000  0  9G10G 9G 4G24G30G 7G 6G17G 5
  -4443155.22743  -2925074.43445  24321648.8524   24321653.3984
         5.7504          5.2504
  -4040798.65745  -3033149.79345  23031700.2424   23031703.5004
         9.7504         10.7504
 -12481998.81846  -9456162.05046  21851096.8914   21851099.3164
        16.0004         15.7504
 -22152436.67347 -16957366.39446  20436666.1174   20436668.8954
        22.0004         23.5004
 -16701469.99445  -9288754.00945  22272109.2344   22272111.2274
        10.7504         10.2504
                                  24471456.3134
         3.7504
  -4263063.65742                  24980729.0394
         4.0004
 -14555145.68545 -10074002.26345  22836923.1254   22836927.1214
        10.5004         10.2504
 -22790428.47047 -17496206.96246  20532772.8594   20532775.4964
        24.7504         25.2504
 03 11  1  2 52  0.0000000  0  9G10G 9G 4G24G30G 7G 6G17G 5
  -4547749.27942  -3006576.14245  24301744.5634   24301743.9654
         4.7504          5.5004
  -3943993.61545  -2957717.29145  23050122.3674   23050126.2234
         9.5004         10.5004
 -12404283.90246  -9395604.95746  21865885.8204   21865888.2234
        15.7504         15.5004
 -22156659.96747 -16960657.24846  20435862.2114   20435865.2344
        21.5004         23.7504
 -16789825.56845  -9357602.42245  22255295.0944   22255297.5314
        11.0004         11.2504
  -3076173.33841                  24486154.9924
         3.5004
  -4343611.22541                  24965400.1414
         3.5004
 -14645252.83945 -10144215.56245  22819776.1724   22819779.4414
        10.5004         10.7504
 -22824626.40647 -17522854.65846  20526265.3834   20526267.8674
        24.7504         25.2504
 03 11  1  2 52 30.0000000  0  9G10G 9G 4G24G30G 7G 6G17G 5
  -4652341.49742  -3088076.56545  24281841.6254   24281845.7034
         4.7504          6.0004
  -3846989.82445  -2882129.91745  23068581.4384   23068584.8594
         9.5004         10.2504
 -12326223.83346  -9334778.92146  21880739.7034   21880742.0474
        15.5004         15.2504
 -22160358.59647 -16963539.27446  20435158.4614   20435161.3554
        21.7504         23.7504
 -16877961.42345  -9426279.62645  22238523.5704   22238526.7464
        11.2504         11.0004
  -2998899.85541                  24500860.4694
         3.7504
  -4424123.96641                  24950080.0394
         3.5004
 -14735123.49745 -10214244.54445  22802674.6024   22802678.0944
        10.7504         10.7504
 -22858381.45347 -17549157.26546  20519841.8834   20519844.4144
        25.0004         25.2504
 03 11  1  2 53  0.0000000  0  9G10G 9G 4G24G30G 7G 6G17G 5
  -4756927.45243  -3169571.88245  24261939.2274   24261944.9924
         6.0004          6.7504
  -3749789.07945  -2806389.09345  23087077.6334   23087080.7384
         9.2504         10.2504
 -12247819.77046  -9273684.83046  21895660.0234   21895662.7304
        15.2504         15.0004
 -22163531.77947 -16966011.86146  20434554.8284   20434557.7704
        21.7504         23.5004
 -16965873.80145  -9494782.70845  22221794.7584   22221797.5824
        11.5004         11.5004
  -2921595.80841                  24515570.1884
         3.0004
  -4504600.36141                  24934764.2894
         3.5004
 -14824754.49345 -10284086.80545  22785617.7734   22785621.3954
        10.0004         10.5004
 -22891690.59547 -17575112.41246  20513503.4224   20513505.9304
        25.2504         25.2504
 03 11  1  2 53 30.0000000  0  9G10G 9G 4G24G30G 7G 6G17G 5
  -4861508.75043  -3251063.68445  24242037.8524   24242043.3484
         5.5004          6.2504
  -3652399.18945  -2730500.88445  23105610.9694   23105614.4734
         9.5004         10.2504
 -12169079.22346  -9212328.54846  21910643.4384   21910646.2154
        15.2504         15.2504
 -22166184.69247 -16968079.03846  20434050.0234   20434052.8594
        21.7504         23.5004
 -17053565.26145  -9563113.62245  22205107.7814   22205109.8794
        11.5004         11.2504
  -2844266.28541                  24530286.3524
         2.7504
  -4585045.25241                  24919456.4144
         3.2504
 -14914149.09445 -10353744.84345  22768606.3674   22768610.5514
        10.5004         10.5004
 -22924557.41947 -17600722.89446  20507248.7584   20507251.2894
        25.0004         25.5004
 03 11  1  2 54  0.0000000  0  9G10G 9G 4G24G30G 7G 6G17G 5
  -4966083.44941  -3332550.35144  24222138.1724   24222146.0864
         3.7504          4.2504
  -3554824.16845  -2654468.38445  23124178.7344   23124182.7774
         9.5004          9.7504
 -12090005.93546  -9150712.99346  21925690.4614   21925693.5204
        15.0004         15.0004
 -22168319.35047 -16969742.38546  20433643.6804   20433646.5514
        21.7504         23.5004
 -17141034.59145  -9631271.47045  22188462.5314   22188465.0164
        11.2504         11.2504
                                  24545005.8054
         2.5004
  -4665459.63341                  24904153.3674
         3.2504
 -15003306.50545 -10423218.07445  22751640.0634   22751645.2424
        10.5004         10.7504
 -22956980.84547 -17625987.87046  20501078.9844   20501081.7504
        24.7504         25.2504
 03 11  1  2 54 30.0000000  0  9G10G 9G 4G24G30G 7G 6G17G 5
  -5070640.15641  -3414022.97243  24202241.4384   24202247.4734
         3.7504          3.5004
  -3457058.89045  -2578287.65245  23142783.0394   23142786.6604
         9.2504         10.2504
 -12010594.03546  -9088833.57846  21940801.9694   21940804.3484
        15.0004         14.7504
 -22169928.02547 -16970995.87446  20433337.8594   20433340.8954
        21.7504         23.5004
 -17228271.15045  -9699247.92645  22171861.6024   22171863.8404
        11.0004         10.7504
  -3091511.01351                  24559730.7664
         3.2504
  -4745834.90141                  24888857.6254
         3.5004
 -15092216.65245 -10492498.62845  22734720.0784   22734724.6954
        10.0004         10.7504
 -22988951.10947 -17650899.73446  20494995.0554   20494997.5984
        25.0004         25.2504
 03 11  1  2 55  0.0000000  0  9G10G 9G 4G24G30G 7G 6G17G 5
  -5175183.21942  -3495485.06045  24182347.6804   24182352.8954
         4.7504          5.5004
  -3359114.04545  -2501967.00745  23161421.1804   23161422.6914
         9.5004         10.2504
 -11930853.97346  -9026698.46146  21955975.8204   21955978.5394
        14.7504         14.7504
 -22171018.88747 -16971845.87946  20433129.9534   20433132.6954
        21.7504         23.7504
 -17315280.30745  -9767047.19045  22155304.3444   22155308.1644
        11.0004         11.0004
  -3014099.90741                  24574464.0554
         3.2504
  -4826178.51041                  24873569.6884
         3.5004
 -15180886.00045 -10561591.54545  22717848.2734   22717852.9734
        11.0004         11.0004
 -23020474.50947 -17675463.39146  20488996.2894   20488998.9024
        25.0004         25.5004
 03 11  1  2 55 30.0000000  0  9G10G 9G 4G24G30G 7G 6G17G 5
  -5279710.68541  -3576934.86444  24162457.1414   24162462.6484
         3.7504          4.5004
  -3260993.49145  -2425509.41845  23180093.5554   23180096.2274
         9.5004         10.0004
 -11850789.29046  -8964310.37846  21971212.2424   21971214.2934
        14.7504         14.5004
 -22171593.75747 -16972293.80646  20433020.5554   20433023.3324
        22.0004         23.7504
 -17402060.82545  -9834668.29445  22138790.2194   22138793.4774
        11.2504         11.2504
  -2936665.06241                  24589197.4534
         3.0004
  -4906491.28741                  24858286.8134
         3.7504
 -15269313.46845 -10630496.00545  22701020.9144   22701025.5664
        11.0004         11.0004
 -23051550.22047 -17699678.20346  20483082.5864   20483085.2234
        25.0004         25.5004
 03 11  1  2 56  0.0000000  0  9G10G 9G 4G24G30G 7G 6G17G 5
  -5384215.09043  -3658366.79644  24142570.1254   24142574.5554
         5.2504          4.7504
  -3162696.27645  -2348914.19245  23198797.9614   23198802.7774
         9.0004          9.5004
 -11770398.20246  -8901667.94946  21986509.9774   21986512.3094
        14.7504         14.5004
 -22171649.19347 -16972336.97946  20433010.0234   20433012.7074
        22.0004         23.5004
 -17488605.98845  -9902106.00345  22122321.7504   22122324.4224
        11.7504         11.7504
  -2859202.52141                  24603939.9614
         3.7504
  -4986769.03342                  24843010.7974
         4.0004
 -15357493.10745 -10699207.32245  22684241.2814   22684244.7034
        11.5004         11.2504
 -23082172.59047 -17723539.75846  20477255.7894   20477258.3674
        25.0004         25.5004
 03 11  1  2 56 30.0000000  0  9G10G 9G 4G24G30G 7G 6G17G 5
  -5488695.86743  -3739780.30545  24122688.3594   24122692.2624
         5.7504          6.2504
  -3064227.88645  -2272185.58145  23217536.2194   23217539.0434
         9.2504         10.2504
 -11689686.03946  -8838775.35046  22001868.8204   22001871.0944
        14.5004         14.5004
 -22171188.24447 -16971977.77946  20433097.8524   20433100.6054
        21.7504         24.0004
 -17574916.13746  -9969360.59546  22105897.2734   22105899.1604
        12.2504         12.0004
  -2781714.89342  -2418972.77555  24618684.3284   24618685.5474
         4.7504          5.5004
  -5067014.06842  -2498966.04355  24827739.1884   24827743.8284
         4.0004          5.0004
 -15445425.98645 -10767726.36545  22667506.5084   22667510.5864
        10.7504         10.7504
 -23112342.56147 -17747048.80346  20471514.5394   20471517.1414
        25.2504         25.5004
 03 11  1  2 57  0.0000000  0  9G10G 9G 4G24G30G 7G 6G17G 5
  -5593150.05142  -3821173.03445  24102811.0634   24102814.8364
         4.2504          5.0004
  -2965591.63545  -2195326.16445  23236305.6334   23236308.7734
         9.2504         10.0004
 -11608655.37646  -8775634.54946  22017288.4924   22017291.0354
        14.5004         14.0004
 -22170212.24547 -16971217.24246  20433283.3134   20433286.2074
        21.7504         23.7504
 -17660988.95646 -10036430.26845  22089518.5234   22089520.5274
        12.2504         11.5004
  -2704202.21542  -2358573.21945  24633434.2034   24633434.9414
         4.7504          5.2504
  -5147226.33441  -2561469.00044  24812475.3444   24812480.2194
         3.7504          4.2504
 -15533110.27745 -10836051.72245  22650821.8524   22650825.3204
        11.5004         11.7504
 -23142058.75147 -17770204.26046  20465859.6334   20465862.1414
        25.5004         25.5004
 03 11  1  2 57 30.0000000  0  9G10G 9G 4G24G30G 7G 6G17G 5
  -5697570.89743  -3902539.76345  24082940.8984   24082943.8874
         6.5004          6.0004
  -2866786.90945  -2118335.48845  23255107.5634   23255111.1374
         9.2504          9.7504
 -11527305.27646  -8712244.84646  22032768.6804   22032770.7194
        14.2504         14.2504
 -22168718.12847 -16970052.97746  20433567.7814   20433570.7704
        21.7504         23.7504
 -17746818.61046 -10103310.44746  22073185.0634   22073187.7934
        12.0004         12.0004
  -2626661.22442  -2298151.80145  24648189.6414   24648190.3444
         4.2504          5.5004
  -5227402.23342  -2623943.43844  24797217.8134   24797221.7734
         4.0004          4.5004
 -15620541.18245 -10904179.62545  22634183.8134   22634187.8444
        11.2504         11.5004
 -23171315.99047 -17793002.08646  20460292.1174   20460294.5084
        25.2504         25.5004
 03 11  1  2 58  0.0000000  0  9G10G 9G 4G24G30G 7G 6G17G 5
  -5801953.12043  -3983876.59244  24063076.9384   24063084.1374
         6.2504          4.2504
  -2767814.80045  -2041214.35945  23273942.6024   23273945.0044
         9.7504          9.2504
 -11445636.61146  -8648606.91046  22048309.8984   22048312.2074
        14.5004         13.7504
 -22166704.80547 -16968484.13046  20433950.9774   20433953.8244
        21.7504         23.7504
 -17832400.81345 -10169997.78646  22056899.1804   22056901.8164
        11.7504         12.5004
  -2549090.01942  -2237706.62943  24662951.6804   24662962.1724
         4.5004          3.0004
  -5307539.60742  -2686388.10844  24781968.4304   24781977.3874
         4.5004          4.2504
 -15707714.81645 -10972107.05445  22617594.9144   22617598.6054
        11.5004         11.2504
 -23200111.06047 -17815439.77746  20454812.8054   20454815.2664
        25.2504         25.7504
 03 11  1  2 58 30.0000000  0  9G10G 9G 4G24G30G 7G 6G17G 5
  -5906301.78443  -4065187.13445  24043219.3204   24043224.0554
         5.2504          6.2504
  -2668686.51645  -1963971.51645  23292806.2504   23292809.5314
         9.0004          9.0004
 -11363660.09746  -8584729.09746  22063909.3914   22063911.6994
        14.5004         13.7504
 -22164181.52747 -16966517.91646  20434430.8284   20434433.6994
        21.5004         23.5004
 -17917741.57446 -10236497.00746  22040659.3914   22040661.7344
        12.5004         12.2504
  -2471496.97343  -2177244.49245  24677717.0944   24677723.3874
         5.0004          5.0004
  -5387646.49342  -2748808.97945  24766726.2424   24766729.4064
         4.7504          5.0004
 -15794637.86445 -11039839.24046  22601055.5314   22601060.0664
        11.5004         12.2504
 -23228450.62247 -17837522.52646  20449420.0864   20449422.5704
        25.5004         25.5004
 03 11  1  2 59  0.0000000  0  9G10G 9G 4G24G30G 7G 6G17G 5
  -6010613.99043  -4146469.18045  24023370.5784   24023373.9884
         6.0004          6.5004
  -2569405.49145  -1886609.68645  23311697.2504   23311701.9614
         8.5004          9.2504
 -11281378.58346  -8520613.60846  22079567.0554   22079568.8484
        14.2504         13.7504
 -22161149.46947 -16964155.25346  20435007.7424   20435010.6724
        21.5004         23.7504
 -18002838.62346 -10302806.32946  22024466.0704   22024468.0274
        13.0004         12.0004
  -2393882.47643  -2116765.72645  24692486.0394   24692491.1134
         5.5004          5.2504
  -5467722.99542  -2811206.05344  24751487.2034   24751486.1374
         4.7504          4.7504
 -15881308.96545 -11107375.09146  22584561.3444   22584564.3204
        11.5004         12.2504
 -23256332.85047 -17859248.91846  20444114.0864   20444116.4884
        25.5004         25.7504
 03 11  1  2 59 30.0000000  0  9G10G 9G 4G24G30G 7G 6G17G 5
  -6114885.07142  -4227719.34845  24003526.4304   24003527.4024
         4.7504          5.5004
  -2469973.26945  -1809130.04945  23330619.4454   23330622.0594
         8.2504          9.0004
 -11198793.28946  -8456261.42046  22095282.5164   22095284.8014
        14.2504         13.2504
 -22157607.83947 -16961395.51546  20435681.7894   20435684.8594
        21.5004         23.5004
 -18087688.30546 -10368922.90146  22008319.7894   22008321.5124
        13.0004         12.0004
  -2316245.08543  -2056268.91844  24707260.5314   24707269.8984
         5.5004          4.2504
  -5547767.45942                  24736256.1334
         4.7504
 -15967724.78245 -11174712.00946  22568117.8674   22568121.9804
        11.7504         12.2504
 -23283755.08847 -17880616.86846  20438895.6884   20438898.0904
        25.5004         25.5004
 03 11  1  3  0  0.0000000  0  9G10G 9G 4G24G30G 7G 6G17G 5
  -6219110.44543  -4308933.78045  23983694.6644   23983701.1454
         6.2504          6.5004
  -2370391.29545  -1731533.67745  23349567.2974   23349570.5664
         8.2504          9.0004
 -11115905.15146  -8391673.25646  22111055.8054   22111058.2664
        14.0004         13.5004
 -22153555.82147 -16958238.08846  20436452.8674   20436455.6334
        21.7504         23.7504
 -18172286.41946 -10434843.44745  21992221.1644   21992223.4144
        12.5004         11.7504
  -2238583.25643  -1995753.32944  24722039.3134   24722043.5084
         5.0004          4.7504
  -5627778.13942                  24721028.5864
         4.5004
 -16053882.37745 -11241847.74146  22551721.8054   22551725.4734
        11.7504         12.0004
 -23310714.23047 -17901623.97146  20433765.6334   20433767.9774
        25.2504         25.7504
 03 11  1  3  0 30.0000000  0  9G10G 9G 4G24G30G 7G 6G17G 5
  -6323290.70243  -4390113.15445  23963869.3834   23963872.2074
         6.2504          7.7504
  -2270666.55344  -1653826.10645  23368545.1334   23368548.9064
         7.5004          9.0004
 -11032720.60946  -8326854.12246  22126884.8754   22126887.5354
        13.5004         13.2504
 -22148998.44047 -16954686.85446  20437320.2814   20437323.1174
        22.0004         23.7504
 -18256634.73546 -10500569.32046  21976170.1954   21976172.6454
        12.5004         12.2504
  -2160900.88642                  24736821.2274
         4.7504
  -5707758.92342                  24705808.5234
         4.5004
 -16139783.98945 -11308783.99745  22535374.8984   22535379.6914
        11.5004         11.7504
 -23337213.14647 -17922272.44946  20428722.8134   20428725.3674
        25.2504         25.7504
 03 11  1  3  1  0.0000000  0  9G10G 9G 4G24G30G 7G 6G17G 5
  -6427421.62743  -4471253.91543  23944053.6334   23944058.4964
         5.5004          3.7504
  -2170801.05645  -1576008.85445  23387550.5634   23387555.8594
         8.2504          9.0004
 -10949241.38746  -8261805.38646  22142770.8674   22142773.1294
        13.5004         13.2504
 -22143935.59247 -16950741.75646  20438283.4384   20438286.3554
        21.7504         24.0004
 -18340730.00046 -10566097.99946  21960167.0864   21960170.1914
        12.7504         12.7504
  -2083197.29843                  24751608.1564
         5.0004
  -5787708.64642  -2484267.77354  24690594.8054   24690597.4654
         4.5004          4.0004
 -16225427.06445 -11375518.80246  22519078.0944   22519081.8914
        11.7504         12.7504
 -23363249.23447 -17942560.28946  20423768.4774   20423770.9614
        25.0004         25.5004
 03 11  1  3  1 30.0000000  0  9G10G 9G 4G24G30G 7G 6G17G 5
  -6531496.94244  -4552351.60845  23924248.9614   23924255.7344
         7.0004          6.0004
  -2070794.84845  -1498081.96045  23406579.0554   23406582.1484
         8.2504          9.2504
 -10865467.01646  -8196526.63946  22158712.3834   22158714.3634
        13.5004         13.5004
 -22138364.88147 -16946400.92046  20439343.5554   20439346.4384
        21.7504         24.0004
 -18424566.55546 -10631425.10846  21944213.8754   21944215.8794
        13.5004         13.2504
  -2005469.38143                  24766398.5704
         5.2504
  -5867624.04142  -2546539.19644  24675388.2274   24675393.0084
         4.2504          4.0004
 -16310807.02345 -11442048.57846  22502830.9844   22502834.9344
        11.7504         12.5004
 -23388817.65047 -17962483.69946  20418902.9534   20418905.3674
        25.0004         25.5004
 03 11  1  3  2  0.0000000  0  9G10G 9G 4G24G30G 7G 6G17G 5
  -6635515.73643  -4633405.09245  23904454.2664   23904459.3984
         5.0004          6.5004
  -1970653.25245  -1420049.54645  23425636.2584   23425640.0554
         8.2504          9.2504
 -10781402.53846  -8131021.84146  22174709.3984   22174711.6604
        13.5004         13.2504
 -22132289.87947 -16941667.13646  20440499.6804   20440502.6454
        21.7504         23.7504
 -18508144.53546 -10696550.74346  21928309.2424   21928311.1054
        13.2504         13.2504
  -1927719.66243                  24781194.4304
         5.0004
  -5947507.27542  -2608785.77844  24660187.0004   24660192.2274
         4.5004          4.7504
 -16395924.60345 -11508373.89246  22486632.3054   22486637.1214
        11.5004         12.5004
 -23413919.79447 -17982043.78746  20414125.8834   20414128.4614
        25.2504         25.7504
 03 11  1  3  2 30.0000000  0  9G10G 9G 4G24G30G 7G 6G17G 5
  -6739474.37744  -4714411.74844  23884671.5634   23884673.6134
         7.0004          4.5004
  -1870378.75745  -1341913.57745  23444717.2504   23444719.8984
         8.0004          8.7504
 -10697049.93346  -8065292.52846  22190761.2194   22190762.9414
        13.5004         13.7504
 -22125710.79947 -16936540.55846  20441751.6804   20441754.6804
        21.7504         24.0004
 -18591461.01846 -10761472.58646  21912454.6414   21912456.3984
        13.2504         12.5004
  -1849947.70442                  24795993.8674
         4.2504
  -6027357.78242  -2671006.63444  24644990.8444   24644993.1764
         4.5004          4.7504
 -16480777.54345 -11574493.02346  22470485.7424   22470489.6094
        11.2504         12.2504
 -23438553.47347 -18001238.83547  20409438.3834   20409440.8444
        25.2504         26.0004
 03 11  1  3  3  0.0000000  0  9G10G 9G 4G24G30G 7G 6G17G 5
  -6843369.29441  -4795369.05343  23864899.2974   23864904.0084
         3.0004          3.7504
  -1769974.11744  -1263676.21045  23463825.6484   23463829.4574
         7.7504          8.7504
 -10612411.30946  -7999340.34346  22206867.3444   22206869.2664
        13.5004         13.5004
 -22118628.75347 -16931022.05646  20443099.1804   20443102.1914
        21.7504         24.0004
 -18674513.38446 -10826188.64046  21896650.1254   21896652.0234
        13.0004         12.2504
  -1772153.35141                  24810797.6024
         3.7504
  -6107175.13942  -2733201.93644  24629801.7974   24629801.4454
         4.2504          4.0004
 -16565364.10346 -11640404.57546  22454389.3284   22454392.3164
        12.0004         13.0004
 -23462716.96147 -18020067.49946  20404840.3914   20404842.9104
        25.2504         25.7504
 03 11  1  3  3 30.0000000  0  9G10G 9G 4G24G30G 7G 6G17G 5
  -3230432.35853                  23845144.2584
         5.7504
  -1669442.29244  -1185339.73545  23482954.2504   23482958.7274
         7.5004          9.0004
 -10527489.48946  -7933167.50046  22223027.5704   22223030.0084
        13.5004         13.5004
 -22111044.41947 -16925112.17046  20444542.4384   20444545.1334
        22.0004         23.7504
 -18757298.98246 -10890696.83846  21880896.8054   21880899.2074
        13.2504         12.7504
  -1694336.24141                  24825606.0704
         3.5004
  -6186959.06842  -2795370.83444  24614619.3524   24614623.0204
         4.0004          4.0004
 -16649682.65545 -11706107.28946  22438343.6724   22438347.4804
        11.7504         12.5004
 -23486408.52847 -18038528.42747  20400331.7974   20400334.2464
        25.5004         26.0004
 03 11  1  3  4  0.0000000  0  9G10G 9G 4G24G30G 7G 6G17G 5
  -3334192.39541                  23825397.1174
         3.2504
  -1568788.62945  -1106908.31745  23502109.3984   23502112.3054
         8.2504          9.2504
 -10442289.31546  -7866777.74146  22239240.7424   22239242.8404
        13.5004         13.5004
 -22102961.05747 -16918813.42546  20446080.4774   20446083.3484
        21.7504         24.0004
 -18839818.01946 -10954997.30946  21865193.9304   21865196.3554
        13.5004         13.2504
  -1616499.15641                  24840417.2034
         3.7504
  -6266711.63841  -2857515.47644  24599442.1024   24599448.0664
         3.7504          4.7504
 -16733733.90946 -11771601.71346  22422350.5234   22422353.8404
        12.5004         12.5004
 -23509629.80447 -18056622.90447  20395913.1414   20395915.4964
        25.5004         26.2504
 03 11  1  3  4 30.0000000  0  9G10G 9G 4G24G30G 7G 6G17G 5
  -3437873.76744  -2490199.19555  23805669.0634   23805673.8674
         7.2504          8.2504
  -1468008.56245  -1028378.41445  23521286.8204   23521290.1844
         8.0004          8.5004
 -10356805.98446  -7800167.35046  22255507.3594   22255510.1254
        13.5004         13.5004
 -22094372.31247 -16912120.88146  20447715.0394   20447717.9344
        21.7504         23.7504
 -18922060.56346 -11019082.31546  21849543.1954   21849545.4104
        13.0004         13.2504
  -1538634.61441                  24855234.7034
         3.7504
  -6346425.25941  -2919629.79144  24584273.6484   24584278.9924
         3.7504          4.2504
 -16817508.95046 -11836880.92846  22406407.4224   22406411.3954
        12.0004         12.5004
 -23532371.78647 -18074343.90647  20391585.3914   20391587.9694
        25.2504         26.2504
 03 11  1  3  5  0.0000000  0  9G10G 9G 4G24G30G 7G 6G17G 5
  -3541480.02642  -2570931.30145  23785952.1724   23785956.6024
         4.5004          6.7504
  -1367111.98745   -949757.72145  23540486.4144   23540487.9024
         8.0004          8.5004
 -10271048.65146  -7733343.44846  22271826.4064   22271828.3164
        13.2504         13.5004
 -22085286.31247 -16905040.86446  20449444.2974   20449447.0744
        21.7504         24.0004
 -19004031.11346 -11082955.40146  21833944.6564   21833946.7074
        13.5004         13.2504
  -1460749.46941                  24870056.3834
         3.2504
                                  24569110.6414
         4.0004
 -16901012.97346 -11901948.92646  22390517.1094   22390521.0004
        12.0004         12.7504
 -23554639.27647 -18091695.17347  20387347.9924   20387350.3714
        25.2504         26.0004
 03 11  1  3  5 30.0000000  0  9G10G 9G 4G24G30G 7G 6G17G 5
  -3645003.17645  -2651598.62645  23766253.6564   23766257.0084
        10.0004          8.2504
  -1266097.10644   -871044.82645  23559709.0234   23559711.5204
         7.7504          9.0004
 -10185015.24446  -7666304.42846  22288198.0704   22288199.4774
        13.2504         13.5004
 -22075698.93147 -16897570.16046  20451268.5864   20451271.2584
        21.7504         23.7504
 -19085722.16946 -11146610.68646  21818399.3834   21818401.2234
        13.5004         13.0004
  -1382838.89041                  24884882.5084
         2.5004
  -3227826.61642  -3043779.13943  24553953.5394   24553957.7464
         4.2504          3.5004
 -16984239.53646 -11966800.75446  22374680.2344   22374684.1254
        12.5004         13.0004
 -23576426.42047 -18108672.13946  20383201.9924   20383204.4184
        25.0004         25.7504
 03 11  1  3  6  0.0000000  0  9G10G 9G 4G24G30G 7G 6G17G 5
  -3748445.78444  -2732203.22645  23746567.4844   23746572.0904
         7.0004          9.7504
  -1164972.97544   -792246.80045  23578952.0704   23578955.2584
         7.7504          7.7504
 -10098714.27546  -7599056.93046  22304620.8524   22304623.3244
        13.0004         13.0004
 -22065617.55747 -16889714.52846  20453186.8054   20453189.6294
        21.7504         23.7504
 -19167137.69146 -11210051.29246  21802906.5394   21802909.1524
        13.5004         13.0004
                                  24899711.8364
         1.5004
  -3307439.38142  -3105814.94945  24538805.0704   24538814.7424
         4.2504          5.0004
 -17067193.25146 -12031439.93946  22358894.5864   22358898.3244
        12.7504         13.0004
 -23597738.49247 -18125278.91946  20379146.5164   20379149.1054
        25.0004         25.7504
 03 11  1  3  6 30.0000000  0  8G10G 9G 4G24G30G 6G17G 5
  -3851804.29045  -2812742.12145  23726900.6484   23726903.9534
         9.2504          9.0004
  -1063742.04044   -713365.57245  23598216.2814   23598221.9534
         7.2504          7.7504
 -10012147.91646  -7531602.63246  22321093.4614   22321095.4184
        12.7504         12.2504
 -22055042.76747 -16881474.41446  20455199.3054   20455202.0004
        21.7504         23.7504
 -19248274.56546 -11273274.75346  21787466.3834   21787469.6524
        13.0004         13.2504
  -3387020.05842  -3167825.62445  24523661.1644   24523665.5234
         4.2504          5.5004
 -17149872.14246 -12095865.01246  22343161.7894   22343164.1454
        12.7504         13.2504
 -23618573.12047 -18141513.67547  20375181.7034   20375184.0824
        25.2504         26.0004
 03 11  1  3  7  0.0000000  0  8G10G 9G 4G24G30G 6G17G 5
  -3955070.68443  -2893209.51645  23707249.4774   23707253.0514
         6.2504          8.0004
   -962403.12544   -634400.22545  23617499.9924   23617503.5554
         7.2504          8.2504
  -9925314.35546  -7463940.12146  22337617.5004   22337619.6214
        12.5004         12.5004
 -22043971.34047 -16872847.31446  20457306.0164   20457309.0044
        21.5004         24.0004
 -19329126.18946 -11336275.95046  21772081.2114   21772083.2974
        13.7504         13.5004
  -3466564.24542  -3229807.94245  24508523.8984   24508528.9964
         4.2504          5.2504
 -17232270.31446 -12160071.33546  22327481.4694   22327484.8554
        13.2504         13.2504
 -23638924.96747 -18157372.23547  20371308.7424   20371311.0514
        25.2504         26.0004
 03 11  1  3  7 30.0000000  0  8G10G 9G 4G24G30G 6G17G 5
  -4058247.94544  -2973607.12545  23687615.2274   23687621.8954
         7.5004          8.0004
   -860964.67344   -555357.22845  23636803.3984   23636806.9494
         7.5004          8.5004
  -9838221.89246  -7396075.86546  22354190.7274   22354194.6994
        12.5004         12.0004
 -22032410.16247 -16863838.58446  20459505.8054   20459508.7934
        21.5004         24.0004
 -19409695.87846 -11399057.46846  21756749.5004   21756751.2704
        14.2504         13.5004
  -3546077.27742  -3291766.14545  24493393.6254   24493398.9344
         4.7504          5.5004
 -17314391.92946 -12224062.13746  22311854.5634   22311857.1644
        13.2504         13.2504
 -23658798.04247 -18172857.73047  20367527.1254   20367529.4574
        25.2504         26.0004
 03 11  1  3  8  0.0000000  0  8G10G 9G 4G24G30G 6G17G 5
  -4161332.30341  -3053932.67245  23667996.4924   23668002.9024
         2.7504          5.5004
   -759429.97644   -476239.32845  23656125.3134   23656130.3054
         7.2504          8.2504
  -9750872.94146  -7328011.74046  22370812.3984   22370814.6844
        12.2504         12.0004
 -22020360.20547 -16854448.99446  20461798.8364   20461801.7194
        21.7504         24.0004
 -19489981.12046 -11461617.33446  21741471.6174   21741473.4694
        14.5004         13.7504
  -3625559.04443  -3353699.77245  24478268.3134   24478277.2814
         5.0004          5.7504
 -17396235.43946 -12287836.26046  22296279.8444   22296283.4884
        13.5004         13.5004
 -23678191.14647 -18187969.22747  20363836.6644   20363839.0314
        25.2504         26.0004
 03 11  1  3  8 30.0000000  0  8G10G 9G 4G24G30G 6G17G 5
  -3209183.93453  -3134180.99545  23648401.3594   23648406.1764
         5.0004          5.7504
   -657798.72144   -397046.15745  23675464.6804   23675470.4224
         7.2504          8.2504
  -9663267.16046  -7259747.51546  22387483.4384   22387486.1454
        12.0004         12.2504
 -22007819.36447 -16844676.89246  20464185.4454   20464188.2704
        22.0004         24.0004
 -19569976.50946 -11523951.34646  21726248.8444   21726251.1414
        14.0004         13.5004
  -3705006.16743  -3415606.52345  24463150.3984   24463153.9844
         5.0004          5.0004
 -17477796.27446 -12351390.10746  22280759.4844   22280762.4844
        13.7504         13.2504
 -23697099.87647 -18202703.28447  20360238.6884   20360240.9964
        25.2504         26.0004
 03 11  1  3  9  0.0000000  0  8G10G 9G 4G24G30G 6G17G 5
  -3312066.57242                  23628822.0704
         4.0004
   -556073.43145   -317779.72445  23694823.1644   23694826.3054
         8.0004          8.2504
  -9575406.47245  -7191284.61946  22404202.7194   22404205.7774
        11.7504         12.5004
 -21994788.66547 -16834523.08446  20466664.9844   20466667.6454
        22.0004         24.0004
 -19649679.14146 -11586057.22646  21711081.7034   21711083.8594
        14.2504         14.0004
  -3784418.09143  -3477485.93544  24448038.5474   24448039.5434
         5.0004          4.7504
 -17559072.68946 -12414722.32046  22265292.5164   22265296.0554
        13.5004         13.5004
 -23715522.93847 -18217058.89747  20356732.6804   20356735.0944
        25.5004         26.0004
 03 11  1  3  9 30.0000000  0  7G10G 9G 4G24G30G17G 5
  -3414846.46543                  23609265.3524
         6.5004
   -454260.49344   -238444.94645  23714198.6174   23714203.6564
         7.2504          8.0004
  -9487296.94345  -7122627.85346  22420969.1254   22420972.3244
        11.7504         12.2504
 -21981272.66947 -16823991.11946  20469237.1484   20469239.8444
        22.0004         24.2504
 -19729089.93946 -11647935.71746  21695970.1174   21695972.7664
        15.0004         14.5004
 -17640066.49246 -12477834.32246  22249880.6094   22249883.6094
        13.5004         13.5004
 -23733462.20647 -18231037.52547  20353318.8444   20353321.0594
        25.2504         26.2504
 03 11  1  3 10  0.0000000  0  8G10G 9G 4G24G30G 6G17G 5
  -3517522.34444                  23589726.5704
         7.7504
   -352364.67843   -159045.65345  23733586.8284   23733589.2304
         6.7504          7.2504
  -9398943.02545  -7053780.62745  22437782.3284   22437785.0704
        11.7504         11.7504
 -21967274.41147 -16813083.36946  20471900.8754   20471903.6414
        22.0004         24.0004
 -19808208.41446 -11709586.43246  21680914.6954   21680916.4414
        15.0004         14.2504
  -3195798.33853                  24417832.6724
         5.0004
 -17720777.94246 -12540726.28846  22234520.9534   22234524.9964
        13.5004         13.7504
 -23750918.20647 -18244639.58547  20349997.3204   20349999.5354
        25.2504         26.0004
 03 11  1  3 10 30.0000000  0  8G10G 9G 4G24G30G 6G17G 5
  -3620089.76145                  23570207.7974
         8.0004
   -250388.01244    -79583.32645  23752991.5784   23752994.3324
         7.2504          8.0004
  -9310346.23245  -6984744.16445  22454642.0474   22454644.6844
        11.7504         11.2504
 -21952794.22347 -16801800.09846  20474656.4454   20474659.2464
        22.2504         24.2504
 -19887031.25846 -11771006.79846  21665914.9614   21665916.5784
        14.7504         14.0004
  -3275116.33543                  24402739.3834
         5.2504
 -17801204.62046 -12603396.38246  22219216.8364   22219219.6484
        13.2504         13.5004
 -23767888.58947 -18257863.24846  20346767.8754   20346770.0204
        25.0004         25.7504
 03 11  1  3 11  0.0000000  0  8G10G 9G 4G24G30G 6G17G 5
  -3722545.22845                  23550712.3444
         9.0004
   -148333.22943       -60.10745  23772412.3284   23772415.9264
         6.7504          8.5004
  -9221508.92045  -6915520.27845  22471547.4924   22471549.2734
        11.7504         11.7504
 -21937833.10947 -16790142.06946  20477503.4454   20477506.3404
        22.0004         24.0004
 -19965555.82946 -11832194.72046  21650972.2344   21650974.7894
        14.7504         14.2504
  -3354402.51643  -2455198.07355  24387651.8834   24387659.2114
         5.7504          5.5004
 -17881345.25746 -12665843.57546  22203965.7814   22203969.1214
        13.2504         13.7504
 -23784372.69247 -18270707.97947  20343630.9224   20343633.0904
        25.0004         26.0004
 03 11  1  3 11 30.0000000  0  8G10G 9G 4G24G30G 6G17G 5
  -3824887.72745  -2526966.82955  23531236.0944   23531240.6414
         8.2504          8.5004
    -46205.82643     79519.68145  23791845.7664   23791849.2584
         6.2504          8.0004
  -9132435.98545  -6846112.77946  22488497.5944   22488500.5594
        11.7504         12.0004
 -21922394.72647 -16778112.13846  20480441.1414   20480444.0234
        22.2504         24.0004
 -20043782.05246 -11893150.17246  21636086.3364   21636088.3874
        15.5004         15.0004
  -3433658.85443  -2516956.04745  24372568.2424   24372571.2194
         5.2504          6.2504
 -17961200.51346 -12728068.39046  22188769.5704   22188772.8054
        13.2504         13.7504
 -23800371.06947 -18283174.22347  20340586.4774   20340588.7974
        25.0004         26.0004
 03 11  1  3 12  0.0000000  0  8G10G 9G 4G24G30G 6G17G 5
  -3927121.17343  -2606629.21945  23511780.6484   23511784.5044
         5.7504          8.0004
     55984.29344    159148.30845  23811293.7424   23811295.8054
         7.2504          8.0004
  -9043136.99446  -6776529.13545  22505490.2664   22505493.3714
        12.0004         11.7504
 -21906487.10447 -16765716.57546  20483468.4534   20483471.4534
        22.2504         24.2504
 -20121714.33046 -11953876.59346  21621256.3054   21621258.2034
        15.2504         14.7504
  -3512892.42043  -2578696.33345  24357491.3364   24357497.7814
         5.0004          5.2504
 -18040775.92046 -12790075.14746  22173627.4144   22173630.4384
        13.2504         14.0004
 -23815890.05947 -18295266.92747  20337633.3594   20337635.5164
        25.0004         26.0004
 03 11  1  3 12 30.0000000  0  7G10G 9G 4G24G30G17G 5
  -4029233.40445  -2686197.06545  23492351.1334   23492354.4844
         8.7504          9.5004
    158243.12444    238830.50445  23830752.8674   23830754.6724
         7.5004          7.0004
  -8953605.55246  -6706764.37146  22522527.4304   22522530.3364
        12.0004         12.0004
 -21890102.91647 -16752949.66446  20486585.9614   20486588.7034
        22.0004         24.0004
 -20199341.72646 -12014365.41846  21606483.8754   21606485.8444
        15.0004         14.0004
 -18120061.32846 -12851855.92646  22158539.7664   22158543.6214
        13.5004         14.2504
 -23830918.72547 -18306977.55547  20334773.3914   20334775.8984
        24.7504         26.0004
 03 11  1  3 13  0.0000000  0  8G10G 9G 4G24G30G 6G17G 5
  -4131227.98043  -2765673.20545  23472940.4304   23472945.0124
         5.0004          7.2504
    260560.61545    318558.43745  23850223.6804   23850226.4694
         8.0004          8.2504
  -8863851.24545  -6636825.95946  22539606.9534   22539610.0824
        11.7504         12.0004
 -21873250.38847 -16739817.81046  20489792.8674   20489795.5864
        22.0004         24.0004
 -20276668.65846 -12074620.12046  21591768.8754   21591770.6454
        14.5004         13.7504
  -3211537.78153                  24327352.6804
         5.0004
 -18199062.31246 -12913415.09446  22143506.5704   22143509.5234
        13.5004         14.5004
 -23845463.99247 -18318311.51147  20332005.4454   20332007.9304
        24.7504         26.0004
 03 11  1  3 13 30.0000000  0  8G10G 9G 4G24G30G 6G17G 5
  -4233104.40943  -2845057.43345  23453554.8524   23453560.8874
         6.0004          8.0004
    362930.80743    398327.41345  23869701.7034   23869704.4924
         6.7504          7.7504
  -8773879.58445  -6566718.17046  22556727.9924   22556730.0204
        11.7504         12.0004
 -21855934.05447 -16726324.55146  20493087.8984   20493090.7114
        21.7504         24.0004
 -20353695.75846 -12134641.20346  21577111.5394   21577113.3324
        15.0004         14.2504
  -3290691.99543                  24312290.3284
         5.2504
 -18277780.38446 -12974753.80246  22128526.6414   22128529.3594
        14.0004         14.2504
 -23859527.16047 -18329269.79946  20329329.1804   20329331.6294
        25.0004         25.7504
 03 11  1  3 14  0.0000000  0  8G10G 9G 4G24G30G 6G17G 5
  -4334865.19044  -2924351.40545  23434190.8054   23434192.9494
         7.7504          6.7504
    465345.43043    478131.01845  23889191.6804   23889197.1524
         6.7504          6.7504
  -8683698.68045  -6496447.34445  22573889.3054   22573891.9884
        11.5004         11.5004
 -21838160.45647 -16712474.97846  20496470.1024   20496472.9024
        21.7504         24.0004
 -20430426.19246 -12194431.10846  21562510.0004   21562511.1604
        15.0004         14.5004
  -3369829.25443  -2467529.45854  24297231.1414   24297232.6294
         5.0004          4.7504
 -18356219.74746 -13035875.33146  22113600.0004   22113603.3634
        14.0004         14.7504
 -23873112.93547 -18339856.10047  20326744.2734   20326746.6884
        25.0004         26.0004
 03 11  1  3 14 30.0000000  0  8G10G 9G 4G24G30G 6G17G 5
  -4436502.49842  -3003549.19545  23414848.3984   23414856.2304
         4.5004          5.7504
    567805.71045    557970.17745  23908691.3204   23908694.0984
         8.5004          7.5004
  -8593306.38445  -6426011.79845  22591090.2974   22591093.4964
        11.5004         11.7504
 -21819926.73947 -16698266.87546  20499940.2584   20499942.9884
        21.7504         24.0004
 -20506853.19846 -12253984.55846  21547966.3834   21547968.6804
        15.0004         14.7504
  -3448945.01142  -2529177.88145  24282175.5634   24282178.7034
         4.7504          5.2504
 -18434374.85246 -13096775.35646  22098727.9844   22098731.2894
        14.2504         14.7504
 -23886215.72547 -18350066.03847  20324250.6024   20324252.7704
        25.0004         26.2504
 03 11  1  3 15  0.0000000  0  8G10G 9G 4G24G30G 6G17G 5
  -4538014.33443  -3082649.39845  23395531.8444   23395536.2854
         5.7504          6.5004
    670307.36244    637841.58245  23928195.1484   23928199.0744
         7.5004          7.5004
  -8502707.01545  -6355414.88546  22608330.7584   22608333.8754
        11.2504         12.0004
 -21801235.67947 -16683702.39346  20503496.8134   20503499.4144
        21.7504         24.0004
 -20582975.62146 -12313300.67046  21533480.6644   21533482.3524
        15.2504         15.2504
  -3528040.39742  -2590810.44044  24267124.3364   24267127.1024
         4.7504          4.7504
 -18512245.29846 -13157453.57146  22083909.7974   22083913.2074
        14.2504         14.7504
 -23898836.17547 -18359900.14447  20321849.1334   20321851.4534
        24.7504         26.0004
 03 11  1  3 15 30.0000000  0  8G10G 9G 4G24G30G 6G17G 5
  -4639397.95644  -3161649.45045  23376239.6254   23376244.4774
         7.2504          7.7504
    772846.96843    717742.58045  23947706.0474   23947707.9804
         5.7504          7.0004
  -8411903.42145  -6284658.85345  22625610.2424   22625613.1024
        11.0004         11.5004
 -21782089.24047 -16668783.07046  20507140.2504   20507143.0744
        21.7504         24.0004
 -20658791.58446 -12372377.99446  21519053.4774   21519055.3524
        15.2504         14.5004
  -3607115.62742  -2652427.40744  24252076.2114   24252080.8284
         4.7504          4.2504
 -18589830.41546 -13217909.46446  22069145.4614   22069148.4024
        14.5004         15.0004
 -23910973.33847 -18369357.64746  20319539.3914   20319541.7344
        24.7504         25.7504
 03 11  1  3 16  0.0000000  0  8G10G 9G 4G24G30G 6G17G 5
  -4740651.98244  -3240548.70245  23356971.8914   23356975.5004
         7.2504          6.5004
    875419.64643    797669.25245  23967227.2584   23967233.7624
         5.7504          6.7504
  -8320899.94945  -6213747.06045  22642927.6724   22642930.3674
        10.7504         11.2504
 -21762490.62447 -16653511.40746  20510869.7344   20510872.6994
        22.0004         24.0004
 -20734300.66046 -12431216.20946  21504684.3444   21504685.9614
        14.7504         14.7504
  -3686172.42042  -2714030.09344  24237031.3284   24237036.9774
         4.7504          4.7504
 -18667130.96446 -13278143.61146  22054436.3444   22054440.0004
        14.7504         14.7504
 -23922628.04147 -18378439.22047  20317321.5864   20317323.9064
        24.7504         26.0004
 03 11  1  3 16 30.0000000  0  8G10G 9G 4G24G30G 6G17G 5
  -4841773.92544  -3319344.86845  23337728.7344   23337731.6764
         7.2504          7.7504
    978021.65143    877618.86445  23986752.2194   23986757.2704
         6.2504          7.2504
  -8229699.96445  -6142682.12345  22660281.7344   22660284.5124
        10.5004         10.7504
 -21742442.21447 -16637889.25146  20514684.9224   20514687.6764
        22.0004         24.0004
 -20809501.36146 -12489814.10746  21490373.9454   21490376.1954
        15.0004         14.7504
  -3765211.58542  -2775618.92445  24221989.6414   24221995.1374
         4.5004          5.0004
 -18744146.28646 -13338155.51246  22039780.1804   22039782.9924
        14.5004         14.7504
 -23933800.19347 -18387144.77346  20315195.6644   20315197.9964
        24.7504         25.7504
 03 11  1  3 17  0.0000000  0  8G10G 9G 4G24G30G 6G17G 5
  -4942759.03944  -3398034.59945  23318511.5164   23318518.1954
         7.7504          8.0004
   1080651.28544    957589.99345  24006281.5234   24006282.6024
         7.0004          7.0004
  -8138304.81245  -6071465.16745  22677674.0784   22677676.5984
        10.5004         11.0004
 -21721944.01247 -16621916.60946  20518585.4304   20518588.1724
        22.0004         24.0004
 -20884389.87046 -12548168.74546  21476123.5314   21476126.1094
        16.0004         15.2504
  -3844231.52543  -2837192.73545  24206955.0864   24206961.2154
         5.0004          5.7504
 -18820873.78546 -13397943.14146  22025179.5634   22025182.1054
        14.7504         15.2504
 -23944487.74947 -18395472.72046  20313161.7584   20313164.1024
        24.7504         25.7504
 03 11  1  3 17 30.0000000  0  8G10G 9G 4G24G30G 6G17G 5
  -5043607.64645  -3476617.82245  23299322.2584   23299323.5944
        10.0004          7.7504
   1183302.07544   1037577.59245  24025814.4144   24025817.1334
         7.0004          7.0004
  -8046720.28245  -6000100.61845  22695102.1724   22695103.9414
        10.0004         11.2504
 -21701001.06147 -16605597.40546  20522570.6414   20522573.5234
        21.7504         23.7504
 -20958967.38746 -12606281.05246  21461931.6334   21461933.7424
        16.2504         15.2504
  -3923235.53042  -2898754.16345  24191919.1724   24191923.5204
         4.7504          5.2504
 -18897315.74546 -13457508.25846  22010632.6484   22010635.9534
        14.7504         14.5004
 -23954693.11847 -18403424.93047  20311219.8674   20311222.2464
        24.7504         26.0004
 03 11  1  3 18  0.0000000  0  8G10G 9G 4G24G30G 6G17G 5
  -5144315.00945  -3555091.02745  23280157.0164   23280160.5784
         9.0004          8.5004
   1285972.82143   1117580.80145  24045352.3834   24045354.3284
         6.7504          7.5004
  -7954947.53445  -5928589.40245  22712566.4224   22712568.3794
        10.0004         10.0004
 -21679613.28347 -16588931.59546  20526640.7034   20526643.6094
        22.0004         23.7504
 -21033230.00646 -12664147.99646  21447800.0234   21447801.7114
        16.0004         15.0004
  -4002222.00943  -2960301.97145  24176889.0164   24176895.0744
         5.0004          5.0004
 -18973469.30546 -13516848.65246  21996141.8204   21996144.9494
        15.0004         15.0004
 -23964413.70347 -18410999.40046  20309370.0474   20309372.4264
        24.5004         25.7504
 03 11  1  3 18 30.0000000  0  8G10G 9G 4G24G30G 6G17G 5
  -5244879.75844  -3633453.11645  23261019.3984   23261020.5354
         7.0004          7.2504
   1388658.35043   1197595.40445  24064892.9694   24064894.3524
         6.7504          7.0004
  -7862991.25945  -5856935.15445  22730064.0784   22730066.2464
         9.7504         10.2504
 -21657784.24447 -16571921.93546  20530794.7894   20530797.5664
        22.0004         24.0004
 -21107177.44746 -12721769.33746  21433728.2274   21433730.1254
        16.0004         15.0004
  -4081192.75643  -3021837.56645  24161862.3594   24161867.3524
         5.5004          5.5004
 -19049335.37746 -13575965.03546  21981704.6884   21981707.1604
        14.7504         15.2504
 -23973650.70947 -18418197.04846  20307612.1484   20307614.7154
        24.5004         25.7504
 03 11  1  3 19  0.0000000  0  8G10G 9G 4G24G30G 6G17G 5
  -5345296.10244  -3711699.63745  23241910.3054   23241913.0594
         7.5004          8.0004
   1491358.26143   1277621.31645  24084435.6174   24084437.8094
         6.5004          7.7504
  -7770851.60245  -5785138.04145  22747597.6884   22747600.2664
         9.7504         10.0004
 -21635513.46447 -16554568.06046  20535032.2734   20535035.0634
        22.0004         23.7504
 -21180805.06346 -12779141.47746  21419717.2734   21419718.7274
        16.2504         15.2504
  -4160145.14443  -3083358.73645  24146837.5554   24146843.1094
         5.7504          5.7504
 -19124910.62246 -13634854.79046  21967322.5634   21967325.5274
        14.7504         15.0004
 -23982401.10847 -18425015.51946  20305947.3204   20305949.4184
        24.7504         25.7504
 03 11  1  3 19 30.0000000  0  8G10G 9G 4G24G30G 6G17G 5
  -5445563.19045  -3789829.74745  23222831.6954   23222834.2034
         9.0004          9.5004
   1594067.56344   1357654.51545  24103982.6884   24103986.5904
         7.2504          7.0004
  -7678533.01845  -5713201.47045  22765165.1024   22765168.5944
        10.0004         10.2504
 -21612804.19447 -16536872.50946  20539354.0554   20539356.6454
        22.2504         24.0004
 -21254112.58046 -12836264.17446  21405767.4454   21405769.0164
        16.5004         16.0004
  -4239081.17343  -3144867.22245  24131816.7504   24131821.7424
         5.5004          5.7504
 -19200195.39946 -13693518.21746  21952997.1174   21953000.2584
        15.0004         15.0004
 -23990666.26147 -18431455.87747  20304374.2034   20304376.5824
        24.7504         26.0004
 03 11  1  3 20  0.0000000  0  8G10G 9G 4G24G30G 6G17G 5
  -5545672.67545  -3867837.02945  23203781.6724   23203782.7734
         9.0004          8.5004
   1696787.98343   1437696.35645  24123528.6174   24123533.4344
         6.2504          6.5004
  -7586033.05145  -5641123.58145  22782767.8134   22782771.2344
        10.2504          9.7504
 -21589652.70047 -16518832.36546  20543759.6884   20543762.7584
        22.2504         24.2504
 -21327092.50546 -12893131.61646  21391879.7584   21391881.7154
        16.2504         15.5004
  -4317995.74343  -3206358.98645  24116799.7664   24116805.7544
         5.7504          6.2504
 -19275183.71446 -13751950.62646  21938726.6884   21938729.3954
        15.0004         15.5004
 -23998440.18047 -18437513.46747  20302894.9844   20302897.3634
        24.7504         26.0004
 03 11  1  3 20 30.0000000  0  8G10G 9G 4G24G30G 6G17G 5
  -5645624.15743  -3945721.23745  23184761.7274   23184766.3794
         6.5004          7.0004
   1799513.48243   1517742.22645  24143074.3834   24143082.3324
         5.2504          6.7504
  -7493357.53645  -5568908.85245  22800403.6724   22800405.4884
        10.5004         10.5004
 -21566064.28447 -16500451.76946  20548248.3444   20548251.0514
        22.2504         24.0004
 -21399745.92246 -12949744.63346  21378054.1334   21378055.6094
        16.5004         15.5004
  -4396891.92843  -3267836.41145  24101786.1484   24101791.3524
         5.5004          6.2504
 -19349877.36446 -13810153.44946  21924512.5554   21924515.3204
        15.0004         15.2504
 -24005724.89247 -18443189.84447  20301508.7664   20301511.0274
        24.7504         26.0004
 03 11  1  3 21  0.0000000  0  8G10G 9G 4G24G30G 6G17G 5
  -5745417.56943  -4023482.30045  23165769.1094   23165773.1884
         5.0004          7.5004
   1902238.22443   1597787.42745  24162624.7424   24162628.9734
         6.2504          6.7504
  -7400511.75745  -5496561.46045  22818071.2814   22818073.8134
        10.5004         10.2504
 -21542043.20847 -16481734.02446  20552819.5164   20552822.2584
        22.2504         24.0004
 -21472073.34746 -13006103.62746  21364291.1884   21364292.3714
        17.0004         15.7504
  -4475772.43243  -3329301.67345  24086775.9924   24086780.6334
         5.5004          6.0004
 -19424278.42146 -13868128.24846  21910354.8364   21910358.0004
        15.2504         15.5004
 -24012522.83547 -18448486.92547  20300215.3914   20300217.6054
        24.7504         26.0004
 03 11  1  3 21 30.0000000  0  8G10G 9G 4G24G30G 6G17G 5
  -5845049.70343  -4101117.66645  23146809.5474   23146812.6884
         5.7504          7.7504
   2004958.89143   1677829.45845  24182169.1804   24182172.5314
         5.0004          6.0004
  -7307498.55245  -5424083.61745  22835771.3834   22835772.4494
        10.7504         10.0004
 -21517591.73947 -16462680.90946  20557472.4454   20557474.9654
        22.2504         24.0004
 -21544072.78746 -13062207.04846  21350589.6174   21350591.0474
        17.2504         16.0004
  -4554637.22643  -3390754.63245  24071767.5554   24071773.1804
         5.5004          6.2504
 -19498385.70646 -13925874.13446  21896252.5314   21896255.5204
        15.0004         15.5004
 -24018833.43447 -18453404.25247  20299014.1484   20299016.5514
        24.7504         26.0004
 03 11  1  3 22  0.0000000  0  8G10G 9G 4G24G30G 6G17G 5
  -5944509.97444  -4178619.11545  23127884.0234   23127887.1764
         7.5004          9.2504
   2107679.88543   1757871.73045  24201718.2734   24201724.2854
         5.7504          5.7504
  -7214313.10145  -5351471.54645  22853504.0234   22853507.1414
        10.7504         10.0004
 -21492703.99047 -16443287.83846  20562208.2974   20562211.1214
        22.0004         24.0004
 -21615734.50546 -13118047.28846  21336953.0314   21336954.6954
        17.2504         15.7504
  -4633478.94343  -3452189.55645  24056763.4304   24056768.1414
         5.5004          6.2504
 -19572191.01746 -13983384.72046  21882208.2194   21882211.3594
        15.2504         15.7504
 -24024648.79447 -18457935.67947  20297907.5234   20297909.8444
        24.7504         26.0004
 03 11  1  3 22 30.0000000  0  8G10G 9G 4G24G30G 6G17G 5
  -6043797.86945  -4255986.26245  23108991.1414   23108994.3754
         9.2504         10.0004
   2210395.72942   1837910.06445  24221262.5234   24221267.2934
         4.5004          5.5004
  -7120960.67145  -5278729.35245  22871268.6024   22871270.5004
        10.7504         10.2504
 -21467384.06647 -16423558.01646  20567026.4454   20567029.2464
        22.0004         24.0004
 -21687058.75946 -13173624.58846  21323380.6024   21323382.1134
        17.0004         16.5004
  -4712300.01143  -3513608.45945  24041765.8594   24041769.7034
         6.0004          6.7504
 -19645695.72646 -14040661.09146  21868220.6484   21868223.2504
        15.2504         15.7504
 -24029970.75547 -18462082.64447  20296894.9924   20296897.2894
        24.7504         26.0004
