     2.10           OBSERVATION DATA    G (GPS)             RINEX VERSION / TYPE
teqc  2000Jul20     CORS-ADM Account    20041211 05:50:29UTCPGM / RUN BY / DATE
Solaris 2.7|Ultra 2|cc SC5.0|=+-|*Sparc                     COMMENT
teqc  2000Jul20     CORS/NGS/NOAA       20041211 05:50:22UTCCOMMENT
BIT 2 OF LLI FLAGS DATA COLLECTED UNDER A/S CONDITION       COMMENT
htv1                                                        MARKER NAME
Jason Cockrell      U.S. Coast Guard                        OBSERVER / AGENCY
2199912124          ASHTECH Z-XII3      RD00                REC # / TYPE / VERS
16020               ASH700829.3     SNOW                    ANT # / TYPE
   350722.8656 -5130731.1515  3760329.7009                  APPROX POSITION XYZ
        0.0000        0.0000        0.0000                  ANTENNA: DELTA H/E/N
     1     1                                                WAVELENGTH FACT L1/2
     7    C1    L1    L2    P1    P2    D1    D2            # / TYPES OF OBSERV
    30.0000                                                 INTERVAL
 SNR is mapped to RINEX snr flag value [1-9]                COMMENT
  L1: 1 -> 1;  90 -> 5; 210 -> 9                            COMMENT
  L2: 1 -> 1; 150 -> 5; 250 -> 9                            COMMENT
Forced Modulo Decimation to 30 seconds                      COMMENT
  2004    12    10     0     0    0.0000000     GPS         TIME OF FIRST OBS
                                                            END OF HEADER
 04 12 10  0  0  0.0000000  0  9G 2G17G 5G 7G10G 4G13G24G30
  20565005.7484  -38239979.08949 -29446087.84347  20565004.0224   20565005.5384
      1034.8024        806.3404
  21952118.2654  -28543656.72649 -21916169.43747  21952116.1194   21952121.8384
      2157.0104       1680.7864
  21725160.0344  -23517638.48949 -17997864.59547  21725157.6954   21725162.6424
       826.0694        643.6904
  23393542.4584  -31335992.84747 -23802544.98845  23393539.1514   23393546.5704
     -1787.9334      -1393.1974
  21833605.7654  -21224502.48048 -15484868.38747  21833603.1474   21833608.5644
      3788.8844       2952.3754
  21706938.3204  -32142622.34849 -24674621.19747  21706936.3774   21706940.5934
     -1359.0434      -1058.9944
  24408658.1864   -3971565.04147  -2906437.29345  24408657.9064   24408661.1534
      1369.7794       1067.3584
  21025478.3684  -33529294.11649 -25767210.01847  21025476.6524   21025481.9754
      -236.4914       -184.2784
  22807609.1834  -14868514.52648 -11249374.26446  22807607.5674   22807611.6264
      2714.3014       2115.0394
 04 12 10  0  0 30.0000000  0  9G 2G17G 5G 7G10G 4G13G24G30
  20559080.4834  -38271118.95449 -29470352.67247  20559078.2964   20559079.8394
      1038.5954        809.2944
  21939777.2104  -28608510.56649 -21966704.87647  21939774.7354   21939780.9604
      2163.9544       1686.1964
  21720453.2414  -23542378.57649 -18017142.57947  21720450.0934   21720455.1814
       820.6704        639.4824
  23403723.7194  -31282482.08647 -23760848.31945  23403721.8974   23403726.3674
     -1781.8934      -1388.4904
  21811964.3354  -21338225.21048 -15573483.47047  21811961.9304   21811967.8774
      3790.0434       2953.2794
  21714661.3584  -32102034.30249 -24642994.15547  21714659.8244   21714664.1544
     -1349.3244      -1051.4214
  24400838.7444   -4012655.07547  -2938455.51245  24400837.4844   24400840.2994
      1366.9614       1065.1624
  21026801.6464  -33522345.75049 -25761795.70047  21026799.1004   21026803.8984
      -229.2864       -178.6654
  22792112.8144  -14949942.13948 -11312824.33046  22792111.4144   22792115.5304
      2711.6454       2112.9714
 04 12 10  0  1  0.0000000  0  9G 2G17G 5G 7G10G 4G13G24G30
  20553161.8214  -38302223.03249 -29494589.60547  20553159.5364   20553161.1534
      1042.9054        812.6534
  21927424.6924  -28673423.40549 -22017286.29047  21927422.5254   21927428.1764
      2171.4624       1692.0474
  21715803.4284  -23566807.89949 -18036178.41647  21715801.1614   21715806.4104
       815.8274        635.7094
  23413901.0914  -31229003.82747 -23719176.97845  23413898.0114   23413902.4944
     -1775.3394      -1383.3744
  21790344.9084  -21451832.30748 -15662008.42847  21790343.1144   21790349.2844
      3791.6454       2954.5254
  21722357.3684  -32061588.79649 -24611478.18147  21722356.0094   21722360.4434
     -1339.0304      -1043.4004
  24393063.5304   -4053510.05747  -2970290.49745  24393062.6824   24393067.7884
      1364.5684       1063.2954
  21028110.5364  -33515464.76049 -25756433.89347  21028108.2444   21028113.0734
      -221.5114       -172.6064
  22776660.7664  -15031139.60248 -11376095.05546  22776659.5644   22776664.6594
      2709.4264       2111.2404
 04 12 10  0  1 30.0000000  0  9G 2G17G 5G 7G10G 4G13G24G30
  20547253.5184  -38333270.70949 -29518782.59647  20547251.4084   20547252.9444
      1029.0254        801.8384
  21915065.0724  -28738374.58849 -22067897.58047  21915062.6174   21915068.0084
      2160.7044       1683.6654
  21711217.9024  -23590905.74049 -18054955.96047  21711215.7014   21711220.5174
       792.7924        617.7604
  23424074.0114  -31175537.42247 -23677514.85945  23424071.5534   23424077.4484
     -1786.8984      -1392.3894
  21768753.1354  -21565300.14648 -15750424.87747  21768751.1284   21768757.2494
      3774.9484       2941.5184
  21730030.4554  -32021266.30349 -24580058.06047  21730029.0744   21730033.0834
     -1346.9484      -1049.5704
  24385339.2614   -4094107.43347  -3001924.80045  24385336.9524   24385341.6284
      1343.9834       1047.2604
  21029410.6624  -33508631.02649 -25751108.90347  21029408.5574   21029413.2524
      -231.9364       -180.7294
  22761256.7174  -15112084.02048 -11439168.60446  22761255.5334   22761259.8904
      2689.0114       2095.3344
 04 12 10  0  2  0.0000000  0  9G 2G17G 5G 7G10G 4G13G24G30
  20541427.1244  -38363882.66049 -29542636.05947  20541425.8184   20541427.3564
      1016.3484        791.9584
  21902769.8374  -28802984.18349 -22118242.69847  21902767.8224   21902773.0644
      2151.1734       1676.2394
  21706767.3534  -23614292.09549 -18073179.10047  21706765.1224   21706770.9694
       770.9154        600.7144
  23434319.6314  -31121703.29847 -23635566.23545  23434317.2204   23434323.9964
     -1797.2914      -1400.4854
  21747260.5094  -21678246.34949 -15838434.87947  21747258.4014   21747264.2544
      3759.3934       2929.3974
  21737751.5934  -31980687.49549 -24548438.21347  21737750.1054   21737754.5284
     -1353.6244      -1054.7714
  24377736.1594   -4134065.32847  -3033060.78445  24377733.9384   24377738.5234
      1324.5024       1032.0824
  21030773.4244  -33501465.57949 -25745525.43447  21030771.9334   21030776.6494
      -241.1404       -187.9014
  22745974.6834  -15192393.29848 -11501747.24346  22745973.6664   22745978.7034
      2669.6434       2080.2424
 04 12 10  0  2 30.0000000  0  9G 2G17G 5G 7G10G 4G13G24G30
  20535626.0504  -38394374.70149 -29566396.08747  20535623.5664   20535625.0414
      1010.9224        787.7314
  21890480.2594  -28867568.09849 -22168567.80247  21890477.7624   21890483.5354
      2148.8654       1674.4404
  21702392.6744  -23637282.52649 -18091093.72447  21702390.2794   21702395.1844
       756.3184        589.3394
  23444574.6894  -31067817.55747 -23593577.40645  23444571.8304   23444578.1014
     -1800.4444      -1402.9404
  21725806.8584  -21790983.86948 -15926282.23447  21725804.7624   21725810.7274
      3750.9334       2922.8024
  21745462.5124  -31940169.05449 -24516865.41447  21745461.2424   21745465.1954
     -1353.0074      -1054.2914
  24370195.2314   -4173697.88747  -3063943.26745  24370193.0544   24370196.8684
      1312.1714       1022.4764
  21032141.0544  -33494284.84749 -25739930.05147  21032138.5104   21032142.9584
      -243.0574       -189.3954
  22730755.3714  -15272380.98248 -11564075.29646  22730753.8334   22730757.2104
      2657.4224       2070.7194
 04 12 10  0  3  0.0000000  0  9G 2G17G 5G 7G10G 4G13G24G30
  20529857.0664  -38424688.91749 -29590017.55647  20529855.0314   20529856.1924
      1008.4994        785.8434
  21878206.0374  -28932068.16248 -22218827.57447  21878203.7324   21878209.5944
      2149.5544       1674.9774
  21698103.5044  -23659818.94049 -18108654.57047  21698101.3304   21698107.1834
       744.6514        580.2464
  23454848.7494  -31013822.21347 -23551503.13245  23454846.4304   23454851.0354
     -1800.6684      -1403.1224
  21704405.5404  -21903452.07548 -16013919.75247  21704402.8894   21704408.8394
      3745.3894       2918.4854
  21753172.7094  -31899653.99349 -24485295.23347  21753171.1774   21753174.8984
     -1349.3944      -1051.4764
  24362726.3824   -4212945.42747  -3094525.73145  24362724.5064   24362728.0304
      1302.8164       1015.1794
  21033520.5274  -33487031.78749 -25734278.31047  21033518.6734   21033523.2984
      -241.9794       -188.5564
  22715607.4524  -15351986.69248 -11626105.70846  22715605.1554   22715609.0454
      2648.1914       2063.5244
 04 12 10  0  3 30.0000000  0  9G 2G17G 5G 7G10G 4G13G24G30
  20524149.6974  -38454680.71349 -29613387.78747  20524147.4124   20524149.1894
       996.6364        776.5994
  21865975.7834  -28996339.19248 -22268908.88247  21865973.1934   21865979.1544
      2140.8484       1668.1924
  21693929.7084  -23681756.16949 -18125748.52847  21693927.3914   21693932.8224
       723.5784        563.8274
  23465171.8104  -30959572.48247 -23509230.61345  23465169.2794   23465174.3444
     -1810.2584      -1410.5924
  21683083.1644  -22015502.73948 -16101231.93947  21683080.3524   21683086.1334
      3730.2944       2906.7244
  21760909.3794  -31858997.84149 -24453615.11247  21760908.0234   21760912.3694
     -1355.2204      -1056.0174
  24355358.0674   -4251661.26547  -3124693.88445  24355356.6224   24355361.3894
      1283.9274       1000.4614
  21034941.9034  -33479562.35649 -25728457.97947  21034940.0034   21034944.8194
      -250.2924       -195.0324
  22700558.3524  -15431063.15248 -11687723.71546  22700557.4354   22700561.9914
      2629.3324       2048.8294
 04 12 10  0  4  0.0000000  0  9G 2G17G 5G 7G10G 4G13G24G30
  20518487.7534  -38484433.68549 -29636571.91247  20518485.7504   20518487.2974
       991.5374        772.6264
  21853772.6644  -29060464.84849 -22318876.89847  21853770.7474   21853776.9274
      2138.8354       1666.6264
  21689852.3344  -23703177.68349 -18142440.62147  21689850.4704   21689855.6654
       709.2004        552.6234
  23475526.7894  -30905152.11247 -23466825.16845  23475524.9144   23475530.5694
     -1813.0494      -1412.7614
  21661824.0384  -22127216.87149 -16188281.89347  21661821.8354   21661827.1004
      3721.9084       2900.1864
  21768657.6054  -31818285.08149 -24421890.88247  21768655.7334   21768659.6784
     -1354.2484      -1055.2584
  24348076.7894   -4289927.02347  -3154511.32346  24348075.1434   24348078.3084
      1271.7634        990.9834
  21036388.2944  -33471960.91649 -25722534.77847  21036386.6694   21036391.4414
      -251.8194       -196.2224
  22685595.5194  -15509691.84448 -11748992.81246  22685594.4744   22685598.2124
      2617.1834       2039.3614
 04 12 10  0  4 30.0000000  0  9G 2G17G 5G 7G10G 4G13G24G30
  20512839.1734  -38514119.97849 -29659704.08247  20512836.6134   20512838.1184
       988.6864        770.4054
  21841565.9204  -29124616.52249 -22368865.19247  21841563.0524   21841569.5534
      2139.0984       1666.8294
  21685842.0904  -23724255.05349 -18158864.54647  21685839.7954   21685844.7534
       697.1374        543.2244
  23485884.6164  -30850732.95347 -23424420.67645  23485881.1814   23485887.5644
     -1813.6534      -1413.2264
  21640597.9284  -22238763.20449 -16275201.08447  21640595.5384   21640600.9394
      3715.6594       2895.3174
  21776382.4044  -31777687.99749 -24390256.79447  21776380.6924   21776385.2884
     -1350.9874      -1052.7174
  24340848.3894   -4327912.30648  -3184110.21946  24340847.2154   24340850.8374
      1261.7754        983.2004
  21037827.9194  -33464399.73749 -25716642.95047  21037825.6534   21037830.3924
      -251.0774       -195.6454
  22670687.2804  -15588042.08148 -11810044.92446  22670685.2354   22670690.0594
      2607.3234       2031.6804
 04 12 10  0  5  0.0000000  0  9G 2G17G 5G 7G10G 4G13G24G30
  20507230.4034  -38543589.72649 -29682667.52547  20507228.9244   20507229.9524
       974.9354        759.6904
  21829380.6584  -29188644.48448 -22418757.08547  21829378.5334   21829384.7034
      2128.4214       1658.5084
  21681925.4254  -23744838.25349 -18174903.40847  21681923.0094   21681928.8134
       674.1224        525.2904
  23496270.1924  -30796165.35347 -23381900.53745  23496266.4504   23496270.9614
     -1825.1054      -1422.1584
  21619431.9954  -22349989.11249 -16361870.59747  21619429.7324   21619435.6434
      3698.4054       2881.8744
  21784113.3924  -31737057.33749 -24358596.54447  21784111.9524   21784116.2644
     -1358.6324      -1058.6754
  24333702.6594   -4365465.59148  -3213372.51746  24333701.3314   24333704.4904
      1240.8144        966.8684
  21039287.1784  -33456729.36949 -25710666.02547  21039285.3444   21039290.2874
      -261.2614       -203.5804
  22655859.2664  -15665961.84348 -11870761.59546  22655857.4864   22655862.3674
      2586.3654       2015.3494
 04 12 10  0  5 30.0000000  0  9G 2G17G 5G 7G10G 4G13G24G30
  20501703.6384  -38572635.75549 -29705300.79447  20501701.5484   20501702.7544
       960.3814        748.3484
  21817260.0524  -29252341.09948 -22468390.79247  21817257.8114   21817263.5634
      2116.9304       1649.5564
  21678141.8714  -23764720.05049 -18190395.73247  21678139.3444   21678144.9204
       650.3034        506.7304
  23506719.4284  -30741242.09247 -23339103.22245  23506717.8914   23506721.8464
     -1837.3704      -1431.7134
  21598367.8504  -22460684.55749 -16448126.74847  21598365.1104   21598370.9394
      3680.2414       2867.7194
  21791891.3354  -31696186.45149 -24326749.10047  21791889.7334   21791894.1314
     -1367.0744      -1065.2514
  24326677.6394   -4402377.90348  -3242135.32546  24326676.7324   24326679.8994
      1218.9504        949.8304
  21040807.0704  -33448743.21749 -25704443.04347  21040805.0104   21040810.1634
      -272.1994       -212.1034
  22641151.6924  -15743241.53448 -11930979.52546  22641150.7964   22641155.9124
      2564.5534       1998.3534
 04 12 10  0  6  0.0000000  0  9G 2G17G 5G 7G10G 4G13G24G30
  20496241.3884  -38601338.23749 -29727666.35147  20496239.5564   20496241.0914
       948.1674        738.8314
  21805186.7744  -29315786.32648 -22517828.61047  21805184.5054   21805190.0714
      2107.8134       1642.4504
  21674476.6904  -23783980.48949 -18205403.86747  21674474.5584   21674479.0764
       628.8214        489.9894
  23517224.4754  -30686043.35247 -23296091.19545  23517221.5244   23517225.1894
     -1847.2894      -1439.4464
  21577389.1794  -22570927.05649 -16534029.96047  21577386.5314   21577392.1014
      3664.3274       2855.3164
  21799699.2024  -31655156.24649 -24294777.51047  21799697.5794   21799700.7714
     -1373.1094      -1069.9564
  24319761.9404   -4438727.75047  -3270459.86446  24319760.3064   24319762.4444
      1199.4254        934.6174
  21042371.6844  -33440522.33849 -25698037.15447  21042369.7034   21042374.5914
      -280.7814       -218.7904
  22626552.3194  -15819958.91348 -11990759.28746  22626551.8304   22626556.9254
      2545.0344       1983.1404
 04 12 10  0  6 30.0000000  0  9G 2G17G 5G 7G10G 4G13G24G30
  20490854.9914  -38629646.99849 -29749725.12447  20490852.8224   20490854.0694
       939.9044        732.3934
  21793170.9914  -29378929.78748 -22567031.28747  21793168.9804   21793173.8424
      2102.5564       1638.3564
  21670939.1584  -23802568.63949 -18219888.13847  21670937.1854   21670943.1424
       611.2484        476.2974
  23527788.9734  -30630519.04947 -23252825.50245  23527786.3224   23527792.3704
     -1853.2994      -1444.1324
  21556506.7404  -22680663.31649 -16619538.67947  21556504.3424   21556510.0934
      3652.2704       2845.9234
  21807546.9454  -31613916.94049 -24262642.97447  21807545.3434   21807548.8334
     -1375.2544      -1071.6274
  24312961.8374   -4474463.10148  -3298305.57046  24312960.0334   24312963.3134
      1183.7704        922.4174
  21043990.4504  -33432017.01249 -25691409.62347  21043987.9834   21043992.9374
      -285.3894       -222.3814
  22612072.7534  -15896061.57648 -12050060.05546  22612070.5524   22612074.6244
      2529.3854       1970.9484
 04 12 10  0  7  0.0000000  0  9G 2G17G 5G 7G10G 4G13G24G30
  20485527.2704  -38657642.00749 -29771539.40747  20485525.2874   20485526.5084
       923.9674        719.9734
  21781197.4544  -29441850.89548 -22616060.71347  21781195.3414   21781199.9774
      2089.6984       1628.3364
  21667514.7404  -23820564.55349 -18233910.94047  21667512.5634   21667518.5064
       586.0454        456.6584
  23538400.5544  -30574749.23447 -23209368.57345  23538398.2864   23538406.6194
     -1866.9294      -1454.7464
  21535706.6274  -22789970.35949 -16704712.96047  21535703.8564   21535709.5614
      3632.4444       2830.4754
  21815419.4144  -31572548.97249 -24230408.18547  21815417.1664   21815420.8084
     -1384.9924      -1079.2144
  24306262.8824   -4509661.84047  -3325733.12746  24306261.2384   24306265.3584
      1160.3674        904.1824
  21045647.0074  -33423307.59049 -25684623.05547  21045645.3454   21045650.3464
      -297.6654       -231.9484
  22597693.5474  -15971626.96448 -12108942.15046  22597691.3564   22597695.3404
      2505.9754       1952.7064
 04 12 10  0  7 30.0000000  0  9G 2G17G 5G 7G10G 4G13G24G30
  20480261.7934  -38685310.89649 -29793099.56347  20480260.1004   20480261.4664
       919.4694        716.4694
  21769268.9734  -29504537.27648 -22664907.22847  21769266.5794   21769271.7474
      2088.2284       1627.1904
  21664205.3624  -23837955.86249 -18247462.62347  21664203.1794   21664208.6834
       572.2464        445.9074
  23549062.9644  -30518721.40947 -23165710.61845  23549061.7544   23549066.3104
     -1869.1714      -1456.4964
  21514990.4804  -22898832.89349 -16789540.89847  21514988.2264   21514993.5354
      3623.8964       2823.8144
  21823317.6274  -31531040.51849 -24198063.92647  21823316.2514   21823320.6474
     -1383.2364      -1077.8474
  24299670.1884   -4544309.76648  -3352731.49946  24299668.3624   24299671.9194
      1148.3374        894.8094
  21047345.6894  -33414382.12649 -25677668.14547  21047343.6644   21047348.7724
      -298.4914       -232.5914
  22583418.4994  -16046640.46748 -12167394.23646  22583417.0034   22583420.5444
      2493.8484       1943.2584
 04 12 10  0  8  0.0000000  0  9G 2G17G 5G 7G10G 4G13G24G30
  20475053.3024  -38712684.68749 -29814429.77347  20475051.0364   20475052.5034
       906.6454        706.4764
  21757378.5684  -29567019.45948 -22713594.61747  21757376.5304   21757382.3324
      2078.4524       1619.5734
  21661005.4934  -23854773.34149 -18260567.15947  21661003.1574   21661008.3224
       550.1424        428.6824
  23559768.8654  -30462466.69147 -23121875.80445  23559766.8824   23559770.4584
     -1879.7254      -1464.7164
  21494353.3524  -23007279.07649 -16874044.39847  21494351.7264   21494357.1944
      3607.0174       2810.6624
  21831237.0764  -31489422.95549 -24165634.65047  21831235.3944   21831240.0574
     -1389.8724      -1083.0164
  24293174.5714   -4578435.99347  -3379323.34445  24293173.7094   24293177.2214
      1127.9664        878.9314
  21049079.6624  -33405272.36649 -25670569.63147  21049077.3424   21049082.4694
      -307.5994       -239.6874
  22569243.0094  -16121130.66048 -12225438.54546  22569241.7364   22569245.9074
      2473.4634       1927.3734
 04 12 10  0  8 30.0000000  0  9G 2G17G 5G 7G10G 4G13G24G30
  20469915.8204  -38739677.52749 -29835463.14747  20469914.3544   20469915.9424
       894.1734        696.7584
  21745543.9264  -29629211.48648 -22762055.90947  21745541.5834   21745547.3724
      2068.9694       1612.1844
  21657930.4014  -23870931.26049 -18273157.75147  21657928.2564   21657933.7014
       528.3904        411.7334
  23570531.9904  -30405899.41147 -23077797.37245  23570530.4654   23570535.6424
     -1889.9764      -1472.7094
  21473813.3544  -23115220.12349 -16958154.27947  21473810.6724   21473816.4804
      3590.3584       2797.6804
  21839193.6664  -31447610.96849 -24133053.88247  21839192.2264   21839196.6524
     -1396.1494      -1087.9084
  24286797.2624   -4611953.18947  -3405440.59246  24286795.2104   24286800.0834
      1107.8504        863.2594
  21050863.4314  -33395892.74749 -25663260.83947  21050862.0284   21050867.4254
      -316.3724       -246.5234
  22555184.0554  -16195009.58948 -12283006.53746  22555183.1054   22555188.0424
      2453.2154       1911.5964
 04 12 10  0  9  0.0000000  0  9G 2G17G 5G 7G10G 4G13G24G30
  20464846.0574  -38766324.52449 -29856227.04747  20464843.7084   20464844.7994
       881.9334        687.2214
  21733757.8174  -29691148.01448 -22810318.12947  21733755.4004   21733760.7364
      2059.7734       1605.0174
  21654974.6164  -23886464.25349 -18285261.39147  21654972.5184   21654978.1734
       506.8484        394.9474
  23581350.7114  -30349054.33347 -23033502.53645  23581347.7704   23581355.0054
     -1899.9424      -1480.4724
  21453362.9884  -23222688.08349 -17041895.50847  21453360.3354   21453366.2484
      3573.8284       2784.8004
  21847180.2424  -31405640.00449 -24100349.24147  21847178.9184   21847183.3904
     -1402.1334      -1092.5714
  24280529.3374   -4644894.46747  -3431109.11445  24280527.3994   24280531.0524
      1087.8784        847.6944
  21052693.6094  -33386278.90249 -25655769.53047  21052691.4684   21052696.5434
      -324.8724       -253.1464
  22541236.0814  -16268309.96748 -12340123.69746  22541234.5454   22541238.8694
      2433.1974       1895.9974
 04 12 10  0  9 30.0000000  0  9G 2G17G 5G 7G10G 4G13G24G30
  20459851.4704  -38792569.43749 -29876677.63147  20459849.6044   20459850.5214
       866.4934        675.1904
  21722030.6784  -29752772.89448 -22858337.50547  21722028.5644   21722034.4294
      2047.3314       1595.3234
  21652149.0094  -23901316.37249 -18296834.48247  21652146.6844   21652151.9274
       482.1134        375.6734
  23592228.9754  -30291875.57047 -22988947.73545  23592228.2924   23592235.0224
     -1913.0844      -1490.7144
  21433013.6424  -23329623.95649 -17125222.10847  21433011.1854   21433016.9564
      3554.0104       2769.3584
  21855208.7514  -31363454.53249 -24067477.44847  21855206.6394   21855210.6934
     -1411.3264      -1099.7344
  24274382.1424   -4677201.77447  -3456283.63345  24274379.7044   24274383.0284
      1064.7264        829.6554
  21054577.6514  -33376375.26749 -25648052.41347  21054576.0234   21054580.8644
      -336.5604       -262.2554
  22527408.7014  -16340973.30048 -12396744.45946  22527407.0464   22527411.0544
      2409.9314       1877.8704
 04 12 10  0 10  0.0000000  0  9G 2G17G 5G 7G10G 4G13G24G30
  20454935.8374  -38818399.06149 -29896804.59847  20454933.9534   20454935.2514
       855.1364        666.3394
  21710366.3274  -29814072.32348 -22906103.26947  21710363.8294   21710370.0104
      2038.9504       1588.7914
  21649454.1824  -23915474.69749 -18307866.95447  21649452.0164   21649457.2624
       461.4754        359.5914
  23603178.8104  -30234350.10247 -22944122.75845  23603175.8544   23603180.9074
     -1922.1434      -1497.7704
  21412768.4734  -23436011.98949 -17208121.85947  21412766.0264   21412771.2554
      3538.2064       2757.0434
  21863278.2614  -31321041.67948 -24034428.46447  21863277.3154   21863281.0394
     -1416.4424      -1103.7234
  24268355.6934   -4708860.72947  -3480952.92645  24268354.5504   24268357.9164
      1045.5694        814.7234
  21056520.5794  -33366169.12449 -25640099.56847  21056518.2284   21056522.4474
      -344.1674       -268.1824
  22513704.9464  -16412984.40148 -12452856.99346  22513703.0204   22513707.1844
      2390.5864       1862.7954
 04 12 10  0 10 30.0000000  0  9G 2G17G 5G 7G10G 4G13G24G30
  20450078.1354  -38843925.78949 -29916695.55747  20450076.4894   20450077.8344
       848.1654        660.9074
  21698741.5964  -29875158.49748 -22953702.86047  21698739.4844   21698745.7344
      2034.9814       1585.6984
  21646870.9844  -23929051.12549 -18318446.00147  21646868.8094   21646874.0894
       445.1924        346.9024
  23614169.1034  -30176590.19447 -22899115.06145  23614167.2074   23614171.0844
     -1926.8604      -1501.4474
  21392607.2164  -23541961.41449 -17290679.83047  21392604.7444   21392609.5864
      3526.6534       2748.0394
  21871372.0444  -31278514.21148 -24001290.17747  21871370.2034   21871373.4774
     -1417.1004      -1104.2344
  24262434.4284   -4739981.63347  -3505202.97545  24262432.6034   24262435.4264
      1030.7114        803.1534
  21058498.8054  -33355772.91149 -25631998.60947  21058496.7414   21058500.4444
      -347.3604       -270.6714
  22500103.9494  -16484453.02048 -12508546.80846  22500102.6644   22500108.0694
      2375.6024       1851.1174
 04 12 10  0 11  0.0000000  0  9G 2G17G 5G 7G10G 4G13G24G30
  20445273.3964  -38869176.38049 -29936371.33947  20445271.5704   20445272.5214
       836.2674        651.6374
  21687152.5244  -29936057.87748 -23001156.90947  21687150.5224   21687156.8214
      2026.0234       1578.7184
  21644393.3984  -23942072.65449 -18328592.66047  21644391.2964   21644395.9934
       423.9814        330.3764
  23625199.8814  -30118622.75447 -22853945.61445  23625197.4554   23625202.7684
     -1936.5454      -1508.9964
  21372524.5724  -23647496.37649 -17372914.83247  21372522.0744   21372527.3524
      3510.0774       2735.1244
  21879481.6064  -31235899.20648 -23968083.66947  21879479.7194   21879482.5674
     -1422.7064      -1108.6034
  24256609.4904   -4770589.28047  -3529053.06245  24256607.8604   24256612.5604
      1010.9224        787.7314
  21060508.4484  -33345213.96649 -25623770.84947  21060505.9974   21060509.5154
      -355.4764       -276.9954
  22486603.9824  -16555403.95048 -12563833.23446  22486601.8684   22486606.0594
      2355.5614       1835.5014
 04 12 10  0 11 30.0000000  0  9G 2G17G 5G 7G10G 4G13G24G30
  20440528.5274  -38894111.70649 -29955801.45447  20440526.3684   20440527.8124
       826.3764        643.9304
  21675605.8934  -29996731.07448 -23048434.70247  21675604.4254   21675611.3964
      2019.1344       1573.3514
  21642028.0914  -23954499.97149 -18338276.29347  21642026.0854   21642031.0774
       404.8124        315.4384
  23636275.6474  -30060408.72847 -22808584.06345  23636273.7494   23636281.4814
     -1944.0594      -1514.8464
  21352528.5244  -23752574.66749 -17454793.98847  21352526.3184   21352532.0134
      3495.4344       2723.7144
  21887614.1314  -31193158.18148 -23934778.96247  21887612.9534   21887616.6634
     -1426.3104      -1111.4094
  24250889.7104   -4800643.29247  -3552471.76145  24250888.2484   24250891.8154
       993.0294        773.7884
  21062555.1014  -33334453.78049 -25615386.28047  21062553.5874   21062556.9514
      -361.5544       -281.7314
  22473208.1744  -16625795.86648 -12618684.06646  22473207.1104   22473211.3354
      2337.5224       1821.4444
 04 12 10  0 12  0.0000000  0  9G 2G17G 5G 7G10G 4G13G24G30
  20435849.0534  -38918703.96649 -29974964.25847  20435846.7624   20435848.1644
       815.6154        635.5444
  21664109.2334  -30057150.16748 -23095514.49347  21664107.1674   21664113.4574
      2011.3194       1567.2604
  21639781.2814  -23966305.52049 -18347475.43247  21639779.2694   21639785.2844
       384.7454        299.8014
  23647408.8464  -30001920.52447 -22763008.90845  23647405.0784   23647410.7114
     -1952.5524      -1521.4674
  21332626.0814  -23857165.97149 -17536293.67047  21332623.1654   21332629.2904
      3479.8364       2711.5604
  21895777.5664  -31150263.72648 -23901354.70447  21895775.5494   21895779.5544
     -1430.7284      -1114.8534
  24245282.6244   -4830114.38447  -3575436.25945  24245281.5384   24245283.9384
       974.2474        759.1494
  21064646.5254  -33323464.91849 -25606823.52547  21064644.5634   21064648.2884
      -368.4924       -287.1384
  22459925.5344  -16695598.77348 -12673075.94746  22459924.2174   22459927.3804
      2318.5124       1806.6344
 04 12 10  0 12 30.0000000  0  9G 2G17G 5G 7G10G 4G13G24G30
  20431229.9914  -38942975.89049 -29993877.44347  20431227.9624   20431229.4854
       804.2714        626.7044
  21652655.6574  -30117337.53048 -23142413.71347  21652653.6904   21652659.8914
      2002.9264       1560.7204
  21637649.8124  -23977512.25549 -18356207.96847  21637647.2744   21637652.3914
       364.1524        283.7554
  23658586.1074  -29943181.10647 -22717237.99945  23658583.9934   23658589.0574
     -1961.5434      -1528.4824
  21312811.9014  -23961290.15349 -17617429.35047  21312808.9264   21312814.9394
      3463.5724       2698.8874
  21903964.5774  -31107238.91749 -23867828.87747  21903962.8824   21903967.6134
     -1435.7564      -1118.7694
  24239780.1804   -4859023.48547  -3597962.80045  24239779.4684   24239782.5504
       954.8284        744.0214
  21066775.9744  -33312270.95849 -25598100.95047  21066774.6264   21066778.4994
      -376.0024       -292.9894
  22446749.7894  -16764833.38048 -12727024.99246  22446748.8034   22446752.9824
      2298.9254       1791.3704
 04 12 10  0 13  0.0000000  0  9G 2G17G 5G 7G10G 4G13G24G30
  20426670.8044  -38966935.10349 -30012546.95247  20426668.7054   20426670.2544
       791.5434        616.7864
  21641246.3174  -30177300.48148 -23189138.07447  21641243.6354   21641248.9964
      1993.1164       1553.0764
  21635629.0034  -23988127.82849 -18364479.85447  21635626.7274   21635631.6884
       342.0974        266.5704
  23669811.4544  -29884198.08747 -22671277.22645  23669808.3364   23669812.8884
     -1972.0004      -1536.6254
  21293085.3674  -24064952.11449 -17698204.88047  21293082.8724   21293088.1884
      3445.7744       2685.0184
  21912175.7884  -31064091.82649 -23834207.77347  21912173.6614   21912178.3314
     -1442.1364      -1123.7424
  24234382.9654   -4887376.88147  -3620056.31945  24234382.4514   24234388.8234
       933.9224        727.7294
  21068944.3424  -33300879.43349 -25589224.42247  21068942.3364   21068946.8424
      -384.8764       -299.9034
  22433683.0134  -16833505.06548 -12780535.38146  22433681.4004   22433685.4784
      2277.7734       1774.8864
 04 12 10  0 13 30.0000000  0  9G 2G17G 5G 7G10G 4G13G24G30
  20422177.3424  -38990547.56549 -30030946.25947  20422175.3264   20422176.6934
       781.4654        608.9344
  21629884.6504  -30237004.52748 -23235660.69447  21629882.5614   21629887.9374
      1985.9874       1547.5204
  21633727.7174  -23998118.14249 -18372264.52447  21633725.7974   21633731.1254
       322.7794        251.5164
  23681083.4514  -29824937.29347 -22625100.01345  23681082.8934   23681089.4954
     -1979.7544      -1542.6674
  21273453.9564  -24168114.76349 -17778591.34747  21273451.4214   21273456.6774
      3430.6014       2673.1954
  21920415.7334  -31020788.55148 -23800464.97147  21920413.6394   21920418.1834
     -1445.8374      -1126.6264
  24229100.2004   -4915138.62847  -3641688.81645  24229099.0444   24229104.5254
       915.6744        713.5104
  21071156.2854  -33289256.67349 -25580167.72047  21071154.3084   21071158.9694
      -391.0934       -304.7484
  22420728.4624  -16901577.74848 -12833579.02646  22420727.1404   22420732.1924
      2259.2934       1760.4864
 04 12 10  0 14  0.0000000  0  9G 2G17G 5G 7G10G 4G13G24G30
  20417744.9664  -39013838.50949 -30049095.03647  20417743.0494   20417744.3444
       772.2624        601.7624
  21618568.0104  -30296474.69848 -23282001.07547  21618565.8754   21618570.6244
      1979.6964       1542.6194
  21631941.6064  -24007508.41649 -18379581.63747  21631939.0634   21631944.4064
       304.2904        237.1094
  23692411.4264  -29765424.13247 -22578726.16245  23692408.2284   23692415.2144
     -1986.6264      -1548.0134
  21253913.4424  -24270800.76749 -17858606.37747  21253911.0524   21253916.5864
      3416.1884       2661.9634
  21928679.6474  -30977354.76748 -23766620.47347  21928678.5554   21928683.0544
     -1448.6484      -1128.8164
  24223927.0294   -4942332.31047  -3662878.71045  24223925.2784   24223929.7254
       898.2244        699.9204
  21073407.4944  -33277428.65549 -25570951.08047  21073405.0694   21073410.1524
      -396.4114       -308.8914
  22407884.0164  -16969074.34748 -12886173.74946  22407882.8634   22407888.1434
      2241.5804       1746.6844
 04 12 10  0 14 30.0000000  0  9G 2G17G 5G 7G10G 4G13G24G30
  20413365.7924  -39036853.12949 -30067028.49847  20413363.7324   20413364.7444
       762.4784        594.1384
  21607286.6134  -30355756.10948 -23328194.37447  21607284.7804   21607289.6924
      1972.8184       1537.2604
  21630259.2884  -24016344.36449 -18386466.81047  21630257.3554   21630262.5114
       285.2234        222.2514
  23703773.9114  -29705704.19447 -22532191.19345  23703773.6614   23703778.9644
     -1994.1204      -1553.8694
  21234456.1714  -24373052.93549 -17938283.35247  21234453.2334   21234458.8164
      3401.0874       2650.1964
  21936962.1424  -30933836.09848 -23732709.82347  21936960.2044   21936963.9974
     -1452.0844      -1131.4954
  24218850.8714   -4969002.16847  -3683660.37445  24218849.4874   24218853.4354
       880.1554        685.8384
  21075688.2824  -33265440.84349 -25561609.92547  21075686.0644   21075691.4774
      -402.3254       -313.5004
  22395142.1294  -17036038.38248 -12938353.50546  22395140.7924   22395144.5644
      2223.1654       1732.3354
 04 12 10  0 15  0.0000000  0  9G 2G17G 5G 7G10G 4G13G24G30
  20409050.4844  -39059533.14749 -30084701.22447  20409048.0704   20409049.3384
       748.7794        583.4634
  21596053.3564  -30414790.16848 -23374194.93347  21596051.0574   21596055.8604
      1962.0554       1528.8734
  21628695.2654  -24024568.15749 -18392874.97747  21628692.6934   21628698.0214
       262.2994        204.3894
  23715193.4954  -29645719.45447 -22485449.86945  23715190.3544   23715194.6084
     -2005.5004      -1562.7214
  21215091.4064  -24474810.19749 -18017574.69247  21215089.1454   21215095.1804
      3382.0134       2635.3354
  21945269.7344  -30890174.92248 -23698688.12047  21945268.4084   21945271.8824
     -1459.3274      -1137.1384
  24213885.8044   -4995087.99147  -3703986.99045  24213884.6934   24213890.5134
       858.1444        668.6804
  21078010.4894  -33253235.62149 -25552099.36447  21078008.6844   21078014.3004
      -412.0864       -321.1064
  22382511.6344  -17102409.39848 -12990071.16046  22382510.1574   22382514.6614
      2200.8824       1714.9724
 04 12 10  0 15 30.0000000  0  9G 2G17G 5G 7G10G 4G13G24G30
  20404805.3554  -39081840.83449 -30102083.83147  20404803.1244   20404804.2174
       739.2514        576.0404
  21584874.1824  -30473539.02448 -23419973.25547  21584871.3904   21584876.3074
      1955.4114       1523.6964
  21627253.7234  -24032142.02949 -18398776.70847  21627251.2684   21627256.3854
       243.5094        189.7484
  23726661.2214  -29585432.31247 -22438472.90445  23726660.8644   23726665.7064
     -2012.6994      -1568.3344
  21195830.1304  -24576031.87549 -18096448.68547  21195827.5184   21195833.3254
      3366.9874       2623.6244
  21953612.6424  -30846333.63548 -23664526.06747  21953611.5284   21953614.7304
     -1462.4574      -1139.5774
  24209040.8374   -5020550.98347  -3723828.26345  24209039.8574   24209044.0714
       840.2544        654.7474
  21080381.7954  -33240775.62949 -25542390.28547  21080379.6434   21080385.3654
      -417.7254       -325.4994
  22370001.9454  -17168147.66948 -13041295.75446  22370000.3744   22370005.6634
      2182.6044       1700.7304
 04 12 10  0 16  0.0000000  0  9G 2G17G 5G 7G10G 4G13G24G30
  20400614.6434  -39103859.88949 -30119241.53247  20400612.7454   20400614.1214
       728.5624        567.7114
  21573732.3294  -30532086.03848 -23465594.29047  21573730.1504   21573735.9374
      1947.6194       1517.6264
  21625919.4504  -24039150.24849 -18404237.66747  21625917.5344   21625922.5594
       223.5974        174.2324
  23738173.9104  -29524926.78647 -22391325.79945  23738172.9764   23738180.3504
     -2021.0624      -1574.8524
  21176654.7154  -24676799.37049 -18174968.77047  21176651.9464   21176657.6374
      3350.7284       2610.9554
  21961974.6444  -30802396.21748 -23630289.10447  21961972.6164   21961976.1474
     -1466.7274      -1142.9044
  24204298.8764   -5045473.48047  -3743248.36445  24204297.7984   24204301.4214
       821.1384        639.8384
  21082785.1544  -33228144.99249 -25532548.23147  21082783.3844   21082788.6334
      -424.4624       -330.7514
  22357597.4904  -17233335.04048 -13092091.08546  22357595.7234   22357602.2874
      2163.1474       1685.5684
 04 12 10  0 16 30.0000000  0  9G 2G17G 5G 7G10G 4G13G24G30
  20396480.9134  -39125581.40649 -30136167.38747  20396479.2504   20396480.4934
       718.7224        560.0424
  21562631.3284  -30590421.90448 -23511050.79147  21562628.9754   21562635.3254
      1940.6384       1512.1854
  21624695.3564  -24045584.06849 -18409251.02947  21624693.1044   21624698.5624
       204.5554        159.3934
  23749732.6394  -29464193.67047 -22344001.37745  23749732.2914   23749737.4704
     -2028.5664      -1580.7004
  21157567.4774  -24777101.01549 -18253125.86347  21157565.2164   21157570.5214
      3335.2554       2598.8984
  21970355.0444  -30758354.17848 -23595970.62947  21970353.5074   21970357.4334
     -1470.1494      -1145.5704
  24199661.4944   -5069844.78847  -3762238.98045  24199659.6104   24199665.5424
       802.8174        625.5754
  21085223.2814  -33215335.00049 -25522566.41447  21085221.2504   21085225.9544
      -430.3264       -335.3204
  22345299.8064  -17297960.46048 -13142448.55046  22345298.0414   22345302.1574
      2144.4494       1670.9984
 04 12 10  0 17  0.0000000  0  9G 2G17G 5G 7G10G 4G13G24G30
  20392402.0184  -39147018.70049 -30152871.76447  20392399.9124   20392401.0404
       707.9284        551.6314
  21551568.1574  -30648559.52948 -23556352.81047  21551565.7894   21551572.1054
      1932.6854       1505.9874
  21623578.1674  -24051456.86249 -18413827.24647  21623575.8394   21623580.8654
       184.4974        143.7644
  23761333.4994  -29403246.70147 -22296510.27545  23761330.8084   23761336.1894
     -2036.9364      -1587.2204
  21138567.7864  -24876947.14649 -18330928.01147  21138564.9314   21138570.2324
      3318.6634       2585.9704
  21978753.7194  -30714221.15748 -23561581.26247  21978751.5124   21978756.7414
     -1474.4854      -1148.9494
  24195127.2504   -5093676.99547  -3780809.51745  24195125.4614   24195127.4654
       783.5044        610.5274
  21087692.8974  -33202359.20449 -25512455.39647  21087690.6644   21087694.9714
      -437.2144       -340.6874
  22333106.5094  -17362035.32248 -13192377.00946  22333105.0624   22333108.9994
      2124.7604       1655.6574
 04 12 10  0 17 30.0000000  0  9G 2G17G 5G 7G10G 4G13G24G30
  20388393.3504  -39168086.30649 -30169288.07247  20388391.0954   20388392.1404
       698.4904        544.2774
  21540558.0454  -30706413.74848 -23601434.00047  21540555.9004   21540562.5364
      1926.1234       1500.8744
  21622582.3764  -24056683.83049 -18417900.22847  21622580.6514   21622586.2574
       165.8654        129.2474
  23772986.1724  -29342000.99647 -22248786.33345  23772983.9124   23772989.3034
     -2044.0604      -1592.7774
  21119670.7454  -24976250.26449 -18408307.02147  21119668.0644   21119673.4874
      3303.4414       2574.1094
  21987184.7754  -30669912.36348 -23527054.94247  21987183.0934   21987187.9914
     -1477.4514      -1151.2604
  24190708.9704   -5116883.62447  -3798892.56945  24190708.5514   24190713.9024
       765.4894        596.4864
  21090209.5074  -33189133.21849 -25502149.42247  21090207.3324   21090211.5164
      -442.6474       -344.9194
  22321034.5874  -17425472.42948 -13241808.51546  22321032.7044   22321036.9554
      2106.3364       1641.3014
 04 12 10  0 18  0.0000000  0  9G 2G17G 5G 7G10G 4G13G24G30
  20384427.4824  -39188923.95949 -30185525.20147  20384425.7424   20384427.0904
       689.6164        537.3634
  21529576.7844  -30764123.52748 -23646402.63947  21529574.2594   21529580.9344
      1920.1294       1496.2044
  21621684.8134  -24061404.88949 -18421578.99347  21621682.6544   21621688.1144
       147.8084        115.1744
  23784669.4384  -29280595.96147 -22200938.26045  23784668.7744   23784673.7974
     -2050.5714      -1597.8524
  21100851.3184  -25075146.98449 -18485369.35847  21100848.6524   21100854.3354
      3288.6364       2562.5714
  21995623.5314  -30625567.35748 -23492500.40147  21995622.0144   21995626.9944
     -1479.8744      -1153.1494
  24186385.0034   -5139602.50647  -3816595.59045  24186385.4154   24186390.7644
       748.0134        582.8674
  21092746.7114  -33175796.67549 -25491757.30247  21092744.8774   21092749.4764
      -447.5124       -348.7114
  22309058.2544  -17488409.29948 -13290850.21946  22309056.8364   22309061.7304
      2088.4284       1627.3484
 04 12 10  0 18 30.0000000  0  9G 2G17G 5G 7G10G 4G13G24G30
  20380524.1364  -39209438.73649 -30201510.73847  20380521.8654   20380522.8804
       679.0234        529.1084
  21518640.3344  -30821595.77048 -23691186.19247  21518637.5934   21518644.6034
      1912.3784       1490.1644
  21620900.1244  -24065527.38749 -18424791.34247  21620898.0364   21620903.3334
       128.0464         99.7774
  23796404.8784  -29218938.80247 -22152893.80445  23796403.0224   23796408.6364
     -2058.7854      -1604.2494
  21082127.8094  -25173541.78249 -18562040.59247  21082125.1924   21082130.6844
      3272.0394       2549.6394
  22004086.1204  -30581093.30748 -23457845.31047  22004084.8934   22004089.0934
     -1483.9794      -1156.3464
  24182174.1884   -5161739.55947  -3833845.22545  24182173.1634   24182177.1504
       728.7664        567.8754
  21095323.5324  -33162256.90649 -25481206.82847  21095321.3114   21095326.0374
      -454.1074       -353.8514
  22297195.6204  -17550751.14048 -13339428.27146  22297193.6194   22297197.3804
      2068.7684       1612.0284
 04 12 10  0 19  0.0000000  0  9G 2G17G 5G 7G10G 4G13G24G30
  20376672.5274  -39229677.76349 -30217281.40647  20376670.5394   20376671.5564
       668.0924        520.5914
  21507739.5434  -30878877.34748 -23735821.16447  21507737.3434   21507743.6634
      1904.2894       1483.8614
  21620220.4614  -24069099.20049 -18427574.58647  21620218.4634   21620223.6774
       107.9794         84.1414
  23808176.5074  -29157077.14147 -22104689.98545  23808174.7774   23808179.5584
     -2067.2924      -1610.8764
  21063489.9724  -25271479.35749 -18638355.55247  21063487.7934   21063494.0194
      3255.0194       2536.3784
  22012565.6764  -30536538.05848 -23423126.93047  22012563.9144   22012566.8654
     -1488.3894      -1159.7864
  24178065.4414   -5183340.81847  -3850677.38445  24178063.0304   24178065.7154
       709.1934        552.6274
  21097929.9244  -33148561.53449 -25470535.09747  21097927.4624   21097932.0334
      -461.0284       -359.2434
  22285436.9264  -17612543.17548 -13387577.90946  22285435.1834   22285438.7674
      2048.6474       1596.3494
 04 12 10  0 19 30.0000000  0  9G 2G17G 5G 7G10G 4G13G24G30
  20372900.0774  -39249503.28049 -30232729.86147  20372898.0784   20372899.0254
       657.3564        512.2264
  21496902.2004  -30935830.15649 -23780199.96647  21496900.0504   21496905.3914
      1896.3504       1477.6744
  21619671.9504  -24071982.98349 -18429821.70847  21619669.6854   21619674.8434
        88.0794         68.6334
  23820015.1194  -29094873.41247 -22056219.56445  23820010.9424   23820016.5644
     -2075.7054      -1617.4334
  21044967.1254  -25368819.33649 -18714204.85147  21044964.5894   21044970.4134
      3238.0934       2523.1884
  22021085.7174  -30491764.06248 -23388238.09247  22021083.9084   22021086.9974
     -1492.6504      -1163.1044
  24174079.8714   -5204267.31847  -3866983.70045  24174078.9764   24174084.5424
       689.6894        537.4234
  21100591.3764  -33134573.00349 -25459634.93247  21100589.3854   21100594.0044
      -467.7414       -364.4734
  22273809.2064  -17673646.07748 -13435190.55646  22273807.6844   22273811.5154
      2028.7144       1580.8154
 04 12 10  0 20  0.0000000  0  9G 2G17G 5G 7G10G 4G13G24G30
  20369181.4604  -39269046.62249 -30247958.42447  20369179.1124   20369180.2084
       645.5614        503.0364
  21486102.9134  -30992585.69949 -23824425.05447  21486100.3544   21486105.4724
      1887.3994       1470.7014
  21619229.0914  -24074310.51449 -18431635.37947  21619226.7864   21619232.0794
        67.1904         52.3574
  23831889.1854  -29032459.46447 -22007585.32945  23831888.4554   23831891.6984
     -2085.1144      -1624.7594
  21026532.9794  -25465690.52949 -18789688.86547  21026530.4334   21026535.5234
      3220.0664       2509.1424
  22029621.5414  -30446902.99048 -23353281.39847  22029620.6924   22029623.7264
     -1497.9124      -1167.2034
  24170202.7514   -5224649.15947  -3882865.65245  24170200.5924   24170205.2184
       669.1494        521.4134
  21103283.9134  -33120423.14549 -25448609.05947  21103282.0234   21103286.5344
      -475.4814       -370.5054
  22262287.6144  -17734189.18848 -13482367.00146  22262286.2174   22262290.9134
      2007.6374       1564.3934
 04 12 10  0 20 30.0000000  0  9G 2G17G 5G 7G10G 4G13G24G30
  20365513.9254  -39288315.18349 -30262972.87947  20365512.0264   20365513.5464
       639.5914        498.3814
  21475339.5814  -31049150.61449 -23868501.59947  21475336.6864   21475341.6764
      1884.2204       1468.2234
  21618890.2784  -24076089.53049 -18433021.63747  21618888.4634   21618893.6214
        52.0874         40.5884
  23843806.0884  -28969842.56347 -21958792.95245  23843804.4794   23843811.1714
     -2088.6434      -1627.5094
  21008187.3784  -25562097.84449 -18864811.41447  21008184.5704   21008189.9024
      3207.7244       2499.5254
  22038173.8064  -30401962.45048 -23318262.78647  22038172.2194   22038176.3614
     -1497.3864      -1166.7944
  24166427.8304   -5244492.29847  -3898327.83045  24166426.0824   24166429.2334
       654.3954        509.9144
  21106005.7844  -33106119.65049 -25437463.46747  21106003.7844   21106008.5784
      -477.4414       -372.0324
  22250872.1444  -17794178.17548 -13529111.64946  22250870.7014   22250875.6364
      1992.2944       1552.4364
 04 12 10  0 21  0.0000000  0  9G 2G17G 5G 7G10G 4G13G24G30
  20361890.6554  -39307356.03749 -30277809.90047  20361888.9164   20361890.0634
       631.5654        492.1274
  21464601.9454  -31105571.93549 -23912466.25447  21464599.7604   21464604.8364
      1878.9994       1464.1554
  21618647.8484  -24077367.82549 -18434017.73047  21618645.2704   21618650.3034
        34.9254         27.2164
  23855749.9054  -28907070.29247 -21909879.55945  23855747.3084   23855755.8664
     -2094.3204      -1631.9284
  20989922.1544  -25658085.99049 -18939607.34647  20989919.4394   20989924.3694
      3193.2784       2488.2694
  22046731.7094  -30356989.78948 -23283219.15547  22046730.2344   22046734.9644
     -1498.9194      -1167.9894
  24162744.7474   -5263842.91747  -3913406.25845  24162744.1804   24162745.6274
       637.5414        496.7774
  21108747.4674  -33091710.30449 -25426235.40047  21108745.9354   21108750.6324
      -481.3994       -375.1164
  22239553.7464  -17853658.32248 -13575459.81146  22239552.2524   22239556.7334
      1974.8524       1538.8454
 04 12 10  0 21 30.0000000  0  9G 2G17G 5G 7G10G 4G13G24G30
  20358318.1344  -39326132.72849 -30292441.08047  20358315.7094   20358317.0624
       619.0984        482.4134
  21453899.5254  -31161813.18949 -23956290.59347  21453897.1454   21453902.1454
      1869.2974       1456.5944
  21618506.5544  -24078109.36549 -18434595.56747  21618504.2924   21618508.8344
        13.4034         10.4454
  23867731.6734  -28844106.43047 -21860816.88145  23867729.4004   23867735.5584
     -2104.4244      -1639.8154
  20971743.3284  -25753615.89649 -19014046.21147  20971740.3624   20971745.7804
      3174.2924       2473.4734
  22055301.9834  -30311948.82548 -23248122.31347  22055300.7464   22055306.0264
     -1504.8494      -1172.6094
  24159162.6244   -5282663.35247  -3928071.50345  24159160.2574   24159166.7904
       616.0764        480.0724
  21111516.8224  -33077158.58349 -25414896.39047  21111515.2264   21111520.0254
      -489.7874       -381.6524
  22228339.6114  -17912591.45648 -13621381.71646  22228337.8914   22228342.6444
      1952.9274       1521.7594
 04 12 10  0 22  0.0000000  0  9G 2G17G 5G 7G10G 4G13G24G30
  20354785.5154  -39344693.04749 -30306903.66247  20354783.8554   20354785.3874
       615.9214        479.9384
  21443222.9334  -31217921.57949 -24000011.40347  21443220.0224   21443225.0284
      1868.9024       1456.2864
  21618458.5044  -24078362.28049 -18434792.65747  21618455.9434   21618461.4064
         1.1594           .9054
  23879745.7614  -28780998.92547 -21811642.26745  23879741.5544   23879744.8734
     -2105.0814      -1640.3244
  20953643.0404  -25848732.90649 -19088163.33947  20953640.3124   20953646.1244
      3164.5024       2465.8454
  22063877.6334  -30266887.57948 -23213009.66347  22063876.3214   22063881.0714
     -1501.4974      -1169.9984
  24155674.5014   -5301000.15647  -3942359.90745  24155672.1434   24155675.5984
       604.0174        470.6674
  21114304.8394  -33062512.54949 -25403483.88747  21114302.3634   21114307.3564
      -488.9134       -380.9724
  22217220.6854  -17971023.61548 -13666913.25946  22217218.6794   22217223.1794
      1940.2384       1511.8754
 04 12 10  0 22 30.0000000  0  9G 2G17G 5G 7G10G 4G13G24G30
  20351302.5924  -39362997.47549 -30321166.84447  20351300.6734   20351302.3664
       605.7264        471.9944
  21432577.9154  -31273857.27649 -24043597.65247  21432575.5444   21432581.1214
      1861.4764       1450.5014
  21618511.0264  -24078087.97049 -18434578.92847  21618508.4354   21618513.1534
       -18.0444        -14.0604
  23891784.3354  -28717708.67747 -21762325.17045  23891784.5974   23891787.5444
     -2112.8604      -1646.3874
  20935628.2694  -25943395.03949 -19161926.00747  20935625.9124   20935632.4384
      3147.6744       2452.7314
  22072464.7764  -30221767.01048 -23177850.78447  22072462.6984   22072466.8874
     -1505.0964      -1172.8014
  24152285.6884   -5318812.87647  -3956239.94345  24152283.6844   24152287.1974
       584.9194        455.7824
  21117116.6154  -33047733.32549 -25391967.60147  21117114.6054   21117119.8324
      -494.9944       -385.7104
  22206203.4124  -18028913.69848 -13712022.40846  22206202.4784   22206207.1544
      1920.5264       1496.5114
 04 12 10  0 23  0.0000000  0  9G 2G17G 5G 7G10G 4G13G24G30
  20347870.7154  -39381033.81849 -30335221.13347  20347868.5164   20347870.3434
       595.9274        464.3594
  21421968.5324  -31329607.99549 -24087039.75047  21421966.1844   21421972.0504
      1854.4684       1445.0384
  21618665.0054  -24077274.88549 -18433945.36947  21618662.6624   21618667.7134
       -36.8754        -28.7334
  23903865.5704  -28654223.63847 -21712856.29845  23903863.1414   23903870.2124
     -2120.0824      -1652.0244
  20917704.5184  -26037587.58349 -19235322.76247  20917701.7194   20917707.6854
      3131.0974       2439.8164
  22081064.4544  -30176574.65248 -23142635.96147  22081062.5254   22081066.2964
     -1508.3554      -1175.3424
  24148997.6584   -5336087.95647  -3969701.03345  24148994.7904   24148999.8394
       566.0384        441.0684
  21119956.2404  -33032808.89049 -25380338.16647  21119954.5764   21119960.0074
      -500.7014       -390.1584
  22195293.5314  -18086247.73648 -13756698.26846  22195291.7994   22195296.6224
      1901.0724       1481.3534
 04 12 10  0 23 29.9990000  0  9G 2G17G 5G 7G10G 4G13G24G30
  20344488.9934  -39398802.63849 -30349066.96147  20344486.9854   20344488.6264
       588.5234        458.5904
  21411395.1984  -31385172.64749 -24130336.85747  21411392.6984   21411398.5664
      1849.8024       1441.4044
  21618922.2504  -24075924.53049 -18432893.16247  21618919.9604   21618925.2144
       -53.2974        -41.5294
  23915982.8364  -28590547.34247 -21663238.48745  23915980.4784   23915986.5994
     -2125.1094      -1655.9194
  20899871.2494  -26131306.21749 -19308350.26947  20899868.6144   20899873.4424
      3116.8474       2428.7124
  22089676.6634  -30131313.47348 -23107367.50246  22089675.0414   22089677.7124
     -1509.1904      -1175.9924
  24145810.8464   -5352825.01447  -3982742.89045  24145809.9224   24145813.2294
       549.5514        428.2174
  21122823.9274  -33017741.24249 -25368597.13647  21122821.8524   21122826.9734
      -503.9834       -392.7144
  22184489.0874  -18143023.16348 -13800938.84746  22184487.5704   22184492.3134
      1883.9954       1468.0474
 04 12 10  0 23 59.9990000  0  9G 2G17G 5G 7G10G 4G13G24G30
  20341154.1884  -39416327.71649 -30362722.86947  20341152.0534   20341153.6664
       580.3504        452.2214
  21400852.1904  -31440577.41149 -24173509.39047  21400849.6214   21400855.1944
      1844.3954       1437.1914
  21619277.1244  -24074060.03249 -18431440.32747  21619274.5974   21619279.7774
       -70.4354        -54.8834
  23928134.7394  -28526698.74847 -21613486.40745  23928131.6764   23928138.1484
     -2130.8084      -1660.3734
  20882121.5834  -26224577.64449 -19381029.30947  20882119.3774   20882124.0844
      3101.7884       2416.9774
  22098298.4234  -30086003.61548 -23072061.10246  22098296.7634   22098300.6184
     -1510.7884      -1177.2364
  24142722.7674   -5369047.12147  -3995383.49745  24142722.5974   24142726.8204
       532.4154        414.8724
  21125714.3614  -33002552.39549 -25356761.66547  21125712.0964   21125717.1324
      -508.0434       -395.8774
  22173786.4774  -18199264.97048 -13844763.63146  22173785.2664   22173790.1294
      1866.0964       1454.1024
 04 12 10  0 24 29.9990000  0  9G 2G17G 5G 7G10G 4G13G24G30
  20337868.2474  -39433595.00849 -30376177.90647  20337866.2224   20337867.9384
       570.3624        444.4394
  21390341.6024  -31495806.89649 -24216545.34147  21390339.8124   21390345.4224
      1837.1794       1431.5684
  21619732.1094  -24071669.20549 -18429577.36647  21619729.8924   21619734.5644
       -89.3454        -69.6184
  23940319.5744  -28462666.98747 -21563591.52445  23940317.0844   23940321.3544
     -2138.2254      -1666.1524
  20864461.8084  -26317383.06349 -19453345.20447  20864459.3104   20864463.9214
      3084.8574       2403.7844
  22106931.4104  -30040633.42348 -23036707.70146  22106930.0054   22106935.1374
     -1514.1764      -1179.8774
  24139739.7834   -5384739.34647  -4007611.18945  24139737.9904   24139740.9944
       513.4364        400.0784
  21128629.8284  -32987229.69749 -25344821.89447  21128627.8524   21128632.8894
      -513.8644       -400.4134
  22163189.2124  -18254956.36448 -13888159.51346  22163187.5444   22163191.8314
      1846.3464       1438.7104
 04 12 10  0 24 59.9990000  0  9G 2G17G 5G 7G10G 4G13G24G30
  20334646.5154  -39450523.80349 -30389369.17347  20334644.8754   20334646.6654
       558.9144        435.5174
  21379881.1484  -31550779.75149 -24259381.31547  21379878.5904   21379884.2674
      1828.4184       1424.7404
  21620302.7484  -24068671.65949 -18427241.62747  21620300.2964   21620305.5054
      -109.7254        -85.5004
  23952551.1114  -28398371.26247 -21513490.96245  23952549.4844   23952558.6664
     -2147.2344      -1673.1634
  20846904.8384  -26409638.83149 -19525232.79547  20846902.6514   20846908.3684
      3066.3054       2389.3274
  22115593.6914  -29995122.06448 -23001244.30646  22115591.7994   22115595.9034
     -1519.0504      -1183.6754
  24136867.8814   -5399819.05047  -4019361.60345  24136867.0154   24136872.0234
       492.7504        383.9604
  21131585.4874  -32971692.75249 -25332715.17647  21131584.0564   21131589.2904
      -521.1644       -406.1024
  22152711.1534  -18310014.72548 -13931062.12946  22152710.0924   22152715.4384
      1825.0304       1422.1054
 04 12 10  0 25 29.9990000  0  9G 2G17G 5G 7G10G 4G13G24G30
  20331477.2134  -39467178.55249 -30402346.89147  20331475.4794   20331477.4684
       551.3884        429.6524
  21369456.1894  -31605560.64149 -24302067.70447  21369454.2584   21369460.2184
      1823.6024       1420.9894
  21620975.8614  -24065132.89749 -18424484.16947  21620973.5494   21620978.6264
      -126.1594        -98.3054
  23964830.8734  -28333876.50246 -21463235.35445  23964823.4644   23964828.7834
     -2152.1784      -1677.0194
  20829442.1054  -26501407.33249 -19596740.66347  20829439.5454   20829445.8384
      3051.6094       2377.8764
  22124267.9804  -29949534.46348 -22965721.50647  22124266.8734   22124271.4694
     -1519.9984      -1184.4154
  24134104.5644   -5414350.80247  -4030685.02045  24134102.5014   24134106.6214
       476.1304        371.0084
  21134571.0164  -32956006.17149 -25320491.86247  21134569.3224   21134574.1754
      -524.5614       -408.7494
  22142342.2394  -18364503.15548 -13973520.65346  22142341.3184   22142345.4684
      1807.5984       1408.5204
 04 12 10  0 25 59.9990000  0  9G 2G17G 5G 7G10G 4G13G24G30
  20328354.7854  -39483590.02849 -30415135.04347  20328352.5974   20328354.6074
       543.3584        423.3954
  21359062.6544  -31660179.58249 -24344627.89647  21359060.8404   21359066.7004
      1818.2854       1416.8444
  21621745.9054  -24061083.88349 -18421329.11147  21621743.9384   21621749.0104
      -143.0664       -111.4804
  23977130.9384  -28269213.82246 -21412848.92145  23977129.2714   23977134.4144
     -2157.8324      -1681.4264
  20812067.2614  -26592716.88049 -19667890.91447  20812064.5654   20812070.4354
      3036.3674       2365.9984
  22132952.3844  -29903901.42048 -22930163.29747  22132950.5794   22132954.8544
     -1521.4664      -1185.5584
  24131437.6014   -5428364.17847  -4041604.55645  24131436.8164   24131438.9224
       458.9294        357.6044
  21137578.8104  -32940200.82449 -25308175.99947  21137576.7354   21137581.7964
      -528.4444       -411.7754
  22132077.4774  -18418450.72048 -14015557.72146  22132075.7554   22132078.3794
      1789.6364       1394.5204
 04 12 10  0 26 29.9990000  0  9G 2G17G 5G 7G10G 4G13G24G30
  20325280.9964  -39499742.28149 -30427721.20247  20325279.0364   20325281.0244
       533.1784        415.4624
  21348703.9704  -31714620.56549 -24387049.41847  21348701.1754   21348706.7014
      1810.8334       1411.0384
  21622616.2954  -24056509.90649 -18417764.99447  21622614.4314   21622619.4304
      -162.0824       -126.2964
  23989471.0854  -28204367.67147 -21362319.44545  23989469.1864   23989474.1134
     -2165.4784      -1687.3904
  20794782.6504  -26683549.16349 -19738669.27047  20794780.0624   20794785.8424
      3018.8774       2352.3714
  22141647.2494  -29858207.20448 -22894557.41847  22141645.8524   22141650.3004
     -1525.0384      -1188.3414
  24128872.3124   -5441841.97947  -4052106.72245  24128870.5414   24128876.0234
       439.4354        342.4164
  21140612.0294  -32924261.44049 -25295755.69647  21140610.2164   21140615.0094
      -534.4554       -416.4594
  22121917.2144  -18471840.09048 -14057159.82446  22121915.8674   22121919.8004
      1769.4584       1378.7964
 04 12 10  0 26 59.9990000  0  9G 2G17G 5G 7G10G 4G13G24G30
  20322259.3884  -39515623.04049 -30440095.80247  20322257.1404   20322259.0414
       525.3194        409.3394
  21338379.2294  -31768871.04549 -24429322.50247  21338377.5774   21338383.0134
      1805.6824       1407.0254
  21623589.4044  -24051399.24949 -18413782.68547  21623587.2164   21623592.1464
      -178.7974       -139.3224
  24001850.5534  -28139325.88947 -21311637.55345  24001847.1444   24001851.7474
     -2170.7974      -1691.5364
  20777591.8594  -26773889.64449 -19809064.42047  20777589.0624   20777594.4494
      3003.6304       2340.4904
  22150355.9054  -29812439.53948 -22858894.30647  22150354.7664   22150359.5064
     -1526.3144      -1189.3344
  24126412.7484   -5454771.10447  -4062181.36445  24126410.7234   24126415.1474
       422.3284        329.0874
  21143673.6404  -32908175.66749 -25283221.32447  21143671.4274   21143676.2474
      -538.1194       -419.3144
  22111866.1344  -18524657.34548 -14098316.11946  22111865.3534   22111869.1614
      1751.5204       1364.8234
 04 12 10  0 27 29.9990000  0  9G 2G17G 5G 7G10G 4G13G24G30
  20319291.0364  -39531221.77649 -30452250.65347  20319288.7514   20319290.4674
       516.7074        402.6294
  21328094.8124  -31822920.29949 -24471438.79547  21328092.3624   21328097.3864
      1799.7354       1402.3924
  21624666.4694  -24045742.37049 -18409374.74647  21624663.7754   21624668.2054
      -196.2244       -152.9014
  24014258.6844  -28074078.76547 -21260795.62045  24014261.3404   24014267.2424
     -2176.8044      -1696.2174
  20760495.4894  -26863725.74049 -19879066.54547  20760493.0444   20760498.6164
      2987.5444       2327.9544
  22159080.4944  -29766588.41848 -22823166.16046  22159079.2594   22159083.9164
     -1528.3004      -1190.8854
  24124059.6474   -5467140.82047  -4071820.09845  24124057.5094   24124061.5234
       404.4394        315.1474
  21146764.2244  -32891933.47949 -25270565.06847  21146762.4264   21146766.9054
      -542.5814       -422.7914
  22101927.8994  -18576890.73848 -14139017.46846  22101926.0294   22101928.6984
      1732.8204       1350.2504
 04 12 10  0 27 59.9990000  0  8G 2G17G 5G10G 4G13G24G30
  20316374.3084  -39546547.68749 -30464192.90047  20316372.4064   20316374.1694
       505.4904        393.8874
  21317845.8844  -31876777.33649 -24513405.30747  21317843.9224   21317848.9194
      1791.2004       1395.7404
  21625844.2494  -24039549.47449 -18404549.13547  21625842.2964   21625846.6524
      -216.2144       -168.4794
  20743493.7744  -26953064.41849 -19948681.07247  20743491.5624   20743497.9594
      2968.8104       2313.3574
  22167820.5714  -29720663.18948 -22787380.27746  22167818.4154   22167822.9564
     -1532.8484      -1194.4284
  24121809.1454   -5478959.15047  -4081029.17445  24121808.0214   24121811.1104
       383.9314        299.1644
  21149883.0784  -32875544.57749 -25257794.49147  21149881.0794   21149885.8674
      -549.5734       -428.2394
  22092098.1464  -18628548.08248 -14179269.95146  22092096.3254   22092098.9754
      1711.5134       1333.6484
 04 12 10  0 28 29.9990000  0  8G 2G17G 5G10G 4G13G24G30
  20313514.0134  -39561580.23849 -30475906.56947  20313511.9404   20313513.8574
       496.1124        386.5824
  21307638.7314  -31930421.48749 -24555205.92347  21307635.7094   21307640.7414
      1784.5244       1390.5374
  21627128.0294  -24032800.72949 -18399290.38647  21627126.1224   21627131.3494
      -234.2614       -182.5404
  20726593.0994  -27041882.80249 -20017890.17647  20726590.5254   20726596.2614
      2951.8464       2300.1404
  22176578.6334  -29674643.36848 -22751520.67346  22176576.7024   22176579.8244
     -1535.5854      -1196.5614
  24119670.6204   -5490204.83447  -4089792.03945  24119667.8534   24119673.0094
       365.1814        284.5564
  21153033.7444  -32858988.54449 -25244893.68447  21153031.9444   21153036.8164
      -554.7204       -432.2494
  22082380.2874  -18679607.29448 -14219056.35546  22082379.3324   22082382.5244
      1691.9684       1318.4174
 04 12 10  0 28 59.9990000  0  8G 2G17G 5G10G 4G13G24G30
  20310710.3694  -39576313.16749 -30487386.77847  20310708.1804   20310710.1204
       486.1394        378.8094
  21297471.3224  -31983845.93249 -24596835.34247  21297469.1454   21297473.9894
      1777.1914       1384.8234
  21628519.5744  -24025490.74849 -18393594.32147  21628517.0484   21628522.2254
      -252.9784       -197.1244
  20709792.6584  -27130172.47349 -20086687.31147  20709790.0604   20709795.0964
      2934.2254       2286.4094
  22185354.4704  -29628522.75248 -22715582.51746  22185353.5114   22185357.4604
     -1538.9574      -1199.1884
  24117640.2424   -5500870.62047  -4098103.04645  24117638.9024   24117641.5174
       345.9354        269.5504
  21156217.3794  -32842259.12349 -25231857.76847  21156215.3114   21156220.2714
      -560.4824       -436.7394
  22072779.4194  -18730060.71848 -14258370.71146  22072778.5244   22072782.4324
      1671.7594       1302.6704
 04 12 10  0 29 29.9990000  0  8G 2G17G 5G10G 4G13G24G30
  20307962.0114  -39590755.59249 -30498640.61747  20307959.9384   20307961.8124
       475.6984        370.6734
  21287345.1864  -32037059.80649 -24638300.67947  21287342.8774   21287347.7824
      1769.4414       1378.7854
  21630015.0524  -24017629.64049 -18387468.80747  21630012.8134   21630018.1374
      -272.1024       -212.0264
  20693091.5674  -27217940.46349 -20155077.94247  20693088.7084   20693093.4774
      2916.0254       2272.2274
  22194149.7054  -29582310.84748 -22679573.24447  22194147.6744   22194151.4324
     -1542.7494      -1202.1424
  24115719.5724   -5510965.14847  -4105968.91545  24115718.1704   24115721.6374
       326.0624        254.0744
  21159431.4434  -32825365.85849 -25218694.18547  21159429.5414   21159434.8504
      -566.7024       -441.5864
  22063292.7894  -18779916.17148 -14297219.11046  22063291.6024   22063295.3724
      1650.9894       1286.4874
 04 12 10  0 29 59.9990000  0  8G 2G17G 5G10G 4G13G24G30
  20305273.6684  -39604885.47949 -30509650.91147  20305271.3154   20305273.0184
       466.3074        363.3554
  21277263.5024  -32090040.69349 -24679584.47147  21277261.0164   21277266.1374
      1762.6184       1373.4684
  21631619.8394  -24009196.36149 -18380897.44647  21631617.8234   21631623.1174
      -290.0954       -226.0474
  20676493.9324  -27305162.30649 -20223043.00147  20676491.1464   20676496.0664
      2898.8054       2258.8084
  22202964.3364  -29535985.56848 -22643475.61647  22202962.6554   22202967.2524
     -1545.5384      -1204.3164
  24113912.1934   -5520465.38847  -4113371.68645  24113910.4014   24113913.4844
       307.2964        239.4494
  21162681.0304  -32808286.93649 -25205385.93747  21162679.1884   21162684.7404
      -571.8624       -445.6064
  22053924.0374  -18829150.38948 -14335583.43746  22053922.4614   22053926.0744
      1631.3114       1271.1524
 04 12 10  0 30 29.9990000  0  8G 2G17G 5G10G 4G13G24G30
  20302641.6584  -39618714.59649 -30520426.83547  20302639.7644   20302641.5234
       456.7844        355.9344
  21267223.7884  -32142800.02049 -24720695.63247  21267221.6124   21267226.3694
      1755.7584       1368.1234
  21633331.4854  -24000203.69449 -18373890.20047  21633329.0864   21633334.6534
      -308.2564       -240.1984
  20659997.1024  -27391847.72949 -20290590.06847  20659995.0254   20660000.4404
      2881.3714       2245.2244
  22211798.5874  -29489559.02448 -22607299.10046  22211796.5454   22211801.5464
     -1548.4004      -1206.5444
  24112215.5714   -5529382.84847  -4120320.34545  24112213.9254   24112217.4224
       288.3594        224.6934
  21165963.9454  -32791034.36849 -25191942.37947  21165962.2184   21165967.6834
      -577.1374       -449.7174
  22044670.5444  -18877773.78248 -14373471.79546  22044669.1494   22044673.8214
      1611.4254       1255.6554
 04 12 10  0 30 59.9990000  0  8G 2G17G 5G10G 4G13G24G30
  20300063.6604  -39632264.49849 -30530985.19447  20300061.3974   20300063.0994
       446.4444        347.8784
  21257221.2284  -32195359.32249 -24761650.92347  21257219.5804   21257224.3274
      1748.0754       1362.1364
  21635145.1044  -23990673.86549 -18366464.37947  21635142.9124   21635148.1434
      -327.1534       -254.9234
  20643599.6804  -27478016.01349 -20357734.16247  20643597.3404   20643603.2584
      2863.0614       2230.9564
  22220647.4714  -29443052.70048 -22571060.41546  22220646.4494   22220651.2134
     -1552.1194      -1209.4434
  24110623.6634   -5537738.28047  -4126831.06045  24110622.7584   24110627.0944
       268.5524        209.2624
  21169275.7184  -32773629.92549 -25178380.47747  21169274.0834   21169279.3284
      -583.2324       -454.4664
  22035531.0184  -18925806.59048 -14410899.96446  22035529.3034   22035533.4204
      1590.6954       1239.5024
 04 12 10  0 31 29.9990000  0  8G 2G17G 5G10G 4G13G24G30
  20297538.3744  -39645532.71349 -30541324.05547  20297536.2424   20297538.2974
       438.0854        341.3644
  21247258.3614  -32247715.95448 -24802448.28247  21247256.0534   21247260.9124
      1742.3404       1357.6664
  21637061.2914  -23980605.66549 -18358619.05047  21637058.8154   21637064.1744
      -344.0484       -268.0904
  20627301.2284  -27563663.08249 -20424472.11347  20627298.8644   20627304.9614
      2846.6924       2218.2004
  22229513.7764  -29396464.48748 -22534757.92246  22229511.8464   22229516.4954
     -1553.8004      -1210.7554
  24109141.9614   -5545528.59747  -4132901.43845  24109141.1604   24109143.9094
       250.8174        195.4394
  21172617.1654  -32756071.69349 -25164698.74647  21172615.1794   21172620.1764
      -587.2994       -457.6364
  22026502.9534  -18973245.30948 -14447865.19446  22026501.4824   22026506.2954
      1571.8854       1224.8444
 04 12 10  0 31 59.9990000  0  9G 2G17G 5G 7G10G 4G13G24G30
  20295064.4934  -39658535.27349 -30551455.91547  20295062.0574   20295064.0974
       428.1114        333.5934
  21237330.6604  -32299885.45248 -24843099.82847  21237328.4204   21237333.9244
      1735.0134       1351.9584
  21639075.5384  -23970016.03249 -18350367.40547  21639073.7404   21639079.1164
      -362.5134       -282.4764
  24127835.9314      61413.60744     35257.98443
     -2241.6874      -1746.7694
  20611099.6214  -27648802.87449 -20490814.77447  20611097.5024   20611102.8844
      2828.6614       2204.1514
  22238391.8074  -29349810.42848 -22498404.11846  22238390.3174   22238393.7304
     -1557.0614      -1213.2944
  24107765.1264   -5552769.32747  -4138543.54145  24107763.4504   24107767.9784
       231.3464        180.2664
  21175984.8404  -32738375.66449 -25150909.63147  21175983.1394   21175987.5064
      -592.9904       -462.0704
  22017585.8624  -19020104.62748 -14484378.95746  22017584.8824   22017589.2684
      1551.4424       1208.9184
 04 12 10  0 32 29.9990000  0  9G 2G17G 5G 7G10G 4G13G24G30
  20292652.1614  -39671209.49849 -30561331.93247  20292650.2364   20292652.6504
       417.6764        325.4614
  21227451.3104  -32351804.90348 -24883556.53047  21227448.8254   21227453.9894
      1727.1354       1345.8194
  21641201.9604  -23958843.37649 -18341661.45447  21641199.8134   21641205.0034
      -381.4524       -297.2364
  24140651.7784     128796.87344     87764.80943
     -2249.4674      -1752.8084
  20595007.9754  -27733370.08649 -20556711.27747  20595005.6034   20595010.3974
      2810.0224       2189.6274
  22247295.0194  -29303027.82648 -22461950.12546  22247293.3204   22247295.9984
     -1560.8554      -1216.2534
  24106503.4534   -5559396.96047  -4143707.92145  24106502.0754   24106504.7984
       211.3834        164.7174
  21179390.5034  -32720479.44049 -25136964.51347  21179388.5864   21179392.9594
      -599.2194       -466.9234
  22008791.4744  -19066320.55848 -14520391.36546  22008790.0354   22008794.6874
      1530.4824       1192.5834
 04 12 10  0 32 59.9990000  0  8G 2G17G 5G10G 4G13G24G30
  20290292.5074  -39683610.11649 -30570994.74747  20290290.6834   20290292.6244
       408.8634        318.5944
  21217608.1924  -32403528.65648 -24923860.74547  21217606.1114   21217611.1904
      1720.9674       1341.0144
  21643428.5824  -23947143.55349 -18332544.71947  21643426.3794   21643431.6364
      -398.6794       -310.6604
  20579014.2124  -27817417.91249 -20622203.06447  20579011.6644   20579016.5874
      2792.9984       2176.3624
  22256211.9754  -29256171.49548 -22425438.67946  22256209.7564   22256213.2524
     -1562.9554      -1217.8864
  24105348.5714   -5565465.70247  -4148436.81445  24105347.6454   24105351.5104
       193.0764        150.4484
  21182823.3014  -32702437.83849 -25122906.11347  21182821.9204   21182826.6144
      -603.7164       -470.4284
  22000107.8234  -19111946.69148 -14555944.19246  22000106.9254   22000112.2794
      1511.1454       1177.5194
 04 12 10  0 33 29.9990000  0  8G 2G17G 5G10G 4G13G24G30
  20287990.8994  -39695705.11449 -30580419.41847  20287988.8804   20287990.7964
       398.9944        310.9044
  21207808.0604  -32455024.72048 -24963987.53347  21207806.2284   21207811.6234
      1713.6384       1335.3004
  21645761.6294  -23934885.57549 -18322993.06547  21645759.1304   21645764.2264
      -416.9444       -324.8924
  20563125.9854  -27900912.31549 -20687263.60347  20563123.4194   20563128.3974
      2774.8424       2162.2134
  22265147.0524  -29209209.78548 -22388845.14046  22265145.5954   22265150.2004
     -1566.1534      -1220.3794
  24104306.8764   -5570942.94647  -4152704.77945  24104305.1084   24104308.8864
       173.6584        135.3184
  21186290.9444  -32684218.98849 -25108709.59847  21186289.0404   21186293.7274
      -609.3274       -474.8004
  21991545.8164  -19156949.81948 -14591011.57246  21991544.0224   21991548.7574
      1490.6804       1161.5724
 04 12 10  0 33 59.9990000  0  8G 2G17G 5G10G 4G13G24G30
  20285736.2284  -39707556.30149 -30589654.11047  20285733.8964   20285735.7154
       390.5224        304.3034
  21198041.3914  -32506354.50848 -25003984.74347  21198038.6164   21198044.1864
      1707.7904       1330.7454
  21648188.1834  -23922132.45949 -18313055.59447  21648185.8464   21648190.9524
      -433.8194       -338.0404
  20547330.8254  -27983912.71649 -20751939.20547  20547328.7854   20547334.0534
      2757.9814       2149.0754
  22274091.5414  -29162204.16848 -22352217.39246  22274090.2874   22274095.6324
     -1568.0194      -1221.8324
  24103365.7824   -5575890.33147  -4156559.88645  24103363.7854   24103367.6114
       155.6024        121.2464
  21189780.1454  -32665884.75049 -25094423.17047  21189777.9034   21189782.5284
      -613.5274       -478.0734
  21983089.0534  -19201390.60148 -14625640.74146  21983087.3624   21983091.8284
      1471.5354       1146.6514
 04 12 10  0 34 29.9990000  0  9G 2G17G 5G 7G10G 4G13G24G30
  20283536.1584  -39719116.87749 -30598662.35047  20283533.7934   20283535.8824
       381.0964        296.9594
  21188313.8964  -32557471.06148 -25043815.80547  21188311.5984   21188316.9414
      1700.9224       1325.3924
  21650718.1774  -23908838.66349 -18302696.80747  21650715.7314   21650720.9254
      -451.5004       -351.8184
  24192317.2684      54951.36444     35804.44143
     -2275.1704      -1772.8604
  20531638.9284  -28066370.68849 -20816192.12747  20531636.7884   20531642.7444
      2740.1384       2135.1724
  22283052.2304  -29115108.46548 -22315519.46446  22283051.5764   22283057.3034
     -1570.6754      -1223.9034
  24102534.2864   -5580260.44847  -4159965.15745  24102531.9334   24102535.2704
       136.6864        106.5034
  21193299.6434  -32647388.90149 -25080010.81447  21193297.2384   21193302.6394
      -618.6144       -482.0364
  21974747.4484  -19245221.47748 -14659794.67746  21974745.7154   21974751.1164
      1451.4564       1131.0054
 04 12 10  0 34 59.9990000  0  9G 2G17G 5G 7G10G 4G13G24G30
  20281388.8344  -39730398.18149 -30607452.97347  20281387.1564   20281388.9994
       371.0444        289.1254
  21178625.4584  -32608385.82648 -25083489.63047  21178622.9594   21178628.5474
      1693.4364       1319.5614
  21653347.4824  -23895016.65049 -18291926.42847  21653345.7574   21653351.4134
      -469.8604       -366.1244
  24205328.1924     123315.64346     89075.32644  24205325.0184   24205332.8144
     -2282.5324      -1778.5734
  20516049.6974  -28148295.75149 -20880029.79547  20516047.2174   20516052.9644
      2721.5944       2120.7214
  22292031.0474  -29067934.08248 -22278760.22546  22292029.1564   22292033.6744
     -1574.0804      -1226.5564
  24101810.7514   -5584064.52647  -4162929.37645  24101808.6584   24101812.4304
       117.0284         91.1894
  21196847.4384  -32628743.18149 -25065481.68347  21196845.5214   21196851.0284
      -624.3834       -486.5324
  21966520.7174  -19288452.78548 -14693481.40946  21966519.8634   21966524.8114
      1430.7224       1114.8484
 04 12 10  0 35 29.9990000  0  9G 2G17G 5G 7G10G 4G13G24G30
  20279289.4354  -39741429.13449 -30616048.51647  20279287.7194   20279289.9184
       363.2654        283.0644
  21168968.5914  -32659127.14748 -25123028.30847  21168966.9374   21168972.9434
      1688.2014       1315.4794
  21656073.3354  -23880696.51349 -18280767.90247  21656071.0384   21656076.0624
      -485.9034       -378.6254
  24218373.5374     191846.29846    142475.76844  24218363.6914   24218374.4834
     -2287.2754      -1782.3174
  20500556.1124  -28229714.62949 -20943473.03847  20500553.6904   20500559.2674
      2705.2314       2107.9714
  22301017.6544  -29020709.81048 -22241962.09446  22301016.2224   22301020.1434
     -1575.2174      -1227.4414
  24101188.5574   -5587330.95847  -4165474.64445  24101186.9614   24101189.6444
        99.6174         77.6274
  21200418.7174  -32609976.37249 -25050858.19247  21200416.6214   21200422.4124
      -627.8394       -489.2254
  21958403.9484  -19331112.16448 -14726722.48146  21958402.6254   21958407.1514
      1412.1934       1100.4124
 04 12 10  0 35 59.9990000  0  9G 2G17G 5G 7G10G 4G13G24G30
  20277250.5724  -39752147.92349 -30624400.81647  20277248.1554   20277250.0734
       352.9794        275.0484
  21159358.8734  -32709632.78048 -25162383.33047  21159356.4734   21159361.8434
      1680.5074       1309.4864
  21658904.4784  -23865817.60549 -18269173.96647  21658902.2144   21658907.2874
      -504.3564       -393.0054
  24231450.9394     260604.73446    196053.75644  24231450.0444   24231456.4814
     -2294.7964      -1788.1554
  20485171.4724  -28310563.60549 -21006472.21047  20485168.8404   20485173.8524
      2686.3824       2093.2844
  22310026.1524  -28973373.88648 -22205076.96446  22310024.8774   22310027.7194
     -1578.7754      -1230.2164
  24100680.7724   -5589997.34247  -4167552.32245  24100679.0164   24100683.3304
        79.8094         62.1914
  21204023.9574  -32591026.88949 -25036092.35947  21204022.4874   21204028.6174
      -633.7524       -493.8344
  21950407.0864  -19373136.78048 -14759468.93546  21950405.0134   21950409.9854
      1391.1634       1084.0214
 04 12 10  0 36 29.9990000  0  9G 2G17G 5G 7G10G 4G13G24G30
  20275279.6084  -39762502.82549 -30632469.56847  20275277.5374   20275279.5744
       337.8384        263.2514
  21149802.6514  -32759850.72148 -25201514.18147  21149800.2064   21149805.7784
      1667.9294       1299.6844
  21661851.6734  -23850329.39049 -18257105.24847  21661849.4874   21661854.3354
      -527.6784       -411.1764
  24244589.0354     329642.06646    249849.03945  24244587.4384   24244593.1534
     -2307.1904      -1797.8014
  20469905.6594  -28390789.17249 -21068985.62447  20469902.8344   20469907.3114
      2662.5084       2074.6814
  22319065.4314  -28925874.53548 -22168064.46146  22319063.4434   22319066.4844
     -1587.2564      -1236.8264
  24100297.1784   -5592011.44247  -4169121.74945  24100296.1574   24100300.0574
        54.9824         42.8434
  21207675.0424  -32571843.01849 -25021143.89347  21207673.1734   21207678.9194
      -644.6394       -502.3164
  21942539.7404  -19414473.97148 -14791679.73046  21942538.4824   21942543.0194
      1365.2134       1063.8034
 04 12 10  0 36 59.9990000  0  9G 2G17G 5G 7G10G 4G13G24G30
  20273392.2204  -39772421.50049 -30640198.40747  20273390.0804   20273392.0704
       323.9054        252.3944
  21140314.4964  -32809708.81148 -25240364.63047  21140312.4544   21140318.1264
      1656.4664       1290.7534
  21664928.4294  -23834161.09349 -18244506.59347  21664926.4794   21664931.7084
      -549.6734       -428.3174
  24257794.9664     399030.17147    303917.71345  24257792.2434   24257797.5374
     -2318.1804      -1806.3854
  20454771.0594  -28470317.27249 -21130955.54647  20454768.9264   20454773.7664
      2639.8624       2057.0344
  22328148.3854  -28878139.99248 -22130868.70646  22328146.1014   22328150.0454
     -1594.4784      -1242.4494
  24100052.2954   -5593300.85047  -4170126.44945  24100050.7994   24100053.6674
        31.4734         24.5214
  21211384.7314  -32552352.88149 -25005956.77747  21211382.3154   21211387.5984
      -654.1954       -509.7634
  21934818.9194  -19455050.55648 -14823297.84746  21934817.7214   21934821.6874
      1340.4284       1044.4914
 04 12 10  0 37 29.9990000  0  9G 2G17G 5G 7G10G 4G13G24G30
  20271546.4834  -39782118.69549 -30647754.65947  20271544.7634   20271546.6274
       324.0244        252.4864
  21130855.0284  -32859421.41748 -25279101.72247  21130852.5354   21130858.3854
      1659.1524       1292.8444
  21668094.0614  -23817528.66049 -18231546.27247  21668091.6974   21668096.5134
      -557.6004       -434.4924
  24271023.4754     468553.41046    358091.75345  24271020.3864   24271027.5154
     -2315.1124      -1803.9764
  20439729.4424  -28549360.71349 -21192547.79547  20439727.0464   20439732.6304
      2631.1944       2050.2784
  22337234.2744  -28830384.54248 -22093656.67746  22337232.9144   22337238.3734
     -1587.6614      -1237.1404
  24099903.6794   -5594080.13447  -4170733.69845  24099902.5374   24099906.2294
        22.0074         17.1524
  21215110.6754  -32532771.32949 -24990698.42347  21215108.8504   21215113.7954
      -649.7174       -506.2744
  21927201.0794  -19495080.26448 -14854489.82346  21927200.2334   21927204.1744
      1329.7274       1036.1514
 04 12 10  0 37 59.9990000  0  9G 2G17G 5G 7G10G 4G13G24G30
  20269715.4314  -39791744.18149 -30655255.03247  20269713.2074   20269714.8964
       316.3914        246.5384
  21121393.3104  -32909137.90048 -25317841.82547  21121391.7934   21121397.4324
      1654.0744       1288.8884
  21671318.7214  -23800583.02949 -18218341.89347  21671316.2524   21671320.6984
      -573.3154       -446.7394
  24284252.9474     538061.66146    412253.91044  24284250.0034   24284257.3824
     -2319.9844      -1807.7754
  20424751.9964  -28628067.24449 -21253877.52147  20424749.5114   20424755.2634
      2614.6794       2037.4104
  22346297.8584  -28782758.23348 -22056545.29346  22346296.3384   22346302.0744
     -1588.5774      -1237.8514
  24099823.6934   -5594498.71047  -4171059.85745  24099821.7474   24099826.4914
         4.7034          3.6674
  21218825.9904  -32513248.46949 -24975485.80547  21218823.9294   21218828.8294
      -653.0244       -508.8504
  21919659.4994  -19534712.15948 -14885371.81946  21919658.1844   21919663.1054
      1311.2474       1021.7524
 04 12 10  0 38 29.9990000  0 10G 2G17G 5G 6G 7G10G 4G13G24G30
  20267908.5284  -39801240.43349 -30662654.70947  20267906.1734   20267907.8554
       313.7424        244.4734
  21111944.3754  -32958800.79048 -25356540.17147  21111941.2164   21111946.7374
      1653.8604       1288.7224
  21674613.1974  -23783267.85249 -18204849.56747  21674611.0614   21674615.8674
      -583.9494       -455.0244
  24597749.2044   -3828849.26856  -2680275.16745  24597747.1554   24597750.8564
      3998.2614       3115.5274
  24297487.0064     607611.73646    466448.66644  24297485.3294   24297486.9434
     -2319.6674      -1807.5304
  20409849.6754  -28706377.85549 -21314898.74947  20409847.3104   20409853.0344
      2603.0984       2028.3884
  22355347.2434  -28735203.79248 -22019489.90446  22355346.2244   22355351.3314
     -1584.5684      -1234.7274
  24099823.6844   -5594498.80447  -4171059.91845  24099821.3804   24099824.9754
        -7.6704         -5.9744
  21222540.3744  -32493726.77349 -24960274.09147  21222538.8084   21222543.2764
      -651.3304       -507.5294
  21912205.1564  -19573887.77748 -14915898.27146  21912203.7584   21912208.1724
      1297.6124       1011.1254
 04 12 10  0 38 59.9990000  0 10G 2G17G 5G 6G 7G10G 4G13G24G30
  20266169.4574  -39810375.14549 -30669772.65647  20266167.7194   20266169.6264
       300.1564        233.8884
  21102547.2814  -33008177.21448 -25395015.30047  21102544.9084   21102550.4054
      1642.8044       1280.1064
  21678022.0374  -23765352.24149 -18190889.36847  21678020.0754   21678025.5594
      -605.4784       -471.8014
  24574950.7464   -3948657.00547  -2773631.81245  24574949.5964   24574952.5604
      3993.9514       3112.1664
  24310774.2184     677435.49146    520856.88844  24310770.8744   24310775.9654
     -2330.2174      -1815.7604
  20395068.0244  -28784058.27949 -21375428.93447  20395065.5944   20395071.1554
      2580.5464       2010.8144
  22364429.0304  -28687488.41248 -21982309.10446  22364426.7984   22364430.0824
     -1591.4744      -1240.1114
  24099944.8294   -5593847.71247  -4170552.58045  24099945.2124   24099949.7474
       -30.8324        -24.0224
  21226299.2534  -32473973.93249 -24944882.26247  21226297.5004   21226301.9264
      -660.5414       -514.7074
  21904881.3134  -19612373.82348 -14945887.40146  21904879.9094   21904884.2864
      1273.0974        992.0244
 04 12 10  0 39 29.9990000  0 10G 2G17G 5G 6G 7G10G 4G13G24G30
  20264418.0254  -39819577.70849 -30676943.47647  20264416.3394   20264418.3654
       306.1524        238.5604
  21093123.8874  -33057696.42748 -25433601.69147  21093121.2274   21093127.0914
      1651.3064       1286.7314
  21681463.9414  -23747267.09149 -18176797.05947  21681461.4844   21681467.2074
      -607.3484       -473.2574
  24552087.6534   -4068811.06846  -2867258.32145  24552083.8854   24552088.1614
      4009.1884       3124.0334
  24324030.0814     747102.83046    575143.20445  24324028.0454   24324034.7804
     -2321.2684      -1808.7854
  20380325.0104  -28861536.44649 -21435801.51047  20380322.4244   20380327.4654
      2577.5114       2008.4504
  22373457.0384  -28640041.90748 -21945337.80546  22373455.2514   22373458.5644
     -1578.7684      -1230.2084
  24100112.4464   -5592974.84047  -4169872.42545  24100112.0124   24100114.0254
       -34.4964        -26.8764
  21230020.0874  -32454419.98349 -24929645.41247  21230018.2104   21230022.4124
      -650.1794       -506.6344
  21897607.1604  -19650598.95948 -14975673.21946  21897605.6214   21897610.2074
      1268.1224        988.1474
 04 12 10  0 39 59.9990000  0  9G 2G17G 5G 6G10G 4G13G24G30
  20262692.0684  -39828648.71649 -30684011.79247  20262690.4114   20262692.3294
       300.3304        234.0244
  21083710.5844  -33107158.82948 -25472143.80947  21083708.6474   21083714.9804
      1647.9464       1284.1134
  21684975.1904  -23728814.43049 -18162418.39147  21684973.2284   21684978.7364
      -621.0324       -483.9204
  24529194.1014   -4189109.84446  -2960997.55545  24529191.2064   24529197.4934
      4012.5024       3126.6324
  20365658.1564  -28938611.06949 -21495859.63747  20365655.5584   20365660.2174
      2562.5884       1996.8214
  22382471.9954  -28592664.78048 -21908420.56046  22382470.4454   22382473.7214
     -1577.8814      -1229.5194
  24100358.4914   -5591680.52147  -4168863.84945  24100357.2954   24100362.2094
       -50.0214        -38.9744
  21233741.3564  -32434865.34449 -24914408.03347  21233739.0754   21233743.6464
      -651.6754       -507.8004
  21890421.2064  -19688362.96648 -15005099.71946  21890419.8344   21890423.9104
      1251.2894        975.0294
 04 12 10  0 40 29.9990000  0  9G 2G17G 5G 6G10G 4G13G24G30
  20261006.7084  -39837505.29749 -30690913.01547  20261004.9914   20261007.0264
       292.0284        227.5544
  21074326.0374  -33156481.27348 -25510576.87547  21074323.3694   21074329.1384
      1642.1354       1279.5834
  21688572.5224  -23709912.58449 -18147689.71047  21688570.0474   21688575.6334
      -637.1544       -496.4834
  24506291.4644   -4309468.29446  -3054783.33444  24506289.7734   24506292.9114
      4013.3274       3127.2764
  20351083.6074  -29015197.46249 -21555537.32547  20351081.2804   20351086.2244
      2545.1094       1983.2024
  22391489.5974  -28545274.36748 -21871492.96646  22391488.0734   22391491.8414
     -1579.4564      -1230.7464
  24100702.3224   -5589881.63247  -4167462.09445  24100699.5094   24100701.9064
       -68.0134        -53.0034
  21237478.3934  -32415227.20149 -24899105.58447  21237475.9344   21237480.8054
      -655.6234       -510.8754
  21883337.9394  -19725582.39648 -15034101.87646  21883336.7884   21883341.1804
      1231.9424        959.9564
 04 12 10  0 40 59.9990000  0  9G 2G17G 5G 6G10G 4G13G24G30
  20259363.8014  -39846139.44549 -30697640.92047  20259361.8004   20259363.7534
       283.8234        221.1614
  21064967.4654  -33205655.48348 -25548894.43347  21064965.6854   21064971.4424
      1636.3634       1275.0894
  21692256.0464  -23690555.01349 -18132605.92247  21692253.7644   21692259.1164
      -653.0744       -508.8884
  24483375.6534   -4429876.38546  -3148607.77045  24483376.1014   24483379.9194
      4014.2784       3128.0054
  20336604.2464  -29091286.02049 -21614827.08847  20336602.0074   20336607.0924
      2527.6974       1969.6334
  22400510.9734  -28497862.49348 -21834548.64846  22400510.2514   22400514.5314
     -1580.9824      -1231.9364
  24101140.0884   -5587570.52547  -4165661.23645  24101138.9174   24101143.4594
       -85.8514        -66.8914
  21241232.2054  -32395497.74949 -24883731.99147  21241230.4274   21241235.5974
      -659.4464       -513.8534
  21876360.6294  -19762248.44148 -15062672.82946  21876359.4544   21876364.3274
      1212.7184        944.9764
 04 12 10  0 41 29.9990000  0  9G 2G17G 5G 6G10G 4G13G24G30
  20257839.3274  -39854152.42449 -30703884.79447  20257837.0244   20257838.8924
       252.9074        197.0714
  21055714.2854  -33254282.63348 -25586785.71047  21055712.2444   21055717.3624
      1607.9464       1252.9454
  21696101.8594  -23670344.78449 -18116857.71947  21696099.4514   21696104.9154
      -691.6814       -538.9744
  24460532.6034   -4549933.63947  -3242158.85245  24460531.4504   24460534.6374
      3992.2494       3110.8434
  20322295.7894  -29166476.42149 -21673416.98547  20322293.5014   20322298.8194
      2487.5504       1938.3504
  22409614.9274  -28450030.59848 -21797277.05546  22409613.1774   22409616.9404
     -1605.1564      -1250.7704
  24101755.9224   -5584348.13847  -4163150.27945  24101753.2964   24101756.3034
      -126.4294        -98.5054
  21245079.6814  -32375278.65449 -24867976.85547  21245077.9214   21245083.5454
      -685.9604       -534.5134
  21869565.3344  -19797961.70848 -15090501.34846  21869563.7944   21869567.5544
      1170.7734        912.2924
 04 12 10  0 41 59.9990000  0  9G 2G17G 5G 6G10G 4G13G24G30
  20256428.6614  -39861564.62749 -30709660.53047  20256426.4984   20256428.2124
       239.5504        186.6624
  21046561.8164  -33302383.01048 -25624266.52047  21046559.4254   21046564.2414
      1597.0184       1244.4304
  21700105.8154  -23649303.60149 -18100462.01647  21700103.5284   21700108.9244
      -712.7394       -555.3814
  24437748.5564   -4669658.58747  -3335450.97745  24437745.0484   24437752.3794
      3987.7534       3107.3344
  20308154.9724  -29240787.73349 -21731321.87347  20308152.4074   20308158.0454
      2464.8594       1920.6684
  22418792.0454  -28401799.25948 -21759694.20346  22418791.3134   22418794.8074
     -1611.8564      -1255.9924
  24102536.4314   -5580234.88147  -4159945.10445  24102535.9354   24102540.1974
      -149.5154       -116.4994
  21249016.9094  -32354590.19949 -24851855.98947  21249015.0824   21249020.5734
      -694.9704       -541.5344
  21862946.6874  -19832741.99848 -15117602.88446  21862945.2194   21862948.6654
      1146.2834        893.2064
 04 12 10  0 42 29.9990000  0  9G 2G17G 5G 6G10G 4G13G24G30
  20255019.5724  -39868964.36249 -30715426.54947  20255018.2344   20255019.9364
       246.8154        192.3244
  21037396.6494  -33350544.23748 -25661794.74447  21037394.5424   21037399.5244
      1606.7914       1252.0454
  21704156.4304  -23628021.07149 -18083878.25347  21704153.9864   21704159.3464
      -713.0224       -555.6004
  24414917.6404   -4789637.16047  -3428940.73845  24414916.1804   24414919.3824
      4003.9134       3119.9354
  20294069.8824  -29314806.30049 -21788998.65447  20294067.6574   20294072.8864
      2462.7744       1919.0444
  22427935.3654  -28353756.42048 -21722258.23446  22427934.2674   22427937.5344
     -1597.8394      -1245.0684
  24103377.7684   -5575818.79747  -4156503.99845  24103376.0984   24103378.4394
      -151.8964       -118.3684
  21252931.8114  -32334020.77449 -24835827.87647  21252929.9374   21252935.1224
      -683.2584       -532.4094
  21856393.7894  -19867176.85448 -15144435.23846  21856392.5434   21856396.8274
      1142.4854        890.2494
 04 12 10  0 42 59.9990000  0  9G 2G17G 5G 6G10G 4G13G24G30
  20253617.2964  -39876337.28849 -30721171.68147  20253615.1724   20253616.9144
       243.1684        189.4824
  21028223.4124  -33398751.97348 -25699359.21047  21028221.1324   21028226.0634
      1605.5324       1251.0644
  21708254.1274  -23606484.55049 -18067096.56847  21708251.8964   21708257.0954
      -724.2594       -564.3564
  24392041.8864   -4909853.12246  -3522615.46145  24392040.6314   24392044.5994
      4009.0044       3123.9074
  20280044.0254  -29388516.21549 -21846434.93547  20280041.3994   20280046.4474
      2449.6944       1908.8524
  22437045.4864  -28305887.84648 -21684958.06146  22437043.1684   22437046.6014
     -1594.8514      -1242.7414
  24104279.8544   -5571085.23747  -4152815.47745  24104277.0484   24104281.2464
      -165.1914       -128.7174
  21256826.5584  -32313556.19549 -24819881.45747  21256824.3434   21256829.2964
      -682.5604       -531.8654
  21849909.7254  -19901251.31848 -15170986.76146  21849908.3704   21849912.6244
      1127.6834        878.7164
 04 12 10  0 43 29.9990000  0  9G 2G17G 5G 6G10G 4G13G24G30
  20252225.6584  -39883647.92349 -30726868.27847  20252224.0604   20252225.5824
       244.4554        190.4844
  21019047.9304  -33446970.50848 -25736932.08947  21019045.5894   21019050.4074
      1609.2824       1253.9854
  21712406.8624  -23584660.05348 -18050090.48947  21712404.8424   21712409.1904
      -730.4214       -569.1594
  24369125.0004   -5030268.95947  -3616445.99645  24369124.7744   24369128.0924
      4019.0594       3131.7424
  20266082.9954  -29461880.64649 -21903602.01047  20266080.4864   20266085.9034
      2441.5404       1902.4994
  22446125.9554  -28258158.16948 -21647766.11046  22446124.7814   22446129.3004
     -1586.7884      -1236.4584
  24105247.4344   -5565999.39847  -4148852.46945  24105245.3934   24105248.3244
      -173.5824       -135.2594
  21260706.7884  -32293161.28649 -24803989.32947  21260705.2444   21260710.1674
      -676.8244       -527.3954
  21843501.0734  -19934929.46248 -15197229.48846  21843499.5974   21843503.9904
      1117.8504        871.0524
 04 12 10  0 43 59.9990000  0  9G 2G17G 5G 6G10G 4G13G24G30
  20250882.8214  -39890704.53149 -30732366.93547  20250881.0344   20250882.4674
       232.8254        181.4224
  21009907.2664  -33495007.73848 -25774363.68747  21009904.7554   21009908.9044
      1600.0344       1246.7794
  21716651.9414  -23562357.29049 -18032711.73247  21716649.4994   21716653.9004
      -749.5314       -584.0504
  24346214.3444   -5150690.79147  -3710281.16345  24346209.9544   24346214.2964
      4016.0104       3129.3564
  20252224.4114  -29534706.08649 -21960349.08247  20252222.0374   20252227.4604
      2420.3544       1885.9894
  22455218.0414  -28210375.57648 -21610532.93746  22455216.6964   22455221.2114
     -1591.7384      -1240.3164
  24106319.9124   -5560369.66647  -4144465.65045  24106317.3194   24106320.4554
      -194.8974       -151.8724
  21264611.4344  -32272644.15249 -24788001.95747  21264609.4424   21264614.2984
      -684.0904       -533.0584
  21837204.9834  -19968018.85648 -15223013.43846  21837203.2064   21837206.9914
      1095.0314        853.2724
 04 12 10  0 44 29.9990000  0  9G 2G17G 5G 6G10G 4G13G24G30
  20249566.7934  -39897624.54149 -30737759.14547  20249564.3604   20249565.7094
       226.1564        176.2264
  21000777.4384  -33542981.06448 -25811745.48847  21000775.5014   21000779.8814
      1595.8014       1243.4824
  21720962.9844  -23539695.56649 -18015053.26247  21720961.2834   21720967.2194
      -763.5824       -594.9994
  24323269.7934   -5271234.18347  -3804211.02545  24323270.6654   24323274.8184
      4017.8744       3130.8154
  20238446.7144  -29607108.70449 -22016766.69147  20238444.0224   20238449.2244
      2404.1514       1873.3644
  22464300.5594  -28162657.65648 -21573350.15446  22464298.2464   22464300.9954
     -1591.7194      -1240.3024
  24107472.3264   -5554313.30847  -4139746.41345  24107469.8114   24107471.6954
      -211.2204       -164.5914
  21268517.0384  -32252122.38549 -24772010.97347  21268514.5254   21268519.2964
      -686.3394       -534.8104
  21830996.7184  -20000636.49548 -15248429.79346  21830995.6194   21831000.1684
      1077.1824        839.3634
 04 12 10  0 44 59.9990000  0  9G 2G17G 5G 6G10G 4G13G24G30
  20248271.9094  -39904425.86549 -30743058.87447  20248269.9504   20248271.3774
       223.8304        174.4124
  20991657.8444  -33590908.01249 -25849091.15847  20991655.3894   20991659.5744
      1595.8744       1243.5384
  21725340.3194  -23516693.99149 -17997129.98547  21725338.2334   21725344.5194
      -773.2834       -602.5584
  24300308.1814   -5391914.90547  -3898247.89845  24300306.7954   24300310.9444
      4024.0884       3135.6474
  20224746.3034  -29679104.90049 -22072867.61047  20224743.3694   20224748.8234
      2392.1844       1864.0394
  22473364.3064  -28115022.07948 -21536231.51546  22473363.1304   22473366.5214
     -1587.3654      -1236.9094
  24108702.3284   -5547848.36347  -4134708.76545  24108700.8334   24108703.9444
      -223.1974       -173.9194
  21272418.7294  -32231614.27249 -24756030.62647  21272416.4904   21272421.4364
      -684.2874       -533.2114
  21824876.6144  -20032799.93248 -15273492.21546  21824875.3204   21824879.7974
      1063.6404        828.8104
 04 12 10  0 45 29.9990000  0  9G 2G17G 5G 6G10G 4G13G24G30
  20247007.7634  -39911071.94749 -30748237.63147  20247005.4314   20247006.8264
       220.2374        171.6124
  20982553.5384  -33638751.76949 -25886372.00047  20982550.9844   20982555.3704
      1594.7074       1242.6294
  21729789.1304  -23493317.93549 -17978914.91347  21729786.7244   21729792.6354
      -784.0834       -610.9724
  24277328.0324   -5512694.24747  -3992361.64145  24277322.3974   24277326.7554
      4028.9474       3139.4504
  20211130.1084  -29750656.46449 -22128622.06347  20211127.7774   20211132.8924
      2378.9584       1853.7334
  22482421.9534  -28067432.37948 -21499148.63446  22482419.4554   22482423.0644
     -1584.2144      -1234.4554
  24110014.7654   -5540938.30647  -4129324.30745  24110012.9954   24110017.9234
      -236.4324       -184.2314
  21276324.9644  -32211083.02149 -24740032.25447  21276323.2414   21276328.1184
      -683.4244       -532.5384
  21818850.1134  -20064472.02148 -15298171.77446  21818848.4134   21818853.2324
      1048.9104        817.3334
 04 12 10  0 45 59.9990000  0  9G 2G17G 5G 6G10G 4G13G24G30
  20245767.3814  -39917588.22949 -30753315.24847  20245765.3764   20245767.0794
       213.4034        166.2874
  20973460.0144  -33686537.75849 -25923607.83047  20973457.6454   20973462.2484
      1590.2484       1239.1544
  21734303.4124  -23469594.35249 -17960429.03047  21734301.1394   21734307.1304
      -798.2254       -621.9934
  24254318.1104   -5633595.60947  -4086570.47245  24254315.2944   24254319.8014
      4030.4914       3140.6414
  20197594.4244  -29821787.76349 -22184049.03647  20197592.0954   20197596.7704
      2362.3914       1840.8234
  22491463.2434  -28019913.95248 -21462121.29646  22491462.1674   22491465.6194
     -1584.3534      -1234.5604
  24111410.1704   -5533608.62947  -4123612.87845  24111408.9164   24111413.2444
      -252.9734       -197.1274
  21280232.1314  -32190554.21649 -24724035.78147  21280229.9764   21280234.4724
      -685.9034       -534.4704
  21812911.8654  -20095677.79648 -15322487.96946  21812910.4094   21812913.9354
      1030.8004        803.2204
 04 12 10  0 46 29.9990000  0  9G 2G17G 5G 6G10G 4G13G24G30
  20244575.0984  -39923854.43249 -30758197.99847  20244573.1354   20244574.8364
       205.5474        160.1674
  20964400.1954  -33734145.32649 -25960704.62447  20964397.7204   20964402.8684
      1584.8024       1234.9104
  21738907.0014  -23445404.55449 -17941579.86547  21738904.6594   21738910.2114
      -813.2114       -633.6714
  24231310.3124   -5754496.83747  -4180779.17545  24231309.1894   24231312.2324
      4030.8594       3140.9364
  20184161.7974  -29892377.00949 -22239053.63247  20184159.6254   20184164.3784
      2344.7764       1827.0984
  22500515.3614  -27972346.82448 -21425056.00346  22500513.6074   22500517.5584
     -1585.4944      -1235.4494
  24112907.6724   -5525739.58247  -4117481.14445  24112906.6464   24112910.1274
      -270.4354       -210.7274
  21284160.8974  -32169907.65349 -24707947.55147  21284158.9904   21284163.5024
      -689.2914       -537.1104
  21807084.7974  -20126296.48048 -15346346.69046  21807083.4514   21807088.1484
      1011.7184        788.3534
 04 12 10  0 46 59.9990000  0  9G 2G17G 5G 6G10G 4G13G24G30
  20243424.2184  -39929901.97749 -30762910.37347  20243422.3824   20243424.0364
       199.3254        155.3194
  20955368.7094  -33781605.54249 -25997686.60147  20955366.7004   20955371.6754
      1580.9154       1231.8824
  21743592.7874  -23420781.70949 -17922393.25547  21743590.4034   21743595.2274
      -826.5854       -644.0924
  24208299.6934   -5875427.13447  -4275010.58645  24208295.5584   24208300.5654
      4032.8954       3142.5194
  20170826.6384  -29962454.15249 -22293659.17547  20170824.3094   20170829.1764
      2328.7454       1814.6064
  22509569.8604  -27924761.91248 -21387976.88046  22509567.7804   22509573.1114
     -1585.0404      -1235.0954
  24114501.3174   -5517362.32247  -4110953.43245  24114500.5154   24114503.7484
      -286.3044       -223.0894
  21288106.2354  -32149175.01449 -24691792.24747  21288104.5214   21288109.5504
      -691.1014       -538.5204
  21801364.3184  -20156359.26748 -15369772.25446  21801362.8884   21801367.7324
       994.2714        774.7564
 04 12 10  0 47 29.9990000  0  9G 2G17G 5G 6G10G 4G13G24G30
  20242319.5554  -39935707.00849 -30767433.77147  20242317.7264   20242319.4734
       188.2944        146.7234
  20946370.1844  -33828894.39149 -26034535.05047  20946367.7154   20946372.7564
      1572.2814       1225.1534
  21748364.7404  -23395703.52748 -17902851.83147  21748362.1414   21748367.0664
      -844.6384       -658.1594
  24185285.4374   -5996360.40847  -4369244.26945  24185283.5854   24185289.0174
      4029.9614       3140.2304
  20157593.5454  -30031994.09949 -22347846.12247  20157591.2144   20157596.3104
      2307.9054       1798.3684
  22518632.6984  -27877135.45748 -21350865.37646  22518631.2644   22518635.4484
     -1589.3264      -1238.4354
  24116196.5444   -5508453.66547  -4104011.61245  24116196.0104   24116199.5914
      -306.9424       -239.1774
  21292072.9184  -32128332.51349 -24675551.33947  21292071.1564   21292076.0594
      -697.7394       -543.6924
  21795754.0334  -20185841.87148 -15392745.71746  21795752.7634   21795757.3764
       971.9574        757.3694
 04 12 10  0 47 59.9990000  0  9G 2G17G 5G 6G10G 4G13G24G30
  20241275.7264  -39941192.72149 -30771708.35147  20241273.8164   20241275.5794
       176.1324        137.2454
  20937417.6404  -33875934.92649 -26071190.01047  20937415.9774   20937421.4904
      1562.4794       1217.5154
  21753237.3384  -23370095.34248 -17882897.41447  21753235.4554   21753240.1754
      -863.8364       -673.1194
  24162287.3164   -6117217.98347  -4463418.93245  24162284.8504   24162291.1964
      4025.8694       3137.0394
  20144477.8294  -30100918.53849 -22401553.44547  20144475.4094   20144480.5934
      2285.8274       1781.1624
  22527718.3074  -27829390.73848 -21313661.71246  22527716.9564   22527720.3944
     -1594.8444      -1242.7334
  24118007.4744   -5498937.12347  -4096596.11945  24118005.7654   24118010.4894
      -328.7754       -256.1904
  21296074.7464  -32107303.51549 -24659165.11347  21296072.8174   21296078.1494
      -705.4834       -549.7274
  21790268.0744  -20214667.18148 -15415207.00346  21790266.8764   21790271.8934
       948.5244        739.1094
 04 12 10  0 48 29.9990000  0  9G 2G17G 5G 6G10G 4G13G24G30
  20240294.3674  -39946354.56249 -30775730.55847  20240291.8314   20240293.3424
       169.3464        131.9584
  20928515.0664  -33922722.14549 -26107647.57547  20928512.5914   20928518.2584
      1558.0254       1214.0444
  21758212.3714  -23343954.01948 -17862527.56247  21758210.0654   21758214.5714
      -877.5554       -683.8094
  24139303.8724   -6237993.11647  -4557529.35745  24139302.4074   24139309.4864
      4027.1784       3138.0654
  20131480.1314  -30169221.69249 -22454776.64047  20131477.3894   20131482.9994
      2269.1044       1768.1334
  22536827.4524  -27781522.94448 -21276362.13346  22536825.6764   22536829.1654
     -1594.9224      -1242.7984
  24119936.5364   -5488808.18447  -4088703.44445  24119935.1424   24119937.1674
      -345.1244       -268.9294
  21300111.7024  -32086083.60249 -24642630.12347  21300110.4844   21300116.0084
      -707.8264       -551.5524
  21784909.7654  -20242830.32848 -15437152.33146  21784908.3534   21784912.0434
       930.4244        725.0074
 04 12 10  0 48 59.9990000  0  9G 2G17G 5G 6G10G 4G13G24G30
  20239358.4544  -39951267.78649 -30779559.04347  20239356.7244   20239358.7464
       155.8524        121.4434
  20919644.8864  -33969331.37549 -26143966.44147  20919642.8044   20919648.6664
      1546.8884       1205.3684
  21763273.6704  -23317356.51548 -17841802.24947  21763271.4074   21763276.3384
      -897.9524       -699.7024
  24116324.9884   -6358758.95447  -4651632.60845  24116322.3414   24116327.3074
      4021.5874       3133.7044
  20118586.1354  -30236977.79349 -22507573.56547  20118583.5294   20118589.4134
      2245.6344       1749.8424
  22545945.4194  -27733607.60448 -21239025.50046  22545943.7094   22545946.6704
     -1601.7094      -1248.0824
  24121965.5184   -5478142.78147  -4080392.71845  24121963.4714   24121967.2404
      -368.2034       -286.9124
  21304172.0164  -32064747.82749 -24626004.85547  21304170.4064   21304176.2734
      -716.8964       -558.6194
  21779662.1774  -20270406.48448 -15458640.25046  21779660.6334   21779664.5004
       905.6924        705.7354
 04 12 10  0 49 29.9990000  0  9G 2G17G 5G 6G10G 4G13G24G30
  20238492.7344  -39955820.73649 -30783106.80247  20238490.4654   20238492.2944
       146.4094        114.0864
  20910830.8224  -34015650.51349 -26180059.26547  20910828.6474   20910834.8464
      1539.7914       1199.8384
  21768443.2144  -23290192.85448 -17820635.79547  21768440.3144   21768445.9604
      -914.2064       -712.3664
  24093364.5544   -6479401.77147  -4745639.98145  24093363.5874   24093368.7004
      4020.0224       3132.4864
  20105818.2264  -30304073.64549 -22559856.02447  20105815.9304   20105821.5184
      2226.1914       1734.6934
  22555093.8714  -27685532.91648 -21201564.70246  22555092.3734   22555095.9614
     -1604.4784      -1250.2424
  24124117.4464   -5466829.17847  -4071576.93345  24124117.0054   24124120.3184
      -387.2834       -301.7744
  21308275.3854  -32043184.57049 -24609202.32447  21308273.5754   21308279.3574
      -721.8714       -562.4964
  21774546.5324  -20297283.71148 -15479583.55346  21774545.8514   21774550.1914
       884.9614        689.5794
 04 12 10  0 49 59.9990000  0  9G 2G17G 5G 6G10G 4G13G24G30
  20237688.7404  -39960044.40249 -30786397.96947  20237686.7064   20237688.3014
       136.9224        106.6914
  20902066.0764  -34061710.51449 -26215950.17547  20902063.9034   20902070.1584
      1532.6414       1194.2654
  21773712.6244  -23262496.06548 -17799053.91447  21773710.7434   21773716.6914
      -930.4234       -725.0044
  24070423.0844   -6599950.56747  -4839574.08745  24070422.4704   24070428.7134
      4018.4164       3131.2294
  20093170.3444  -30370539.19949 -22611647.34547  20093167.7554   20093173.2164
      2206.6514       1719.4684
  22564267.1484  -27637329.87548 -21164003.89746  22564265.0614   22564269.6144
     -1607.2184      -1252.3784
  24126388.5584   -5454898.48647  -4062280.27045  24126387.7794   24126388.6304
      -406.3164       -316.6104
  21312415.2874  -32021425.22449 -24592246.99747  21312413.9214   21312419.7074
      -726.9254       -566.4374
  21769560.0204  -20323492.82748 -15500006.25146  21769558.3934   21769562.8494
       864.1724        673.3804
 04 12 10  0 50 29.9990000  0  9G 2G17G 5G 6G10G 4G13G24G30
  20236936.5854  -39964000.93649 -30789480.98247  20236933.8474   20236935.4514
       127.5094         99.3584
  20893339.2834  -34107573.03049 -26251687.19447  20893336.7294   20893342.8054
      1525.5434       1188.7354
  21779073.7744  -23234330.18749 -17777106.51347  21779071.3364   21779076.7764
      -946.5534       -737.5734
  24047494.9854   -6720465.21747  -4933481.58845  24047489.1834   24047493.6884
      4016.6144       3129.8304
  20080630.9054  -30436435.24849 -22662994.90247  20080628.4104   20080633.2524
      2187.1224       1704.2514
  22573451.2904  -27589060.40948 -21126391.35146  22573450.2334   22573454.6654
     -1609.9524      -1254.5094
  24128765.0614   -5442414.15647  -4052552.20245  24128762.7344   24128765.7564
      -425.2514       -331.3654
  21316582.8884  -31999531.56549 -24575187.01147  21316580.7094   21316585.1644
      -731.9144       -570.3234
  21764686.1124  -20349095.67248 -15519956.52546  21764685.5394   21764690.6824
       843.4484        657.2324
 04 12 10  0 50 59.9990000  0  9G 2G17G 5G 6G10G 4G13G24G30
  20236235.9944  -39967677.37249 -30792345.73647  20236234.1274   20236235.9064
       117.4844         91.5454
  20884651.5354  -34153224.93949 -26287260.09347  20884649.4394   20884655.8144
      1517.8314       1182.7254
  21784524.8504  -23205684.09849 -17754784.91447  21784522.3464   21784527.8674
      -963.2494       -750.5824
  24024569.0124   -6840930.61947  -5027350.70745  24024566.8014   24024572.1514
      4014.3324       3128.0504
  20068202.0684  -30501747.80949 -22713887.78747  20068199.8374   20068204.5544
      2166.9594       1688.5394
  22582652.2104  -27540711.62248 -21088717.00346  22582650.5104   22582655.1734
     -1613.3174      -1257.1294
  24131249.5324   -5429363.36847  -4042382.72345  24131247.1894   24131249.5074
      -444.8314       -346.6224
  21320776.9374  -31977490.92449 -24558012.48547  21320774.9254   21320779.0144
      -737.5434       -574.7094
  21759933.6474  -20374079.18848 -15539424.22346  21759932.4054   21759936.6994
       822.1004        640.5984
 04 12 10  0 51 29.9990000  0  9G 2G17G 5G 6G10G 4G13G24G30
  20235594.1314  -39971051.61249 -30794975.01047  20235591.8874   20235593.8614
       105.7044         82.3674
  20876008.6484  -34198644.04849 -26322651.59847  20876006.3374   20876012.9534
      1508.3584       1175.3434
  21790070.5714  -23176537.50348 -17732073.30947  21790068.4204   21790074.1584
      -981.5824       -764.8694
  24001658.7824   -6961322.65347  -5121162.67345  24001657.4074   24001662.5774
      4010.1434       3124.7794
  20055889.4234  -30566453.69749 -22764307.92847  20055886.9734   20055891.4224
      2145.0094       1671.4354
  22591872.5354  -27492261.38348 -21050963.58946  22591870.4384   22591874.3104
     -1618.3854      -1261.0774
  24133843.4384   -5415724.41647  -4031754.96045  24133841.5924   24133844.1174
      -466.1764       -363.2584
  21325002.6494  -31955281.53849 -24540706.46947  21325001.2744   21325005.0364
      -744.8404       -580.3964
  21755301.5114  -20398421.39348 -15558392.18246  21755300.1364   21755304.8594
       799.0034        622.6014
 04 12 10  0 51 59.9990000  0  9G 2G17G 5G 6G10G 4G13G24G30
  20235025.1784  -39974043.90349 -30797306.66747  20235022.6874   20235024.5054
        96.1064         74.8894
  20867425.3024  -34243750.21149 -26357799.25847  20867423.1784   20867429.2354
      1501.0744       1169.6684
  21795726.9044  -23146812.42948 -17708910.94447  21795724.7084   21795730.1584
      -997.7124       -777.4374
  23978777.5344   -7081559.17847  -5214853.43745  23978776.8024   23978782.5054
      4008.1104       3123.2004
  20043707.4634  -30630471.95549 -22814192.27647  20043704.7484   20043708.9224
      2125.2304       1656.0244
  22601125.1144  -27443629.75548 -21013068.82046  22601124.8114   22601128.7844
     -1621.2994      -1263.3514
  24136565.2674   -5401417.47447  -4020606.63945  24136564.3114   24136565.6714
      -485.2624       -378.1274
  21329277.4924  -31932823.58549 -24523206.75647  21329275.1964   21329278.8704
      -749.9834       -584.4044
  21750806.3634  -20422042.19648 -15576798.01346  21750805.3004   21750809.4224
       778.1074        606.3174
 04 12 10  0 52 29.9990000  0  9G 2G17G 5G 6G10G 4G13G24G30
  20234510.4524  -39976745.97949 -30799412.18547  20234508.5064   20234510.5084
        86.2904         67.2394
  20858884.4424  -34288634.97249 -26392774.39747  20858882.1244   20858887.9184
      1493.5424       1163.7994
  21801475.4384  -23116602.37348 -17685370.67247  21801473.3544   21801478.5864
     -1013.9894       -790.1214
  23955909.2484   -7201729.97847  -5308492.98945  23955907.0834   23955913.3094
      4005.6944       3121.3104
  20031639.0004  -30693893.19249 -22863611.42547  20031636.0834   20031640.2434
      2105.1844       1640.4044
  22610397.5694  -27394908.35248 -20975104.09646  22610396.2434   22610399.2934
     -1624.4244      -1265.7834
  24139397.6774   -5386534.74647  -4009009.69345  24139396.2054   24139399.4514
      -504.6334       -393.2224
  21333580.8394  -31910208.55449 -24505584.64547  21333578.4714   21333583.1094
      -755.3734       -588.6024
  21746431.5844  -20445033.16248 -15594713.07046  21746430.4474   21746434.7194
       756.9734        589.8484
 04 12 10  0 52 59.9990000  0  9G 2G17G 5G 6G10G 4G13G24G30
  20234040.6314  -39979212.77049 -30801334.36247  20234038.9494   20234041.1304
        77.2824         60.2204
  20850375.4154  -34333352.93149 -26427619.55047  20850372.6054   20850378.3144
      1486.7904       1158.5384
  21807305.8684  -23085964.24248 -17661496.83647  21807303.7444   21807308.7094
     -1029.3854       -802.1174
  23933046.0534   -7321887.91047  -5402122.53045  23933043.1394   23933046.2834
      4003.9884       3119.9964
  20019672.8564  -30756771.28949 -22912607.33447  20019670.3424   20019675.1834
      2085.8374       1625.3274
  22619674.5454  -27346152.08648 -20937112.20746  22619673.5344   22619676.8894
     -1626.7794      -1267.6194
  24142327.6854   -5371132.81047  -3997008.16945  24142325.4524   24142330.0994
      -523.0174       -407.5464
  21337902.9244  -31887491.37649 -24487882.94947  21337901.1954   21337906.4004
      -759.9584       -592.1754
  21742165.9744  -20467449.35248 -15612180.24046  21742164.4734   21742169.1754
       736.6354        574.0024
 04 12 10  0 53 29.9990000  0  9G 2G17G 5G 6G10G 4G13G24G30
  20233618.1164  -39981433.44449 -30803064.75747  20233616.1794   20233618.3124
        69.9014         54.4694
  20841899.2374  -34377893.14549 -26462326.20047  20841897.1334   20841902.4754
      1481.6694       1154.5474
  21813219.1204  -23054889.00848 -17637282.39647  21813217.3454   21813222.0174
     -1043.1184       -812.8184
  23910185.5454   -7442019.63347  -5495731.69745  23910183.8134   23910187.1724
      4003.9634       3119.9704
  20007812.4494  -30819094.34849 -22961170.72947  20007810.2654   20007815.9914
      2068.1124       1611.5144
  22628964.0854  -27297350.14748 -20899084.72346  22628961.2654   22628965.0084
     -1627.4714      -1268.1594
  24145359.0594   -5355200.82847  -3984593.64245  24145357.6834   24145362.1084
      -539.9894       -420.7714
  21342247.9444  -31864661.30649 -24470093.28747  21342245.5984   21342251.3134
      -762.9334       -594.4934
  21738012.0554  -20489280.10848 -15629191.23046  21738010.4584   21738014.7244
       717.9094        559.4094
 04 12 10  0 53 59.9990000  0  9G 2G17G 5G 6G10G 4G13G24G30
  20233247.1274  -39983383.51349 -30804584.29447  20233245.1214   20233247.0404
        58.8314         45.8424
  20833462.4104  -34422230.77649 -26496874.98947  20833459.9464   20833465.3744
      1472.8744       1147.6944
  21819220.6234  -23023354.55748 -17612710.12047  21819218.5634   21819224.0384
     -1060.4594       -826.3314
  23887333.8404   -7562098.90247  -5589299.95845  23887333.6294   23887336.8514
      4000.1554       3116.9964
  19996063.5914  -30880836.61349 -23009281.55647  19996060.9854   19996066.9024
      2046.7404       1594.8614
  22638262.6704  -27248477.90648 -20861002.46546  22638261.0614   22638265.6804
     -1631.8674      -1271.5834
  24148496.7634   -5338713.98547  -3971746.78045  24148495.3194   24148499.7154
      -560.4534       -436.7144
  21346618.2044  -31841693.94049 -24452196.64447  21346615.9184   21346621.9384
      -769.5234       -599.6274
  21733973.1524  -20510500.84448 -15645726.88346  21733971.8794   21733976.7224
       695.5324        541.9754
 04 12 10  0 54 29.9990000  0  9G 2G17G 5G 6G10G 4G13G24G30
  20232941.2354  -39984992.48249 -30805838.03647  20232939.0084   20232940.4164
        48.5004         37.7914
  20825076.8894  -34466295.26249 -26531210.94447  20825074.6914   20825080.1484
      1464.8634       1141.4514
  21825322.2734  -22991292.09049 -17587726.41647  21825319.8884   21825325.7354
     -1076.9594       -839.1874
  23864510.8284   -7682052.86647  -5682770.55045  23864507.0064   23864512.1364
      3996.9984       3114.5434
  19984438.5754  -30941927.01549 -23056884.44847  19984436.1614   19984441.7104
      2026.0494       1578.7384
  22647589.6234  -27199464.91448 -20822810.54646  22647587.6974   22647593.0284
     -1635.4934      -1274.4094
  24151753.2324   -5321603.20947  -3958413.71345  24151752.5564   24151755.5874
      -580.0734       -451.9994
  21351027.2624  -31818519.15449 -24434138.38347  21351025.9674   21351032.0144
      -775.3864       -604.1974
  21730064.9594  -20531041.18648 -15661732.35946  21730063.3744   21730067.0814
       673.9144        525.1284
 04 12 10  0 54 59.9990000  0  9G 2G17G 5G 6G10G 4G13G24G30
  20232685.7304  -39986334.69449 -30806883.91747  20232683.5594   20232684.8804
        40.6524         31.6774
  20816729.6694  -34510160.56449 -26565391.69047  20816727.3564   20816732.7994
      1459.2034       1137.0414
  21831508.8294  -22958777.81048 -17562390.64447  21831506.8904   21831512.7244
     -1090.9704       -850.1074
  23841690.8004   -7801953.75647  -5776199.74745  23841688.7374   23841695.4094
      3996.1524       3113.8804
  19972923.7484  -31002439.06149 -23104036.68247  19972921.4554   19972926.6794
      2007.7814       1564.5054
  22656928.9364  -27150385.18448 -20784566.61646  22656927.6754   22656931.9624
     -1636.7084      -1275.3564
  24155114.1674   -5303944.17747  -3944653.41545  24155112.2444   24155116.2994
      -597.4044       -465.5004
  21355463.2514  -31795211.23749 -24415976.38047  21355461.5274   21355466.9954
      -778.8014       -606.8574
  21726271.3824  -20550975.58048 -15677265.66346  21726270.2064   21726274.0654
       654.7534        510.2004
 04 12 10  0 55 29.9990000  0  9G 2G17G 5G 6G10G 4G13G24G30
  20232477.1584  -39987431.39549 -30807738.49447  20232474.8174   20232475.9824
        31.1584         24.2804
  20808416.6954  -34553847.66149 -26599433.58547  20808414.0254   20808419.5214
      1451.9514       1131.3924
  21837777.9994  -22925834.92148 -17536720.89047  21837775.4714   21837781.8504
     -1106.5134       -862.2174
  23818885.0264   -7921820.45447  -5869602.30545  23818880.6354   23818885.5024
      3993.7284       3112.0044
  19961515.6364  -31062392.82049 -23150753.88447  19961512.9404   19961518.0754
      1987.8674       1548.9874
  22666277.5354  -27101260.12248 -20746287.35746  22666275.6844   22666280.4104
     -1639.5004      -1277.5334
  24158574.7284   -5285757.93147  -3930482.31445  24158573.7364   24158577.6624
      -616.2784       -480.2184
  21359919.8514  -31771791.06949 -24397726.90447  21359918.0584   21359923.4454
      -783.8414       -610.7854
  21722588.9314  -20570325.32048 -15692343.40346  21722587.9874   21722592.9564
       633.9634        493.9984
 04 12 10  0 55 59.9990000  0  9G 2G17G 5G 6G10G 4G13G24G30
  20232327.8194  -39988217.17649 -30808350.79247  20232325.4114   20232326.2074
        21.4634         16.7254
  20800148.9364  -34597291.13649 -26633285.64047  20800147.0154   20800152.2294
      1444.4804       1125.5684
  21844139.7574  -22892400.41148 -17510668.07447  21844137.6694   21844143.8834
     -1122.1924       -874.4334
  23796093.5174   -8041585.72247  -5962925.92045  23796090.0444   23796092.6994
      3990.9044       3109.7964
  19950225.4714  -31121721.98049 -23196984.37447  19950222.9414   19950227.8364
      1967.6874       1533.2614
  22675645.8114  -27052024.23948 -20707921.75346  22675644.7894   22675649.5104
     -1642.5814      -1279.9324
  24162149.1504   -5266978.68847  -3915849.13645  24162148.0004   24162150.1014
      -635.3814       -495.1014
  21364410.9764  -31748193.62149 -24379339.28947  21364409.1774   21364413.9044
      -789.0804       -614.8674
  21719030.5094  -20589025.22848 -15706914.78246  21719029.2194   21719034.2474
       612.9714        477.6414
 04 12 10  0 56 29.9990000  0  9G 2G17G 5G 6G10G 4G13G24G30
  20232224.2274  -39988759.87749 -30808773.66747  20232222.1584   20232222.9904
        14.0294         10.9324
  20791915.7744  -34640558.13149 -26667000.18047  20791913.3424   20791918.3044
      1439.2814       1121.5184
  21850582.3644  -22858543.52348 -17484286.12647  21850580.4214   21850585.9034
     -1135.5914       -884.8754
  23773308.5944   -8161314.78947  -6056221.36145  23773306.9534   23773309.7714
      3990.2964       3109.3244
  19939041.4454  -31180493.14949 -23242780.07447  19939039.2814   19939043.7464
      1949.7314       1519.2704
  22685023.8194  -27002744.91948 -20669522.28646  22685022.3424   22685025.5574
     -1643.3154      -1280.5064
  24165822.0844   -5247677.67947  -3900809.40345  24165820.6104   24165823.1324
      -652.1944       -508.2044
  21368922.4104  -31724486.45949 -24360866.17647  21368920.4274   21368924.6894
      -792.0724       -617.1994
  21715583.1224  -20607143.09048 -15721032.60846  21715582.0714   21715585.8674
       594.2414        463.0434
 04 12 10  0 56 59.9990000  0  9G 2G17G 5G 6G10G 4G13G24G30
  20232168.4554  -39989053.60349 -30809002.54247  20232166.1954   20232167.0874
         5.0704          3.9524
  20783717.0474  -34683642.73749 -26700572.58747  20783714.6664   20783719.9924
      1432.5304       1116.2574
  21857107.0674  -22824260.64048 -17457572.21147  21857104.7994   21857109.4414
     -1150.4244       -896.4334
  23750530.2094   -8280999.78947  -6149482.34845  23750529.6594   23750535.7424
      3988.1834       3107.6754
  19927964.7134  -31238699.89749 -23288135.96547  19927962.3554   19927967.4894
      1930.2414       1504.0824
  22694409.9574  -26953416.34348 -20631084.43446  22694408.9894   22694411.5324
     -1645.6784      -1282.3474
  24169595.2544   -5227846.82947  -3885356.74245  24169594.7484   24169595.8424
      -670.3664       -522.3674
  21373455.8994  -31700663.33849 -24342302.70447  21373453.8804   21373457.8754
      -796.6384       -620.7574
  21712248.1844  -20624673.33848 -15734692.55447  21712246.3394   21712250.3724
       574.0264        447.2934
 04 12 10  0 57 29.9980000  0  9G 2G17G 5G 6G10G 4G13G24G30
  20232174.8544  -39989015.04449 -30808972.49247  20232173.4434   20232174.5194
        -5.2764         -4.1114
  20775568.4164  -34726460.29049 -26733936.91147  20775566.5724   20775571.9214
      1424.4194       1109.9374
  21863727.0334  -22789471.90948 -17430464.12347  21863725.1394   21863729.9144
     -1166.5404       -908.9914
  23727779.2324   -8400551.28347  -6242639.28845  23727779.6334   23727786.7434
      3984.5724       3104.8594
  19917012.0154  -31296256.48849 -23332985.22847  19917009.5114   19917014.7414
      1909.3814       1487.8284
  22703823.5184  -26903957.08848 -20592544.75046  22703821.8334   22703825.0194
     -1649.3164      -1285.1834
  24173484.2194   -5207405.84847  -3869428.66345  24173483.6944   24173487.7634
      -689.9854       -537.6474
  21378026.4744  -31676642.42749 -24323585.10947  21378024.7264   21378028.4244
      -802.4604       -625.2954
  21709039.5444  -20641532.68948 -15747829.73147  21709037.7724   21709042.6524
       552.3984        430.4424
 04 12 10  0 57 59.9980000  0  9G 2G17G 5G 6G10G 4G13G24G30
  20232230.8414  -39988722.83949 -30808744.79347  20232228.9834   20232230.2464
       -13.5874        -10.5874
  20767456.1174  -34769091.53449 -26767156.06247  20767454.0254   20767459.2824
      1418.2674       1105.1434
  21870428.0184  -22754255.57448 -17403022.85047  21870426.2244   21870431.8004
     -1180.5954       -919.9434
  23705042.0114   -8520053.39547  -6335757.75145  23705040.7614   23705046.2834
      3982.8324       3103.5004
  19906166.8554  -31353244.16449 -23377391.17447  19906164.5224   19906170.2214
      1890.4324       1473.0634
  22713244.2684  -26854442.18948 -20553961.70946  22713243.5784   22713247.9724
     -1651.0404      -1286.5234
  24177474.4634   -5186433.60547  -3853086.66545  24177473.6614   24177477.3364
      -707.4914       -551.2904
  21382620.2184  -31652500.53049 -24304773.23247  21382618.2184   21382623.1694
      -806.3644       -628.3374
  21705943.4984  -20657800.82948 -15760506.21446  21705941.8724   21705946.4934
       532.8174        415.1824
 04 12 10  0 58 29.9980000  0  9G 2G17G 5G 6G10G 4G13G24G30
  20232335.2204  -39988173.49549 -30808316.73147  20232333.5974   20232334.9114
       -23.1804        -18.0634
  20759380.0674  -34811531.58449 -26800226.23047  20759377.7254   20759383.0224
      1410.9194       1099.4174
  21877211.2464  -22718611.07848 -17375247.95547  21877209.1914   21877215.2094
     -1195.8144       -931.8024
  23682312.5384   -8639496.66447  -6428830.41345  23682311.6564   23682315.3704
      3979.9244       3101.2364
  19895432.0174  -31409656.82249 -23421349.06947  19895429.9344   19895435.1914
      1870.2794       1457.3614
  22722679.7294  -26804869.51548 -20515333.66846  22722677.2384   22722680.6224
     -1653.8834      -1288.7394
  24181570.0774   -5164926.03147  -3836327.49745  24181567.1954   24181569.2534
      -726.3604       -565.9934
  21387238.0624  -31628234.98749 -24285865.02347  21387235.9664   21387241.1834
      -811.4854       -632.3244
  21702960.4984  -20673474.02248 -15772719.10446  21702959.3554   21702964.0444
       511.9914        398.9544
 04 12 10  0 58 59.9980000  0  9G 2G17G 5G 6G10G 4G13G24G30
  20232484.0694  -39987396.73149 -30807711.45947  20232481.4994   20232483.0544
       -29.9114        -23.3074
  20751334.3004  -34853809.98549 -26833170.42147  20751332.4094   20751337.7324
      1406.3634       1095.8664
  21884068.8274  -22682570.83548 -17347164.68247  21884067.3144   21884073.2634
     -1208.1194       -941.3904
  23659589.6814   -8758908.96047  -6521879.01845  23659587.6674   23659589.9814
      3979.7604       3101.1164
  19884801.4444  -31465523.55549 -23464881.57447  19884799.1304   19884804.0514
      1852.9414       1443.8504
  22732117.3334  -26755269.01448 -20476683.92546  22732115.9534   22732120.3514
     -1654.0084      -1288.8354
  24185756.1974   -5142914.45347  -3819175.59545  24185755.0084   24185758.7484
      -742.2814       -578.4064
  21391873.4084  -31603875.78749 -24266883.83547  21391871.6814   21391876.8644
      -813.7554       -634.0944
  21700086.0904  -20688582.61048 -15784492.04746  21700084.4364   21700088.5544
       494.0284        384.9564
 04 12 10  0 59 29.9980000  0  9G 2G17G 5G 6G10G 4G13G24G30
  20232671.3194  -39986407.79549 -30806940.85947  20232669.6164   20232671.1974
       -37.2784        -29.0484
  20743316.5774  -34895941.78349 -26866000.37047  20743314.8254   20743320.2414
      1401.2014       1091.8444
  21891000.1724  -22646151.90248 -17318786.32647  21890997.7464   21891003.5664
     -1221.0004       -951.4264
  23636869.6214   -8878302.87147  -6614913.20145  23636866.6544   23636871.1424
      3978.7794       3100.3404
  19874272.0594  -31520858.96249 -23508000.06447  19874269.4604   19874274.0764
      1834.9044       1429.7954
  22741558.7564  -26705655.67148 -20438024.20946  22741556.5134   22741562.0874
     -1654.6914      -1289.3674
  24190038.3964   -5120415.92747  -3801644.23945  24190036.1154   24190039.4194
      -758.8304       -591.2934
  21396523.5924  -31579437.88749 -24247841.32247  21396521.7104   21396527.7774
      -816.6674       -636.3634
  21697314.7254  -20703141.89548 -15795836.95846  21697313.5554   21697318.5784
       475.4354        370.4704
 04 12 10  0 59 59.9980000  0  9G 2G17G 5G 6G10G 4G13G24G30
  20232910.9044  -39985147.06849 -30805958.47247  20232909.3394   20232911.1694
       -46.6944        -36.3854
  20735339.5364  -34937866.97349 -26898669.33647  20735336.7664   20735342.2604
      1393.9144       1086.1674
  21898013.2964  -22609297.01548 -17290068.26047  21898011.1714   21898016.9894
     -1235.8614       -963.0074
  23614165.6374   -8997616.71447  -6707884.97145  23614162.2634   23614168.0694
      3975.6684       3097.9154
  19863854.3394  -31575602.47049 -23550657.34047  19863852.3274   19863856.9714
      1814.7844       1414.1174
  22751012.9744  -26655969.59448 -20399307.80846  22751010.9164   22751016.0514
     -1657.5024      -1291.5614
  24194423.5304   -5097370.86247  -3783687.06845  24194421.9414   24194424.3744
      -777.4054       -605.7734
  21401200.3034  -31554861.92149 -24228691.22747  21401198.9074   21401204.6774
      -821.6484       -640.2444
  21694659.9644  -20717092.76748 -15806707.79146  21694659.0654   21694663.1964
       454.8004        354.3914
 04 12 10  1  0 29.9980000  0  9G 2G17G 5G 6G10G 4G13G24G30
  20233195.9664  -39983649.60849 -30804791.61747  20233194.2774   20233196.2084
       -54.2284        -42.2574
  20727393.5464  -34979620.17149 -26931204.28847  20727391.2284   20727396.5264
      1388.5364       1081.9754
  21905102.4574  -22572043.02148 -17261039.19947  21905100.4984   21905105.8994
     -1248.7854       -973.0804
  23591470.9184   -9116882.89347  -6800819.59645  23591468.0234   23591473.0884
      3974.3674       3096.9084
  19853543.2294  -31629788.41649 -23592880.15247  19853541.0104   19853546.0814
      1796.5694       1399.9244
  22760475.4674  -26606246.03248 -20360562.17846  22760473.4224   22760477.0884
     -1658.3934      -1292.2554
  24198903.8574   -5073815.67247  -3765332.36845  24198903.1224   24198908.4824
      -794.1444       -618.8134
  21405897.9044  -31530182.57249 -24209460.57247  21405895.3144   21405900.4724
      -824.7264       -642.6454
  21692114.7194  -20730470.72948 -15817132.18646  21692113.7784   21692117.2954
       436.0514        339.7794
 04 12 10  1  0 59.9980000  0  9G 2G17G 5G 6G10G 4G13G24G30
  20233529.0484  -39981902.24349 -30803430.02747  20233527.0204   20233529.0964
       -64.6124        -50.3484
  20719483.6534  -35021188.29649 -26963595.03647  20719481.4804   20719486.1064
      1380.3294       1075.5804
  21912270.1814  -22534379.26648 -17231690.83747  21912267.6664   21912273.1684
     -1264.4314       -985.2704
  23568786.8724   -9236086.41247  -6893705.43745  23568784.8134   23568789.2634
      3970.2284       3093.6834
  19843341.0444  -31683403.32249 -23634657.99347  19843338.4714   19843343.2374
      1775.4424       1383.4614
  22769947.9554  -26556471.59148 -20321776.90046  22769945.8824   22769948.4044
     -1662.1094      -1295.1504
  24203489.0064   -5049737.38647  -3746570.07545  24203486.8624   24203490.4724
      -813.4564       -633.8674
  21410615.0434  -31505386.93749 -24190139.29747  21410613.4144   21410618.9904
      -830.6354       -647.2474
  21689680.9024  -20743263.00548 -15827100.19646  21689679.4384   21689683.7104
       414.4674        322.9624
 04 12 10  1  1 29.9980000  0  9G 2G17G 5G 6G10G 4G13G24G30
  20233910.4364  -39979895.21549 -30801866.11047  20233908.9004   20233911.1484
       -69.4114        -54.0864
  20711610.4164  -35062561.17449 -26995833.64147  20711608.2184   20711613.0394
      1377.6324       1073.4794
  21919516.8254  -22496297.84748 -17202017.02947  21919514.1554   21919519.7184
     -1274.4734       -993.0954
  23546115.9404   -9355215.20547  -6986533.05445  23546114.4934   23546118.5914
      3971.5494       3094.7064
  19833248.0254  -31736436.76249 -23675982.72947  19833246.0564   19833251.2094
      1759.8964       1371.3464
  22779431.5474  -26506636.32648 -20282944.22146  22779429.4374   22779432.1254
     -1660.3704      -1293.7954
  24208171.6384   -5025127.80847  -3727393.77645  24208170.1844   24208172.7494
      -827.4304       -644.7444
  21415357.6444  -31480465.06449 -24170719.66447  21415355.8204   21415360.8894
      -831.0234       -647.5504
  21687358.4844  -20755460.22548 -15836604.54246  21687357.5584   21687363.0384
       398.5164        310.5324
 04 12 10  1  1 59.9980000  0  9G 2G17G 5G 6G10G 4G13G24G30
  20234332.0044  -39977684.43149 -30800143.42247  20234329.5334   20234331.7574
       -78.2824        -61.0004
  20703763.7114  -35103794.50149 -27027963.49947  20703761.6144   20703766.7184
      1370.9044       1068.2374
  21926831.8284  -22457857.03648 -17172063.18347  21926829.1564   21926834.8604
     -1288.5234      -1004.0434
  23523450.2254   -9474322.76647  -7079344.14345  23523447.9994   23523452.4334
      3968.6594       3092.4624
  19823256.7434  -31788943.82149 -23716897.29647  19823254.2834   19823259.3904
      1740.2744       1356.0564
  22788914.5304  -26456795.91448 -20244107.53046  22788913.3514   22788917.2044
     -1662.5834      -1295.5184
  24212944.3984   -5000043.32647  -3707847.43645  24212943.2084   24212946.1874
      -845.1844       -658.5804
  21420113.6044  -31455472.68749 -24151245.08247  21420111.4204   21420116.3934
      -835.4244       -650.9814
  21685141.3214  -20767118.87448 -15845689.21547  21685139.6994   21685144.3294
       378.5094        294.9454
 04 12 10  1  2 29.9980000  0  9G 2G17G 5G 6G10G 4G13G24G30
  20234810.9524  -39975162.86949 -30798178.57047  20234809.4594   20234811.9004
       -88.0254        -68.5914
  20695964.1604  -35144780.98849 -27059901.01947  20695961.9964   20695967.3244
      1363.2854       1062.2984
  21934234.8304  -22418951.99548 -17141747.59447  21934232.4454   21934238.0074
     -1303.3274      -1015.5794
  23500808.7984   -9593300.00447  -7172053.68645  23500807.3354   23500811.9504
      3964.9984       3089.6124
  19813384.8894  -31840816.80649 -23757317.78347  19813382.9634   19813388.3724
      1719.7164       1340.0384
  22798419.7954  -26406843.33648 -20205183.46246  22798418.2954   22798424.1404
     -1665.7184      -1297.9614
  24217830.2774   -4974378.33047  -3687848.73145  24217827.4104   24217830.1154
      -863.9094       -673.1764
  21424902.7454  -31430302.87049 -24131632.23447  21424901.0114   21424905.9924
      -840.7384       -655.1224
  21683044.6404  -20778132.40148 -15854271.19646  21683043.4134   21683048.3124
       357.6734        278.7064
 04 12 10  1  2 59.9980000  0  9G 2G17G 5G 6G10G 4G13G24G30
  20235337.9274  -39972397.92849 -30796024.07447  20235335.6884   20235338.0674
       -97.2454        -75.7754
  20688199.6514  -35185587.79649 -27091698.53547  20688197.1414   20688201.8764
      1356.1974       1056.7774
  21941713.3604  -22379652.39848 -17111124.55347  21941711.0294   21941716.8884
     -1317.5504      -1026.6634
  23478179.3164   -9712211.91947  -7264712.27945  23478179.5034   23478185.7264
      3961.6534       3086.9984
  19803622.0794  -31892122.73449 -23797296.40847  19803619.5554   19803625.1934
      1699.7324       1324.4654
  22807933.1504  -26356845.69748 -20166224.28646  22807932.0524   22807937.6454
     -1668.3034      -1299.9784
  24222810.9534   -4948200.80247  -3667450.66445  24222808.5274   24222811.7064
      -882.1584       -687.4014
  21429713.1144  -31405023.07249 -24111933.68847  21429711.6454   21429716.6354
      -845.4754       -658.8114
  21681058.5124  -20788568.76648 -15862403.44147  21681057.5264   21681062.7444
       337.2944        262.8264
 04 12 10  1  3 29.9980000  0  9G 2G17G 5G 6G10G 4G13G24G30
  20235912.3384  -39969376.48849 -30793669.71047  20235910.6794   20235913.2034
      -104.9404        -81.7714
  20680471.0684  -35226201.57349 -27123345.62547  20680468.7284   20680473.3554
      1350.6214       1052.4314
  21949269.6304  -22339947.37848 -17080185.59147  21949267.1294   21949272.9474
     -1330.1564      -1036.4834
  23455566.2404   -9831043.18847  -7357308.04645  23455566.9034   23455573.3794
      3959.7534       3085.5234
  19793969.4894  -31942848.20449 -23836822.73547  19793967.0584   19793972.2584
      1681.2404       1310.0564
  22817459.0354  -26306790.01148 -20127219.88646  22817457.7544   22817463.9064
     -1669.3774      -1300.8114
  24227891.4714   -4921499.71247  -3646644.60345  24227890.1064   24227891.5984
      -898.6634       -700.2554
  21434546.9764  -31379619.99849 -24092139.08247  21434545.6774   21434551.0484
      -848.7714       -661.3804
  21679185.6664  -20798415.50948 -15870076.23947  21679183.9414   21679188.5174
       318.5064        248.1864
 04 12 10  1  3 59.9980000  0  9G 2G17G 5G 6G10G 4G13G24G30
  20236537.8974  -39966088.00149 -30791107.25847  20236536.5764   20236538.8104
      -111.6764        -87.0194
  20672781.3954  -35266611.50149 -27154833.88247  20672779.0364   20672783.6604
      1345.9724       1048.8094
  21956903.0994  -22299828.72848 -17048924.32847  21956901.2034   21956907.4534
     -1341.7674      -1045.5314
  23432972.1924   -9949781.21747  -7449831.16145  23432971.5104   23432977.7524
      3958.7934       3084.7754
  19784429.3824  -31992981.96549 -23875887.98847  19784426.9434   19784432.2054
      1663.6634       1296.3604
  22826998.4864  -26256665.50948 -20088161.85146  22826997.4474   22827000.8864
     -1669.4994      -1300.9074
  24233074.1014   -4894263.86747  -3625421.84445  24233073.1984   24233075.7494
      -914.2994       -712.4414
  21439407.6924  -31354083.26249 -24072240.32547  21439405.6074   21439410.4144
      -851.0484       -663.1544
  21677426.3274  -20807662.78148 -15877281.92046  21677424.4654   21677428.5624
       300.6644        234.2834
 04 12 10  1  4 29.9980000  0  9G 2G17G 5G 6G10G 4G13G24G30
  20237212.4224  -39962545.47149 -30788346.84647  20237210.5594   20237212.6504
      -121.8304        -94.9324
  20665127.9144  -35306830.27749 -27186173.18147  20665125.6354   20665129.9594
      1337.9254       1042.5394
  21964612.8554  -22259311.38448 -17017352.40047  21964610.9944   21964617.3774
     -1356.6934      -1057.1624
  23410396.0084  -10068436.38747  -7542289.71945  23410392.1294   23410397.9454
      3954.3004       3081.2724
  19774999.2764  -32042536.54149 -23914501.92447  19774997.1824   19775002.1324
      1642.6724       1280.0034
  22836546.3614  -26206484.98148 -20049060.15646  22836545.7834   22836548.6524
     -1673.0544      -1303.6754
  24238354.6004   -4866508.32347  -3603794.15345  24238353.2724   24238355.0234
      -933.2644       -727.2274
  21444290.9274  -31328425.73449 -24052247.44647  21444288.3884   21444293.6764
      -856.7324       -667.5834
  21675777.9914  -20816323.94848 -15884030.89146  21675776.7644   21675780.1974
       279.5114        217.8014
 04 12 10  1  4 59.9980000  0  9G 2G17G 5G 6G10G 4G13G24G30
  20237920.6764  -39958823.63149 -30785446.71247  20237918.8024   20237920.7604
      -127.3314        -99.2194
  20657496.6764  -35346932.41449 -27217421.58647  20657494.5144   20657498.8124
      1334.5104       1039.8774
  21972384.6064  -22218472.79148 -16985530.14147  21972382.6694   21972388.3074
     -1366.8914      -1065.1094
  23387816.4014  -10187081.30547  -7634740.29745  23387814.9894   23387819.4264
      3954.3944       3081.3484
  19765665.6334  -32091586.24849 -23952722.44847  19765663.2774   19765668.1794
      1626.3114       1267.2544
  22846092.8714  -26156323.28748 -20009973.11846  22846091.9524   22846094.2454
     -1672.0114      -1302.8674
  24243719.7794   -4838309.69347  -3581821.13645  24243719.3854   24243722.4214
      -947.5924       -738.3774
  21449181.5714  -31302722.36249 -24032218.84847  21449179.7244   21449184.8144
      -857.8164       -668.4294
  21674226.5984  -20824474.82248 -15890382.23146  21674225.0274   21674229.7344
       262.9374        204.8874
 04 12 10  1  5 29.9980000  0  9G 2G17G 5G 6G10G 4G13G24G30
  20238670.1724  -39954884.57149 -30782377.31547  20238668.3374   20238670.1444
      -133.7124       -104.1914
  20649894.6394  -35386879.67049 -27248549.30247  20649892.5254   20649897.1494
      1330.2164       1036.5324
  21980224.5544  -22177276.80548 -16953429.39947  21980222.3484   21980227.3134
     -1377.8884      -1073.6784
  23365250.3874  -10305675.76947  -7727151.56845  23365246.8614   23365249.7504
      3953.5544       3080.6934
  19756435.0464  -32140092.76949 -23990519.71147  19756432.7254   19756437.6324
      1609.0524       1253.8074
  22855640.2134  -26106142.09848 -19970870.89346  22855639.2604   22855644.3994
     -1671.7794      -1302.6824
  24249180.4074   -4809630.19047  -3559473.47245  24249177.7654   24249179.8914
      -962.7924       -750.2244
  21454088.9054  -31276934.72249 -24012124.58647  21454086.9804   21454092.1064
      -859.7804       -669.9594
  21672779.5454  -20832077.76248 -15896306.61646  21672778.3504   21672782.4584
       245.5604        191.3454
 04 12 10  1  5 59.9980000  0  9G 2G17G 5G 6G10G 4G13G24G30
  20239461.8294  -39950725.35549 -30779136.36747  20239459.6694   20239461.5794
      -142.9554       -111.3934
  20642323.2234  -35426669.07749 -27279554.03247  20642321.0894   20642325.3644
      1322.9994       1030.9074
  21988131.1454  -22135723.10248 -16921049.91047  21988129.4184   21988134.8464
     -1391.6764      -1084.4224
  23342692.2434  -10424214.62047  -7819519.50545  23342690.9204   23342693.2654
      3949.7184       3077.6994
  19747308.5054  -32188052.87849 -24027891.20947  19747306.3514   19747310.9784
      1588.8944       1238.0974
  22865195.0514  -26055938.52748 -19931751.23946  22865193.6534   22865198.2024
     -1674.4134      -1304.7364
  24254728.0784   -4780468.43047  -3536750.04145  24254726.8084   24254729.7184
      -980.6904       -764.1734
  21459012.4964  -31251060.13349 -23991962.57247  21459010.5164   21459015.3054
      -864.5654       -673.6864
  21671437.4934  -20839131.01648 -15901802.66746  21671436.1334   21671440.2654
       225.3074        175.5644
 04 12 10  1  6 29.9980000  0 10G 2G17G29G 5G 6G10G 4G13G24G30
  20240296.7094  -39946337.01949 -30775716.88747  20240294.6914   20240296.4934
      -148.7254       -115.8894
  20634784.0394  -35466291.18749 -27310428.39447  20634781.3774   20634785.4114
      1319.3424       1028.0594
  24049664.2894    -351150.83744   -241986.93743
      4188.2464       3263.9194
  21996108.5934  -22093804.94048 -16888386.43347  21996106.4264   21996111.7774
     -1401.9234      -1092.4074
  23320148.8034  -10542686.43147  -7911835.19045  23320146.6834   23320150.5814
      3949.3294       3077.3994
  19738287.7764  -32235457.14949 -24064829.59147  19738285.3854   19738290.2864
      1572.2484       1225.1274
  22874753.5554  -26005703.21548 -19892606.86146  22874752.0744   22874758.7104
     -1673.6204      -1304.1134
  24260371.6164   -4750816.09347  -3513644.29345  24260369.4954   24260372.2714
      -995.1824       -775.4564
  21463954.4724  -31225089.17449 -23971725.45847  21463952.4524   21463957.4104
      -865.9164       -674.7394
  21670201.3234  -20845625.74348 -15906863.49546  21670199.7874   21670205.0584
       208.6144        162.5564
 04 12 10  1  6 59.9980000  0  9G 2G17G29G 5G 6G10G 4G24G30
  20241171.5144  -39941740.83349 -30772135.44647  20241169.5124   20241170.9134
      -155.9064       -121.4864
  20627271.0544  -35505767.11949 -27341188.85247  20627268.9774   20627273.4694
      1314.1834       1024.0374
  24025753.6314    -476807.55144    -39840.18943
      4190.7404       3265.5114
  22004149.9124  -22051546.09348 -16855457.48447  22004147.7764   22004153.3614
     -1413.5124      -1101.4374
  23297613.0434  -10661110.40647  -8004113.57945  23297610.1774   23297615.4464
      3947.3694       3075.8684
  19729369.1114  -32282326.81249 -24101351.39347  19729366.5104   19729371.5044
      1554.1624       1211.0354
  22884316.8144  -25955457.47648 -19853454.38646  22884314.8444   22884319.4904
     -1674.2094      -1304.5784
  21468910.1564  -31199043.43549 -23951430.07747  21468908.5344   21468913.3074
      -868.6734       -676.8884
  21669067.2414  -20851584.58848 -15911506.77646  21669065.9764   21669071.2904
       190.5174        148.4554
 04 12 10  1  7 29.9980000  0  9G 2G17G29G 5G 6G10G 4G24G30
  20242079.1604  -39936972.71249 -30768420.02847  20242076.8454   20242078.2324
      -162.8364       -126.8854
  20619780.4974  -35545132.58848 -27371863.24447  20619777.9744   20619782.3144
      1309.3064       1020.2394
  24001820.9684    -602578.66944   -137843.19244
      4193.2584       3267.4654
  22012248.8394  -22008984.70748 -16822292.79147  22012247.0064   22012252.6394
     -1424.7424      -1110.1894
  23275079.1794  -10779519.84747  -8096380.62145  23275077.2034   23275082.9114
      3945.8034       3074.6514
  19720545.0564  -32328697.13749 -24137484.11047  19720542.4804   19720547.3704
      1536.3534       1197.1584
  22893873.2814  -25905237.06748 -19814321.61846  22893871.4794   22893877.0924
     -1674.5824      -1304.8694
  21473874.3454  -31172958.71849 -23931104.32247  21473872.3554   21473876.8454
      -871.1554       -678.8234
  21668029.5664  -20857044.06048 -15915760.93446  21668027.4874   21668032.0434
       172.6654        134.5454
 04 12 10  1  7 59.9980000  0  9G 2G17G29G 5G 6G10G 4G24G30
  20243032.3994  -39931963.36049 -30764516.63347  20243030.0744   20243031.5624
      -170.2974       -132.6994
  20612323.5024  -35584317.91548 -27402397.27347  20612321.3524   20612325.9074
      1303.8754       1016.0074
  23977877.5594    -728391.58646   -235879.37545                  23977885.3404
      4195.1954       3269.0104
  22020418.8434  -21966054.12448 -16788840.41447  22020416.2794   22020422.1744
     -1436.4364      -1119.3004
  23252564.0634  -10897843.38247  -8188580.75645  23252562.2834   23252566.4964
      3943.4154       3072.7874
  19711828.7444  -32374498.85649 -24173173.75947  19711826.4644   19711831.4654
      1517.9554       1182.8224
  22903439.2594  -25854972.72248 -19775154.61546  22903437.8914   22903441.1894
     -1675.4874      -1305.5734
  21478858.2214  -31146765.67949 -23910694.16047  21478856.3714   21478861.1794
      -874.1944       -681.1914
  21667097.3384  -20861935.81348 -15919572.70146  21667096.2234   21667101.2194
       154.3274        120.2554
 04 12 10  1  8 29.9980000  0  9G 2G17G29G 5G 6G10G 4G24G30
  20244023.8374  -39926754.84249 -30760458.04747  20244021.3754   20244022.7754
      -177.8744       -138.6044
  20604893.0814  -35623365.10548 -27432823.65847  20604891.0134   20604895.1604
      1298.3034       1011.6654
  23953919.9674    -854285.29747   -333978.29945  23953917.3654   23953924.4354
      4196.9044       3270.2964
  22028649.9984  -21922798.41248 -16755134.69147  22028647.6014   22028653.6324
     -1448.2254      -1128.4874
  23230058.5384  -11016120.88447  -8280745.02545  23230055.4634   23230058.4934
      3940.8504       3070.7904
  19703213.7204  -32419773.45549 -24208452.65547  19703211.1974   19703216.0944
      1499.4224       1168.3814
  22913003.4244  -25804706.17848 -19735985.90546  22913001.1324   22913005.9404
     -1676.4894      -1306.3564
  21483856.1864  -31120506.57349 -23890232.51347  21483853.7824   21483858.3184
      -877.3434       -683.6454
  21666267.4814  -20866302.84148 -15922975.60046  21666265.6564   21666270.1834
       135.9084        105.9044
 04 12 10  1  8 59.9980000  0  9G 2G17G29G 5G 6G10G 4G24G30
  20245058.4934  -39921314.15349 -30756218.55047  20245056.6634   20245058.1904
      -184.4534       -143.7304
  20597495.4364  -35662240.68048 -27463116.30847  20597493.1754   20597497.5274
      1293.7754       1008.1374
  23929957.2444    -980223.28747   -432111.66545  23929955.0474   23929961.6894
      4199.5094       3272.3424
  22036949.3644  -21879186.93748 -16721151.75747  22036946.9334   22036952.6484
     -1458.7964      -1136.7234
  23207564.2024  -11134316.63447  -8372845.61645  23207562.4904   23207565.1434
      3939.3064       3069.5884
  19694704.5494  -32464487.91049 -24243295.07647  19694702.2384   19694707.0024
      1481.9354       1154.7554
  22922575.6004  -25754404.12748 -19696789.52846  22922573.8694   22922577.1064
     -1676.5024      -1306.3634
  21488871.4644  -31094147.60349 -23869693.05247  21488869.6914   21488874.8194
      -879.4914       -685.3184
  21665541.7944  -20870112.65448 -15925944.30846  21665540.6224   21665545.1084
       118.5584         92.3844
 04 12 10  1  9 29.9980000  0  9G 2G17G29G 5G 6G10G 4G24G30
  20246141.1274  -39915626.49149 -30751786.60647  20246139.1234   20246140.6934
      -194.1524       -151.2874
  20590132.9944  -35700929.68448 -27493263.57647  20590130.8664   20590135.3644
      1286.0714       1002.1334
  23905986.1434   -1106187.88746   -530265.86444  23905983.8944   23905988.3714
      4198.7604       3271.7444
  22045318.2024  -21835207.44548 -16686882.04347  22045315.7674   22045320.9264
     -1472.5614      -1147.4494
  23185088.8744  -11252413.84147  -8464869.42445  23185088.7874   23185092.9084
      3934.4674       3065.8184
  19686304.9634  -32508627.37349 -24277689.44247  19686302.9064   19686307.3994
      1461.2814       1138.6594
  22932155.7434  -25704051.79547 -19657553.95446  22932154.6594   22932158.3664
     -1679.6934      -1308.8504
  21493909.2194  -31067674.25249 -23849064.47047  21493907.3434   21493912.5524
      -884.7934       -689.4494
  21664925.5734  -20873351.87148 -15928468.39646  21664924.1284   21664928.3434
        98.0124         76.3724
 04 12 10  1  9 59.9980000  0  9G 2G17G29G 5G 6G10G 4G24G30
  20247269.4764  -39909700.66249 -30747169.07847  20247267.0554   20247268.4994
      -201.4514       -156.9744
  20582804.9714  -35739440.74648 -27523272.19747  20582802.6134   20582806.8754
      1280.7534        997.9904
  23882009.1544   -1232184.34646   -628444.93345  23882007.3464   23882010.4744
      4200.4964       3273.1174
  22053754.7664  -21790871.25748 -16652334.37846  22053752.6284   22053757.8334
     -1483.7514      -1156.1714
  23162636.1204  -11370418.86947  -8556821.36845  23162633.2724   23162638.4044
      3932.0054       3063.8994
  19678013.8584  -32552200.16949 -24311642.24847  19678011.5134   19678015.8204
      1443.0114       1124.4224
  22941748.6194  -25653657.78748 -19618285.90846  22941746.0734   22941749.5084
     -1680.4024      -1309.4044
  21498966.9814  -31041095.55049 -23828353.79747  21498965.3914   21498970.6404
      -887.6464       -691.6724
  21664415.9554  -20876029.74348 -15930555.06246  21664414.2804   21664418.4314
        79.9854         62.3274
 04 12 10  1 10 29.9980000  0  9G 2G17G29G 5G 6G10G 4G24G30
  20248435.1294  -39903572.03349 -30742393.52147  20248433.3314   20248434.8984
      -207.4914       -161.6814
  20575503.9934  -35777808.82648 -27553169.40347  20575501.5214   20575505.5574
      1276.7324        994.8574
  23858022.1894   -1358244.94547   -726673.96045  23858019.0584   23858025.3214
      4203.2364       3275.2544
  22062252.1174  -21746216.19848 -16617538.25046  22062249.8484   22062255.9214
     -1493.5834      -1163.8304
  23140191.0304  -11488364.77747  -8648727.25046  23140188.8844   23140194.6824
      3930.7344       3062.9084
  19669823.8574  -32595241.60749 -24345181.01047  19669821.1264   19669825.4104
      1426.0684       1111.2214
  22951338.8404  -25603257.40948 -19579012.90246  22951336.6914   22951340.9304
     -1679.8784      -1308.9984
  21504038.9844  -31014446.67649 -23807588.44647  21504036.5204   21504041.3794
      -889.2794       -692.9444
  21664006.4824  -20878182.99448 -15932232.93546  21664004.9524   21664009.6244
        63.2164         49.2624
 04 12 10  1 10 59.9980000  0  9G 2G17G29G 5G 6G10G 4G24G30
  20249642.6324  -39897227.81849 -30737449.97747  20249640.5654   20249642.1854
      -215.6884       -168.0684
  20568232.2844  -35816020.71148 -27582944.89747  20568229.9564   20568234.0294
      1270.5454        990.0354
  23834023.0914   -1484353.81447   -824940.48045  23834021.3804   23834029.2024
      4203.7684       3275.6674
  22070812.4764  -21701231.80448 -16582485.51046  22070810.2014   22070816.7164
     -1505.5614      -1173.1634
  23117759.9464  -11606236.42047  -8740575.26945  23117758.9874   23117763.8804
      3927.2344       3060.1874
  19661736.6144  -32637738.89949 -24378295.77447  19661733.8334   19661738.6274
      1406.9134       1096.2964
  22960933.3174  -25552837.69348 -19539724.81346  22960931.2594   22960935.6854
     -1681.5624      -1310.3114
  21509125.0554  -30987714.60049 -23786758.25947  21509123.3034   21509128.3154
      -893.0514       -695.8844
  21663699.0104  -20879799.72648 -15933492.74846  21663697.3934   21663702.3714
        44.3934         34.5934
 04 12 10  1 11 29.9980000  0  9G 2G17G29G 5G 6G10G 4G24G30
  20250895.4344  -39890643.28149 -30732319.16847  20250893.3914   20250895.1394
      -223.5694       -174.2094
  20560995.7194  -35854051.62448 -27612579.37347  20560993.0964   20560997.0584
      1264.6314        985.4284
  23810022.6524   -1610483.02947   -923222.95945  23810019.3134   23810024.9074
      4204.5544       3276.2714
  22079441.0454  -21655895.89048 -16547158.86246  22079438.0394   22079443.6974
     -1517.0964      -1182.1534
  23095350.5654  -11724006.89347  -8832344.47845  23095348.1924   23095351.9074
      3923.9424       3057.6184
  19653758.0904  -32679666.96649 -24410966.98847  19653755.3534   19653759.6934
      1388.0734       1081.6144
  22970536.5094  -25502373.55948 -19500402.13446  22970534.4404   22970539.2774
     -1682.8864      -1311.3414
  21514232.5664  -30960874.79349 -23765844.12847  21514230.4344   21514235.0764
      -896.5284       -698.5944
  21663496.9984  -20880856.15748 -15934315.96746  21663495.7724   21663500.9664
        25.8224         20.1244
 04 12 10  1 11 59.9980000  0  9G 2G17G29G 5G 6G10G 4G24G30
  20252194.6904  -39883817.92549 -30727000.71347  20252192.4414   20252193.9664
      -230.9874       -179.9894
  20553792.3354  -35891900.83548 -27642072.26047  20553790.3484   20553794.6854
      1259.1374        981.1454
  23786017.1904   -1736628.60447  -1021518.15045  23786014.6334   23786020.6154
      4205.7524       3277.2164
  22088134.0894  -21610210.26648 -16511559.69646  22088131.5044   22088137.1904
     -1528.1204      -1190.7434
  23072958.7084  -11841672.87347  -8924032.26645  23072956.5824   23072960.0734
      3921.0094       3055.3314
  19645887.4184  -32721025.41449 -24443194.33247  19645884.9794   19645889.3694
      1369.6704       1067.2744
  22980145.9764  -25451864.67948 -19461044.59546  22980144.5974   22980150.0994
     -1683.7904      -1312.0464
  21519359.6934  -30933926.44149 -23744845.41347  21519358.2204   21519363.0204
      -899.5454       -700.9454
  21663403.5434  -20881352.82448 -15934703.00646  21663402.1004   21663406.6104
         7.8154          6.0914
 04 12 10  1 12 29.9980000  0  9G 2G17G29G 5G 6G10G 4G24G30
  20253534.4334  -39876773.62849 -30721511.65247  20253532.7364   20253534.2794
      -238.7834       -186.0654
  20546620.5934  -35929589.74648 -27671440.23547  20546618.5564   20546623.0724
      1253.2894        976.5894
  23762006.9534   -1862809.21147  -1119840.68245  23762004.9974   23762008.5184
      4206.2584       3277.6164
  22096889.3214  -21564199.17048 -16475706.91446  22096887.1434   22096892.0724
     -1539.4264      -1199.5504
  23050583.4694  -11959254.32547  -9015654.18145  23050581.4044   23050586.1884
      3917.6074       3052.6814
  19638120.8514  -32761836.07148 -24474994.82247  19638118.4514   19638123.5484
      1350.8874       1052.6384
  22989762.0914  -25401332.44948 -19421668.86046  22989760.8114   22989765.5734
     -1685.1034      -1313.0644
  21524504.6144  -30906891.43249 -23723779.17047  21524503.1884   21524508.0294
      -902.9404       -703.5894
  21663411.6084  -20881312.65948 -15934671.73246  21663409.6994   21663414.2464
       -10.5664         -8.2344
 04 12 10  1 12 59.9980000  0  9G 2G17G29G 5G 6G10G 4G24G30
  20254921.2954  -39869487.48049 -30715834.13747  20254919.1564   20254920.9834
      -247.1964       -192.6204
  20539483.3494  -35967095.31348 -27700665.34547  20539481.2944   20539486.2734
      1246.8714        971.5884
  23737993.0624   -1988998.93947  -1218170.40245  23737992.3264   23737994.4344
      4206.2024       3277.5604
  22105711.4894  -21517842.43148 -16439584.80346  22105708.7944   22105714.2094
     -1551.2034      -1208.7284
  23028228.2434  -12076725.77848  -9107190.34946  23028227.7804   23028234.1074
      3913.6694       3049.6134
  19630463.5344  -32802076.03248 -24506350.62147  19630461.1324   19630466.3714
      1331.5804       1037.5944
  22999388.2744  -25350754.05448 -19382257.15546  22999386.3454   22999390.6644
     -1686.9494      -1314.5034
  21529671.6274  -30879746.51949 -23702627.28847  21529669.2014   21529673.5834
      -906.9194       -706.6914
  21663525.5944  -20880714.05448 -15934205.31246  21663523.8124   21663527.6314
       -29.4564        -22.9544
 04 12 10  1 13 29.9980000  0  9G 2G17G29G 5G 6G10G 4G24G30
  20256355.9314  -39861947.51249 -30709958.83947  20256354.0014   20256355.9144
      -255.9434       -199.4364
  20532383.6944  -36004405.48448 -27729738.19947  20532381.6464   20532386.5144
      1240.0384        966.2634
  23713980.6144   -2115182.58047  -1316495.26945  23713977.8914   23713985.2374
      4205.6884       3277.1554
  22114599.4404  -21471130.49648 -16403185.91946  22114597.3814   22114603.0174
     -1563.3244      -1218.1734
  23005899.3274  -12194073.13648  -9198629.82446  23005897.3494   23005902.6814
      3909.1564       3046.0974
  19622916.5914  -32841733.38048 -24537252.42947  19622914.4344   19622919.7554
      1311.8424       1022.2154
  23009023.3184  -25300117.28848 -19342799.95546  23009022.3664   23009026.0624
     -1689.1774      -1316.2404
  21534859.3754  -30852479.91349 -23681380.57747  21534857.5324   21534862.6364
      -911.2874       -710.0954
  21663746.5794  -20879546.44848 -15933295.50046  21663745.1804   21663749.3004
       -48.7524        -37.9904
 04 12 10  1 13 59.9980000  0  9G 2G17G29G 5G 6G10G 4G24G30
  20257843.2114  -39854133.21749 -30703869.78047  20257841.0074   20257842.6604
      -264.6954       -206.2554
  20525325.4044  -36041499.30749 -27758642.47947  20525322.9664   20525327.5484
      1233.2504        960.9734
  23689970.7224   -2241336.18547  -1414796.65845  23689971.4554   23689978.8694
      4205.0204       3276.6304
  22123559.8684  -21424045.42648 -16366496.27546  22123557.5564   22123563.1844
     -1575.3284      -1227.5264
  22983597.6394  -12311273.53547  -9289954.81546  22983594.6514   22983599.2544
      3904.5854       3042.5304
  19615484.6474  -32880787.51248 -24567684.20147  19615482.6504   19615488.2244
      1292.1274       1006.8514
  23018675.8944  -25249401.41748 -19303281.08646  23018673.9124   23018677.3164
     -1691.4434      -1318.0084
  21540075.1484  -30825070.86249 -23660022.87547  21540073.4284   21540078.9454
      -915.6384       -713.4854
  21664081.1654  -20877789.93448 -15931926.80246  21664079.8574   21664083.9504
       -67.9614        -52.9584
 04 12 10  1 14 29.9980000  0  9G 2G17G29G 5G 6G10G 4G24G30
  20259376.1934  -39846073.05349 -30697589.13447  20259374.3014   20259376.3374
      -273.3834       -213.0264
  20518302.0984  -36078404.66848 -27787399.89947  20518299.9954   20518304.6904
      1226.4284        955.6584
  23665968.7144   -2367484.75447  -1513094.12445  23665966.2954   23665974.4894
      4204.3274       3276.0944
  22132584.8094  -21376618.08948 -16329539.93846  22132582.4044   22132588.9694
     -1587.1734      -1236.7564
  22961316.6024  -12428352.85447  -9381185.44545  22961314.6804   22961318.5874
      3899.9864       3038.9504
  19608162.7484  -32919267.00148 -24597668.19847  19608160.1624   19608165.7804
      1272.4864        991.5474
  23028334.1464  -25198634.46048 -19263722.43846  23028333.6014   23028337.4274
     -1693.6304      -1319.7114
  21545313.3554  -30797547.51949 -23638576.11847  21545311.4504   21545316.3034
      -919.9304       -716.8284
  21664522.4604  -20875474.24348 -15930122.38246  21664520.6404   21664524.9944
       -87.0574        -67.8354
 04 12 10  1 14 59.9980000  0  9G 2G17G29G 5G 6G10G 4G24G30
  20260961.9114  -39837740.19649 -30691096.00147  20260960.2284   20260961.9504
      -281.1214       -219.0554
  20511320.2354  -36115094.80449 -27815989.61647  20511318.1694   20511323.0164
      1220.5814        951.1024
  23641974.2164   -2493598.55447  -1611364.57745  23641970.0484   23641973.7024
      4204.4754       3276.2144
  22141679.6664  -21328824.16648 -16292297.95046  22141677.5694   22141683.9084
     -1598.0144      -1245.2054
  22939067.1424  -12545282.02047  -9472299.07245  22939064.2294   22939068.0124
      3896.3324       3036.0994
  19600954.5474  -32957145.12748 -24627183.61447  19600952.3734   19600958.0094
      1253.7864        976.9764
  23038010.2634  -25147789.91948 -19224103.33346  23038008.5994   23038014.3984
     -1694.9034      -1320.7024
  21550576.8484  -30769883.43949 -23617019.69847  21550574.8904   21550580.5314
      -923.3014       -719.4554
  21665074.1894  -20872573.95948 -15927862.44646  21665072.4574   21665076.7864
      -105.2044        -81.9754
 04 12 10  1 15 29.9980000  0  9G 2G17G29G 5G 6G10G 4G24G30
  20262589.7184  -39829188.00449 -30684431.95847  20262587.5304   20262589.5314
      -289.1244       -225.2904
  20504369.4624  -36151622.78649 -27844452.97647  20504367.1934   20504371.9524
      1214.5064        946.3684
  23617967.1204   -2619727.52047  -1709646.85745  23617966.7714   23617972.2634
      4204.1084       3275.9354
  22150834.3974  -21280719.39648 -16254813.74746  22150831.6944   22150837.0754
     -1609.0264      -1253.7884
  22916832.7504  -12662111.81648  -9563335.27246  22916832.6034   22916836.7964
      3892.3384       3032.9884
  19593851.7024  -32994475.23948 -24656272.01047  19593848.8104   19593854.4314
      1234.8284        962.2024
  23047690.9954  -25096920.60248 -19184464.92246  23047689.4074   23047694.4144
     -1696.4044      -1321.8714
  21555858.9224  -30742131.49149 -23595394.81047  21555856.4584   21555861.5694
      -926.9344       -722.2864
  21665726.8974  -20869143.55148 -15925189.42446  21665725.8484   21665729.8084
      -123.5484        -96.2704
 04 12 10  1 15 59.9980000  0  9G 2G17G29G 5G 6G10G 4G24G30
  20264263.7214  -39820391.22449 -30677577.32447  20264261.4354   20264263.3464
      -296.7364       -231.2224
  20497453.9504  -36187963.04049 -27872770.05547  20497451.7674   20497456.4434
      1208.7564        941.8864
  23593970.3894   -2745843.32147  -1807918.89445  23593967.4064   23593974.3064
      4204.2874       3276.0654
  22160051.6384  -21232281.46648 -16217069.92646  22160048.8654   22160054.6424
     -1619.5494      -1261.9854
  22894626.9064  -12778814.86348  -9654272.69946  22894624.6704   22894629.5344
      3888.6024       3030.0754
  19586856.5304  -33031232.55248 -24684914.07047  19586854.0864   19586860.0564
      1216.2964        947.7634
  23057378.8084  -25046001.43048 -19144787.69246  23057378.1364   23057382.6724
     -1697.5214      -1322.7414
  21561159.9504  -30714266.41349 -23573681.76347  21561158.5374   21561163.5744
      -930.1354       -724.7814
  21666485.7704  -20865159.14948 -15922084.71346  21666483.6874   21666488.1734
      -141.4444       -110.2164
 04 12 10  1 16 29.9980000  0  9G 2G17G29G 5G 6G10G 4G24G30
  20265985.0184  -39811343.42949 -30670527.09047  20265983.0804   20265985.0554
      -306.7124       -238.9984
  20490575.0334  -36224108.69248 -27900935.50147  20490573.1544   20490578.0774
      1200.6384        935.5614
  23569975.3874   -2871936.26547  -1906173.07345  23569973.4734   23569978.3964
      4201.9244       3274.2224
  22169333.1804  -21183506.23348 -16179063.27346  22169330.7154   22169336.1974
     -1632.3604      -1271.9704
  22872443.1104  -12895382.08047  -9745104.26846  22872442.3124   22872447.5364
      3882.3804       3025.2324
  19579972.3244  -33067410.43148 -24713104.61647  19579969.8954   19579975.3794
      1195.3414        931.4344
  23067080.8614  -24995025.49848 -19105066.21246  23067078.9064   23067084.7834
     -1701.0204      -1325.4694
  21566486.0844  -30686281.77548 -23551875.55647  21566484.0044   21566488.3284
      -935.7484       -729.1554
  21667348.7784  -20860615.54048 -15918544.25646  21667347.5184   21667353.1664
      -161.6804       -125.9864
 04 12 10  1 16 59.9980000  0  9G 2G17G29G 5G 6G10G 4G24G30
  20267757.8054  -39802026.76649 -30663267.35147  20267755.9934   20267758.2154
      -314.2034       -244.8344
  20483737.5174  -36260041.99048 -27928935.46347  20483735.4024   20483740.1744
      1195.0424        931.2004
  23545988.7044   -2997985.10147  -2004392.89145  23545986.5624   23545992.4234
      4201.7084       3274.0614
  22178682.1824  -21134378.54948 -16140781.98246  22178679.7194   22178685.0664
     -1642.5844      -1279.9354
  22850292.8064  -13011793.76148  -9835814.62946  22850290.0714   22850295.6284
      3878.6294       3022.3074
  19573201.3544  -33102991.49048 -24740830.09547  19573199.0084   19573204.7084
      1176.9214        917.0814
  23076797.3984  -24943975.09348 -19065286.70946  23076794.9364   23076798.5834
     -1702.0684      -1326.2864
  21571837.2174  -30658159.72748 -23529962.27247  21571835.2264   21571839.5434
      -938.8644       -731.5824
  21668322.8164  -20855496.33448 -15914555.29146  21668321.6254   21668326.4964
      -179.3294       -139.7394
 04 12 10  1 17 29.9980000  0  9G 2G17G29G 5G 6G10G 4G24G30
  20269581.1724  -39792448.25349 -30655803.57347  20269578.9954   20269581.1114
      -323.0844       -251.7544
  20476939.3264  -36295769.23449 -27956774.86647  20476936.8654   20476941.7494
      1188.0164        925.7274
  23522010.9154   -3123993.66847  -2102581.32145  23522008.7434   23522014.3504
      4200.2104       3272.8914
  22188095.9204  -21084907.93148 -16102233.47546  22188093.5054   22188099.1144
     -1654.1364      -1288.9374
  22828168.2184  -13128054.02047  -9926407.02046  22828166.7144   22828171.3204
      3873.4304       3018.2574
  19566542.3714  -33137982.56548 -24768095.84547  19566540.0904   19566546.2064
      1157.1154        901.6484
  23086522.5694  -24892856.77248 -19025454.26946  23086520.9864   23086525.3494
     -1704.4724      -1328.1614
  21577214.3004  -30629906.67248 -23507946.89747  21577212.2444   21577215.9444
      -943.3724       -735.0964
  21669405.6724  -20849809.69148 -15910124.16946  21669403.9984   21669408.6104
      -198.4394       -154.6264
 04 12 10  1 17 59.9980000  0  9G 2G17G29G 5G 6G10G 4G24G30
  20271444.8534  -39782653.28949 -30648171.13247  20271442.9434   20271445.0714
      -330.6724       -257.6654
  20470170.7244  -36331335.85849 -27984489.10747  20470168.6764   20470173.6944
      1182.3264        921.2934
  23498032.8264   -3250004.27747  -2200771.36745  23498029.0884   23498035.6054
      4199.8084       3272.5764
  22197565.6404  -21035142.42048 -16063455.17746  22197563.5804   22197569.0464
     -1664.2744      -1296.8364
  22806064.4874  -13244206.12647 -10016915.17946  22806063.8734   22806066.3534
      3869.4024       3015.1184
  19559987.2714  -33172429.61448 -24794937.68247  19559984.9334   19559991.0254
      1138.6364        887.2474
  23096255.5874  -24841715.89148 -18985604.22246  23096253.4964   23096256.8874
     -1705.5544      -1329.0074
  21582606.9704  -30601568.27648 -23485865.02447  21582604.7394   21582608.9084
      -946.5914       -737.6034
  21670586.6994  -20843602.53948 -15905287.45046  21670585.2584   21670589.5704
      -216.0864       -168.3774
 04 12 10  1 18 29.9980000  0  9G 2G17G29G 5G 6G10G 4G24G30
  20273357.3734  -39772603.44849 -30640340.08947  20273355.3984   20273357.2174
      -337.8574       -263.2654
  20463440.8404  -36366703.00849 -28012047.91747  20463438.4274   20463443.3634
      1176.9534        917.1064
  23474058.7334   -3375974.98547  -2298930.34645  23474057.3124   23474061.3514
      4199.7804       3272.5514
  22207099.0744  -20985046.02548 -16024419.04846  22207096.5884   22207102.0874
     -1673.9344      -1304.3634
  22783993.0024  -13360209.13647 -10107307.14246  22783989.3084   22783992.1494
      3865.6644       3012.2084
  19553543.1924  -33206294.41548 -24821325.82847  19553540.7014   19553546.8034
      1120.5224        873.1344
  23105999.3294  -24790513.94347 -18945706.59546  23105996.9934   23105999.7404
     -1706.2954      -1329.5834
  21588023.5444  -30573105.75549 -23463686.43447  21588020.9824   21588025.6594
      -949.4114       -739.8014
  21671874.6514  -20836837.76448 -15900016.21146  21671873.3044   21671877.2054
      -233.3354       -181.8204
 04 12 10  1 18 59.9980000  0  9G 2G17G29G 5G 6G10G 4G24G30
  20275305.5864  -39762368.73949 -30632364.98847  20275303.2124   20275305.1284
      -344.5404       -268.4744
  20456735.4134  -36401940.30049 -28039505.53447  20456732.9694   20456738.1084
      1172.1094        913.3324
  23450082.6534   -3501972.43047  -2397110.16345  23450081.8434   23450086.3774
      4200.0354       3272.7474
  22216680.2794  -20934691.59948 -15985181.85846  22216678.7124   22216683.9724
     -1683.0334      -1311.4544
  22761931.9464  -13476130.82648 -10197635.70646  22761930.0194   22761935.4104
      3862.4184       3009.6754
  19547196.3434  -33239647.24548 -24847315.03347  19547193.7554   19547199.8654
      1102.9444        859.4354
  23115740.0744  -24739320.57548 -18905815.68946  23115738.1564   23115743.1424
     -1706.5444      -1329.7734
  21593448.3334  -30544589.12449 -23441465.68247  21593447.2744   21593452.8374
      -951.7444       -741.6184
  21673254.0684  -20829586.77548 -15894366.10446  21673252.7554   21673256.7524
      -250.0384       -194.8354
 04 12 10  1 19 29.9980000  0  9G 2G17G29G 5G 6G10G 4G24G30
  20277298.7304  -39751890.77249 -30624200.33447  20277296.9364   20277299.0834
      -353.7464       -275.6464
  20450066.2234  -36436989.29949 -28066816.43547  20450063.3954   20450068.5224
      1164.7664        907.6094
  23426113.4274   -3627935.23847  -2495262.94345  23426111.5504   23426116.8314
      4197.7294       3270.9594
  22226322.9534  -20884023.26248 -15945700.06146  22226320.8914   22226325.8734
     -1694.5504      -1320.4294
  22739899.0784  -13591910.24848 -10287853.40646  22739897.5314   22739903.1344
      3856.5364       3005.0904
  19540957.7204  -33272430.18748 -24872860.18047  19540955.4554   19540961.5794
      1082.8464        843.7744
  23125490.7744  -24688077.21648 -18865885.82346  23125489.3564   23125494.5654
     -1709.3524      -1331.9594
  21598897.8064  -30515960.12149 -23419157.36847  21598895.4034   21598900.5404
      -956.5884       -745.3934
  21674737.7784  -20821792.82148 -15888292.91146  21674736.2404   21674740.2434
      -269.1934       -209.7584
 04 12 10  1 19 59.9980000  0  9G 2G17G29G 5G 6G10G 4G24G30
  20279341.3804  -39741159.44549 -30615838.26147  20279339.3274   20279341.1254
      -361.6964       -281.8424
  20443433.8364  -36471839.44949 -28093972.39547  20443431.7984   20443436.6684
      1158.5804        902.7894
  23402153.5094   -3753849.98347  -2593378.32245  23402149.8074   23402156.0774
      4196.5704       3270.0494
  22236025.0984  -20833033.32148 -15905967.65146  22236023.5614   22236029.3184
     -1704.7524      -1328.3784
  22717896.2624  -13707534.94148 -10377950.55446  22717894.3584   22717900.2524
      3851.8624       3001.4514
  19534830.1854  -33304633.50848 -24897953.68147  19534827.4154   19534833.2384
      1064.0394        829.1204
  23135254.6994  -24636773.90848 -18825909.26646  23135252.9704   23135257.5174
     -1710.8234      -1333.1084
  21604368.7924  -30487208.29049 -23396753.35347  21604366.5314   21604372.3394
      -960.1994       -748.2084
  21676325.9704  -20813447.09148 -15881789.76046  21676324.3884   21676328.7724
      -287.0654       -223.6864
 04 12 10  1 20 29.9980000  0  9G 2G17G29G 5G 6G10G 4G24G30
  20281429.2094  -39730187.21549 -30607288.47047  20281427.3384   20281429.1004
      -369.8284       -288.1794
  20436837.6114  -36506503.02649 -28120982.98447  20436835.4534   20436840.2974
      1152.2594        897.8634
  23378197.6334   -3879725.82147  -2691463.32845  23378197.0564   23378202.6594
      4195.1404       3268.9364
  22245787.0974  -20781737.14448 -15865996.62046  22245784.6484   22245790.6504
     -1714.9944      -1336.3574
  22695920.7614  -13823014.82148 -10467934.88646  22695919.8634   22695924.3014
      3846.8414       2997.5404
  19528809.3854  -33336269.84448 -24922605.36547  19528807.0694   19528813.1294
      1045.0344        814.3114
  23145025.9094  -24585422.59048 -18785895.27646  23145024.6874   23145028.8504
     -1712.5324      -1334.4434
  21609859.8504  -30458345.77449 -23374263.08447  21609858.3834   21609864.4524
      -963.9994       -751.1684
  21678016.0714  -20804563.55848 -15874867.55046  21678014.5794   21678019.2474
      -305.1224       -237.7584
 04 12 10  1 20 59.9980000  0  9G 2G17G29G 5G 6G10G 4G24G30
  20283588.0614  -39718840.79649 -30598447.10247  20283586.1034   20283588.5474
      -383.8684       -299.1164
  20430302.2104  -36540846.30149 -28147743.98347  20430300.1044   20430305.0164
      1140.0104        888.3204
  23354278.0844   -4005425.96947  -2789411.44345  23354276.2434   23354282.7934
      4187.6894       3263.1334
  22255631.5724  -20730003.86148 -15825685.00046  22255629.4004   22255635.0434
     -1731.1104      -1348.9154
  22674000.3154  -13938214.24048 -10557700.67346  22673998.1284   22674002.4664
      3835.8774       2988.9994
  19522922.7884  -33367206.25348 -24946711.64647  19522920.4944   19522926.1024
      1020.1494        794.9214
  23154833.5584  -24533889.78648 -18745739.86346  23154830.6944   23154835.2944
     -1720.1484      -1340.3754
  21615398.7954  -30429239.23349 -23351582.67347  21615397.4674   21615402.8634
      -973.6904       -758.7204
  21679834.0454  -20795010.36248 -15867423.53146  21679832.6134   21679836.8164
      -328.9784       -256.3444
 04 12 10  1 21 29.9980000  0  9G 2G17G29G 5G 6G10G 4G24G30
  20285818.6154  -39707121.93649 -30589315.52847  20285816.1974   20285818.3224
      -392.4004       -305.7684
  20423827.2384  -36574871.09349 -28174256.79847  20423825.2994   20423830.4864
      1133.2954        883.0874
  23330394.8784   -4130949.29547  -2887221.82445  23330391.1244   23330394.8444
      4185.6234       3261.5294
  22265558.1894  -20677838.14348 -15785036.41746  22265555.9984   22265561.9754
     -1741.5964      -1357.0874
  22652133.1904  -14053132.79948 -10647247.58846  22652130.2344   22652134.6364
      3830.3954       2984.7234
  19517169.2014  -33397445.08848 -24970274.36847  19517166.5974   19517171.6634
      1000.8264        779.8634
  23164671.0954  -24482177.38347 -18705444.51146  23164670.5764   23164674.4974
     -1722.2024      -1341.9774
  21620984.0194  -30399890.75248 -23328713.73247  21620981.9384   21620987.5744
      -977.8594       -761.9684
  21681779.6864  -20784791.20648 -15859460.56046  21681777.4644   21681781.4134
      -347.2254       -270.5654
 04 12 10  1 21 59.9980000  0  9G 2G17G29G 5G 6G10G 4G24G30
  20288077.9144  -39695245.59949 -30580061.24147  20288076.1224   20288078.2424
      -397.4704       -309.7154
  20417372.6384  -36608791.49949 -28200688.27747  20417370.4564   20417375.3714
      1129.9864        880.5094
  23306498.8894   -4256507.05947  -2985059.02345  23306498.3444   23306501.4634
      4186.8754       3262.4904
  22275525.9884  -20625457.42648 -15744220.29746  22275523.9304   22275529.3854
     -1748.5344      -1362.4914
  22630277.3474  -14167982.55248 -10736740.90046  22630275.3014   22630279.7124
      3828.2404       2983.0444
  19511506.6584  -33427201.37848 -24993461.07847  19511503.9244   19511509.2054
       984.8894        767.4454
  23174506.9244  -24430500.06747 -18665176.49045  23174505.2904   23174508.9124
     -1720.9134      -1340.9654
  21626574.9604  -30370514.52148 -23305823.17047  21626572.7674   21626577.3194
      -978.6354       -762.5724
  21683808.6994  -20774122.16848 -15851147.03646  21683807.3484   21683811.8544
      -362.0254       -282.0994
 04 12 10  1 22 29.9980000  0  9G 2G17G29G 5G 6G10G 4G24G30
  20290340.9404  -39683353.41149 -30570794.60747  20290339.1344   20290340.8994
      -400.7264       -312.2544
  20410910.1104  -36642749.12549 -28227148.76147  20410908.4464   20410913.4154
      1128.4764        879.3314
  23282573.0474   -4382237.76947  -3083031.01945  23282572.3954   23282577.3354
      4189.8614       3264.8194
  22285508.0574  -20573005.91648 -15703349.01546  22285505.3704   22285510.8284
     -1753.5734      -1366.4194
  22608406.8964  -14282902.93548 -10826289.25546  22608405.8954   22608410.3464
      3827.8224       2982.7184
  19505908.6744  -33456617.37948 -25016382.62447  19505906.0764   19505911.3234
       970.8154        756.4794
  23184308.9684  -24378998.92647 -18625045.73546  23184305.7834   23184308.8744
     -1717.7824      -1338.5304
  21632142.3054  -30341252.22348 -23283021.37647  21632140.8524   21632145.5144
      -977.5434       -761.7224
  21685898.1484  -20763146.63348 -15842594.69046  21685896.4674   21685900.9714
      -374.9544       -292.1734
 04 12 10  1 22 59.9980000  0  9G 2G17G29G 5G 6G10G 4G24G30
  20292648.0304  -39671231.36949 -30561348.86547  20292645.7224   20292647.5074
      -401.5894       -312.9264
  20404482.4624  -36676529.57149 -28253471.19147  20404480.4924   20404485.3994
      1129.3464        880.0104
  23258655.9794   -4507924.18847  -3180968.45145  23258654.4484   23258659.8564
      4195.1194       3268.9164
  22295542.5534  -20520272.55448 -15662258.10946  22295540.0724   22295545.7374
     -1756.1214      -1368.4064
  22586565.7104  -14397677.56348 -10915724.03546  22586564.5204   22586570.0454
      3829.7264       2984.2004
  19500417.0474  -33485479.47648 -25038872.55647  19500413.9124   19500419.1314
       959.1684        747.4054
  23194114.6394  -24327459.92048 -18584885.48046  23194112.7194   23194118.7144
     -1712.2524      -1334.2224
  21637730.6664  -30311889.75448 -23260141.52747  21637728.8214   21637733.1504
      -974.0944       -759.0334
  21688084.3074  -20751652.03448 -15833637.88546  21688082.9624   21688088.4924
      -385.4454       -300.3464
 04 12 10  1 23 29.9980000  0  9G 2G17G29G 5G 6G10G 4G24G30
  20294913.3714  -39659328.15749 -30552073.63647  20294910.9774   20294912.6324
      -395.2694       -308.0014
  20398002.9374  -36710581.29149 -28280004.99847  20398000.4024   20398005.5894
      1137.4524        886.3264
  23234662.8214   -4634011.75347  -3279218.41845  23234660.0974   23234667.7874
      4207.5194       3278.5804
  22305545.3954  -20467708.40548 -15621299.04846  22305542.7084   22305548.2694
     -1751.4104      -1364.7334
  22564668.5514  -14512752.81948 -11005393.04946  22564665.7944   22564672.5614
      3838.7494       2991.2334
  19494944.1094  -33514237.04648 -25061281.03647  19494941.5244   19494946.6374
       954.7524        743.9634
  23203844.9874  -24276331.49148 -18545045.18146  23203842.8954   23203847.3864
     -1699.5154      -1324.2944
  21643251.9074  -30282875.73348 -23237533.19047  21643249.7534   21643254.6264
      -963.4574       -750.7464
  21690284.1974  -20740088.88648 -15824627.67746  21690283.3994   21690289.0284
      -388.6694       -302.8574
 04 12 10  1 23 59.9980000  0  9G 2G17G29G 5G 6G10G 4G24G30
  20297194.0184  -39647340.82849 -30542732.86147  20297192.2234   20297193.5014
      -406.3554       -316.6394
  20391529.0654  -36744600.92849 -28306513.80447  20391526.6634   20391531.9884
      1128.0914        879.0314
  23210652.3204   -4760194.11847  -3377542.31545  23210649.8354   23210655.1394
      4202.3154       3274.5324
  22315572.3314  -20415013.19048 -15580237.86646  22315570.1924   22315576.3134
     -1763.9964      -1374.5424
  22542770.9504  -14627823.13048 -11095058.21146  22542769.8244   22542774.9854
      3830.2674       2984.6254
  19489548.9584  -33542587.73048 -25083372.47447  19489546.8354   19489551.7114
       932.8924        726.9284
  23213553.4094  -24225311.00148 -18505288.99146  23213551.3184   23213555.9994
     -1704.1814      -1327.9334
  21648764.7964  -30253906.95348 -23214960.12047  21648762.6574   21648767.6374
      -970.2234       -756.0174
  21692556.0554  -20728155.89548 -15815329.27146  21692554.6524   21692559.9184
      -409.2454       -318.8964
 04 12 10  1 24 29.9980000  0  9G 2G17G29G 5G 6G10G 4G24G30
  20299539.5444  -39635014.95049 -30533128.28847  20299537.6664   20299538.7304
      -416.4784       -324.5284
  20385110.0044  -36778333.87549 -28332799.21847  20385107.4874   20385112.4754
      1119.7134        872.5034
  23186672.0804   -4886213.68247  -3475739.43445  23186668.7384   23186672.8054
      4197.9574       3271.1364
  22325673.1414  -20361935.37248 -15538878.55746  22325670.4444   22325676.3714
     -1775.5514      -1383.5444
  22520924.9724  -14742631.46348 -11184519.26946  22520922.6694   22520926.6084
      3822.6294       2978.6714
  19484279.2104  -33570277.51148 -25104948.92147  19484277.2794   19484282.3694
       912.0334        710.6734
  23223287.7834  -24174143.36248 -18465418.14346  23223287.3454   23223292.7294
     -1707.9454      -1330.8674
  21654316.0474  -30224728.86348 -23192223.95247  21654314.3694   21654319.9954
      -976.0294       -760.5414
  21694944.1464  -20715600.28848 -15805545.70846  21694943.3964   21694948.5984
      -428.8024       -334.1304
 04 12 10  1 24 59.9980000  0  9G 2G17G29G 5G 6G10G 4G24G30
  20301959.9484  -39622299.90849 -30523220.46047  20301957.4574   20301958.5034
      -425.3594       -331.4504
  20378754.8604  -36811729.18649 -28358821.53647  20378752.7364   20378757.8304
      1112.5204        866.9004
  23162731.1994   -5012016.45747  -3573767.55245  23162728.8984   23162734.4334
      4194.7474       3268.6254
  22335855.0974  -20308426.93548 -15497183.69746  22335852.7124   22335858.5714
     -1785.7894      -1391.5244
  22499136.4004  -14857125.23548 -11273735.21746  22499134.6054   22499139.0164
      3816.2094       2973.6684
  19479146.4814  -33597256.27848 -25125971.32647  19479143.7014   19479148.4184
       892.4274        695.3974
  23233063.1724  -24122777.99847 -18425393.21246  23233062.8144   23233066.9764
     -1710.4444      -1332.8154
  21659918.1944  -30195290.82848 -23169285.23247  21659916.1884   21659922.2694
      -980.6374       -764.1314
  21697462.3444  -20702373.28948 -15795238.97946  21697460.8634   21697465.2384
      -447.0714       -348.3684
 04 12 10  1 25 29.9980000  0  9G 2G17G29G 5G 6G10G 4G24G30
  20304400.2314  -39609470.22249 -30513223.30147  20304398.8214   20304400.1954
      -442.3814       -344.7134
  20372412.0054  -36845061.17249 -28384794.52247  20372409.7554   20372415.0584
      1097.2484        855.0004
  23138780.6344   -5137873.86547  -3671838.24745  23138779.0784   23138784.5544
      4183.3054       3259.7174
  22346066.4954  -20254765.33148 -15455369.48146  22346064.7014   22346070.5834
     -1804.0314      -1405.7354
  22477356.6184  -14971576.23148 -11362917.78946  22477355.5514   22477360.6714
      3801.5404       2962.2404
  19474094.8004  -33623799.29648 -25146654.19647  19474092.5644   19474097.3454
       864.7274        673.8134
  23242825.2374  -24071489.13647 -18385427.86845  23242823.5934   23242826.0964
     -1721.0854      -1341.1034
  21665517.3634  -30165867.25148 -23146357.78347  21665515.3064   21665521.3594
      -993.3364       -774.0284
  21700055.2564  -20688751.18248 -15784624.37746  21700053.4134   21700057.4984
      -473.3904       -368.8754
 04 12 10  1 25 59.9980000  0  9G 2G17G29G 5G 6G10G 4G24G30
  20306947.4164  -39596084.71249 -30502793.03447  20306945.7434   20306947.4874
      -455.9274       -355.2684
  20366165.1864  -36877888.18449 -28410374.01847  20366163.0314   20366168.2604
      1085.3464        845.7234
  23114907.1374   -5263341.23947  -3769605.00045  23114903.3414   23114908.4864
      4175.2244       3253.4164
  22356389.8664  -20200511.93948 -15413094.13946  22356388.1654   22356394.8994
     -1818.7264      -1417.1874
  22455672.1684  -15085540.74548 -11451721.28846  22455668.9704   22455674.2874
      3790.2574       2953.4464
  19469210.9814  -33649465.92548 -25166654.16147  19469208.4474   19469213.4274
       840.5244        654.9534
  23252652.2554  -24019835.50847 -18345178.26445  23252651.8124   23252655.9674
     -1728.2914      -1346.7214
  21671197.5574  -30136016.52448 -23123097.48547  21671195.8894   21671201.5064
     -1002.6154       -781.2594
  21702805.5554  -20674294.22448 -15773359.24246  21702804.0054   21702808.3164
      -496.2124       -386.6584
 04 12 10  1 26 29.9980000  0  9G 2G17G29G 5G 6G10G 4G24G30
  20309568.4204  -39582313.93949 -30492062.56847  20309566.5064   20309568.6984
      -459.7064       -358.2124
  20359982.1854  -36910380.49249 -28435692.69447  20359979.9224   20359985.1034
      1083.2214        844.0674
  23091073.8784   -5388585.69147  -3867198.06845  23091070.7284   23091076.1874
      4176.8634       3254.6964
  22366795.1314  -20145839.81348 -15370492.50846  22366792.4354   22366798.4924
     -1823.6264      -1421.0064
  22434044.6534  -15199187.14048 -11540276.90746  22434043.3684   22434048.1074
      3788.6664       2952.2064
  19464460.8584  -33674427.42348 -25186104.67247  19464458.3374   19464463.3264
       826.0464        643.6724
  23262521.7144  -23967987.14147 -18304776.93346  23262519.2144   23262523.0414
     -1725.7044      -1344.7034
  21676927.5664  -30105908.96048 -23099637.05647  21676925.5524   21676930.3984
     -1002.1354       -780.8844
  21705683.1584  -20659174.71448 -15761577.83446  21705681.7054   21705684.8234
      -509.2434       -396.8124
 04 12 10  1 26 59.9980000  0  9G 2G17G29G 5G 6G10G 4G24G30
  20312159.0894  -39568702.05849 -30481455.90947  20312156.3634   20312159.1854
      -449.8784       -350.5554
  20353759.3584  -36943081.93149 -28461174.32947  20353757.1404   20353762.3084
      1094.7304        853.0374
  23067179.0064   -5514148.45347  -3965039.18445  23067177.6224   23067181.6434
      4191.9014       3266.4194
  22377173.9024  -20091296.23948 -15327991.03846  22377171.8674   22377177.6504
     -1814.7234      -1414.0684
  22412377.1134  -15313057.03948 -11629006.71946  22412374.3584   22412377.7164
      3800.6264       2961.5244
  19459740.9764  -33699228.91648 -25205430.49947  19459738.5144   19459743.4524
       825.2894        643.0814
  23272320.7844  -23916488.54248 -18264648.15346  23272318.6544   23272323.2424
     -1709.5604      -1332.1234
  21682602.8064  -30076088.93048 -23076400.67247  21682600.1054   21682604.2884
      -987.9844       -769.8584
  21708582.6114  -20643939.03448 -15749705.88646  21708580.9804   21708584.3304
      -508.5604       -396.2814
 04 12 10  1 27 29.9980000  0  9G 2G17G29G 5G 6G10G 4G24G30
  20314738.2114  -39555142.97049 -30470890.39547  20314736.7864   20314739.4554
      -452.9484       -352.9454
  20347517.0844  -36975886.08349 -28486736.00447  20347514.7484   20347520.1244
      1093.3294        851.9464
  23043242.7224   -5639920.06047  -4063043.04345  23043242.4924   23043249.1874
      4194.0104       3268.0584
  22387548.6414  -20036777.76548 -15285509.12646  22387546.4014   22387552.2254
     -1818.6914      -1417.1624
  22390687.3074  -15427041.58048 -11717825.84146  22390684.3854   22390687.9264
      3799.5274       2960.6724
  19455072.6124  -33723764.49148 -25224549.11647  19455069.9264   19455074.7014
       811.5724        632.3934
  23282073.1094  -23865233.10148 -18224708.86046  23282072.1244   23282076.5894
     -1706.2684      -1329.5594
  21688241.9214  -30046450.09548 -23053305.46847  21688240.1764   21688244.4984
      -986.7904       -768.9264
  21711523.6064  -20628482.53848 -15737661.88346  21711522.1414   21711526.3534
      -520.7154       -405.7524
 04 12 10  1 27 59.9980000  0  9G 2G17G29G 5G 6G10G 4G24G30
  20317326.5724  -39541543.38349 -30460293.32647  20317324.4604   20317327.1624
      -458.0464       -356.9194
  20341272.5944  -37008699.22649 -28512304.68447  20341270.3244   20341276.0144
      1089.8574        849.2394
  23019291.2074   -5765803.64647  -4161134.13045  23019287.4334   23019293.5834
      4193.9344       3268.0004
  22397936.2784  -19982193.73648 -15242976.14146  22397933.3894   22397939.1354
     -1824.5674      -1421.7404
  22368989.9454  -15541045.44648 -11806660.00646  22368989.2264   22368992.9874
      3796.3784       2958.2154
  19450471.2834  -33747941.78648 -25243388.55347  19450468.6714   19450473.7104
       795.8904        620.1744
  23291797.9094  -23814127.25547 -18184886.16146  23291796.8274   23291801.7224
     -1705.0084      -1328.5754
  21693865.7634  -30016898.84148 -23030278.51647  21693863.3774   21693867.5264
      -987.6314       -769.5834
  21714524.4204  -20612713.99448 -15725374.73946  21714523.0934   21714527.3874
      -534.8494       -416.7654
 04 12 10  1 28 29.9980000  0  9G 2G17G29G 5G 6G10G 4G24G30
  20319947.5644  -39527771.66049 -30449562.12347  20319945.0434   20319948.1084
      -465.1004       -362.4164
  20335051.8704  -37041389.58849 -28537777.69747  20335049.6324   20335055.1974
      1084.4554        845.0304
  22995338.8684   -5891664.46147  -4259207.44845  22995337.3294   22995343.6584
      4191.7794       3266.3264
  22408358.2464  -19927415.49348 -15200291.83046  22408356.9004   22408363.1594
     -1832.3174      -1427.7814
  22347320.5864  -15654934.41948 -11895404.65846  22347316.8564   22347320.9704
      3791.2224       2954.2004
  19445963.6314  -33771630.13348 -25261846.99347  19445960.9464   19445966.2344
       778.3054        606.4704
  23301518.6344  -23763039.57747 -18145077.62846  23301517.9624   23301523.7564
     -1705.7494      -1329.1534
  21699497.1654  -29987303.30448 -23007217.06247  21699495.1534   21699499.5164
      -990.4364       -771.7684
  21717609.0904  -20596503.55248 -15712743.25546  21717607.4064   21717612.0904
      -550.8414       -429.2254
 04 12 10  1 28 59.9980000  0 10G 2G17G29G 5G 6G10G 4G24G26G30
  20322589.3464  -39513885.56149 -30438741.79647  20322587.5004   20322590.1604
      -466.8534       -363.7814
  20328843.4894  -37074014.32849 -28563199.56547  20328841.4224   20328846.6184
      1084.3204        844.9234
  22971384.2874   -6017556.63247  -4357305.23045  22971382.3394   22971386.6974
      4194.8414       3268.7104
  22418808.9704  -19872503.32048 -15157503.16446  22418806.4414   22418812.3894
     -1834.6634      -1429.6064
  22325656.1574  -15768763.25548 -11984102.42846  22325655.8164   22325661.0814
      3791.2664       2954.2324
  19441537.5904  -33794887.43548 -25279969.55047  19441535.1004   19441540.5194
       766.0044        596.8854
  23311228.4834  -23712027.00547 -18105327.60446  23311226.4584   23311230.6694
     -1701.1974      -1325.6074
  21705125.3154  -29957721.03148 -22984165.93547  21705124.2434   21705129.8014
      -987.9124       -769.8024
  23882320.1534     -66994.10744    -29967.12843
      4691.0914       3655.3944
  21720766.2564  -20579910.71248 -15699813.80046  21720764.8114   21720769.2764
      -561.4984       -437.5304
 04 12 10  1 29 29.9980000  0 10G 2G17G29G 5G 6G10G 4G24G26G30
  20325260.6944  -39499849.37149 -30427804.51747  20325258.7814   20325260.9014
      -467.7644       -364.4924
  20322654.4474  -37106537.71649 -28588542.46847  20322652.2004   20322657.8404
      1085.0184        845.4694
  22947427.0514   -6143441.54047  -4455397.33445  22947425.3784   22947430.7484
      4198.6004       3271.6414
  22429290.4414  -19817424.48648 -15114584.62446  22429288.1234   22429293.8854
     -1836.0794      -1430.7094
  22304016.3544  -15882494.55048 -12072724.21446  22304014.3484   22304018.7984
      3792.0174       2954.8184
  19437200.5734  -33817679.03248 -25297729.22547  19437198.5184   19437203.2894
       754.6134        588.0094
  23320928.6794  -23661054.34547 -18065608.68646  23320926.7384   23320929.0374
     -1695.7984      -1321.3994
  21710759.0494  -29928116.56848 -22961097.54147  21710757.4674   21710763.3144
      -984.5234       -767.1594
  23855494.7174    -207840.98144   -139781.25643
      4699.9454       3667.1464
  21724003.1674  -20562901.89348 -15686560.19646  21724001.5964   21724006.2534
      -571.2334       -445.1174
 04 12 10  1 29 59.9980000  0 10G 2G17G29G 5G 6G10G 4G24G26G30
  20327926.2954  -39485841.53149 -30416889.31847  20327924.4994   20327926.2024
      -469.3174       -365.7014
  20316451.0034  -37139137.55749 -28613944.93947  20316448.5524   20316454.5554
      1085.0484        845.4924
  22923442.3864   -6269494.19147  -4553620.14745  22923437.9274   22923442.6604
      4201.7164       3274.0694
  22439767.4094  -19762359.62848 -15071676.95946  22439766.0574   22439772.3434
     -1838.0764      -1432.2664
  22282358.0474  -15996303.85548 -12161406.79846  22282356.6214   22282360.8204
      3792.1454       2954.9184
  19432918.2454  -33840184.24848 -25315265.74447  19432915.6484   19432920.6774
       742.5784        578.6324
  23330586.1564  -23610299.26747 -18026059.24746  23330584.5074   23330588.3724
     -1691.0244      -1317.6824
  21716364.1894  -29898667.88548 -22938150.52747  21716362.1554   21716367.7864
      -981.8684       -765.0904
  23828636.9374    -349005.47744   -249926.12643
      4707.8514       3673.3244
  21727284.4224  -20545657.32348 -15673122.89946  21727282.8864   21727287.8134
      -581.5524       -453.1534
 04 12 10  1 30 29.9980000  0 10G 2G17G29G 5G 6G10G 4G24G26G30
  20330626.9424  -39471649.34649 -30405830.47447  20330625.3764   20330626.5164
      -479.6864       -373.7814
  20310273.5184  -37171600.97849 -28639241.10247  20310271.1254   20310276.9724
      1076.2854        838.6634
  22899461.8664   -6395498.58847  -4651805.37445  22899461.7804   22899466.3194
      4195.8014       3269.4544
  22450284.0114  -19707099.11048 -15028616.83146  22450281.5294   22450287.5494
     -1848.7744      -1440.6024
  22260726.8694  -16109976.09348 -12249982.56546  22260725.1384   22260729.9154
      3783.2484       2947.9874
  19428730.6734  -33862191.32448 -25332414.11547  19428727.9694   19428732.8884
       721.7374        562.3924
  23340243.4384  -23559549.21847 -17986513.74845  23340242.5814   23340246.3244
     -1695.0844      -1320.8494
  21721978.6984  -29869162.03148 -22915158.95947  21721977.1174   21721982.0144
      -988.0234       -769.8874
  23801757.5834    -490271.94544    -20923.58843
      4707.0144       3667.8004
  21730651.0504  -20527966.31848 -15659337.74846  21730649.4094   21730654.2634
      -600.6314       -468.0234
 04 12 10  1 30 59.9970000  0 10G 2G17G29G 5G 6G10G 4G24G26G30
  20333407.4034  -39457041.52549 -30394447.75747  20333405.2904   20333405.9894
      -492.9524       -384.1194
  20304166.3014  -37203694.98049 -28664249.40647  20304163.9134   20304169.3674
      1064.6404        829.5894
  22875541.5524   -6521215.56847  -4749766.62545  22875538.3074   22875542.4974
      4186.8724       3262.4894
  22460880.3524  -19651415.88648 -14985227.32546  22460878.0934   22460883.4124
     -1862.2554      -1451.1104
  22239166.4384  -16223273.37648 -12338266.14446  22239165.0434   22239170.7914
      3771.5144       2938.8424
  19424681.5734  -33883468.86249 -25348994.00847  19424679.1174   19424683.7934
       698.0534        543.9374
  23349942.8734  -23508573.88447 -17946792.72845  23349941.7814   23349947.9274
     -1702.0834      -1326.2984
  21727648.0174  -29839368.29448 -22891943.06847  21727646.2044   21727651.5924
      -997.0194       -776.8994
  23774898.2264    -631400.79844   -130894.53944
      4703.1564       3664.8334
  21734145.4154  -20509599.77048 -15645026.20546  21734144.3334   21734149.1264
      -622.5154       -485.0754
 04 12 10  1 31 29.9970000  0 10G 2G17G29G 5G 6G10G 4G24G26G30
  20336236.4764  -39442175.39749 -30382863.75247  20336234.2144   20336234.9714
      -501.5564       -390.8234
  20298098.9564  -37235579.50949 -28689094.49547  20298096.6534   20298101.6924
      1057.5864        824.0934
  22851641.2844   -6646808.63847  -4847631.30545  22851638.3214   22851644.4744
      4182.6174       3259.1854
  22471525.9544  -19595467.08348 -14941630.86546  22471524.5774   22471530.5184
     -1871.0294      -1457.9484
  22217647.0464  -16336359.05948 -12426384.85346  22217645.7924   22217650.3374
      3764.2314       2933.1674
  19420740.6834  -33904176.95349 -25365130.17047  19420738.4114   19420743.0264
       679.0914        529.1624
  23359657.2684  -23457527.92347 -17907016.72145  23359655.1004   23359660.7104
     -1704.3604      -1328.0684
  21733343.2514  -29809442.68748 -22868624.42647  21733341.3764   21733345.9604
     -1001.4044       -780.3154
  23748041.1274    -772556.24444   -240886.57544
      4703.8154       3665.3344
  21737739.4544  -20490716.74048 -15630312.19046  21737737.7804   21737742.6344
      -639.6854       -498.4534
 04 12 10  1 31 59.9970000  0 10G 2G17G29G 5G 6G10G 4G24G26G30
  20339117.9484  -39427030.61449 -30371062.61547  20339115.5474   20339116.7914
      -510.7784       -398.0094
  20292075.5054  -37267232.20549 -28713758.92547  20292073.1684   20292078.4784
      1049.9214        818.1204
  22827769.3014   -6772249.20747  -4945377.14445  22827767.9124   22827773.7714
      4177.5864       3255.2534
  22482227.5814  -19539236.75148 -14897815.04146  22482224.9974   22482231.5154
     -1880.2764      -1465.1494
  22196175.3984  -16449205.61248 -12514317.23346  22196173.2044   22196177.1064
      3756.3074       2926.9934
  19416913.0664  -33924295.17049 -25380806.68647  19416910.2954   19416914.9824
       659.4844        513.8844
  23369388.7334  -23406391.88547 -17867170.50145  23369386.3404   23369391.9844
     -1707.2894      -1330.3544
  21739066.5564  -29779364.97648 -22845187.24147  21739064.5674   21739069.7124
     -1006.4184       -784.2214
  23721177.6054    -913709.85244    -11758.41043
      4703.8664       3665.3294
  21741434.6814  -20471298.91048 -15615181.43546  21741433.4534   21741437.3984
      -657.4114       -512.2684
 04 12 10  1 32 29.9970000  0 10G 2G17G29G 5G 6G10G 4G24G26G30
  20342045.9274  -39411641.77449 -30359071.31047  20342044.0784   20342045.6774
      -516.2304       -402.2564
  20286089.6344  -37298687.28149 -28738269.36647  20286087.5944   20286093.0104
      1046.0004        815.0644
  22803923.5704   -6897568.62247  -5043028.61745  22803920.4504   22803925.4534
      4176.0804       3254.0874
  22492974.2454  -19482762.03948 -14853808.79246  22492972.0254   22492977.3854
     -1885.7614      -1469.4254
  22174738.4484  -16561845.57448 -12602088.64046  22174737.1134   22174741.4754
      3752.0284       2923.6564
  19413190.1174  -33943858.98249 -25396051.20947  19413187.1034   19413192.0824
       643.6954        501.5804
  23379129.5594  -23355200.57747 -17827281.20646  23379128.4344   23379132.1324
     -1706.4244      -1329.6814
  21744812.3684  -29749169.62048 -22821658.40047  21744810.5834   21744815.1474
     -1007.6494       -785.1814
  23694313.5484   -1054892.58544   -121770.80044
      4707.3164       3668.0304
  21745224.5604  -20451382.86848 -15599662.45746  21745223.3214   21745227.7224
      -671.3014       -523.0914
 04 12 10  1 32 59.9970000  0 10G 2G17G29G 5G 6G10G 4G24G26G30
  20345028.7354  -39395964.64849 -30346855.36647  20345027.0824   20345028.9214
      -527.3014       -410.8854
  20280150.1514  -37329900.25749 -28762591.16147  20280147.7194   20280153.3264
      1036.4494        807.6224
  22780105.5354   -7022719.27447  -5140548.61445  22780104.9644   22780108.1154
      4168.9144       3248.5034
  22503776.0754  -19426001.70948 -14809579.98346  22503773.3684   22503778.6134
     -1896.6514      -1477.9094
  22153352.6884  -16674232.09148 -12689662.54946  22153350.9104   22153355.1594
      3742.1124       2915.9324
  19409580.7284  -33962825.28949 -25410830.14647  19409578.1014   19409582.7784
       622.3684        484.9624
  23388892.3144  -23303909.24847 -17787313.97546  23388889.7234   23388893.7704
     -1711.2404      -1333.4334
  21750587.9694  -29718812.22248 -22798003.28946  21750586.5764   21750591.5534
     -1014.5324       -790.5444
  23667450.7444   -1196057.25247   -231769.23545  23667448.0644   23667456.0314
      4705.1854       3666.3804
  21749117.4774  -20430926.46948 -15583722.43846  21749116.0714   21749120.2754
      -690.7644       -538.2564
 04 12 10  1 33 29.9970000  0 10G 2G17G29G 5G 6G10G 4G24G26G30
  20348065.7994  -39380006.78749 -30334420.66747  20348063.7384   20348066.0604
      -537.5494       -418.8694
  20274255.5164  -37360878.53449 -28786730.07147  20274253.0274   20274258.1484
      1027.7994        800.8824
  22756323.2554   -7147705.76747  -5237940.67545  22756320.6204   22756326.1504
      4162.5534       3243.5484
  22514628.8354  -19368966.24948 -14765136.79346  22514626.4114   22514631.6074
     -1906.6434      -1485.6974
  22132013.4674  -16786370.24348 -12777042.92446  22132011.8614   22132016.6184
      3732.8654       2908.7264
  19406083.5444  -33981202.22049 -25425149.82847  19406081.0694   19406086.0344
       601.8454        468.9704
  23398666.9734  -23252525.39347 -17747274.63945  23398666.2084   23398670.9714
     -1715.2064      -1336.5264
  21756396.2304  -29688300.50048 -22774227.92647  21756393.5624   21756398.4414
     -1020.5724       -795.2514
  23640589.9234   -1337208.02647   -341756.85645  23640588.8024   23640596.0094
      4703.8314       3665.3184
  21753111.2204  -20409939.51748 -15567369.01346  21753109.4024   21753113.4024
      -709.2714       -552.6794
 04 12 10  1 33 59.9970000  0 10G 2G17G29G 5G 6G10G 4G24G26G30
  20351168.3964  -39363702.67049 -30321716.16447  20351166.4734   20351168.9524
      -547.7404       -426.8104
  20268416.9744  -37391555.96349 -28810634.55047  20268414.9874   20268420.5304
      1019.0674        794.0774
  22732582.6304   -7272458.99147  -5335150.94045  22732580.5384   22732585.7794
      4156.0684       3238.4944
  22525546.3664  -19311592.79348 -14720430.24246  22525544.3804   22525550.3684
     -1916.5284      -1493.3994
  22110734.1604  -16898192.32048 -12864176.97946  22110732.1614   22110737.3804
      3723.6214       2901.5204
  19402711.0704  -33998925.29249 -25438960.00647  19402708.3364   19402713.3204
       581.4174        453.0514
  23408475.4494  -23200983.21147 -17707111.92845  23408474.8134   23408479.1484
     -1719.1834      -1339.6234
  21762243.8524  -29657568.52248 -22750280.93047  21762241.8694   21762246.6564
     -1026.5444       -799.9044
  23613745.8214   -1478276.05247   -451679.93245  23613743.7484   23613750.6904
      4702.3054       3664.1444
  21757218.1864  -20388358.44748 -15550552.60246  21757216.6174   21757220.0844
      -727.7194       -567.0554
 04 12 10  1 34 29.9970000  0 10G 2G17G29G 5G 6G10G 4G24G26G30
  20354309.2614  -39347196.90849 -30308854.53347  20354307.3434   20354310.3874
      -553.8044       -431.5354
  20262609.2604  -37422076.88349 -28834417.08447  20262607.0494   20262612.5574
      1014.4914        790.5124
  22708860.1584   -7397120.19947  -5432289.50945  22708858.6354   22708864.3214
      4153.5694       3236.5464
  22536500.8944  -19254028.74148 -14675575.18046  22536498.5034   22536504.3644
     -1922.1824      -1497.8044
  22089490.4584  -17009840.10048 -12951175.26146  22089487.5764   22089490.3884
      3718.5264       2897.5534
  19399435.1044  -34016140.05649 -25452374.10747  19399432.5694   19399437.3994
       565.1224        440.3554
  23418287.2594  -23149427.21547 -17666938.42945  23418286.0654   23418289.4404
     -1718.9724      -1339.4594
  21768106.4214  -29626760.67448 -22726274.82247  21768104.4284   21768109.5784
     -1028.4164       -801.3634
  23586889.7044   -1619402.65347   -561648.72145  23586889.3154   23586894.6084
      4704.8954       3666.1524
  21761409.8044  -20366329.98748 -15533387.56946  21761408.0464   21761412.7714
      -741.9344       -578.1284
 04 12 10  1 34 59.9970000  0 10G 2G17G29G 5G 6G10G 4G24G26G30
  20357496.6374  -39330447.34849 -30295802.93747  20357494.8554   20357497.9904
      -563.7294       -439.2694
  20256839.2594  -37452398.64449 -28858044.42447  20256837.0354   20256842.5914
      1006.0644        783.9464
  22685164.0894   -7521643.97847  -5529320.98145  22685162.9684   22685168.4074
      4147.1844       3231.5684
  22547499.0414  -19196234.75548 -14630540.94246  22547496.3124   22547502.6264
     -1931.5944      -1505.1354
  22068283.9474  -17121268.75448 -13038002.79846  22068282.7064   22068286.4454
      3709.3964       2890.4384
  19396263.9004  -34032805.56549 -25465360.21247  19396261.2784   19396266.1354
       545.0814        424.7384
  23428108.4134  -23097814.86747 -17626721.02945  23428106.8044   23428111.0654
     -1722.6594      -1342.3354
  21773990.9424  -29595834.24048 -22702176.30947  21773989.6024   21773995.3144
     -1034.1764       -805.8524
  23560032.8854   -1760542.33547   -671627.69245  23560029.9324   23560035.9174
      4703.4734       3665.0484
  21765694.0494  -20343813.93848 -15515842.62446  21765692.5384   21765697.5194
      -759.9304       -592.1514
 04 12 10  1 35 29.9970000  0 10G 2G17G29G 5G 6G10G 4G24G26G30
  20360734.2174  -39313436.83649 -30282548.00347  20360732.2184   20360734.6564
      -570.7714       -444.7574
  20251110.0894  -37482504.12749 -28881503.24047  20251108.2324   20251113.6934
      1000.5004        779.6114
  22661498.6634   -7646010.02447  -5626229.61445  22661496.8784   22661500.9094
      4143.4884       3228.6964
  22558543.6024  -19138196.69048 -14585316.48646  22558541.1904   22558547.2774
     -1938.0604      -1510.1754
  22047126.2674  -17232459.28348 -13124644.74646  22047124.4644   22047129.3354
      3702.9564       2885.4204
  19393199.2954  -34048905.76549 -25477905.81847  19393197.2554   19393202.2074
       527.8844        411.3384
  23437944.9224  -23046129.04047 -17586446.39545  23437942.6734   23437947.0484
     -1723.4374      -1342.9414
  21779902.2654  -29564772.45248 -22677972.32647  21779900.1004   21779905.8834
     -1037.0254       -808.0724
  23533174.4474   -1901675.11147   -781601.30445  23533173.3254   23533179.4284
      4704.8784       3666.1394
  21770074.2154  -20320795.60848 -15497906.30146  21770072.6404   21770078.2744
      -774.9874       -603.8844
 04 12 10  1 35 59.9970000  0 10G 2G17G29G 5G 6G10G 4G24G26G30
  20364019.9974  -39296164.63949 -30269089.15547  20364018.7664   20364021.1954
      -580.5104       -452.3464
  20245422.6914  -37512392.10549 -28904792.57347  20245420.4344   20245426.2044
       992.2244        773.1614
  22637862.9364   -7770214.40247  -5723012.24245  22637861.1504   22637865.4574
      4137.0574       3223.6834
  22569633.2394  -19079916.64448 -14539903.48146  22569630.8694   22569636.4914
     -1947.0724      -1517.1994
  22026011.1624  -17343407.94948 -13211098.23246  22026010.0064   22026015.1784
      3693.8394       2878.3164
  19390243.7704  -34064440.89149 -25490011.10247  19390241.3444   19390246.1614
       508.0444        395.8794
  23447795.2024  -22994368.90247 -17546113.84246  23447793.0274   23447798.7124
     -1726.9294      -1345.6544
  21785838.0774  -29533574.55248 -22653662.29047  21785836.1104   21785842.1724
     -1042.5754       -812.3974
  23506321.3994   -2042796.50647   -891565.98545  23506319.2764   23506326.3944
      4703.3834       3664.9644
  21774549.5234  -20297276.44248 -15479579.72046  21774548.0454   21774553.9744
      -792.6824       -617.6724
 04 12 10  1 36 29.9970000  0 10G 2G17G29G 5G 6G10G 4G24G26G30
  20367364.2034  -39278595.27749 -30255398.74647  20367362.2904   20367364.3554
      -589.7914       -459.5774
  20239783.1744  -37542026.59849 -28927884.38447  20239781.2344   20239786.8624
       984.3814        767.0514
  22614265.7134   -7894218.04647  -5819638.41445  22614263.2654   22614269.1494
      4130.8824       3218.8704
  22580774.6604  -19021361.83548 -14494276.37946  22580773.2114   22580779.6984
     -1955.5584      -1523.8084
  22004954.7054  -17454076.97748 -13297333.83246  22004951.7364   22004955.4674
      3685.0904       2871.5004
  19387401.3634  -34079376.40049 -25501649.14947  19387398.8764   19387403.9514
       488.6734        380.7854
  23457663.4004  -22942498.54447 -17505695.41745  23457661.9234   23457667.3084
     -1730.0004      -1348.0464
  21791808.3754  -29502204.24348 -22629217.91246  21791806.3234   21791811.0694
     -1047.7564       -816.4324
  23479476.2974   -2183867.99047  -1001491.77845  23479474.7634   23479482.3194
      4702.2814       3664.1144
  21779126.6674  -20273223.00348 -15460836.82646  21779125.7974   21779131.4314
      -809.8594       -631.0564
 04 12 10  1 36 59.9970000  0 10G 2G17G29G 5G 6G10G 4G24G26G30
  20370751.8284  -39260792.57849 -30241526.51847  20370750.3424   20370751.6524
      -597.0984       -465.2714
  20234179.8954  -37571470.87949 -28950827.97347  20234178.1224   20234183.9104
       978.5224        762.4854
  22590694.9174   -8018081.51747  -5916155.33445  22590693.8254   22590700.0194
      4126.6864       3215.6014
  22591958.3034  -18962598.73348 -14448486.96546  22591955.6494   22591961.7594
     -1961.9864      -1528.8214
  21983935.3164  -17564527.35848 -13383399.06246  21983933.4414   21983938.1704
      3678.3174       2866.2214
  19384661.0854  -34093777.36249 -25512870.66747  19384658.5294   19384663.6524
       471.3704        367.3014
  23467545.0714  -22890581.59247 -17465240.70445  23467543.0404   23467547.0724
     -1731.0854      -1348.8984
  21797799.1334  -29470725.33448 -22604688.89746  21797796.7044   21797800.8124
     -1050.8944       -818.8774
  23452630.4924   -2324949.49647  -1111425.36645  23452627.7364   23452634.4254
      4703.0564       3664.7264
  21783793.6534  -20248701.15748 -15441728.92546  21783792.2324   21783796.9334
      -824.9184       -642.7924
 04 12 10  1 37 29.9970000  0 10G 2G17G29G 5G 6G10G 4G24G26G30
  20374179.1554  -39242782.83049 -30227492.94547  20374177.1674   20374178.5424
      -605.0544       -471.4734
  20228608.6134  -37600751.03349 -28973643.67147  20228606.5214   20228612.0844
       971.9824        757.3884
  22567145.8564   -8141827.86147  -6012581.03145  22567145.9734   22567151.4394
      4121.6894       3211.7054
  22603174.4374  -18903656.47148 -14402557.95246  22603172.2914   22603178.0384
     -1968.9264      -1534.2274
  21962953.9224  -17674783.60548 -13469313.00146  21962952.6984   21962957.0314
      3670.7074       2860.2904
  19382017.0624  -34107671.15149 -25523696.99247  19382014.5274   19382019.8254
       453.4484        353.3354
  23477428.2984  -22838644.38747 -17424770.15945  23477426.8994   23477430.3464
     -1732.8244      -1350.2554
  21803805.7964  -29439164.12448 -22580095.74747  21803803.3554   21803807.5594
     -1054.6564       -821.8104
  23425775.9414   -2466064.67047  -1221385.28245  23425773.6974   23425779.9734
      4703.1204       3664.7694
  21788543.4034  -20223739.68748 -15422278.43646  21788541.8574   21788546.7004
      -840.5874       -655.0024
 04 12 10  1 37 59.9970000  0 10G 2G17G29G 5G 6G10G 4G24G26G30
  20377659.4664  -39224496.94449 -30213244.20147  20377656.8204   20377657.9564
      -613.4294       -477.9964
  20223081.1884  -37629797.65449 -28996277.40047  20223079.0954   20223084.6884
       965.0114        751.9574
  22543636.3984   -8265384.78547  -6108859.14545  22543633.0594   22543637.7594
      4116.1574       3207.3904
  22614438.2424  -18844468.96348 -14356437.83146  22614435.3964   22614441.3624
     -1976.2664      -1539.9494
  21942024.4344  -17784773.28648 -13555019.23946  21942021.9554   21942026.1954
      3662.5944       2853.9704
  19379482.4274  -34120990.13349 -25534075.41347  19379479.9624   19379485.3624
       435.0854        339.0264
  23487325.9574  -22786617.57447 -17384229.78245  23487325.1584   23487330.3454
     -1734.9464      -1351.9074
  21809839.4304  -29407450.89348 -22555384.13947  21809837.9814   21809842.5604
     -1058.9164       -825.1304
  23398928.3864   -2607140.84247  -1331314.74545  23398927.3104   23398934.0574
      4702.5164       3664.2994
  21793390.2194  -20198271.62148 -15402433.23646  21793388.9404   21793393.8854
      -856.6464       -667.5134
 04 12 10  1 38 29.9970000  0 10G 2G17G29G 5G 6G10G 4G24G26G30
  20381180.7944  -39205982.69949 -30198817.51447  20381179.4654   20381180.8284
      -621.7184       -484.4554
  20217589.9654  -37658658.04249 -29018766.01547  20217587.4774   20217592.8604
       958.1264        746.5924
  22520149.5654   -8388796.47547  -6205024.08345  22520147.8304   22520153.6174
      4110.4834       3202.9764
  22625737.1214  -18785086.63648 -14310165.90246  22625735.5604   22625741.6964
     -1983.3904      -1545.4994
  21921134.7794  -17894542.07048 -13640553.34846  21921133.3874   21921137.9264
      3654.5264       2847.6844
  19377048.2104  -34133782.85749 -25544043.77147  19377045.7194   19377050.7384
       416.8984        324.8564
  23497236.2714  -22734548.34747 -17343656.36245  23497234.4224   23497239.4654
     -1736.9894      -1353.5004
  21815895.0614  -29375633.24248 -22530591.16047  21815892.9554   21815897.7424
     -1063.0864       -828.3794
  23372082.5894   -2748222.28547  -1441248.27145  23372080.2054   23372087.3354
      4701.9694       3663.8644
  21798323.4724  -20172346.85448 -15382232.15446  21798322.0404   21798326.9534
      -872.4754       -679.8534
 04 12 10  1 38 59.9970000  0 10G 2G17G29G 5G 6G10G 4G24G26G30
  20384755.4594  -39187199.70749 -30184181.41147  20384753.8794   20384755.6084
      -630.6144       -491.3894
  20212140.7334  -37687291.48449 -29041077.79247  20212138.6704   20212144.0284
       950.6424        740.7604
  22496701.6714   -8512019.40047  -6301041.90045  22496700.2614   22496705.7444
      4104.2514       3198.1154
  22637082.8284  -18725472.04748 -14263712.99746  22637079.6814   22637086.0484
     -1991.0494      -1551.4664
  21900297.7544  -18004047.11048 -13725881.94446  21900295.5274   21900299.5254
      3645.7204       2840.8194
  19374720.9434  -34146010.11249 -25553571.49647  19374718.9184   19374723.8284
       398.1274        310.2284
  23507161.5704  -22682396.47047 -17303018.56045  23507158.9294   23507164.4314
     -1739.7884      -1355.6824
  21821975.7284  -29343670.86548 -22505685.41547  21821974.2074   21821979.6874
     -1067.8594       -832.0984
  23345242.7204   -2889265.39447  -1551151.96045  23345241.6494   23345248.6244
      4700.7324       3662.9114
  21803350.2164  -20145927.59348 -15361645.70646  21803349.2514   21803354.3984
      -888.8554       -692.6124
 04 12 10  1 39 29.9970000  0 10G 2G17G29G 5G 6G10G 4G24G26G30
  20388383.5444  -39168131.17749 -30169322.81647  20388382.0514   20388384.1594
      -640.6354       -499.1974
  20206738.8624  -37715680.57449 -29063199.16147  20206736.6244   20206741.7004
       941.9764        734.0084
  22473293.5774   -8635033.29047  -6396896.86646  22473292.3974   22473297.5094
      4096.7034       3192.2344
  22648471.9874  -18665610.98648 -14217068.04646  22648469.9354   22648476.8884
     -1999.7064      -1558.2104
  21879513.0944  -18113268.91548 -13810989.83746  21879511.2724   21879515.6914
      3635.7814       2833.0754
  19372504.6114  -34157656.16649 -25562646.33447  19372502.6004   19372507.7454
       378.2804        294.7644
  23517104.6094  -22630144.74047 -17262302.97845  23517101.6154   23517106.0674
     -1743.5974      -1358.6454
  21828089.5164  -29311546.62148 -22480653.55147  21828087.2174   21828093.2544
     -1073.7854       -836.7144
  23318417.1584   -3030249.89547  -1661009.96245  23318413.5204   23318420.3064
      4698.1794       3660.9224
  21808475.7654  -20118998.88448 -15340662.36146  21808473.8074   21808478.8654
      -906.2764       -706.1854
 04 12 10  1 39 59.9970000  0 10G 2G17G29G 5G 6G10G 4G24G26G30
  20392052.1344  -39148857.28949 -30154304.20847  20392050.1374   20392052.2634
      -646.6334       -503.8694
  20201367.1114  -37743905.57649 -29085192.66447  20201365.0664   20201370.5674
       937.3054        730.3674
  22449908.6734   -8757915.55647  -6492649.23645  22449907.8034   22449913.5334
      4093.0584       3189.3954
  22659895.2594  -18605586.73348 -14170295.92646  22659892.5144   22659899.3564
     -2004.2794      -1561.7744
  21858767.8534  -18222285.27648 -13895937.65046  21858766.2274   21858769.8184
      3629.6834       2828.3234
  19370384.2954  -34168802.60649 -25571331.86247  19370381.3464   19370386.6814
       362.4774        282.4484
  23527050.5444  -22577873.62847 -17221572.26245  23527048.8394   23527054.2384
     -1743.4064      -1358.4974
  21834217.6354  -29279340.69648 -22455558.04847  21834215.4064   21834221.5054
     -1075.6484       -838.1664
  23291582.6914   -3171252.90347  -1770882.42445  23291581.7284   23291587.3794
      4699.6374       3662.0574
  21813679.6574  -20091643.76948 -15319346.72646  21813678.7784   21813684.0874
      -919.6364       -716.5994
 04 12 10  1 40 29.9970000  0 10G 2G17G29G 5G 6G10G 4G24G26G30
  20395757.2084  -39129388.65049 -30139133.84247  20395755.0994   20395757.4984
      -653.7294       -509.3994
  20196026.5394  -37771976.38049 -29107066.01447  20196023.5054   20196028.7344
       931.6374        725.9524
  22426549.7114   -8880673.10447  -6588304.42745  22426546.3664   22426552.2834
      4088.2954       3185.6854
  22671345.8874  -18545412.73848 -14123407.11446  22671344.3374   22671349.4654
     -2009.7874      -1566.0674
  21838061.0944  -18331104.31948 -13980731.71246  21838058.4994   21838062.7044
      3622.5114       2822.7354
  19368355.0544  -34179461.18849 -25579637.24047  19368352.9684   19368358.4964
       345.6624        269.3474
  23537000.4444  -22525593.01047 -17180834.11445  23536997.9884   23537002.6434
     -1744.2504      -1359.1534
  21840360.1094  -29247063.23448 -22430406.80147  21840358.1434   21840363.4834
     -1078.6624       -840.5154
  23264745.0924   -3312281.54947  -1880774.83345  23264743.6214   23264750.0084
      4699.7934       3662.1684
  21818964.9564  -20063874.88948 -15297708.62446  21818963.6304   21818968.5844
      -933.9874       -727.7804
 04 12 10  1 40 59.9970000  0 10G 2G17G29G 5G 6G10G 4G24G26G30
  20399514.1804  -39109645.81049 -30123749.81747  20399512.2824   20399514.6074
      -662.6034       -516.3144
  20190728.2754  -37799813.25349 -29128757.08047  20190726.2024   20190731.5994
       924.0694        720.0534
  22403229.3844   -9003223.39647  -6683798.11845  22403227.3954   22403232.4704
      4081.6534       3180.5124
  22682839.9194  -18485012.41648 -14076341.94446  22682837.9694   22682843.7294
     -2016.9964      -1571.6854
  21817405.1294  -18439643.90448 -14065307.99146  21817403.9004   21817409.2844
      3613.4404       2815.6664
  19366434.9654  -34189553.87049 -25587501.66547  19366432.4534   19366438.2064
       327.1044        254.8864
  23546964.3854  -22473223.56847 -17140026.76745  23546963.5184   23546968.6674
     -1747.0094      -1361.3044
  21846531.5304  -29214634.89548 -22405137.97547  21846529.4504   21846534.3594
     -1083.3504       -844.1694
  23237920.8964   -3453253.19647  -1990622.86145  23237919.0074   23237924.8224
      4698.1134       3660.8664
  21824343.3474  -20035615.18348 -15275688.12146  21824341.7444   21824346.0714
      -950.0344       -740.2824
 04 12 10  1 41 29.9970000  0 10G 2G17G29G 5G 6G10G 4G24G26G30
  20403317.9624  -39089654.35649 -30108172.06847  20403316.3734   20403318.5874
      -669.9624       -522.0474
  20185471.6994  -37827441.49049 -29150285.57747  20185468.9334   20185474.0774
       917.9964        715.3224
  22379944.0864   -9125588.76647  -6779147.75445  22379942.2504   22379946.2304
      4076.3384       3176.3664
  22694370.9944  -18424414.33248 -14029122.66746  22694368.9454   22694375.7094
     -2022.6444      -1576.0884
  21796799.6954  -18547927.48448 -14149684.79446  21796798.0454   21796803.2704
      3605.7274       2809.6584
  19364616.6874  -34199107.54549 -25594946.08047  19364614.4724   19364620.1674
       310.0564        241.6024
  23556942.2904  -22420790.86147 -17099170.14545  23556941.2164   23556945.1454
     -1748.2004      -1362.2334
  21852725.6934  -29182080.74248 -22379771.11047  21852724.1264   21852728.7304
     -1086.6754       -846.7604
  23211100.6544   -3594189.93647  -2100443.66145  23211099.0624   23211105.0004
      4697.8554       3660.6634
  21829809.1574  -20006892.80748 -15253307.07446  21829807.3234   21829812.0314
      -964.5034       -751.5614
 04 12 10  1 41 59.9970000  0 10G 2G17G29G 5G 6G10G 4G24G26G30
  20407168.7524  -39069423.43549 -30092407.71747  20407166.5404   20407168.4664
      -680.6264       -530.3574
  20180251.7674  -37854869.52049 -29171658.06947  20180249.2724   20180254.5444
       908.6214        708.0164
  22356691.6264   -9247774.59247  -6874357.46745  22356691.0404   22356696.0484
      4067.5824       3169.5424
  22705937.5384  -18363630.27548 -13981758.51046  22705935.4914   22705942.1064
     -2031.4774      -1582.9684
  21776241.3444  -18655961.29648 -14233866.98746  21776240.0264   21776244.5194
      3594.6994       2801.0654
  19362899.6724  -34208132.33949 -25601978.38547  19362897.2244   19362902.5184
       289.7744        225.7994
  23566930.0384  -22368303.48347 -17058270.88345  23566929.1034   23566932.7644
     -1752.7574      -1365.7844
  21858944.1834  -29149409.55448 -22354313.04047  21858941.8094   21858946.1904
     -1093.2754       -851.9014
  23184285.4944   -3735097.43047  -2210241.68545  23184285.1054   23184291.3454
      4694.1224       3657.7574
  21835359.9584  -19977718.91848 -15230574.20046  21835358.4474   21835364.0924
      -982.2264       -765.3684
 04 12 10  1 42 29.9970000  0 10G 2G17G29G 5G 6G10G 4G24G26G30
  20411068.5434  -39048930.33449 -30076439.07447  20411065.9364   20411067.8854
      -685.3924       -534.0724
  20175074.8224  -37882074.66149 -29192856.88047  20175072.7494   20175077.5494
       905.1764        705.3334
  22333480.5104   -9369755.45347  -6969407.42645  22333478.7484   22333483.8214
      4064.6874       3167.2844
  22717543.5064  -18302640.46448 -13934234.01946  22717541.4544   22717548.3964
     -2034.3054      -1585.1704
  21755736.6484  -18763720.34248 -14317835.08346  21755734.2194   21755738.8794
      3589.5354       2797.0414
  19361286.9804  -34216607.23549 -25608582.19547  19361284.6904   19361289.8424
       275.4394        214.6274
  23576933.6774  -22315738.86947 -17017311.43645  23576931.4784   23576935.4034
     -1751.2824      -1364.6334
  21865187.0824  -29116598.99048 -22328746.37147  21865185.0374   21865189.5984
     -1093.9264       -852.4104
  23157483.9534   -3875949.73947  -2319996.70245  23157481.8434   23157488.2864
      4696.2224       3659.3994
  21841002.0474  -19948073.49448 -15207473.91646  21841000.2494   21841004.4964
      -993.9234       -774.4854
 04 12 10  1 42 59.9970000  0 10G 2G17G29G 5G 6G10G 4G24G26G30
  20415003.3014  -39028247.50849 -30060322.59047  20415001.6154   20415003.4744
      -692.6994       -539.7664
  20169926.2204  -37909128.62749 -29213937.88947  20169924.4644   20169929.6584
       899.1764        700.6564
  22310294.8424   -9491600.25947  -7064351.42045  22310291.8094   22310296.5584
      4059.1114       3162.9414
  22729174.6554  -18241520.26148 -13886607.90846  22729172.6514   22729178.5604
     -2039.5574      -1589.2654
  21735269.5244  -18871274.59248 -14401643.57846  21735267.1674   21735272.2044
      3581.6394       2790.8874
  19359764.8384  -34224605.85549 -25614814.88447  19359762.4884   19359767.8244
       258.5924        201.5014
  23586939.1424  -22263169.08847 -16976348.00745  23586936.9224   23586939.8034
     -1752.4314      -1365.5354
  21871443.5814  -29083720.98948 -22303127.15446  21871441.3844   21871446.3144
     -1097.1484       -854.9194
  23130676.7984   -4016815.94947  -2429762.54045  23130675.0444   23130682.0744
      4695.5934       3658.9024
  21846719.0134  -19918031.25648 -15184064.40846  21846717.0104   21846721.7294
     -1008.0944       -785.5264
 04 12 10  1 43 29.9970000  0 10G 2G17G29G 5G 6G10G 4G24G26G30
  20418982.5454  -39007339.67449 -30044030.77247  20418980.5244   20418981.7344
      -700.1364       -545.5594
  20164814.7134  -37935995.73449 -29234873.29147  20164811.7704   20164816.7764
       893.0144        695.8554
  22287139.3684   -9613270.37347  -7159159.27845  22287139.3084   22287144.0484
      4053.3064       3158.4214
  22740837.4224  -18180236.98248 -13838854.73246  22740834.8434   22740840.6764
     -2044.9224      -1593.4444
  21714848.4564  -18978585.77548 -14485262.67146  21714846.9434   21714851.2764
      3573.5334       2784.5724
  19358340.2554  -34232094.14649 -25620649.91147  19358337.5844   19358342.7594
       241.6774        188.3204
  23596949.3734  -22210558.45247 -16935352.74345  23596947.0514   23596951.6154
     -1753.7244      -1366.5404
  21877718.7004  -29050740.23148 -22277427.87146  21877717.0694   21877722.9054
     -1100.5214       -857.5494
  23103876.4944   -4157657.18547  -2539508.95145  23103874.2254   23103881.5894
      4694.7844       3658.2774
  21852516.7904  -19887559.31948 -15160320.06846  21852515.0834   21852520.3614
     -1022.2764       -796.5754
 04 12 10  1 43 59.9970000  0 10G 2G17G29G 5G 6G10G 4G24G26G30
  20423004.8264  -38986199.19249 -30027557.66747  20423003.0324   20423004.4844
      -708.6494       -552.1954
  20159738.3784  -37962667.92449 -29255656.81447  20159736.0754   20159741.2984
       885.7724        690.2124
  22264022.6444   -9734754.93947  -7253822.54545  22264021.2354   22264026.5544
      4046.3344       3152.9824
  22752530.8534  -18118785.91348 -13790970.80446  22752528.2274   22752534.4884
     -2051.2314      -1598.3584
  21694476.2164  -19085644.33648 -14568684.92646  21694474.2784   21694479.0504
      3564.3104       2777.3874
  19357013.3884  -34239065.93549 -25626082.47047  19357010.9994   19357016.2184
       223.7244        174.3304
  23606967.2344  -22157899.28747 -16894319.66145  23606967.2814   23606972.3974
     -1756.1594      -1368.4334
  21884015.8364  -29017648.53148 -22251642.15246  21884014.2974   21884020.0874
     -1105.0134       -861.0504
  23077082.7964   -4298462.55947  -2649227.40845  23077081.3734   23077085.9004
      4692.8134       3656.7394
  21858398.0874  -19856652.49048 -15136236.86546  21858396.3934   21858401.6214
     -1037.5004       -808.4374
 04 12 10  1 44 29.9970000  0 10G 2G17G29G 5G 6G10G 4G24G26G30
  20427062.4984  -38964879.80649 -30010945.15747  20427060.1144   20427061.5294
      -715.2074       -557.3054
  20154689.8254  -37989198.82149 -29276330.23447  20154687.5284   20154692.4914
       880.4024        686.0264
  22240931.8724   -9856104.62847  -7348380.68346  22240928.8524   22240935.1854
      4041.1214       3148.9224
  22764244.2204  -18057223.79148 -13743000.35146  22764242.3984   22764249.4824
     -2055.5364      -1601.7144
  21674141.7974  -19192501.34548 -14651950.12846  21674140.5094   21674145.0334
      3556.9114       2771.6184
  19355774.5044  -34245576.51249 -25631155.64247  19355772.0344   19355777.2314
       207.7414        161.8764
  23616989.0524  -22105245.61747 -16853290.89445  23616987.8044   23616991.0464
     -1756.6604      -1368.8254
  21890324.2324  -28984499.42148 -22225811.69846  21890322.4614   21890328.1104
     -1107.5194       -863.0024
  23050285.7394   -4439282.52347  -2758957.24045  23050283.2524   23050288.3364
      4692.6224       3656.5894
  21864351.5254  -19825367.26448 -15111858.81246  21864350.2214   21864355.3724
     -1050.6584       -818.6944
 04 12 10  1 44 59.9970000  0 10G 2G17G29G 5G 6G10G 4G24G26G30
  20431170.9794  -38943286.40249 -29994119.13147  20431169.5594   20431170.5414
      -723.1094       -563.4614
  20149686.5044  -38015492.56249 -29296818.85747  20149684.0444   20149688.9204
       873.7554        680.8494
  22217883.3424   -9977220.80347  -7442756.91245  22217881.5934   22217886.1084
      4034.5274       3143.7884
  22775998.4824  -17995458.23148 -13694871.36446  22775996.5934   22776003.5794
     -2060.9844      -1605.9604
  21653865.2444  -19299058.84048 -14734981.93046  21653862.8994   21653868.3264
      3548.1664       2764.8064
  19354641.3434  -34251531.73449 -25635796.06947  19354638.6084   19354644.0284
       190.5374        148.4714
  23627025.9784  -22052501.57647 -16812191.67445  23627024.4354   23627028.7464
     -1758.3264      -1370.1254
  21896661.6114  -28951197.40548 -22199862.08647  21896660.0704   21896665.0064
     -1111.3674       -865.9994
  23023504.5544   -4580018.24247  -2868621.41045  23023502.0784   23023508.1884
      4690.9774       3655.3014
  21870395.3174  -19793610.71448 -15087113.45446  21870393.5884   21870399.1944
     -1065.1134       -829.9574
 04 12 10  1 45 29.9970000  0 10G 2G17G29G 5G 6G10G 4G24G26G30
  20435316.4324  -38921503.77949 -29977145.65147  20435314.4294   20435315.7484
      -729.1134       -568.1404
  20144712.0634  -38041633.57949 -29317188.47647  20144709.5584   20144714.2844
       868.9524        677.1054
  22194863.7204  -10098185.00647  -7537014.71145  22194862.8004   22194867.8314
      4029.7134       3140.0384
  22787774.6794  -17933577.09548 -13646652.32346  22787772.6384   22787777.7824
     -2064.4484      -1608.6624
  21633627.5764  -19405399.47648 -14817844.75946  21633626.7594   21633631.4644
      3541.2444       2759.4104
  19353597.2864  -34257018.01749 -25640071.09247  19353594.8474   19353599.6704
       175.2304        136.5424
  23637063.6834  -21999751.80547 -16771087.98745  23637061.9314   23637065.4684
     -1758.2424      -1370.0594
  21903012.5094  -28917827.32348 -22173859.43547  21903010.5784   21903014.7654
     -1113.3254       -867.5254
  22996721.6864   -4720751.35947  -2978283.55245  22996721.3414   22996727.4754
      4691.1364       3655.4374
  21876511.0404  -19761470.24248 -15062068.97646  21876509.6784   21876514.8444
     -1077.5494       -839.6474
 04 12 10  1 45 59.9970000  0 10G 2G17G29G 5G 6G10G 4G24G26G30
  20439501.2234  -38899510.59649 -29960008.10247  20439499.4874   20439501.0934
      -739.4174       -576.1694
  20139770.4344  -38067600.31049 -29337422.28747  20139768.2874   20139772.8194
       859.8314        669.9974
  22171881.4504  -10218972.69147  -7631134.96445  22171876.7964   22171881.2704
      4020.5204       3132.8734
  22799576.0874  -17871561.85548 -13598328.77646  22799573.8114   22799580.1344
     -2072.1534      -1614.6644
  21613438.4034  -19511499.44848 -14900520.06246  21613436.5894   21613440.5364
      3529.8514       2750.5334
  19352646.2294  -34262015.41749 -25643965.16547  19352643.9374   19352648.8294
       155.6684        121.3014
  23647106.7724  -21946975.12647 -16729963.29445  23647105.2114   23647110.0114
     -1762.4364      -1373.3254
  21909379.5284  -28884367.67348 -22147786.97846  21909377.7564   21909382.3984
     -1119.5854       -872.4054
  22969946.4044   -4861456.99947  -3087924.28445  22969946.0804   22969952.4924
      4686.8724       3652.1114
  21882703.5344  -19728926.94748 -15036710.58446  21882702.1074   21882707.4314
     -1094.2394       -852.6544
 04 12 10  1 46 29.9970000  0 10G 2G17G29G 5G 6G10G 4G24G26G30
  20443744.6074  -38877215.10449 -29942634.99747  20443742.2874   20443744.5964
      -747.6724       -582.6024
  20134880.1834  -38093300.30149 -29357448.24647  20134877.7444   20134882.5124
       852.7504        664.4804
  22148944.7964  -10339488.69147  -7725043.50945  22148943.0684   22148949.3504
      4013.2344       3127.1914
  22811419.2104  -17809323.55648 -13549831.41546  22811417.0474   22811423.1524
     -2077.7574      -1619.0314
  21593312.1264  -19617263.97648 -14982933.98846  21593310.5874   21593314.4664
      3520.4154       2743.1814
  19351805.8134  -34266433.42249 -25647407.76047  19351803.2314   19351807.9624
       138.1764        107.6704
  23657172.3574  -21894079.27447 -16688745.76645  23657170.0274   23657175.4994
     -1764.5504      -1374.9774
  21915780.5814  -28850726.11648 -22121572.78146  21915778.8244   21915783.3024
     -1123.8514       -875.7274
  22943197.3964   -5002039.85547  -3197469.35945  22943193.9144   22943199.6444
      4684.5864       3650.3304
  21888990.3384  -19695891.44448 -15010968.67646  21888988.7554   21888993.5664
     -1108.7594       -863.9664
 04 12 10  1 46 59.9970000  0 10G 2G17G29G 5G 6G10G 4G24G26G30
  20448032.5004  -38854676.42049 -29925072.38747  20448030.7724   20448033.8374
      -754.3434       -587.8004
  20130029.0074  -38118792.43149 -29377312.24147  20130026.7074   20130031.3564
       847.2614        660.2044
  22126054.3584  -10459789.10048  -7818784.05646  22126052.5024   22126057.5224
      4007.4334       3122.6704
  22823293.2344  -17746924.29548 -13501208.64346  22823291.2774   22823296.6624
     -2081.6074      -1622.0354
  21573239.2254  -19722750.13148 -15065130.98746  21573237.0174   21573241.2894
      3512.5614       2737.0594
  19351063.6834  -34270333.12749 -25650446.48947  19351061.1494   19351065.6274
       122.3964         95.3744
  23667250.7594  -21841123.44547 -16647481.52145  23667248.3334   23667253.3874
     -1765.1624      -1375.4474
  21922206.1434  -28816961.97248 -22095263.07246  21922203.6314   21922208.8514
     -1126.5104       -877.7974
  22916458.0864   -5142556.11247  -3306962.54645  22916454.0654   22916460.4104
      4683.7504       3649.6714
  21895359.3314  -19662425.71448 -14984891.50346  21895357.2384   21895361.7584
     -1121.6504       -874.0134
 04 12 10  1 47 29.9970000  0 10G 2G17G29G 5G 6G10G 4G24G26G30
  20452361.2294  -38831929.43749 -29907347.47447  20452359.3944   20452362.5724
      -762.2104       -593.9294
  20125210.4424  -38144111.19049 -29397041.14247  20125208.8004   20125213.3164
       840.5414        654.9664
  22103197.5724  -10579905.52448  -7912381.22846  22103194.0954   22103199.9804
      4000.3604       3117.1634
  22835191.8354  -17684401.75548 -13452489.80246  22835189.2124   22835194.9684
     -2086.6104      -1625.9284
  21553210.8864  -19827990.23948 -15147136.25946  21553210.2774   21553214.8804
      3503.4374       2729.9504
  19350412.9634  -34273750.74849 -25653109.56147  19350410.4664   19350415.3864
       105.4244         82.1494
  23677332.9684  -21788142.23147 -16606197.50945  23677331.0004   23677335.3004
     -1766.8884      -1376.7934
  21928647.1324  -28783109.73148 -22068884.71546  21928645.5814   21928650.8514
     -1130.3784       -880.8154
  22889722.8934   -5283036.80847  -3416427.98545  22889721.4894   22889728.3224
      4681.5964       3647.9934
  21901802.3154  -19628567.13648 -14958508.22146  21901800.3684   21901804.8904
     -1135.5874       -884.8694
 04 12 10  1 47 59.9970000  0 10G 2G17G29G 5G 6G10G 4G24G26G30
  20456727.8824  -38808980.87549 -29889465.48747  20456726.1014   20456729.3284
      -767.3394       -597.9264
  20120425.3084  -38169262.68949 -29416639.71347  20120422.6554   20120426.8224
       836.5934        651.8914
  22080372.2494  -10699841.17247  -8005837.54145  22080370.4804   22080376.5914
      3995.8094       3113.6114
  22847109.8384  -17621765.35448 -13403682.24646  22847108.5794   22847114.5924
     -2088.7464      -1627.5934
  21533232.3694  -19932988.24848 -15228952.88646  21533230.1364   21533234.7184
      3496.8774       2724.8394
  19349852.8404  -34276694.50449 -25655403.38947  19349850.2734   19349854.8534
        91.2224         71.0814
  23687417.2404  -21735142.22247 -16564898.87145  23687415.6304   23687420.0004
     -1765.8464      -1375.9734
  21935105.5414  -28749175.65248 -22042442.59946  21935102.9544   21935108.5164
     -1131.5184       -881.7014
  22862997.6784   -5423485.23147  -3525868.28845  22862996.1104   22863001.8974
      4682.0304       3648.3364
  21908317.8114  -19594324.70348 -14931825.84246  21908316.0504   21908321.6624
     -1146.7514       -893.5744
 04 12 10  1 48 29.9970000  0 10G 2G17G29G 5G 6G10G 4G24G26G30
  20461126.4574  -38785873.69049 -29871459.89547  20461123.7894   20461126.2374
      -774.1904       -603.2644
  20115662.4164  -38194289.59649 -29436141.19947  20115660.1034   20115664.4974
       830.8574        647.4234
  22057576.3324  -10819635.85847  -8099184.02345  22057574.5244   22057579.8304
      3989.5114       3108.7094
  22859043.1474  -17559061.07848 -13354821.79446  22859040.5664   22859047.3744
     -2092.4934      -1630.5144
  21513289.2404  -20037784.80048 -15310612.53146  21513287.3524   21513292.6074
      3488.5524       2718.3534
  19349374.5284  -34279208.47049 -25657362.31547  19349371.8744   19349376.7064
        75.3594         58.7214
  23697498.3574  -21682166.10247 -16523618.82345  23697496.4834   23697501.4304
     -1766.6664      -1376.6304
  21941571.1204  -28715202.61148 -22015970.11346  21941568.9374   21941573.5174
     -1134.3844       -883.9354
  22836271.6744   -5563940.96947  -3635314.29045  22836268.4894   22836273.4684
      4680.6394       3647.2494
  21914898.7454  -19559744.08948 -14904879.96146  21914896.8174   21914902.4944
     -1159.5374       -903.5334
 04 12 10  1 48 59.9970000  0 10G 2G17G29G 5G 6G10G 4G24G26G30
  20465575.8654  -38762485.66349 -29853235.46447  20465574.1844   20465576.6524
      -781.6194       -609.0544
  20110946.8444  -38219069.34349 -29455450.09147  20110944.4554   20110949.2114
       824.5054        642.4704
  22034832.3524  -10939164.20747  -8192322.99946  22034830.4134   22034834.2504
      3982.4684       3103.2224
  22871011.0814  -17496169.49748 -13305815.40346  22871008.5714   22871014.6544
     -2096.8244      -1633.8874
  21493409.9414  -20142255.44848 -15392018.22546  21493408.3894   21493412.7614
      3479.5624       2711.3464
  19349000.6914  -34281172.23549 -25658892.51947  19348998.1854   19349002.8084
        58.9864         45.9634
  23707599.2184  -21629091.61447 -16482262.10945  23707596.8894   23707601.1194
     -1768.1294      -1377.7664
  21948066.5494  -28681068.12348 -21989371.82446  21948064.4094   21948069.1504
     -1137.8324       -886.6234
  22809563.9234   -5704278.47147  -3744668.16545  22809562.2974   22809568.2104
      4678.5884       3645.6474
  21921566.2834  -19524705.95548 -14877577.56046  21921564.6404   21921569.9314
     -1172.8434       -913.9014
 04 12 10  1 49 29.9970000  0 10G 2G17G29G 5G 6G10G 4G24G26G30
  20470057.6704  -38738937.97549 -29834886.61947  20470055.5214   20470057.6154
      -788.8434       -614.6844
  20106255.2134  -38243722.28449 -29474660.17847  20106253.1324   20106257.9374
       818.3794        637.6984
  22012114.5984  -11058543.94148  -8285346.16146  22012112.3914   22012117.1884
      3975.5674       3097.8424
  22882990.4084  -17433214.39648 -13256759.51346  22882988.5164   22882995.0594
     -2100.7884      -1636.9754
  21473568.6344  -20246518.37148 -15473262.06046  21473567.5134   21473571.9054
      3470.6984       2704.4384
  19348708.2364  -34282708.45349 -25660089.56547  19348705.7614   19348710.4244
        42.8474         33.3874
  23717694.1594  -21576039.31447 -16440922.66045  23717693.1214   23717696.3484
     -1769.3114      -1378.6794
  21954569.1354  -28646893.26048 -21962742.06746  21954567.2144   21954573.0344
     -1141.1214       -889.1844
  22782858.8814   -5844615.20047  -3854021.42745  22782857.5154   22782863.7644
      4676.5314       3644.0494
  21928297.3084  -19489333.61948 -14850014.73046  21928295.8934   21928300.1254
     -1185.8694       -924.0584
 04 12 10  1 49 59.9970000  0 10G 2G17G29G 5G 6G10G 4G24G26G30
  20474587.6574  -38715132.10749 -29816336.59547  20474585.8224   20474587.1794
      -796.2524       -620.4574
  20101607.4754  -38268149.67249 -29493694.50847  20101605.0894   20101609.6624
       812.0544        632.7704
  21989444.0684  -11177673.29848  -8378174.19446  21989442.7584   21989449.0754
      3968.3604       3092.2294
  22895000.5394  -17370100.53048 -13207579.89946  22894998.6104   22895004.3444
     -2104.8254      -1640.1194
  21453787.8784  -20350472.42448 -15554265.20946  21453785.5224   21453790.2164
      3461.5584       2697.3174
  19348516.3754  -34283720.08249 -25660877.84447  19348513.6404   19348518.2264
        26.5684         20.7024
  23727798.9754  -21522910.98547 -16399523.99145  23727799.8534   23727807.4284
     -1770.6104      -1379.6924
  21961098.9204  -28612579.39348 -21936003.99846  21961096.6314   21961101.9634
     -1144.5334       -891.8434
  22756172.7494   -5984849.29647  -3963294.72445  22756171.3394   22756177.1434
      4674.3054       3642.3114
  21935110.0924  -19453531.45248 -14822116.94146  21935108.7904   21935113.3234
     -1198.9354       -934.2344
 04 12 10  1 50 29.9970000  0 10G 2G17G29G 5G 6G10G 4G24G26G30
  20479146.6334  -38691176.19449 -29797669.64247  20479144.5064   20479145.5554
      -802.2874       -625.1604
  20096981.2064  -38292459.15049 -29512636.96147  20096979.2234   20096983.5904
       807.0484        628.8684
  21966803.2704  -11296657.42147  -8470889.04546  21966800.4434   21966806.4124
      3962.4484       3087.6234
  22907021.5464  -17306938.86248 -13158363.05146  22907018.6064   22907024.7214
     -2107.4314      -1642.1494
  21434043.7414  -20454223.61148 -15635110.28346  21434042.3284   21434046.3904
      3453.7724       2691.2524
  19348402.2014  -34284317.00749 -25661342.97647  19348399.7984   19348404.5004
        11.7364          9.1454
  23737906.0554  -21469814.58647 -16358150.20945  23737904.9804   23737910.4994
     -1770.6094      -1379.6984
  21967635.0644  -28578234.07548 -21909241.42646  21967632.8074   21967637.4604
     -1146.6274       -893.4764
  22729487.7144   -6125085.48247  -4072569.65045  22729485.4224   22729491.0694
      4673.2324       3641.4764
  21941983.6884  -19417410.18748 -14793970.53846  21941982.2304   21941987.2254
     -1210.5544       -943.2884
 04 12 10  1 50 59.9970000  0 10G 2G17G29G 5G 6G10G 4G24G26G30
  20483743.5414  -38667019.29549 -29778846.08147  20483741.1184   20483742.5764
      -808.8044       -630.2364
  20092387.0824  -38316599.43849 -29531447.57347  20092385.2194   20092390.0324
       801.6174        624.6384
  21944198.8354  -11415442.06247  -8563448.49246  21944197.1264   21944201.3384
      3955.8844       3082.5054
  22919057.7924  -17243681.07448 -13109071.27146  22919055.9324   22919061.9084
     -2110.3584      -1644.4364
  21414349.1604  -20557718.32648 -15715755.52746  21414347.3864   21414351.9984
      3445.3184       2684.6634
  19348376.6754  -34284449.68149 -25661446.35647  19348374.6844   19348379.4314
        -3.5554         -2.7694
  23748017.3294  -21416698.75447 -16316761.27045  23748014.5964   23748019.1044
     -1771.1004      -1380.0824
  21974185.6494  -28543805.92448 -21882414.30746  21974183.7424   21974189.1814
     -1149.2164       -895.4924
  22702810.6514   -6265269.23147  -4181803.70645  22702809.8664   22702814.8304
      4671.6404       3640.2434
  21948928.2084  -19380921.48548 -14765537.80646  21948926.1164   21948931.0784
     -1222.5454       -952.6344
 04 12 10  1 51 29.9970000  0 10G 2G17G29G 5G 6G10G 4G24G26G30
  20488375.2064  -38642683.66149 -29759883.25047  20488372.2564   20488373.6814
      -814.4084       -634.6044
  20087822.1914  -38340592.15249 -29550143.19747  20087819.7014   20087824.6234
       797.1114        621.1264
  21921629.4704  -11534045.94948  -8655867.11346  21921627.6774   21921631.7314
      3950.2474       3078.1154
  22931109.6884  -17180352.15548 -13059724.09046  22931107.1064   22931112.5494
     -2112.3014      -1645.9484
  21394700.2714  -20660976.14148 -15796216.14646  21394698.3964   21394703.0804
      3437.7834       2678.7914
  19348435.6794  -34284142.04749 -25661206.63947  19348433.2984   19348437.7224
       -17.7774        -13.8544
  23758121.5494  -21363585.63947 -16275374.49545  23758120.5274   23758125.5884
     -1770.5514      -1379.6514
  21980749.0704  -28509317.33948 -21855540.10546  21980746.9184   21980751.5614
     -1150.8294       -896.7504
  22676142.3094   -6405419.29147  -4291011.53245  22676139.5244   22676144.5164
      4670.8344       3639.6074
  21955935.5674  -19344090.32648 -14736838.24146  21955934.6354   21955939.8364
     -1233.5844       -961.2354
 04 12 10  1 51 59.9970000  0 10G 2G17G29G 5G 6G10G 4G24G26G30
  20493043.2044  -38618141.15749 -29740759.21947  20493041.8674   20493044.7024
      -820.1934       -639.1114
  20083289.6014  -38364408.94149 -29568701.73747  20083287.6474   20083292.1884
       792.2944        617.3724
  21899099.6854  -11652437.92148  -8748120.56946  21899098.2974   21899103.4384
      3944.2184       3073.4184
  22943177.4974  -17116927.14548 -13010302.01546  22943175.8774   22943182.2344
     -2114.4004      -1647.5854
  21375101.8984  -20763966.74948 -15876468.56946  21375099.7124   21375104.5024
      3429.9434       2672.6834
  19348582.9174  -34283367.62149 -25660603.18547  19348580.5914   19348585.1194
       -32.2334        -25.1184
  23768234.8554  -21310447.10047 -16233967.89645  23768233.0364   23768237.6354
     -1770.3204      -1379.4704
  21987329.1484  -28474740.02448 -21828596.75846  21987327.2264   21987331.1444
     -1152.7084       -898.2144
  22649485.8414   -6545504.34747  -4400168.67845  22649483.1724   22649488.0084
      4669.7364       3638.7524
  21963014.8384  -19306891.18648 -14707851.93646  21963013.7634   21963018.9294
     -1244.7414       -969.9264
 04 12 10  1 52 29.9970000  0 10G 2G17G29G 5G 6G10G 4G24G26G30
  20497747.7144  -38593422.49849 -29721497.93547  20497746.0614   20497748.3604
      -829.3864       -646.2744
  20078786.4054  -38388079.66449 -29587146.45647  20078783.3424   20078787.9554
       784.0994        610.9874
  21876605.2384  -11770645.27948  -8840230.15346  21876603.4104   21876609.6424
      3934.6744       3065.9754
  22955259.0844  -17053439.10548 -12960830.84146  22955256.8504   22955263.1194
     -2119.7684      -1651.7654
  21355549.1964  -20866717.87548 -15956534.37846  21355547.5204   21355551.8324
      3418.5404       2663.7994
  19348813.3714  -34282158.56649 -25659661.06147  19348810.7574   19348815.3394
       -50.0164        -38.9734
  23778345.0384  -21257313.21547 -16192564.90345  23778344.1674   23778348.7564
     -1773.5074      -1381.9504
  21993919.9154  -28440104.29748 -21801607.88746  21993917.9494   21993922.6394
     -1158.0004       -902.3354
  22622834.1204   -6685551.11847  -4509296.00945  22622831.8724   22622838.2424
      4665.0774       3635.1234
  21970157.5904  -19269357.32448 -14678604.80546  21970156.0804   21970161.5254
     -1259.1884       -981.1844
 04 12 10  1 52 59.9970000  0 10G 2G17G29G 5G 6G10G 4G24G26G30
  20502491.3814  -38568494.08349 -29702073.20647  20502489.6094   20502492.1604
      -834.1764       -650.0074
  20074315.0574  -38411570.45049 -29605450.96747  20074313.1974   20074317.9194
       780.3204        608.0414
  21854153.4084  -11888631.32248  -8932167.28546  21854151.3024   21854156.7184
      3929.4474       3061.9054
  22967359.3624  -16989857.76148 -12911286.98146  22967355.8494   22967363.7554
     -2120.6094      -1652.4204
  21336049.0294  -20969193.72048 -16036385.69046  21336047.0294   21336050.7344
      3411.5244       2658.3304
  19349132.2174  -34280482.91749 -25658355.36047  19349129.8264   19349134.2104
       -63.3304        -49.3484
  23788461.5994  -21204150.53947 -16151139.49645  23788460.0464   23788465.0614
     -1772.1914      -1380.9334
  22000528.1894  -28405376.33248 -21774547.13246  22000526.7774   22000531.1284
     -1158.8494       -902.9984
  22596197.9874   -6825522.91047  -4618364.90945  22596196.6004   22596202.7664
      4664.7094       3634.8354
  21977369.1884  -19231457.84248 -14649072.79046  21977368.1354   21977373.4444
     -1269.1014       -988.9084
 04 12 10  1 53 29.9970000  0 10G 2G17G29G 5G 6G10G 4G24G26G30
  20507274.2054  -38543361.87949 -29682489.67847  20507272.5494   20507274.4704
      -842.7884       -656.7184
  20069878.4164  -38434886.92649 -29623619.65147  20069876.1004   20069880.8184
       772.6554        602.0684
  21831744.2584  -12006398.77448  -9023934.12846  21831741.8074   21831745.6844
      3920.3204       3054.7934
  22979473.3264  -16926191.89948 -12861677.24146  22979471.8174   22979478.4844
     -2125.2334      -1656.0244
  21316601.4864  -21071397.59448 -16116025.06646  21316598.2814   21316602.5144
      3400.6354       2649.8444
  19349538.3244  -34278348.41949 -25656692.11147  19349535.9104   19349540.3384
       -80.3974        -62.6464
  23798582.9294  -21150964.89847 -16109696.15645  23798580.1074   23798584.8184
     -1774.8444      -1382.9864
  22007153.7284  -28370561.59048 -21747418.76746  22007151.5094   22007155.8744
     -1163.5864       -906.6914
  22569576.2854   -6965422.01647  -4727377.17445  22569575.2054   22569580.8244
      4660.4254       3631.4984
  21984650.0594  -19193201.67248 -14619262.81546  21984648.5154   21984652.8364
     -1282.7154       -999.5194
 04 12 10  1 53 59.9970000  0 10G 2G17G29G 5G 6G10G 4G24G26G30
  20512103.8124  -38517981.51849 -29662712.78747  20512102.0074   20512104.1944
      -848.1964       -660.9314
  20065483.5034  -38457984.07949 -29641617.43847  20065480.9724   20065485.5014
       768.1874        598.5874
  21809383.3514  -12123899.98648  -9115493.52246  21809381.8444   21809385.7404
      3914.2364       3050.0574
  22991614.0514  -16862400.08548 -12811969.35646  22991611.6204   22991616.7114
     -2126.5054      -1657.0184
  21297211.5944  -21173282.93248 -16195416.22946  21297209.8064   21297214.1024
      3392.8314       2643.7664
  19350040.3604  -34275712.33949 -25654638.02447  19350037.4964   19350041.9974
       -94.2524        -73.4434
  23808717.5904  -21097711.64647 -16068200.14645  23808715.5484   23808719.1304
     -1774.2744      -1382.5444
  22013803.4994  -28335615.48648 -21720188.04946  22013801.0264   22013806.3904
     -1165.0874       -907.8604
  22542976.3174   -7105200.59547  -4836295.51445  22542976.2024   22542981.4794
      4659.1524       3630.5054
  21992005.4394  -19154546.82148 -14589142.16946  21992003.5544   21992009.0484
     -1293.1524      -1007.6504
 04 12 10  1 54 29.9970000  0 10G 2G17G29G 5G 6G10G 4G24G26G30
  20516963.0384  -38492449.36949 -29642817.61047  20516960.8864   20516962.7994
      -854.3244       -665.7074
  20061111.3244  -38480957.99449 -29659519.19247  20061109.3224   20061113.9324
       763.0104        594.5534
  21787055.9924  -12241228.30948  -9206918.16446  21787053.9184   21787059.3084
      3907.3794       3044.7134
  23003756.9374  -16798581.66448 -12762240.73246  23003755.2064   23003761.5274
     -2128.3884      -1658.4794
  21277867.6454  -21274943.46548 -16274632.25146  21277864.6684   21277868.6494
      3384.2064       2637.0454
  19350618.1594  -34272672.81549 -25652269.55747  19350615.7154   19350620.3534
      -108.7384        -84.7324
  23818843.1774  -21044487.19847 -16026726.58745  23818843.3064   23818848.5454
     -1774.3354      -1382.6004
  22020460.3964  -28300634.62348 -21692930.25446  22020457.6304   22020463.2424
     -1167.3294       -909.6054
  22516384.9654   -7244951.74447  -4945192.47745  22516382.2044   22516387.1034
      4657.1674       3628.9624
  21999417.6204  -19115592.78848 -14558788.41746  21999416.2384   21999421.7504
     -1304.1244      -1016.1984
 04 12 10  1 54 59.9970000  0 10G 2G17G29G 5G 6G10G 4G24G26G30
  20521864.3584  -38466690.44749 -29622745.73147  20521862.5814   20521864.3364
      -862.6084       -672.1614
  20056777.7464  -38503733.03449 -29677265.97847  20056775.3784   20056779.9464
       755.6654        588.8304
  21764776.6854  -12358305.44248  -9298147.05346  21764775.4184   21764781.3384
      3898.2424       3037.5874
  23015920.8704  -16734664.16248 -12712434.90146  23015918.3634   23015924.5124
     -2132.3524      -1661.5744
  21258577.4894  -21376301.47348 -16353612.51346  21258576.2934   21258581.6154
      3373.3864       2628.6124
  19351287.2824  -34269156.36249 -25649529.45947  19351284.8324   19351289.5924
      -125.3324        -97.6614
  23828981.0524  -20991216.15247 -15985216.72745  23828979.8904   23828986.0304
     -1776.5634      -1384.3394
  22027136.9904  -28265543.27048 -21665586.36146  22027135.3514   22027141.3494
     -1171.7284       -913.0344
  22489809.6974   -7384596.67347  -5054006.65645  22489808.1754   22489813.7634
      4652.8794       3625.6214
  22006901.2604  -19076267.05148 -14528145.02446  22006899.7874   22006904.6134
     -1317.1794      -1026.3724
 04 12 10  1 55 29.9970000  0 10G 2G17G29G 5G 6G10G 4G24G26G30
  20526803.3684  -38440737.09549 -29602522.34247  20526801.5344   20526803.1824
      -867.4424       -675.9294
  20052475.3764  -38526341.15349 -29694882.69447  20052473.3394   20052477.9534
       751.7144        585.7514
  21742541.5624  -12475160.48248  -9389202.91846  21742539.3454   21742544.4434
      3892.3734       3033.0174
  23028095.9194  -16670682.71048 -12662579.24546  23028093.9564   23028100.0224
     -2132.8674      -1661.9754
  21239342.6644  -21477386.89448 -16432380.37846  21239340.3954   21239345.3294
      3365.8534       2622.7424
  19352040.6414  -34265197.08649 -25646444.30647  19352038.2284   19352042.9664
      -138.4174       -107.8574
  23839121.7054  -20937930.73947 -15943695.67745  23839120.5104   23839125.6844
     -1775.4554      -1383.4684
  22033829.4814  -28230373.82048 -21638181.61046  22033828.1264   22033833.5174
     -1172.6484       -913.7514
  22463250.7084   -7524164.45747  -5162760.75845  22463248.9654   22463255.0074
      4651.8494       3624.8204
  22014448.7724  -19036604.78248 -14497239.39746  22014447.5094   22014452.0274
     -1326.7254      -1033.8104
 04 12 10  1 55 59.9970000  0 10G 2G17G29G 5G 6G10G 4G24G26G30
  20531782.5364  -38414573.70249 -29582135.28747  20531780.2934   20531781.8114
      -875.7594       -682.4104
  20048208.2284  -38548766.17549 -29712356.73947  20048206.0014   20048210.4484
       744.3004        579.9754
  21720350.3864  -12591774.53748  -9480071.00746  21720347.8604   21720353.3514
      3882.9534       3025.6794
  23040285.1524  -16606624.71748 -12612663.96646  23040283.2024   23040290.2264
     -2136.6744      -1664.9394
  21220162.9794  -21578181.49348 -16510921.63246  21220160.7824   21220165.7024
      3354.8594       2614.1754
  19352881.2474  -34260781.12049 -25643003.29047  19352878.5994   19352883.4694
      -154.9294       -120.7234
  23849267.3794  -20884615.25647 -15902151.19445  23849265.5694   23849270.5564
     -1777.8174      -1385.3054
  22040540.5754  -28195110.31148 -21610703.56346  22040538.9914   22040543.9914
     -1177.1104       -917.2294
  22436711.3824   -7663635.59747  -5271439.53545  22436709.7614   22436714.9174
      4647.2754       3621.2524
  22022062.9434  -18996592.99948 -14466061.40546  22022061.7624   22022066.1454
     -1339.6004      -1043.8454
 04 12 10  1 56 29.9970000  0 10G 2G17G29G 5G 6G10G 4G24G26G30
  20536802.6654  -38388187.88549 -29561574.91347  20536801.0144   20536802.7594
      -883.6774       -688.5804
  20043977.9774  -38570995.18849 -29729678.04747  20043975.9684   20043980.5794
       737.2374        574.4704
  21698205.3024  -12708132.13347  -9570739.25746  21698204.9344   21698209.8194
      3873.8384       3018.5724
  23052492.3484  -16542480.40547 -12562681.41946  23052489.9474   23052495.8354
     -2139.9574      -1667.4984
  21201039.5204  -21678670.66348 -16589224.86946  21201037.3824   21201042.7054
      3344.1064       2605.7954
  19353809.8964  -34255897.87249 -25639198.15847  19353807.5534   19353812.8494
      -170.9514       -133.2084
  23859421.0344  -20831257.04047 -15860573.41845  23859418.9854   23859425.6074
     -1779.6404      -1386.7364
  22047272.1334  -28159740.04048 -21583142.31046  22047269.6564   22047274.5944
     -1181.2034       -920.4194
  22410191.6764   -7802994.45447  -5380030.80145  22410190.0234   22410195.8374
      4642.8474       3617.7994
  22029745.7704  -18956222.14048 -14434603.62446  22029744.0554   22029748.8524
     -1352.0274      -1053.5284
 04 12 10  1 56 59.9970000  0 10G 2G17G29G 5G 6G10G 4G24G26G30
  20541865.6134  -38361585.45749 -29540845.75147  20541863.3404   20541865.2774
      -889.7894       -693.3414
  20039784.4274  -38593033.34849 -29746850.63647  20039782.1934   20039786.8854
       732.0254        570.4094
  21676114.8534  -12824235.68248  -9661209.53846  21676112.0554   21676116.3354
      3866.4754       3012.8354
  23064712.3804  -16478258.58647 -12512638.46146  23064710.8704   23064716.8474
     -2141.3824      -1668.6124
  21181975.2394  -21778857.29948 -16667292.37546  21181973.1214   21181977.1164
      3335.1044       2598.7834
  19354826.9264  -34250554.49049 -25635034.48647  19354824.3034   19354829.4454
      -185.1684       -144.2874
  23869581.0804  -20777861.60847 -15818966.65245  23869579.2674   23869585.3734
     -1779.8264      -1386.8784
  22054021.5794  -28124268.32448 -21555502.03146  22054019.6904   22054024.7774
     -1183.4924       -922.2014
  22383694.1754   -7942243.13347  -5488536.23445  22383692.1574   22383697.1074
      4640.3574       3615.8644
  22037494.4924  -18915500.65848 -14402872.63046  22037492.9054   22037497.8124
     -1362.6054      -1061.7714
 04 12 10  1 57 29.9970000  0 10G 2G17G29G 5G 6G10G 4G24G26G30
  20546967.8874  -38334776.29549 -29519955.49747  20546965.0214   20546967.0924
      -897.5404       -699.3814
  20035625.1164  -38614890.25649 -29763881.99047  20035622.9454   20035627.5074
       725.1134        565.0234
  21654067.4474  -12940091.99848  -9751487.17446  21654065.9214   21654070.9494
      3857.3004       3005.6864
  23076946.0424  -16413972.29347 -12462545.27246  23076943.9424   23076950.8564
     -2144.3684      -1670.9314
  21162966.5364  -21878749.01548 -16745130.06946  21162964.2514   21162968.6454
      3324.3804       2590.4264
  19355928.9814  -34244762.80749 -25630521.49047  19355926.3294   19355931.3784
      -200.9464       -156.5834
  23879748.4434  -20724438.86447 -15777338.59445  23879747.2734   23879751.4134
     -1781.6134      -1388.2664
  22060789.5554  -28088704.94848 -21527790.32346  22060787.1584   22060792.6504
     -1187.4184       -925.2594
  22357214.8304   -8081387.96647  -5596960.74245  22357213.4134   22357218.7134
      4635.9524       3612.4284
  22045306.9134  -18874441.43848 -14370878.46946  22045306.0874   22045312.0194
     -1374.6754      -1071.1714
 04 12 10  1 57 59.9970000  0  9G 2G17G29G 5G 6G10G24G26G30
  20552116.7004  -38307717.21549 -29498870.51047  20552114.1104   20552116.6424
      -905.5314       -705.6094
  20031508.8314  -38636522.08849 -29780737.96347  20031506.5134   20031511.2974
       717.9274        559.4244
  21632075.9704  -13055654.57148  -9841535.88146  21632074.7404   21632080.9354
      3847.7494       2998.2464
  23089198.4934  -16349580.61847 -12412369.97346  23089196.5504   23089203.8564
     -2147.4774      -1673.3594
  21144022.0004  -21978300.11048 -16822702.34646  21144020.1784   21144024.3824
      3313.3504       2581.8314
  19357123.6614  -34238481.53249 -25625626.98847  19357121.5544   19357126.7234
      -216.9004       -169.0134
  22067582.1934  -28053006.42748 -21499973.32146  22067580.3094   22067585.1874
     -1191.6154       -928.5304
  22330764.0594   -8220382.47547  -5705268.12245  22330763.4494   22330767.9324
      4631.2054       3608.7254
  22053193.0194  -18833003.91048 -14338589.52546  22053191.4264   22053196.3664
     -1386.8934      -1080.6964
 04 12 10  1 58 29.9970000  0  9G 2G17G29G 5G 6G10G24G26G30
  20557306.7854  -38280438.48649 -29477614.36947  20557304.9984   20557307.5164
      -913.7394       -712.0044
  20027429.2974  -38657958.84649 -29797441.93347  20027427.1064   20027432.1204
       710.5514        553.6764
  21610136.4684  -13170950.81948  -9931377.07346  21610133.6674   21610139.0894
      3838.0254       2990.6694
  23101467.4414  -16285116.98547 -12362138.59246  23101464.4564   23101471.6934
     -2150.7154      -1675.8814
  21125137.8254  -22077538.53448 -16900030.97346  21125135.6364   21125140.1394
      3301.9334       2572.9334
  19358406.7374  -34231742.97349 -25620376.16447  19358404.1804   19358408.7454
      -232.9864       -181.5484
  22074395.4794  -28017203.10448 -21472074.64446  22074393.0054   22074398.4764
     -1195.9544       -931.9134
  22304338.6744   -8359253.35347  -5813479.17145  22304336.7894   22304342.6704
      4626.1444       3604.7854
  22061144.0874  -18791221.41148 -14306031.76046  22061142.1584   22061147.2064
     -1399.2724      -1090.3424
 04 12 10  1 58 59.9970000  0  9G 2G17G29G 5G 6G10G24G26G30
  20562545.5894  -38252911.02149 -29456164.40447  20562543.3364   20562546.0634
      -921.4994       -718.0514
  20023393.0964  -38679170.92949 -29813970.82747  20023390.8844   20023395.6934
       703.5484        548.2204
  21588252.3694  -13285948.40247 -10020985.55546  21588250.2344   21588254.6794
      3828.5034       2983.2474
  23113753.3094  -16220555.04248 -12311830.60246  23113750.6264   23113755.8974
     -2153.3954      -1677.9724
  21106318.0984  -22176432.71348 -16977091.37146  21106316.5464   21106321.3124
      3291.0164       2564.4284
  19359780.6364  -34224519.70849 -25614747.64547  19359778.5254   19359783.0844
      -248.6134       -193.7254
  22081234.0694  -27981265.69048 -21444071.47446  22081232.1824   22081237.2584
     -1199.9164       -934.9984
  22277944.0954   -8497967.98247  -5921568.45745  22277941.4344   22277946.6664
      4621.4084       3601.0974
  22069166.3504  -18749067.65548 -14273184.69546  22069164.0784   22069168.8504
     -1411.0184      -1099.4934
 04 12 10  1 59 29.9970000  0  9G 2G17G29G 5G 6G10G24G26G30
  20567828.4874  -38225144.83749 -29434528.42347  20567826.9344   20567829.5314
      -928.9964       -723.8924
  20019397.6794  -38700167.51849 -29830331.80547  20019395.1434   20019400.0004
       696.8434        542.9934
  21566426.1524  -13400653.73448 -10110366.34046  21566423.9314   21566426.8994
      3819.1944       2975.9934
  23126054.4444  -16155907.50747 -12261455.91346  23126052.4174   23126058.9624
     -2155.7624      -1679.8104
  21087564.2834  -22274989.66648 -17053889.00546  21087562.0764   21087566.5664
      3280.1694       2555.9764
  19361246.2504  -34216823.22249 -25608750.38247  19361243.5524   19361247.7214
      -263.8694       -205.6124
  22088097.3414  -27945203.46148 -21415971.05446  22088094.7834   22088099.7864
     -1203.6174       -937.8854
  22251574.5844   -8636532.41847  -6029540.73445  22251573.3054   22251577.8074
      4616.7824       3597.4924
  22077255.4324  -18706555.16148 -14240058.09846  22077253.9324   22077258.3554
     -1422.4634      -1108.4124
 04 12 10  1 59 59.9970000  0  9G 2G17G29G 5G 6G10G24G26G30
  20573151.6304  -38197172.75749 -29412732.00747  20573150.0614   20573152.3964
      -936.2184       -729.5194
  20015436.5234  -38720981.13949 -29846550.20647  20015434.6134   20015439.3904
       690.3384        537.9274
  21544647.0634  -13515096.83548 -10199542.76446  21544646.0724   21544651.3804
      3809.9944       2968.8264
  23138367.5034  -16091210.22547 -12211042.46246  23138364.4964   23138370.0804
     -2157.7504      -1681.3614
  21068867.8244  -22373239.95648 -17130447.65846  21068865.1374   21068870.2034
      3269.4974       2547.6604
  19362794.4234  -34208688.38249 -25602411.54047  19362791.6314   19362795.4484
      -278.8484       -217.2844
  22094977.4734  -27909049.24948 -21387798.94946  22094975.0594   22094979.7054
     -1207.0654       -940.5694
  22225229.5584   -8774976.28247  -6137419.00346  22225227.6614   22225233.5604
      4612.3384       3594.0284
  22085407.2574  -18663719.70148 -14206679.83746  22085405.6934   22085410.1114
     -1433.5414      -1117.0414
 04 12 10  2  0 29.9970000  0  9G 2G17G29G 5G 6G10G24G26G30
  20578520.0014  -38168962.62349 -29390750.09147  20578518.2024   20578520.4574
      -943.5744       -735.2534
  20011517.5184  -38741578.99549 -29862600.47947  20011515.0484   20011519.8054
       683.7134        532.7634
  21522925.0854  -13629242.40048 -10288487.29946  21522923.7504   21522930.1384
      3800.6534       2961.5454
  23150693.0754  -16026433.73547 -12160567.30346  23150690.9304   23150696.2924
     -2159.7704      -1682.9354
  21050235.0744  -22471148.97348 -17206740.38746  21050233.7474   21050238.4164
      3258.6624       2539.2154
  19364431.3674  -34200084.61049 -25595707.29647  19364429.0414   19364432.8904
      -293.8304       -228.9594
  22101880.0344  -27872770.48248 -21359529.79646  22101877.7584   22101883.1164
     -1210.6474       -943.3604
  22198911.4254   -8913263.82447  -6245175.53545  22198911.7074   22198917.3364
      4607.7024       3590.4184
  22093625.1824  -18620532.13748 -14173027.22146  22093623.8024   22093629.3264
     -1444.6494      -1125.6994
 04 12 10  2  0 59.9970000  0  9G 2G17G29G 5G 6G10G24G26G30
  20583931.1394  -38140525.83749 -29368591.56347  20583929.2214   20583931.4134
      -951.8324       -741.6874
  20007636.2984  -38761971.94649 -29878491.08747  20007634.1814   20007639.1594
       676.1834        526.8964
  21501258.9874  -13743098.51948 -10377206.29046  21501257.7894   21501264.0934
      3790.1934       2953.3954
  23163030.1214  -15961592.08647 -12110041.34846  23163028.7994   23163036.1574
     -2162.5614      -1685.1124
  21031667.1084  -22568725.65948 -17282774.15746  21031665.5294   21031670.4944
      3246.8854       2530.0404
  19366155.4664  -34191025.20149 -25588648.01247  19366152.8884   19366157.0344
      -309.7064       -241.3304
  22108805.8894  -27836378.37248 -21331172.30946  22108803.4544   22108808.4534
     -1215.1004       -946.8324
  22172628.7554   -9051402.82147  -6352816.29646  22172626.4014   22172630.9584
      4601.9444       3585.9334
  22101907.2724  -18577006.51248 -14139111.17846  22101906.3084   22101911.4754
     -1456.5994      -1135.0114
 04 12 10  2  1 29.9970000  0  9G 2G17G29G 5G 6G10G24G26G30
  20589387.2624  -38111854.43349 -29346250.20947  20589385.5404   20589387.3814
      -959.1484       -747.3884
  20003796.8294  -38782151.64149 -29894215.52847  20003794.3404   20003799.2064
       669.5644        521.7384
  21479651.3704  -13856653.99048 -10465691.03146  21479649.3904   21479653.3594
      3780.6104       2945.9274
  23175383.6074  -15896680.21947 -12059460.71946  23175381.6254   23175388.0274
     -2164.3764      -1686.5274
  21013164.1664  -22665959.61748 -17358540.87346  21013162.7704   21013167.4124
      3235.8924       2521.4764
  19367966.9144  -34181504.00149 -25581228.89247  19367964.6954   19367969.2414
      -324.5504       -252.8974
  22115753.5734  -27799864.59648 -21302720.04046  22115751.3894   22115756.5494
     -1218.6774       -949.6174
  22146370.8454   -9189381.80848  -6460332.37146  22146369.3374   22146374.8084
      4597.0744       3582.1364
  22110255.4204  -18533137.77048 -14104927.77246  22110254.3054   22110258.9524
     -1467.4744      -1143.4844
 04 12 10  2  1 59.9970000  0  9G 2G17G29G 5G 6G10G24G26G30
  20594888.1284  -38082948.42149 -29323726.04847  20594886.1914   20594888.0504
      -967.2394       -753.6914
  19999997.0354  -38802117.52049 -29909773.36047  19999994.8394   19999999.8114
       662.1514        515.9624
  21458101.3224  -13969905.92748 -10553939.32546  21458098.8944   21458101.6694
      3770.1924       2937.8144
  23187748.4814  -15831701.12047 -12008827.67845  23187746.3024   23187753.5074
     -2166.8654      -1688.4684
  20994728.8864  -22762848.23848 -17434038.49246  20994726.1364   20994730.3074
      3224.1034       2512.2884
  19369866.2464  -34171523.06749 -25573451.53647  19369864.1084   19369868.5534
      -340.1294       -265.0354
  22122724.8274  -27763228.92048 -21274172.77946  22122722.8934   22122728.2474
     -1223.0084       -952.9934
  22120145.3914   -9327197.21048  -6567720.96346  22120143.8934   22120150.3574
      4591.2724       3577.6114
  22118668.2474  -18488928.88148 -14070479.30746  22118666.8454   22118672.1004
     -1479.0054      -1152.4714
 04 12 10  2  2 29.9970000  0  9G 2G17G29G 5G 6G10G24G26G30
  20600433.3294  -38053810.98749 -29301021.55847  20600431.2654   20600432.6474
      -974.6174       -759.4414
  19996237.8944  -38821872.28449 -29925166.68047  19996235.5554   19996240.7024
       655.4634        510.7504
  21436606.4484  -14082854.43748 -10641951.14046  21436604.9724   21436608.8104
      3760.3404       2930.1344
  23200127.9554  -15766660.63147 -11958146.79846  23200124.2044   23200129.6104
     -2168.5454      -1689.7744
  20976355.4614  -22859392.47948 -17509267.77646  20976353.7354   20976358.3334
      3212.8804       2503.5414
  19371852.4084  -34161087.31349 -25565319.77647  19371850.0034   19371854.5504
      -354.9374       -276.5754
  22129719.6994  -27726474.58848 -21245533.06146  22129717.3664   22129723.2584
     -1226.6274       -955.8114
  22093952.3494   -9464848.55347  -6674981.73045  22093949.4014   22093954.1464
      4586.0914       3573.5814
  22127144.8634  -18444385.82848 -14035770.46746  22127143.0824   22127147.9404
     -1489.7984      -1160.8814
 04 12 10  2  2 59.9970000  0  9G 2G17G29G 5G 6G10G24G26G30
  20606016.7084  -38024470.28349 -29278158.67547  20606014.1624   20606015.9444
      -982.9864       -765.9644
  19992513.5714  -38841443.29149 -29940416.81647  19992511.3834   19992516.5124
       647.6964        504.6974
  21415164.3004  -14195524.23748 -10729745.74546  21415163.4104   21415170.3524
      3749.4284       2921.6304
  23212508.5094  -15701589.55247 -11907442.10645  23212505.9554   23212512.4864
     -2171.1044      -1691.7664
  20958044.9664  -22955617.70148 -17584248.46646  20958043.0404   20958047.5834
      3200.6284       2493.9974
  19373919.2314  -34150226.49949 -25556856.80047  19373916.5834   19373921.2394
      -370.6854       -288.8454
  22136730.8684  -27689629.02148 -21216822.25746  22136728.8434   22136734.1554
     -1231.2764       -959.4354
  22067783.4934   -9602360.38547  -6782133.80546  22067782.3734   22067786.7044
      4579.7764       3568.6584
  22135678.9114  -18399539.59848 -14000825.38146  22135677.4024   22135682.6334
     -1501.4504      -1169.9604
 04 12 10  2  3 29.9970000  0  9G 2G17G29G 5G 6G10G24G26G30
  20611650.8944  -37994863.14349 -29255088.17747  20611648.5434   20611650.5914
      -989.7134       -771.2044
  19988837.0704  -38860767.18349 -29955474.39547  19988834.2494   19988839.1854
       641.6464        499.9844
  21393791.5604  -14307849.29448 -10817271.68446  21393789.1704   21393795.5874
      3740.0424       2914.3184
  23224908.7394  -15636427.96247 -11856666.85046  23224906.2054   23224912.9444
     -2171.8644      -1692.3594
  20939805.4274  -23051458.53748 -17658929.62646  20939804.1124   20939809.7304
      3189.9084       2485.6424
  19376077.7824  -34138879.73449 -25548015.16047  19376075.5384   19376080.7844
      -384.6574       -299.7324
  22143772.0824  -27652628.94348 -21187991.02246  22143769.6244   22143775.2094
     -1234.2524       -961.7564
  22041654.5614   -9739666.19948  -6889125.35646  22041653.5744   22041658.5984
      4575.0524       3564.9764
  22144282.6274  -18354330.14948 -13965597.26146  22144280.5884   22144285.6614
     -1511.3694      -1177.6894
 04 12 10  2  3 59.9970000  0  9G 2G17G29G 5G 6G10G24G26G30
  20617317.0564  -37965087.50449 -29231886.38647  20617314.5674   20617316.8284
      -995.6524       -775.8334
  19985187.7354  -38879940.94149 -29970414.98647  19985185.5734   19985190.4684
       636.3074        495.8244
  21372464.8794  -14419924.16648 -10904602.71046  21372462.9394   21372467.9254
      3731.3744       2907.5614
  23237306.5884  -15571276.14547 -11805899.23446  23237304.3834   23237310.8914
     -2171.8134      -1692.3214
  20921624.3784  -23147010.07448 -17733385.35846  20921621.8484   20921626.7734
      3179.9194       2477.8594
  19378310.9234  -34127146.38049 -25538872.28547  19378308.4644   19378313.5124
      -397.8234       -309.9924
  22150824.5964  -27615572.09248 -21159115.57346  22150821.7984   22150826.7334
     -1236.4634       -963.4774
  22015548.7594   -9876860.01248  -6996029.61046  22015546.5754   22015551.6054
      4570.9094       3561.7454
  22152934.4354  -18308857.95948 -13930164.41746  22152933.4854   22152937.7494
     -1520.3794      -1184.7114
 04 12 10  2  4 29.9970000  0  9G 2G17G29G 5G 6G10G24G26G30
  20623026.9544  -37935079.15349 -29208503.26747  20623024.7644   20623027.2844
     -1003.4874       -781.9374
  19981580.6824  -38898899.92749 -29985188.22647  19981577.9614   19981582.5764
       629.0554        490.1724
  21351198.3204  -14531681.25848 -10991686.16146  21351196.0624   21351199.6694
      3720.6354       2899.1964
  23249714.8034  -15506072.80047 -11755091.44245  23249712.3594   23249717.8524
     -2173.5864      -1693.7034
  20903509.4014  -23242205.70548 -17807563.75646  20903507.3174   20903511.8644
      3167.9294       2468.5174
  19380629.0644  -34114964.50549 -25529379.91447  19380626.5274   19380631.6084
      -412.8364       -321.6924
  22157898.8654  -27578393.84848 -21130145.53146  22157896.3464   22157901.0804
     -1240.6044       -966.7044
  21989476.0824  -10013874.02948  -7102793.74246  21989473.0894   21989479.3864
      4564.7664       3556.9584
  22161649.8784  -18263061.71648 -13894479.05646  22161648.1694   22161653.3804
     -1531.1794      -1193.1274
 04 12 10  2  4 59.9960000  0  9G 2G17G29G 5G 6G10G24G26G30
  20628778.0984  -37904854.49949 -29184951.59547  20628776.2924   20628778.7184
     -1011.2294       -787.9704
  19978010.4474  -38917658.57449 -29999805.35847  19978008.2184   19978012.7004
       621.9024        484.5994
  21329989.5584  -14643129.53648 -11078528.96946  21329987.9054   21329991.3264
      3709.8724       2890.8094
  23262127.8184  -15440838.28047 -11704259.40045  23262125.5484   23262133.1844
     -2175.1294      -1694.9044
  20885459.5184  -23337055.39648 -17881472.60346  20885457.5864   20885461.7904
      3156.0184       2459.2354
  19383029.1574  -34102351.79049 -25519551.82847  19383026.6724   19383031.5994
      -427.6374       -333.2234
  22164993.2714  -27541110.61648 -21101093.67546  22164991.0294   22164995.8084
     -1244.6064       -969.8254
  21963433.2874  -10150715.77547  -7209423.64046  21963433.0414   21963438.2154
      4558.6534       3552.1944
  22170422.7954  -18216961.43948 -13858556.80146  22170420.9764   22170425.6794
     -1541.8084      -1201.4064
 04 12 10  2  5 29.9960000  0  9G 2G17G29G 5G 6G10G24G26G30
  20634582.8904  -37874352.71049 -29161183.97247  20634580.5424   20634582.8944
     -1021.3294       -795.8424
  19974490.1714  -38936158.50549 -30014220.89347  19974487.7404   19974492.1884
       612.3564        477.1614
  21308850.4634  -14754214.77548 -11165088.87746  21308848.8594   21308853.1354
      3696.7134       2880.5544
  23274558.5604  -15375512.13747 -11653355.91945  23274556.5744   23274562.6844
     -2178.9854      -1697.9074
  20867487.5444  -23431504.20348 -17955069.07046  20867485.0064   20867488.9894
      3141.5834       2447.9864
  19385522.2284  -34089250.40049 -25509342.95047  19385519.7894   19385524.3514
      -444.8024       -346.5994
  22172118.0784  -27503660.94548 -21071912.14146  22172116.6874   22172122.4674
     -1251.0574       -974.8484
  21937438.6104  -10287331.84747  -7315877.73046  21937436.5144   21937440.8694
      4550.0244       3545.4744
  22179264.4594  -18170498.22948 -13822351.72146  22179262.9154   22179266.0304
     -1554.7154      -1211.4644
 04 12 10  2  5 59.9960000  0  9G 2G17G29G 5G 6G10G24G26G30
  20640435.1894  -37843601.19349 -29137221.76247  20640432.4494   20640434.6614
     -1028.1974       -801.1934
  19971013.8264  -38954425.03249 -30028454.55247  19971011.6734   19971016.2204
       605.9754        472.1904
  21287777.3494  -14864956.02048 -11251380.71646  21287775.6934   21287781.4164
      3686.6544       2872.7174
  23287001.0304  -15310125.94147 -11602405.66945  23286999.2824   23287005.5434
     -2179.5134      -1698.3194
  20849586.3224  -23525572.76148 -18028369.25146  20849583.9804   20849587.3324
      3130.3094       2439.2024
  19388102.2614  -34075689.11049 -25498775.70747  19388100.2394   19388105.0034
      -458.6664       -357.4034
  22179273.4364  -27466072.26748 -21042622.28646  22179270.8274   22179275.3364
     -1254.2674       -977.3504
  21911480.3674  -10423740.31348  -7422170.03546  21911478.7604   21911482.8364
      4544.4424       3541.1254
  22188168.7534  -18123702.73148 -13785887.71446  22188167.3784   22188172.2294
     -1564.2924      -1218.9284
 04 12 10  2  6 29.9960000  0  9G 2G17G29G 5G 6G10G24G26G30
  20646355.3074  -37812489.05049 -29112978.53247  20646352.9194   20646355.2344
     -1042.0124       -811.9594
  19967603.9834  -38972346.70249 -30042419.49147  19967601.5564   19967605.7064
       592.6884        461.8354
  21266791.8224  -14975239.72248 -11337316.03446  21266789.6004   21266795.6864
      3669.5864       2859.4184
  23299475.1164  -15244571.55847 -11551324.34245  23299473.8214   23299479.9404
     -2186.8764      -1704.0594
  20831777.8264  -23619147.75848 -18101284.83146  20831776.8404   20831780.7294
      3112.0214       2424.9534
  19390791.7814  -34061558.91549 -25487765.16347  19390789.4124   19390793.5924
      -479.3564       -373.5244
  22186472.5874  -27428233.13748 -21013137.26246  22186470.0384   22186475.9784
     -1264.3934       -985.2444
  21885581.8464  -10559826.99948  -7528211.57246  21885581.5834   21885587.7734
      4531.8524       3531.3144
  22197157.7704  -18076467.09248 -13749080.74946  22197156.4814   22197161.0084
     -1580.6994      -1231.7144
 04 12 10  2  6 59.9960000  0  9G 2G17G29G 5G 6G10G24G26G30
  20652302.7534  -37781230.00549 -29088620.84047  20652301.2134   20652303.4204
     -1047.7514       -816.4294
  19964218.3384  -38990136.61149 -30056281.75947  19964215.9524   19964220.0924
       587.4824        457.7804
  21245851.5824  -15085276.11548 -11423058.64346  21245850.1134   21245855.7564
      3660.4424       2852.2904
  23311943.0674  -15179065.24147 -11500280.48045  23311940.3724   23311944.7364
     -2185.9784      -1703.3614
  20814025.2884  -23712440.36648 -18173980.36446  20814023.8494   20814028.3734
      3101.7604       2416.9544
  19393548.4994  -34047075.48849 -25476479.36947  19393545.7884   19393549.7564
      -491.9354       -383.3274
  22193680.4044  -27390357.04948 -20983623.44946  22193678.6254   22193684.4024
     -1266.4664       -986.8524
  21859709.6894  -10695801.67048  -7634165.81046  21859707.2634   21859712.6034
      4527.2794       3527.7474
  22206189.5264  -18029008.03848 -13712099.69546  22206187.5574   22206192.6484
     -1588.9364      -1238.1294
 04 12 10  2  7 29.9960000  0  9G 2G17G29G 5G 6G10G24G26G30
  20658302.2124  -37749705.57249 -29064056.35247  20658300.1574   20658302.4344
     -1054.3054       -821.5364
  19960880.1484  -39007675.82949 -30069948.68347  19960878.1714   19960882.7754
       581.3764        453.0214
  21224982.9784  -15194943.95048 -11508514.07646  21224980.8404   21224985.3294
      3650.4194       2844.4814
  23324418.3604  -15113491.63947 -11449184.19945  23324417.6854   23324425.5064
     -2185.9694      -1703.3494
  20796349.1634  -23805329.73948 -18246361.67946  20796347.6664   20796352.7844
      3090.5524       2408.2224
  19396393.0814  -34032122.25749 -25464827.49047  19396391.1744   19396395.1224
      -505.3154       -393.7524
  22200918.2294  -27352325.23348 -20953988.27746  22200915.7994   22200921.2114
     -1269.4014       -989.1444
  21833877.4664  -10831542.46348  -7739937.82346  21833876.1464   21833880.6824
      4521.6904       3523.3934
  22215285.0464  -17981209.91948 -13674854.43346  22215283.2844   22215287.9164
     -1597.9234      -1245.1344
 04 12 10  2  7 59.9960000  0  9G 2G17G29G 5G 6G10G24G26G30
  20664281.1664  -37718284.05049 -29039572.05447  20664279.3384   20664281.3924
     -1040.4034       -810.7034
  19957521.1814  -39025331.99449 -30083706.74247  19957518.5814   19957522.9364
       595.7334        464.2074
  21204113.6334  -15304608.28748 -11593966.80346  21204112.0554   21204115.4964
      3660.6744       2852.4724
  23336841.5604  -15048221.45047 -11398324.36045  23336838.3444   23336844.4914
     -2165.3324      -1687.2684
  20778680.9804  -23898181.75648 -18318713.89747  20778678.9254   20778683.7974
      3099.7184       2415.3644
  19399258.2134  -34017069.56849 -25453098.11747  19399255.7944   19399259.5144
      -498.1134       -388.1404
  22208114.0244  -27314505.63048 -20924518.47946  22208112.4524   22208118.1834
     -1251.8444       -975.4614
  21808024.0094  -10967414.03247  -7845811.77046  21808020.2574   21808024.3744
      4536.4724       3534.9114
  22224373.5504  -17933443.96948 -13637634.24846  22224372.5664   22224377.3424
     -1586.3324      -1236.1004
 04 12 10  2  8 29.9960000  0  9G 2G17G29G 5G 6G10G24G26G30
  20670198.2224  -37687189.22549 -29015342.32447  20670196.7714   20670198.9974
     -1033.5954       -805.3994
  19954096.4814  -39043328.23449 -30097729.79247  19954093.9244   19954097.9874
       603.0164        469.8834
  21183205.7984  -15414489.81348 -11679588.76946  21183202.9894   21183206.7464
      3663.8024       2854.9084
  23349158.4384  -14983481.05647 -11347877.32545  23349157.4634   23349164.7994
     -2151.6684      -1676.6224
  20760976.3114  -23991217.66448 -18391209.40247  20760974.6804   20760979.6274
      3101.7374       2416.9384
  19402098.6594  -34002142.89549 -25441466.93547  19402096.0224   19402099.8444
      -497.9754       -388.0324
  22215227.2114  -27277121.50848 -20895388.01346  22215225.7844   22215231.5684
     -1241.4104       -967.3334
  21782099.7774  -11103636.43948  -7951959.08146  21782098.5554   21782103.8224
      4544.0204       3540.7964
  22233414.8634  -17885936.96848 -13600615.83546  22233412.2344   22233418.2874
     -1581.7064      -1232.4964
 04 12 10  2  8 59.9960000  0  9G 2G17G29G 5G 6G10G24G26G30
  20676151.0784  -37655908.50149 -28990967.74347  20676149.2164   20676151.7764
     -1051.4104       -819.2804
  19950704.2044  -39061151.31349 -30111617.90947  19950702.3254   19950706.4264
       585.6064        456.3174
  21162351.5364  -15524072.81048 -11764978.08846  21162349.7764   21162355.1104
      3642.1924       2838.0704
  23361476.6824  -14918760.90847 -11297446.06545  23361474.1564   23361481.0004
     -2162.5404      -1685.0984
  20743335.8734  -24083922.46348 -18463446.90547  20743333.8164   20743338.5584
      3079.0424       2399.2544
  19405012.0344  -33986831.62749 -25429536.06847  19405009.4894   19405014.0194
      -522.3804       -407.0494
  22222356.5324  -27239660.53648 -20866197.67346  22222354.9914   22222359.7804
     -1255.5804       -978.3724
  21756209.5494  -11239693.64248  -8057977.63446  21756207.7054   21756213.0194
      4526.8944       3527.4494
  22242502.2264  -17838179.12448 -13563401.97546  22242500.8044   22242506.1014
     -1601.6294      -1248.0224
 04 12 10  2  9 29.9960000  0  9G 2G17G29G 5G 6G10G24G26G30
  20682187.8964  -37624179.92449 -28966244.19347  20682186.7064   20682189.2964
     -1066.2154       -830.8184
  19947395.4774  -39078538.75949 -30125166.56747  19947393.4424   19947397.7174
       571.1764        445.0724
  21141605.3124  -15633092.49348 -11849928.43846  21141603.7334   21141609.7104
      3623.4864       2823.4944
  23373839.7154  -14853801.66047 -11246828.52045  23373836.0984   23373840.8924
     -2170.3914      -1691.2154
  20725807.1334  -24176031.73748 -18535220.36447  20725805.4784   20725810.1204
      3059.2644       2383.8404
  19408047.3504  -33970876.05349 -25417103.15447  19408045.5004   19408049.9274
      -543.6994       -423.6634
  22229549.9154  -27201860.46148 -20836743.08046  22229547.9994   22229553.8444
     -1266.7584       -987.0864
  21730400.3354  -11375319.96648  -8163660.45646  21730398.9104   21730404.1014
      4512.5444       3516.2694
  22251687.5134  -17789911.53048 -13525790.89646  22251685.8724   22251690.1844
     -1618.4944      -1261.1644
 04 12 10  2  9 59.9960000  0  9G 2G17G29G 5G 6G10G24G26G30
  20688293.7084  -37592106.09049 -28941251.60347  20688290.5904   20688292.6624
     -1065.7814       -830.4784
  19944150.8434  -39095592.67649 -30138455.33447  19944148.2264   19944152.5404
       571.9824        445.7004
  21120948.1624  -15741648.34448 -11934517.36946  21120946.3694   21120951.8024
      3619.8654       2820.6744
  23386223.2894  -14788708.55947 -11196106.65745  23386221.9214   23386228.5894
     -2162.8474      -1685.3354
  20708373.0174  -24267645.68248 -18606607.85046  20708371.5084   20708376.3314
      3054.6404       2380.2384
  19411187.0644  -33954380.73749 -25404249.66147  19411184.4674   19411189.1374
      -549.7204       -428.3544
  22236788.9144  -27163823.60348 -20807103.99946  22236786.5084   22236791.1124
     -1262.7484       -983.9594
  21704655.9234  -11510614.38848  -8269084.63446  21704653.1824   21704658.2694
      4513.3474       3516.8934
  22260950.4014  -17741239.84148 -13487864.92946  22260948.3854   22260952.7884
     -1619.9494      -1262.2944
 04 12 10  2 10 29.9960000  0  9G 2G17G29G 5G 6G10G24G26G30
  20694440.2654  -37559794.15448 -28916073.48547  20694439.2584   20694441.4074
     -1088.6214       -848.2764
  19940948.3334  -39112419.57549 -30151567.20347  19940946.1154   19940950.5524
       549.5364        428.2104
  21100360.0334  -15849844.66648 -12018826.17346  21100357.7034   21100361.5144
      3592.9994       2799.7384
  23398615.8114  -14723591.66247 -11145366.25845  23398613.7894   23398618.7124
     -2178.5114      -1697.5364
  20691014.1764  -24358869.18748 -18677691.10046  20691012.3854   20691017.0294
      3026.7324       2358.4924
  19414407.6084  -33937454.61749 -25391060.48047  19414405.1334   19414410.1464
      -578.8994       -451.0904
  22244052.6084  -27125656.56248 -20777363.45646  22244050.0934   22244055.1084
     -1281.9534       -998.9234
  21678952.5784  -11645680.50848  -8374330.94446  21678950.4274   21678955.1044
      4490.7934       3499.3194
  22270267.8214  -17692274.23248 -13449709.92146  22270266.1104   22270270.7714
     -1644.5594      -1281.4764
 04 12 10  2 10 59.9960000  0 10G 2G17G29G 5G 6G21G10G24G26G30
  20700679.6874  -37527010.98248 -28890528.16747  20700677.7174   20700679.9594
     -1088.0554       -847.8344
  19937834.3444  -39128785.67549 -30164320.01247  19937831.8664   19937836.2354
       550.4364        428.9114
  21079882.8214  -15957444.84648 -12102670.47346  21079881.4864   21079885.4944
      3589.3364       2796.8854
  23411053.8524  -14658220.47747 -11094427.67645  23411053.6224   23411059.1534
     -2170.6494      -1691.4144
  20673775.3674  -24449466.37948 -18748286.31846  20673772.7534   20673776.5964
      3022.0434       2354.8394
  23918794.7464   -6793084.74847  -5033806.52945  23918792.9824   23918798.3074
      3473.0524       2706.2724
  19417754.4784  -33919866.48349 -25377355.44347  19417751.8864   19417757.4814
      -584.6844       -455.5974
  22251383.3284  -27087125.90748 -20747339.59046  22251381.6554   22251386.3844
     -1277.8014       -995.6894
  21653338.8954  -11780281.50948  -8479214.82546  21653336.5354   21653341.5184
      4491.4744       3499.8484
  22279684.8694  -17642784.28848 -13411146.35046  22279683.4354   22279688.8744
     -1645.7734      -1282.4174
 04 12 10  2 11 29.9960000  0 10G 2G17G29G 5G 6G21G10G24G26G30
  20706913.5484  -37494252.68448 -28865002.22947  20706911.4394   20706913.0844
     -1092.0124       -850.9194
  19934712.6784  -39145186.51449 -30177099.88747  19934710.8124   19934715.5044
       546.8184        426.0924
  21059426.8984  -16064942.19348 -12186434.61946  21059425.2074   21059430.3114
      3581.0554       2790.4304
  23423449.4874  -14593093.82947 -11043679.65345  23423446.2684   23423452.1294
     -2167.2534      -1688.7724
  20656560.3264  -24539930.96648 -18818778.21447  20656558.0594   20656562.3634
      3012.7984       2347.6354
  23898969.3434   -6897278.38647  -5114996.35545  23898966.6434   23898970.6254
      3476.9844       2709.3424
  19421132.8674  -33902114.18849 -25363522.48747  19421130.3614   19421135.7224
      -594.9204       -463.5744
  22258689.1834  -27048727.31848 -20717418.65246  22258687.9104   22258693.4754
     -1278.2294       -996.0234
  21627719.7284  -11914909.77948  -8584119.94946  21627718.6064   21627723.5254
      4487.5864       3496.8174
  22289107.1294  -17593269.13548 -13372563.15346  22289105.1864   22289110.6994
     -1651.3464      -1286.7624
 04 12 10  2 11 59.9960000  0 10G 2G17G29G 5G 6G21G10G24G26G30
  20713138.6834  -37461539.27848 -28839511.27447  20713136.3994   20713138.5444
     -1092.6494       -851.4144
  19931582.2324  -39161641.37149 -30189921.85647  19931579.5434   19931584.2194
       546.4384        425.7974
  21038987.2384  -16172353.71048 -12270131.86546  21038985.3654   21038991.3394
      3575.9894       2786.4854
  23435790.2384  -14528234.40047 -10993139.90145  23435788.4874   23435795.3544
     -2160.4324      -1683.4514
  20639367.4254  -24630280.62448 -18889180.54647  20639365.0764   20639369.2184
      3006.8074       2342.9684
  23879088.5434   -7001753.75047  -5196405.71845  23879085.1174   23879087.1674
      3484.3254       2715.0534
  19424538.1484  -33884220.15249 -25349579.08747  19424535.7344   19424540.7984
      -601.7114       -468.8654
  22265968.6294  -27010480.86848 -20687616.24646  22265966.5514   22265972.1264
     -1275.2724       -993.7184
  21602092.4274  -12049581.78748  -8689059.12146  21602090.6774   21602096.2154
      4486.8084       3496.2124
  22298530.1964  -17543751.69548 -13333978.19346  22298528.4334   22298534.1084
     -1653.4614      -1288.4094
 04 12 10  2 12 29.9960000  0 10G 2G17G29G 5G 6G21G10G24G26G30
  20719382.9284  -37428725.50748 -28813942.10747  20719381.1854   20719383.4484
     -1099.4174       -856.6884
  19928468.2104  -39178004.34549 -30202672.22947  19928465.7464   19928470.4694
       539.9514        420.7414
  21018592.9054  -16279530.99148 -12353646.58746  21018590.5104   21018596.1684
      3564.6934       2777.6824
  23448108.6984  -14463499.54647 -10942697.16045  23448106.9944   23448112.6704
     -2159.6984      -1682.8794
  20622224.0364  -24720367.77848 -18959378.32947  20622222.1094   20622226.3884
      2994.5854       2333.4454
  23859180.9254   -7106364.98747  -5277920.91945  23859178.6624   23859181.1794
      3485.3294       2715.8394
  19427997.4104  -33866040.98149 -25335413.50547  19427994.9394   19428000.3904
      -614.6464       -478.9454
  22273246.6164  -26972241.00648 -20657818.98046  22273243.9474   22273248.3294
     -1278.4954       -996.2304
  21576482.9454  -12184148.50048  -8793916.26646  21576482.7234   21576489.4784
      4479.8354       3490.7814
  22307980.4574  -17494089.77648 -13295280.62046  22307978.9554   22307984.3574
     -1661.6864      -1294.8194
 04 12 10  2 12 59.9960000  0 10G 2G17G29G 5G 6G21G10G24G26G30
  20725653.2424  -37395774.66748 -28788266.14147  20725651.2144   20725653.2694
     -1095.0004       -853.2474
  19925378.9984  -39194238.35549 -30215322.10747  19925376.4794   19925381.5454
       544.6554        424.4064
  20998249.9264  -16386434.57248 -12436948.05246  20998247.7324   20998252.5814
      3564.5684       2777.5844
  23460411.5094  -14398855.30647 -10892325.04845  23460408.8054   23460415.0164
     -2147.6114      -1673.4664
  20605137.7784  -24810153.26648 -19029341.05147  20605136.0164   20605140.7394
      2993.5294       2332.6194
  23839255.5504   -7211075.47347  -5359513.47345  23839252.8994   23839256.8654
      3497.6994       2725.4814
  19431517.9194  -33847542.10549 -25320998.80847  19431515.3814   19431520.2494
      -616.2384       -480.1864
  22280528.1864  -26933970.73048 -20627998.00446  22280526.2374   22280531.9014
     -1270.5174       -990.0104
  21550905.6844  -12318569.91948  -8898660.21646  21550904.3264   21550908.4054
      4483.9494       3493.9894
  22317464.1664  -17444249.74648 -13256444.25846  22317463.3614   22317468.9164
     -1658.5774      -1292.4004
 04 12 10  2 13 29.9960000  0 10G 2G17G29G 5G 6G21G10G24G26G30
  20731946.6834  -37362704.87848 -28762497.48547  20731944.1834   20731946.5534
     -1101.7094       -858.4744
  19922310.0114  -39210360.81749 -30227885.06547  19922308.4004   19922313.6534
       538.1304        419.3224
  20977954.5944  -16493079.56748 -12520048.03346  20977953.7284   20977958.0294
      3553.1414       2768.6794
  23472689.2264  -14334322.65447 -10842039.84245  23472688.0144   23472694.5684
     -2146.5704      -1672.6534
  20588107.2474  -24899652.80848 -19099080.93747  20588104.9354   20588110.2384
      2981.1664       2322.9854
  23819304.5584   -7315903.15146  -5441197.35045  23819304.8364   23819305.6534
      3498.8154       2726.3564
  19435095.1014  -33828743.74449 -25306350.73747  19435092.7114   19435097.1494
      -628.9684       -490.1064
  22287813.1844  -26895687.79148 -20598167.16946  22287811.2454   22287816.0354
     -1273.7024       -992.4954
  21525352.8874  -12452860.30348  -9003302.07646  21525350.2984   21525354.4624
      4476.7294       3488.3624
  22326979.2404  -17394252.68048 -13217485.52746  22326977.7424   22326982.5514
     -1666.5014      -1298.5724
 04 12 10  2 13 59.9960000  0 10G 2G17G29G 5G 6G21G10G24G26G30
  20738251.2334  -37329571.39848 -28736679.20147  20738249.0224   20738251.6934
     -1103.1604       -859.6064
  19919253.3704  -39226426.28449 -30240403.61547  19919251.4414   19919256.3514
       536.9254        418.3834
  20957700.8934  -16599518.33148 -12602987.31846  20957699.0494   20957703.4544
      3546.8834       2763.8024
  23484940.2214  -14269959.27047 -10791886.60645  23484936.8254   23484943.7824
     -2140.2214      -1667.7044
  20571119.5014  -24988919.32648 -19168639.26147  20571117.5554   20571122.5114
      2974.0514       2317.4444
  23799325.5024   -7420902.76547  -5523015.26245  23799323.6684   23799327.2184
      3505.2854       2731.3934
  19438718.4964  -33809703.18549 -25291513.94047  19438716.0944   19438720.1024
      -636.3294       -495.8414
  22295091.0494  -26857446.61448 -20568368.86646  22295088.0694   22295093.3174
     -1271.6344       -990.8824
  21499810.4934  -12587071.37648  -9107882.06146  21499809.1694   21499815.2024
      4474.7524       3486.8154
  22336512.0534  -17344156.98748 -13178449.94246  22336510.7814   22336515.2604
     -1669.0334      -1300.5414
 04 12 10  2 14 29.9960000  0 10G 2G17G29G 5G 6G21G10G24G26G30
  20744536.2964  -37296539.40248 -28710939.99747  20744534.4474   20744537.6594
     -1099.9674       -857.1154
  19916176.7774  -39242599.27849 -30253005.95047  19916173.9754   19916178.8194
       540.2684        420.9884
  20937454.1854  -16705912.88248 -12685892.12646  20937452.5464   20937457.8054
      3545.2554       2762.5374
  23497124.1414  -14205933.15347 -10741996.18745  23497121.6294   23497126.7824
     -2129.1024      -1659.0354
  20554146.3524  -25078115.52648 -19238142.79447  20554144.6564   20554149.0424
      2971.5014       2315.4564
  23779281.5784   -7526239.41547  -5605095.66145  23779278.4454   23779283.1064
      3516.1914       2739.8874
  19442356.6214  -33790587.20349 -25276618.36947  19442353.7954   19442356.9834
      -639.0064       -497.9274
  22302328.6364  -26819412.57948 -20538731.98046  22302326.1364   22302330.1464
     -1264.9414       -985.6684
  21474255.8774  -12721364.48748  -9212525.99946  21474254.6544   21474259.9734
      4477.1804       3488.7124
  22346030.9914  -17294130.52048 -13139468.31446  22346029.8504   22346035.1944
     -1666.8924      -1298.8724
 04 12 10  2 14 59.9960000  0 10G 2G17G29G 5G 6G21G10G24G26G30
  20750857.7594  -37263319.36348 -28685054.26747  20750856.3444   20750859.4174
     -1112.6904       -867.0324
  19913133.1374  -39258589.87149 -30265466.15047  19913131.0464   19913135.9754
       527.7204        411.2104
  20917273.0934  -16811970.73448 -12768534.58046  20917271.1664   20917275.8884
      3527.3794       2748.6054
  23509296.0144  -14141957.56547 -10692145.06545  23509294.5444   23509301.5804
     -2133.8704      -1662.7504
  20537242.1004  -25166949.53048 -19307364.09947  20537240.8384   20537244.8134
      2952.8784       2300.9444
  23759228.4854   -7631623.34047  -5687212.98445  23759225.7994   23759229.7244
      3511.3294       2736.1034
  19446062.6364  -33771108.47449 -25261440.13247  19446060.0394   19446063.7754
      -657.5294       -512.3624
  22309580.0684  -26781295.77648 -20509030.58446  22309579.2354   22309584.3434
     -1274.1504       -992.8414
  21448742.3734  -12855446.71948  -9317005.64446  21448740.4904   21448744.6444
      4463.5754       3478.1114
  22355592.2444  -17243886.97748 -13100317.54046  22355590.4624   22355596.4024
     -1680.5994      -1309.5574
 04 12 10  2 15 29.9960000  0 10G 2G17G29G 5G 6G21G10G24G26G30
  20757227.9034  -37229848.31848 -28658972.95047  20757225.9474   20757228.4784
     -1121.9204       -874.2234
  19910137.7374  -39274334.08949 -30277734.37547  19910135.1044   19910140.0714
       518.6274        404.1244
  20897166.4884  -16917626.05748 -12850863.37746  20897164.9424   20897170.4664
      3513.0924       2737.4724
  23521474.3914  -14077972.07647 -10642286.25145  23521470.3944   23521477.4004
     -2135.0184      -1663.6484
  20520419.2594  -25255356.03448 -19376252.28347  20520417.3884   20520421.7784
      2937.7094       2289.1254
  23739174.0564   -7736991.15347  -5769317.79945  23739173.1114   23739177.4304
      3509.9874       2735.0574
  19449848.9094  -33751206.17649 -25245931.84747  19449847.0154   19449851.0884
      -672.4984       -524.0244
  22316863.0194  -26743033.01148 -20479215.44746  22316861.1004   22316865.0954
     -1279.9324       -997.3474
  21423278.6454  -12989251.17148  -9421268.86446  21423277.9304   21423281.0274
      4453.4154       3470.1934
  22365206.2414  -17193366.22248 -13060950.76046  22365204.8474   22365210.1234
     -1690.6494      -1317.3894
 04 12 10  2 15 59.9960000  0 10G 2G17G29G 5G 6G21G10G24G26G30
  20763649.9984  -37196094.10948 -28632670.98247  20763648.7764   20763651.2884
     -1127.5904       -878.6424
  19907194.6874  -39289799.36949 -30289785.24747  19907192.3154   19907196.8954
       513.1504        399.8574
  20877143.8594  -17022843.84748 -12932851.22546  20877142.2254   20877147.9744
      3502.2544       2729.0264
  23533654.7634  -14013947.21947 -10592396.78745  23533653.5544   23533660.9204
     -2132.4834      -1661.6724
  20503684.3384  -25343300.33948 -19444780.32047  20503682.1264   20503687.0524
      2926.0864       2280.0684
  23719134.2144   -7842310.49747  -5851384.74245  23719132.8564   23719137.0654
      3512.2704       2736.8244
  19453723.4414  -33730850.13749 -25230070.00147  19453720.7554   19453724.8194
      -683.7874       -532.8214
  22324176.4004  -26704592.04048 -20449261.45346  22324175.4704   22324181.1754
     -1282.0684       -999.0164
  21397877.1354  -13122742.39948  -9525287.96546  21397873.9374   21397880.2274
      4446.7154       3464.9714
  22374878.7214  -17142539.20748 -13021345.31646  22374877.3404   22374882.2544
     -1696.9854      -1322.3224
