     2.10           OBSERVATION DATA    G (GPS)             RINEX VERSION / TYPE
teqc  2004Dec3      Gordon Adams        20050221 04:45:41UTCPGM / RUN BY / DATE
Solaris 2.7|Ultra 2|cc SC5.0|=+-|*Sparc                     COMMENT
teqc  2000Jul20     CORS-ADM Account    20041213 05:49:58UTCCOMMENT
teqc  2000Jul20     CORS/NGS/NOAA       20041213 05:49:52UTCCOMMENT
BIT 2 OF LLI FLAGS DATA COLLECTED UNDER A/S CONDITION       COMMENT
htv1                                                        MARKER NAME
Jason Cockrell      U.S. Coast Guard                        OBSERVER / AGENCY
2199912124          ASHTECH Z-XII3      RD00                REC # / TYPE / VERS
16020               ASH700829.3     SNOW                    ANT # / TYPE
   350722.8656 -5130731.1515  3760329.7009                  APPROX POSITION XYZ
        0.0000        0.0000        0.0000                  ANTENNA: DELTA H/E/N
     1     1                                                WAVELENGTH FACT L1/2
     7    C1    L1    L2    P1    P2    D1    D2            # / TYPES OF OBSERV
    30.0000                                                 INTERVAL
 SNR is mapped to RINEX snr flag value [1-9]                COMMENT
  L1: 1 -> 1;  90 -> 5; 210 -> 9                            COMMENT
  L2: 1 -> 1; 150 -> 5; 250 -> 9                            COMMENT
Forced Modulo Decimation to 30 seconds                      COMMENT
Forced Modulo Decimation to 30 seconds                      COMMENT
  2004    12    12     0     0    0.0000000     GPS         TIME OF FIRST OBS
                                                            END OF HEADER
 04 12 12  0  0  0.0000000  0  9G 5G17G13G10G30G24G 7G 4G 2
  21643006.5144  -25111416.41149 -19230099.67147  21643004.0404   21643009.6344
       535.5744        417.3304
  21739068.9524  -29034374.24149 -22324512.25047  21739066.8054   21739072.7294
      2072.7484       1615.1274
  24278172.1904   -9314128.87548  -7015027.46646  24278170.3674   24278175.7754
      1112.8914        867.1864
  21464687.7924  -25266758.26749 -19643622.72247  21464685.0154   21464691.0674
      3592.1464       2799.0734
  22541525.4224  -18590956.31048 -12301857.41746  22541524.1624   22541529.3884
      2455.9704       1913.7424
  21076579.1184  -32279732.54549 -24794319.20047  21076577.2294   21076581.0004
      -380.5074       -296.5004
  23552964.4324  -30671595.02647 -23557288.83045  23552961.9464   23552965.2864
     -1887.8374      -1471.0404
  21812626.9314  -30827823.26049 -23662423.12747  21812624.9874   21812630.1324
     -1391.9054      -1084.6024
  20457384.6064  -39160459.78449 -29848376.08347  20457382.6124   20457384.3564
       897.7754        699.5654
 04 12 12  0  0 30.0000000  0  9G 5G17G13G10G30G24G 7G 4G 2
  21640003.3094  -25127194.07449 -19242393.94447  21640001.5464   21640007.3094
       516.1584        402.2014
  21727255.6824  -29096452.49149 -22372884.88447  21727253.4374   21727259.2634
      2065.6564       1609.6014
  24271868.7514   -9347249.92447  -7040836.02746  24271867.2834   24271872.4334
      1095.0804        853.3064
  21444220.9354  -25374308.19049 -19727427.81647  21444218.9344   21444225.1464
      3577.7604       2787.8644
  22527556.7814  -18664368.34748 -12359061.57646  22527554.4374   22527559.0944
      2438.1074       1899.8254
  21078768.6304  -32268224.72549 -24785352.05847  21078766.7564   21078770.8204
      -386.7734       -301.3824
  23563763.0284  -30614842.27147 -23513065.87945  23563759.1624   23563767.4064
     -1895.7264      -1477.1894
  21820584.1794  -30786008.83049 -23629840.45447  21820582.3214   21820587.1274
     -1395.7514      -1087.5984
  20452288.1624  -39187243.88949 -29869246.80447  20452285.9394   20452287.4884
       887.6994        691.7124
 04 12 12  0  1  0.0000000  0  9G 5G17G13G10G30G24G 7G 4G 2
  21637109.4984  -25142405.53949 -19254247.03447  21637107.3144   21637112.7214
       497.8494        387.9344
  21715479.6834  -29158334.01449 -22421104.22847  21715477.5234   21715483.4454
      2059.6494       1604.9214
  24265664.6494   -9379852.77047  -7066240.81145  24265663.3504   24265668.2034
      1078.3554        840.2784
  21423834.6094  -25481441.85849 -19810908.56547  21423832.2714   21423838.0494
      3564.4014       2777.4554
  22513685.5024  -18737258.95748 -12415859.42046  22513683.8644   22513688.2324
      2421.2314       1886.6754
  21080990.5434  -32256546.65449 -24776252.25447  21080988.9874   21080993.3494
      -391.8834       -305.3644
  23574604.1264  -30557871.01947 -23468672.74445  23574601.4164   23574608.8794
     -1902.3574      -1482.3504
  21828560.4594  -30744094.02949 -23597179.56947  21828558.4774   21828563.1684
     -1398.5364      -1089.7694
  20447245.3634  -39213740.89249 -29889893.81047  20447243.6614   20447245.3014
       878.6704        684.6764
 04 12 12  0  1 30.0000000  0  9G 5G17G13G10G30G24G 7G 4G 2
  21634313.6754  -25157098.30449 -19265695.92747  21634311.1294   21634316.4784
       478.3274        372.7224
  21703732.8084  -29220065.86049 -22469206.94047  21703730.6374   21703736.9154
      2052.4224       1599.2884
  24259549.0874   -9411983.17047  -7091277.43845  24259548.8724   24259553.7144
      1060.3734        826.2634
  21403518.3644  -25588203.79349 -19894099.65247  21403515.9634   21403521.2594
      3549.7074       2766.0044
  22499904.7764  -18809673.24348 -12472286.11246  22499902.9414   22499907.6464
      2403.0694       1872.5194
  21083236.9544  -32244745.98449 -24767056.92547  21083234.8534   21083239.3264
      -398.1654       -310.2604
  23585478.2534  -30500728.28947 -23424145.99045  23585476.6984   23585482.5774
     -1910.3344      -1488.5734
  21836545.6174  -30702126.35249 -23564477.47747  21836544.3134   21836548.8304
     -1402.5584      -1092.9034
  20442249.6144  -39239997.88749 -29910353.79947  20442247.1164   20442248.6064
       868.4234        676.6934
 04 12 12  0  2  0.0000000  0  9G 5G17G13G10G30G24G 7G 4G 2
  21631644.3324  -25171122.96749 -19276624.23147  21631642.2624   21631647.7694
       458.5524        357.3144
  21692042.3664  -29281498.44649 -22517076.46647  21692040.6574   21692046.8944
      2044.9554       1593.4704
  24253554.7874   -9443490.24447  -7115828.38345  24253553.9924   24253556.9344
      1042.0284        811.9654
  21383302.5534  -25694441.78649 -19976882.47847  21383299.7914   21383304.6734
      3534.7144       2754.3224
  22486242.5674  -18881459.83148 -12528223.67946  22486242.2674   22486248.0324
      2384.6054       1858.1324
  21085534.0584  -32232674.20349 -24757650.34147  21085532.0594   21085537.0474
      -404.7174       -315.3634
  23596413.7784  -30443265.36847 -23379369.69945  23596410.9034   23596415.9354
     -1918.5374      -1494.9694
  21844569.9894  -30659957.11049 -23531618.31947  21844568.7154   21844572.9424
     -1406.7574      -1096.1754
  20437326.2404  -39265866.00749 -29930510.76047  20437324.3014   20437326.0304
       857.9684        668.5464
 04 12 12  0  2 30.0000000  0  9G 5G17G13G10G30G24G 7G 4G 2
  21629079.9574  -25184602.44549 -19287127.71347  21629077.7044   21629082.8584
       439.0444        342.1114
  21680386.0294  -29342754.51249 -22564808.44747  21680383.7184   21680390.0904
      2037.7224       1587.8344
  24247654.0394   -9474495.05947  -7139987.93445  24247653.1014   24247659.0184
      1023.8734        797.8294
  21363162.6394  -25800275.84549 -20059350.54747  21363160.0154   21363165.3124
      3519.8574       2742.7444
  22472680.3694  -18952739.28348 -12583766.09346  22472679.0784   22472683.5574
      2366.3134       1843.8814
  21087859.4694  -32220454.47249 -24748128.47547  21087857.3424   21087862.6864
      -410.9524       -320.2224
  23607385.2924  -30385604.92747 -23334439.45345  23607382.8884   23607388.2414
     -1926.4364      -1501.1244
  21852609.8694  -30617709.27749 -23498697.92347  21852608.3594   21852612.4604
     -1410.7314      -1099.2724
  20432455.0244  -39291467.82449 -29950460.21247  20432452.6844   20432453.9854
       847.7514        660.5854
 04 12 12  0  3  0.0000000  0  9G 5G17G13G10G30G24G 7G 4G 2
  21626626.0724  -25197497.32949 -19297175.66847  21626623.6114   21626628.6444
       420.7854        327.8834
  21668770.5334  -29403794.12049 -22612371.76247  21668768.1194   21668774.4984
      2031.7024       1583.1444
  24241857.1444   -9504956.46047  -7163724.07245  24241856.2314   24241860.1294
      1007.0014        784.6834
  21343107.5514  -25905663.83549 -20141471.02647  21343105.4024   21343111.1124
      3506.1604       2732.0714
  22459221.8774  -19023469.71348 -12638880.68846  22459219.9444   22459224.1924
      2349.2164       1830.5574
  21090220.1684  -32208047.95449 -24738461.06147  21090218.0564   21090223.6874
      -415.9924       -324.1504
  23618402.4274  -30327707.48847 -23289324.56145  23618399.9304   23618407.7774
     -1933.1134      -1506.3174
  21860671.5804  -30575344.32448 -23465686.25947  21860670.2074   21860673.7874
     -1413.3594      -1101.3194
  20427641.0164  -39316764.01649 -29970171.51447  20427639.0794   20427640.5724
       838.7994        653.6094
 04 12 12  0  3 30.0000000  0  9G 5G17G13G10G30G24G 7G 4G 2
  21624285.0314  -25209798.35149 -19306760.87147  21624282.5444   21624288.3124
       400.4704        312.0554
  21657197.5354  -29464607.97449 -22659759.16147  21657195.2284   21657202.1114
      2023.6854       1576.8964
  24236167.2114   -9534863.77247  -7187028.43745  24236165.8324   24236169.5264
       987.9894        769.8624
  21323140.6464  -26010593.64549 -20223234.47747  21323138.0504   21323144.0244
      3490.3214       2719.7304
  22445868.2094  -19093640.07448 -12693558.87946  22445866.9554   22445871.1894
      2329.9574       1815.5534
  21092617.9834  -32195445.56849 -24728641.02347  21092616.2544   21092622.0144
      -422.9814       -329.5964
  23629467.0514  -30269564.19347 -23244018.11645  23629465.3314   23629471.0194
     -1941.8194      -1513.1054
  21868757.4174  -30532853.00648 -23432576.12347  21868756.1634   21868759.9594
     -1418.1324      -1105.0384
  20422886.9914  -39341745.35749 -29989637.48347  20422885.0424   20422886.9144
       827.7584        645.0074
 04 12 12  0  4  0.0000000  0  9G 5G17G13G10G30G24G 7G 4G 2
  21622047.1914  -25221558.80749 -19315924.86247  21622044.9634   21622050.5774
       382.2644        297.8684
  21645658.4104  -29525248.78649 -22707011.72647  21645655.7954   21645662.0604
      2017.7034       1572.2364
  24230570.6664   -9564268.43247  -7209941.13945  24230570.8044   24230573.3524
       970.9834        756.6054
  21303250.4764  -26115115.77349 -20304680.24847  21303247.9564   21303254.0394
      3476.5234       2708.9794
  22432611.2134  -19163301.07548 -12747840.16846  22432610.0454   22432614.8924
      2312.7874       1802.1714
  21095043.1044  -32182701.19649 -24718710.35247  21095041.2824   21095047.0784
      -427.8814       -333.4134
  23640567.7504  -30211228.13947 -23198561.49245  23640566.2344   23640572.5894
     -1948.4334      -1518.2564
  21876857.9334  -30490289.05549 -23399409.39947  21876855.8204   21876860.1744
     -1420.7024      -1107.0424
  20418183.0934  -39366464.98949 -30008899.53047  20418181.1574   20418182.8974
       818.8704        638.0804
 04 12 12  0  4 30.0000000  0  9G 5G17G13G10G30G24G 7G 4G 2
  21619917.8744  -25232749.39949 -19324644.80247  21619915.4474   21619920.3694
       364.2134        283.8024
  21634156.9194  -29585686.83348 -22754106.29147  21634154.6214   21634160.9034
      2011.9064       1567.7184
  24225076.6654   -9593139.23947  -7232437.84645  24225075.3374   24225080.3464
       954.1184        743.4734
  21283443.9544  -26219197.89049 -20385783.16147  21283441.7384   21283447.4214
      3462.7444       2698.2404
  22419459.1344  -19232421.25448 -12801700.02346  22419457.6604   22419462.1654
      2295.6594       1788.8244
  21097501.6294  -32169785.72149 -24708646.35047  21097499.3254   21097504.7674
      -432.6714       -337.1464
  23651710.7414  -30152669.86347 -23152931.68145  23651709.5324   23651714.8594
     -1954.8994      -1523.2944
  21884976.0884  -30447623.28249 -23366163.33847  21884974.9154   21884979.6354
     -1423.1724      -1108.9654
  20413534.1034  -39390893.30549 -30027934.56247  20413532.5034   20413534.2624
       810.0924        631.2414
 04 12 12  0  5  0.0000000  0  9G 5G17G13G10G30G24G 7G 4G 2
  21617893.6754  -25243384.26149 -19332931.70547  21617891.3924   21617896.8244
       343.8954        267.9704
  21622692.4514  -29645935.93349 -22801053.63247  21622690.0474   21622695.8344
      2003.7864       1561.3914
  24219681.3924   -9621488.98747  -7254528.50845  24219679.9134   24219686.2664
       934.9604        728.5354
  21263719.4404  -26322851.48949 -20466552.17847  21263717.0394   21263722.4344
      3446.5924       2685.6544
  22406405.8574  -19301012.50248 -12855147.73446  22406404.7644   22406410.0264
      2276.1904       1773.6564
  21099989.4784  -32156713.62649 -24698460.30647  21099987.0054   21099991.9244
      -439.6804       -342.6074
  23662894.7374  -30093903.73147 -23107139.88245  23662892.9824   23662898.0484
     -1963.6384      -1530.1044
  21893112.5984  -30404870.44549 -23332849.44147  21893110.4484   21893115.3674
     -1427.8824      -1112.6354
  20408938.9834  -39415044.46349 -30046753.63247  20408936.8724   20408938.4624
       799.0404        622.6284
 04 12 12  0  5 30.0000000  0  9G 5G17G13G10G30G24G 7G 4G 2
  21615984.2644  -25253420.32449 -19340752.01447  21615982.0704   21615987.3474
       323.9144        252.4004
  21611271.8924  -29705952.24049 -22847819.57847  21611269.5614   21611275.1094
      1995.9954       1555.3204
  24214395.0554   -9649272.48647  -7276177.97045  24214394.0574   24214397.1874
       916.0274        713.7784
  21244084.9654  -26426030.11849 -20546951.08447  21244082.8484   21244088.4444
      3430.6964       2673.2684
  22393462.6304  -19369029.39048 -12908147.87046  22393461.1984   22393466.6184
      2257.0024       1758.7014
  21102514.2254  -32143441.88249 -24688118.68447  21102512.5044   21102517.2204
      -446.3854       -347.8324
  23674124.3304  -30034886.38947 -23061152.34945  23674121.9874   23674128.5914
     -1972.0464      -1536.6584
  21901272.4834  -30361987.15849 -23299433.89347  21901270.7204   21901275.5794
     -1432.2364      -1116.0284
  20404403.4874  -39438875.05949 -30065322.91747  20404401.8684   20404403.4844
       788.3514        614.2994
 04 12 12  0  6  0.0000000  0  9G 5G17G13G10G30G24G 7G 4G 2
  21614185.6284  -25262870.13749 -19348115.50847  21614183.4234   21614188.9424
       306.3624        238.7234
  21599893.2524  -29765748.08649 -22894413.73147  21599890.8184   21599895.9864
      1990.6514       1551.1564
  24209212.8394   -9676500.53747  -7297394.58245  24209211.6194   24209217.1884
       899.4294        700.8524
  21224540.1224  -26528743.57849 -20626987.51647  21224537.2704   21224542.8204
      3417.1484       2662.7134
  22380627.0754  -19436482.30648 -12960708.55946  22380625.9124   22380630.2354
      2240.1574       1745.5764
  21105075.7324  -32129983.37549 -24677631.53747  21105073.4004   21105078.1744
      -450.5784       -351.1004
  23685400.0844  -29975630.30547 -23014978.81545  23685397.4464   23685404.3664
     -1977.9554      -1541.2564
  21909454.7104  -30318986.42349 -23265926.83247  21909453.3484   21909458.0944
     -1434.1494      -1117.5194
  20399927.7944  -39462397.49049 -30083652.07447  20399925.6204   20399926.9244
       780.0644        607.8424
 04 12 12  0  6 30.0000000  0  9G 5G17G13G10G30G24G 7G 4G 2
  21612498.2894  -25271737.59449 -19355025.21947  21612496.1804   21612501.4074
       285.7924        222.6954
  21588555.6234  -29825327.01549 -22940838.86247  21588553.0724   21588558.1284
      1982.2714       1544.6264
  24204136.2784   -9703175.76347  -7318180.45245  24204135.8564   24204140.5024
       879.8254        685.5854
  21205082.1674  -26630992.79249 -20706662.19547  21205079.6584   21205085.6044
      3400.4574       2649.7054
  22367898.6404  -19503373.04248 -13012831.18746  22367896.6604   22367900.8274
      2220.2174       1730.0384
  21107670.6464  -32116342.26949 -24667002.10147  21107669.0954   21107674.0494
      -457.8194       -356.7434
  23696721.0034  -29916139.59547 -22968622.43445  23696719.8204   23696726.0764
     -1987.0604      -1548.3564
  21917659.0214  -30275872.08248 -23232331.24647  21917657.6794   21917662.1394
     -1439.0624      -1121.3494
  20395509.4454  -39485615.44949 -30101743.97547  20395507.6124   20395509.1634
       768.7504        599.0264
 04 12 12  0  7  0.0000000  0  9G 5G17G13G10G30G24G 7G 4G 2
  21610920.9904  -25280028.66849 -19361485.80047  21610918.3224   21610923.7904
       267.0634        208.1014
  21577258.6764  -29884694.33749 -22987099.10847  21577256.0614   21577260.9184
      1975.6764       1539.4864
  24199164.8524   -9729302.24447  -7338538.70545  24199163.1174   24199168.6504
       862.0704        671.7404
  21185712.4834  -26732780.88649 -20785977.55747  21185709.9954   21185716.0294
      3385.5514       2638.0904
  22355275.2574  -19569704.97348 -13064518.37146  22355273.7124   22355279.5514
      2202.0634       1715.8934
  21110300.1284  -32102524.87349 -24656235.29447  21110298.2294   21110303.4874
      -463.2004       -360.9354
  23708086.9094  -29856419.97147 -22922087.65645  23708084.1074   23708089.6594
     -1994.1244      -1553.8684
  21925884.9354  -30232650.54748 -23198652.12447  21925882.5624   21925886.4924
     -1442.1364      -1123.7444
  20391148.7884  -39508534.64549 -30119603.08347  20391146.4224   20391147.8504
       759.3124        591.6714
 04 12 12  0  7 30.0000000  0  9G 5G17G13G10G30G24G 7G 4G 2
  21609443.9944  -25287788.06249 -19367532.08547  21609441.6514   21609446.7534
       249.4964        194.4124
  21565992.5284  -29943894.21649 -23033228.87247  21565990.6584   21565995.8754
      1970.2204       1535.2364
  24194289.8244   -9754923.00047  -7358502.87145  24194288.1534   24194292.2444
       845.3134        658.6754
  21166422.9204  -26834149.89349 -20864966.35847  21166420.2334   21166426.3474
      3371.6564       2627.2634
  22342751.7524  -19635520.82648 -13115803.42446  22342749.6444   22342755.8574
      2184.9674       1702.5714
  21112954.6794  -32088575.75349 -24645365.85047  21112952.8844   21112957.8534
      -467.4354       -364.2354
  23719483.6674  -29796516.08747 -22875409.30545  23719481.9864   23719488.6774
     -2000.1144      -1558.5304
  21934120.0414  -30189366.40848 -23164924.20847  21934119.2734   21934122.9464
     -1444.1314      -1125.2984
  20386835.3174  -39531199.64249 -30137264.12147  20386833.3354   20386834.6644
       750.9664        585.1694
 04 12 12  0  8  0.0000000  0  9G 5G17G13G10G30G24G 7G 4G 2
  21608074.6094  -25294983.12549 -19373138.62547  21608072.2844   21608077.8644
       229.8664        179.1174
  21554765.8724  -30002893.59649 -23079202.40347  21554763.3774   21554769.0644
      1962.7194       1529.3924
  24189516.9964   -9780003.80747  -7378046.33145  24189515.9884   24189521.2774
       826.4234        643.9634
  21147219.4404  -26935063.99849 -20943600.69347  21147216.8524   21147222.4404
      3355.6254       2614.7714
  22330331.6454  -19700785.65648 -13166659.11746  22330330.1924   22330335.0404
      2165.7574       1687.6044
  21115640.5524  -32074462.59049 -24634368.58147  21115638.6244   21115643.2564
      -473.7304       -369.1404
  23730928.2224  -29736395.28147 -22828561.96945  23730923.2584   23730930.0454
     -2008.1644      -1564.8034
  21942376.0414  -30145987.08648 -23131122.12747  21942374.2244   21942378.1624
     -1448.0854      -1128.3784
  20382576.4484  -39553577.51749 -30154701.42147  20382574.7754   20382576.1834
       740.5864        577.0814
 04 12 12  0  8 30.0000000  0  9G 5G17G13G10G30G24G 7G 4G 2
  21606815.6244  -25301600.78349 -19378295.24947  21606813.2794   21606818.5004
       210.7704        164.2384
  21543578.8084  -30061678.91749 -23125009.12647  21543576.6724   21543582.9784
      1955.7424       1523.9544
  24184850.9744   -9804529.92647  -7397157.54845  24184848.5074   24184852.3334
       808.0794        629.6724
  21128105.9454  -27035507.21249 -21021868.11147  21128103.2604   21128108.1104
      3340.0374       2602.6264
  22318020.3434  -19765484.11448 -13217073.48946  22318018.5584   22318022.8004
      2146.9924       1672.9814
  21118359.9634  -32060172.16049 -24623233.18047  21118357.8834   21118362.7574
      -479.5014       -373.6374
  23742410.9914  -29676044.44947 -22781535.37945  23742409.0904   23742414.5854
     -2015.6434      -1570.6304
  21950651.0744  -30102499.64248 -23097235.79847  21950649.8034   21950653.9294
     -1451.5544      -1131.0814
  20378375.1804  -39575654.99949 -30171904.64647  20378373.5844   20378374.8764
       730.7054        569.3804
 04 12 12  0  9  0.0000000  0  9G 5G17G13G10G30G24G 7G 4G 2
  21605671.4084  -25307612.20749 -19382979.47847  21605669.1944   21605674.4984
       190.1594        148.1754
  21532438.9784  -30120220.55949 -23170625.96747  21532436.6414   21532442.8124
      1947.2004       1517.2994
  24180294.4584   -9828470.82147  -7415812.78245  24180293.5914   24180297.4804
       788.1744        614.1554
  21109087.2734  -27135447.95349 -21099743.98547  21109084.7474   21109090.0654
      3322.8484       2589.2314
  22305822.3094  -19829585.17648 -13267022.34646  22305820.2334   22305824.8304
      2126.6284       1657.1124
  21121118.3514  -32045675.91649 -24611937.40247  21121116.5344   21121121.5404
      -486.7574       -379.2904
  23753945.8844  -29615434.43347 -22734306.77045  23753942.7564   23753946.9544
     -2024.7554      -1577.7354
  21958952.6344  -30058875.28148 -23063242.78447  21958950.7854   21958956.3054
     -1456.5064      -1134.9404
  20374237.2554  -39597402.80449 -30188850.97947  20374235.2074   20374236.7004
       719.2984        560.4924
 04 12 12  0  9 30.0000000  0  9G 5G17G13G10G30G24G 7G 4G 2
  21604637.8074  -25313044.66649 -19387212.56847  21604635.3504   21604641.0134
       171.0544        133.2904
  21521339.1594  -30178545.14849 -23216073.67647  21521337.3724   21521343.8774
      1940.1254       1511.7844
  24175842.5524   -9851851.92047  -7434031.76745  24175842.7764   24175847.0974
       769.6424        599.7234
  21090160.3304  -27234910.35249 -21177247.11847  21090157.5844   21090163.6364
      3307.0334       2576.9084
  22293733.2264  -19893113.67648 -13316525.04646  22293731.4734   22293736.7354
      2107.6874       1642.3564
  21123910.6414  -32031001.34249 -24600502.67047  21123909.0884   21123914.0234
      -492.5084       -383.7734
  23765519.2124  -29554592.42447 -22686897.37845  23765519.4824   23765525.8884
     -2032.2814      -1583.5934
  21967275.1774  -30015141.14349 -23029164.24647  21967273.3254   21967278.5884
     -1459.9654      -1137.6344
  20370156.5744  -39618847.66049 -30205561.26247  20370154.3434   20370155.8864
       709.3894        552.7724
 04 12 12  0 10  0.0000000  0  9G 5G17G13G10G30G24G 7G 4G 2
  21603707.4534  -25317935.28149 -19391023.44447  21603704.9844   21603710.2694
       154.0054        120.0044
  21510274.6824  -30236689.37649 -23261380.84647  21510272.7804   21510279.5914
      1935.0794       1507.8554
  24171494.7594   -9874708.74547  -7451842.23145  24171493.4694   24171498.5794
       753.1594        586.8734
  21071317.9864  -27333928.39449 -21254404.00247  21071315.6514   21071321.4124
      3293.1704       2566.1074
  22281746.5904  -19956104.70948 -13365608.95046  22281744.9724   22281748.8784
      2090.7344       1629.1424
  21126730.5674  -32016185.13049 -24588957.56547  21126728.5834   21126733.9444
      -496.2164       -386.6624
  23777134.3324  -29493555.46647 -22639336.13645  23777133.9144   23777142.1364
     -2037.6864      -1587.8044
  21975610.5424  -29971334.41749 -22995029.14247  21975609.1934   21975614.7054
     -1461.4164      -1138.7654
  20366126.0364  -39640026.52749 -30222064.26747  20366124.0834   20366125.5374
       701.5054        546.6284
 04 12 12  0 10 30.0000000  0  9G 5G17G13G10G30G24G 7G 4G 2
  21602881.3304  -25322272.31749 -19394402.95847  21602879.2574   21602884.6904
       134.5184        104.8194
  21499247.1704  -30294640.83549 -23306537.80447  21499244.7534   21499251.6374
      1927.6424       1502.0584
  24167248.1934   -9897027.76847  -7469233.66545  24167246.6844   24167250.6574
       734.1294        572.0484
  21052562.6104  -27432487.30649 -21331203.12347  21052560.2704   21052566.2514
      3276.7924       2553.3434
  22269865.2344  -20018544.11448 -13414263.02146  22269863.4264   22269867.2834
      2071.3004       1613.9994
  21129579.2534  -32001215.62949 -24577293.01647  21129577.1444   21129582.4964
      -502.3654       -391.4534
  23788790.2994  -29432311.54847 -22591613.66445  23788788.4414   23788795.3334
     -2045.7624      -1594.0984
  21983962.5254  -29927443.21748 -22960828.21347  21983961.3504   21983966.8054
     -1465.2494      -1141.7524
  20362148.6224  -39660927.29549 -30238350.56547  20362146.8004   20362148.0644
       691.2074        538.6034
 04 12 12  0 11  0.0000000  0  9G 5G17G13G10G30G24G 7G 4G 2
  21602157.5144  -25326077.43649 -19397367.99247  21602155.4964   21602160.8944
       116.7284         90.9574
  21488252.1714  -30352420.29849 -23351560.74347  21488249.9214   21488256.5694
      1921.8534       1497.5464
  24163098.9584   -9918829.15647  -7486221.71845  24163097.1304   24163102.3444
       716.7704        558.5204
  21033891.3654  -27530605.87249 -21407659.11247  21033888.8944   21033894.8344
      3262.0074       2541.8234
  22258084.3144  -20080451.28548 -13462502.36146  22258082.5184   22258086.5764
      2053.4504       1600.0904
  21132452.3154  -31986114.39249 -24565525.81547  21132450.6164   21132456.2924
      -506.8224       -394.9264
  23800481.2174  -29370882.13247 -22543746.61145  23800479.3494   23800483.3904
     -2051.8504      -1598.8404
  21992327.7624  -29883489.00348 -22926578.17547  21992326.3674   21992329.5294
     -1467.4094      -1143.4364
  20358220.9084  -39681570.86249 -30254436.44847  20358218.6254   20358219.7724
       682.5814        531.8804
 04 12 12  0 11 30.0000000  0  9G 5G17G13G10G30G24G 7G 4G 2
  21601544.2544  -25329299.71549 -19399878.86347  21601542.1854   21601547.4624
        98.4174         76.6894
  21477300.0204  -30409976.22149 -23396409.50047  21477297.8034   21477303.7734
      1915.5114       1492.6054
  24159059.3324   -9940060.06747  -7502765.25845  24159058.1154   24159060.7304
       698.9124        544.6134
  21015313.4414  -27628230.19449 -21483729.98947  21015311.3354   21015316.6444
      3246.6064       2529.8244
  22246414.6764  -20141772.93348 -13510285.44546  22246412.9324   22246418.1324
      2035.0004       1585.7134
  21135361.1444  -31970830.59149 -24553616.35847  21135359.1254   21135364.5794
      -511.7684       -398.7804
  23812214.7354  -29309216.00647 -22495695.06245  23812212.9744   23812218.4464
     -2058.6064      -1604.1034
  22000713.2264  -29839420.46148 -22892239.03047  22000711.9184   22000715.2824
     -1470.1144      -1145.5444
  20354350.5374  -39701906.01249 -30270282.00747  20354348.8164   20354350.3574
       673.4174        524.7404
 04 12 12  0 12  0.0000000  0  9G 5G17G13G10G30G24G 7G 4G 2
  21601039.2284  -25331955.62749 -19401948.40647  21601036.7934   21601042.2704
        79.0354         61.5864
  21466387.1844  -30467324.05749 -23441096.11447  21466385.0944   21466390.8254
      1908.0574       1486.7984
  24155124.6644   -9960735.71647  -7518876.09945  24155122.5224   24155128.2154
       679.8844        529.7774
  20996827.9064  -27725373.94449 -21559426.39347  20996825.2084   20996830.6794
      3230.0364       2516.9104
  22234854.4414  -20202523.26048 -13557623.34246  22234852.6584   22234857.5704
      2015.4314       1570.4634
  21138301.5234  -31955380.55849 -24541577.36547  21138299.1084   21138304.3874
      -517.8344       -403.5074
  23823990.3984  -29247329.44947 -22447471.75245  23823989.0364   23823996.6134
     -2066.5664      -1610.3114
  22009117.7094  -29795254.18148 -22857823.72747  22009116.6174   22009119.8504
     -1473.8664      -1148.4664
  20350536.6944  -39721948.74349 -30285899.73347  20350534.9034   20350536.5524
       663.1494        516.7404
 04 12 12  0 12 30.0000000  0  9G 5G17G13G10G30G24G 7G 4G 2
  21600638.8014  -25334058.44149 -19403586.96947  21600636.7884   21600642.1414
        60.7324         47.3234
  21455512.4124  -30524476.60149 -23485630.55647  21455509.7634   21455514.9914
      1901.6644       1481.8164
  24151292.8294   -9980867.29547  -7534563.03845  24151291.5374   24151295.3964
       661.8574        515.7324
  20978432.1394  -27822047.29849 -21634756.25147  20978429.6154   20978434.8654
      3214.4144       2504.7374
  22223400.5804  -20262713.34348 -13604524.69946  22223399.2314   22223403.3514
      1996.8864       1556.0144
  21141270.0664  -31939777.31049 -24529418.98047  21141268.2574   21141273.6554
      -522.8084       -407.3844
  23835808.9204  -29185235.37447 -22399086.79145  23835806.3494   23835813.7934
     -2073.2934      -1615.5514
  22017538.6804  -29751003.01948 -22823342.28247  22017537.0504   22017540.8894
     -1476.5344      -1150.5464
  20346775.5144  -39741712.09449 -30301299.75147  20346773.8244   20346775.5194
       653.9444        509.5664
 04 12 12  0 13  0.0000000  0  9G 5G17G13G10G30G24G 7G 4G 2
  21600345.8354  -25335601.31949 -19404789.21147  21600343.5164   21600348.2574
        43.1804         33.6474
  21444674.5684  -30581426.23849 -23530006.88847  21444672.3544   21444677.5804
      1895.9924       1477.3964
  24147566.4114  -10000445.91547  -7549819.02045  24147565.4204   24147569.9594
       644.4194        502.1504
  20960127.4104  -27918240.35349 -21709711.85947  20960124.6564   20960129.8384
      3199.4884       2493.1074
  22212055.0124  -20322334.14148 -13650982.43746  22212053.8034   22212058.9334
      1978.9744       1542.0574
  21144270.2474  -31924013.72949 -24517135.66747  21144267.8434   21144273.0844
      -527.0364       -410.6784
  23847662.9304  -29122926.98947 -22350534.85445  23847661.5214   23847669.5304
     -2079.3754      -1620.2864
  22025976.2224  -29706660.14448 -22788789.38747  22025974.8824   22025980.0424
     -1478.5274      -1152.0994
  20343070.2414  -39761188.48649 -30316476.15347  20343067.9334   20343069.4974
       645.4664        502.9604
 04 12 12  0 13 29.9990000  0  9G 5G17G13G10G30G24G 7G 4G 2
  21600164.1114  -25336553.82349 -19405531.41647  21600161.9004   21600167.1944
        21.9414         17.0964
  21433882.5014  -30638139.98049 -23574199.40247  21433879.8914   21433885.2084
      1886.6124       1470.0874
  24143953.7364  -10019439.63647  -7564619.32645  24143952.0594   24143955.8854
       623.4114        485.7764
  20941920.1354  -28013916.21849 -21784264.45547  20941917.9614   20941923.7124
      3180.7404       2478.4974
  22200825.0894  -20381350.85748 -13696969.47546  22200823.1854   22200828.0274
      1957.2704       1525.1454
  21147305.8624  -31908059.97849 -24504704.16647  21147303.6974   21147308.9794
      -534.9734       -416.8634
  23859568.4754  -29060375.52947 -22301793.50345  23859566.2854   23859571.5424
     -2089.1454      -1627.9114
  22034437.1794  -29662196.21448 -22754142.17647  22034435.8364   22034441.3174
     -1484.1974      -1156.5184
  20339424.0684  -39780346.45549 -30331404.43747  20339422.1584   20339424.0924
       633.3144        493.4914
 04 12 12  0 13 59.9990000  0  9G 5G17G13G10G30G24G 7G 4G 2
  21600077.5574  -25337009.86949 -19405886.78347  21600075.3404   21600080.5074
         6.2604          4.8794
  21423116.6544  -30694714.41649 -23618283.36947  21423114.2784   21423119.4024
      1882.7474       1467.0764
  24140432.1974  -10037941.48947  -7579036.32745  24140431.1484   24140434.9524
       607.8454        473.6374
  20923793.4554  -28109172.28249 -21858489.93147  20923790.8794   20923797.4304
      3167.4324       2468.1294
  22189690.7644  -20439859.01148 -13742560.23346  22189689.2624   22189694.6784
      1941.0974       1512.5424
  21150360.0664  -31892008.33349 -24492196.38647  21150358.1884   21150363.5004
      -537.3564       -418.7184
  23871499.2764  -28997670.34447 -22252932.30945  23871498.7344   23871502.4664
     -2093.3624      -1631.1954
  22042904.9664  -29617701.62648 -22719471.07047  22042903.4764   22042908.5244
     -1484.3244      -1156.6164
  20335821.2544  -39799280.19149 -30346157.99847  20335819.1134   20335821.0104
       626.6794        488.3224
 04 12 12  0 14 29.9990000  0  9G 5G17G13G10G30G24G 7G 4G 2
  21600100.6824  -25336884.86049 -19405789.37247  21600098.7994   21600103.6484
       -12.4614         -9.7104
  21412392.9984  -30751062.18349 -23662190.70647  21412391.2264   21412397.0954
      1875.8474       1461.6994
  24137022.5624  -10055864.55747  -7593002.31545  24137021.0424   24137024.6234
       589.1384        459.0694
  20905763.5134  -28203917.62649 -21932317.43247  20905761.1794   20905767.5874
      3151.0124       2455.3334
  22178670.1484  -20497769.72848 -13787685.45046  22178668.9154   22178673.6174
      1921.7824       1497.4924
  21153449.4344  -31875774.36749 -24479546.53547  21153447.7384   21153452.6524
      -542.7774       -422.9444
  23883480.1134  -28934728.61647 -22203886.76645  23883476.6284   23883481.9034
     -2100.4684      -1636.7284
  22051394.1034  -29573092.82148 -22684710.95747  22051392.4164   22051397.1424
     -1487.4294      -1159.0364
  20332277.4664  -39817904.24349 -30360670.24347  20332275.1334   20332277.1244
       617.0004        480.7794
 04 12 12  0 14 59.9990000  0  9G 5G17G13G10G30G24G 7G 4G 2
  21600229.7064  -25336208.60549 -19405262.41847  21600227.4494   21600232.8334
       -32.8394        -25.5894
  21401708.4904  -30807212.16449 -23705943.92347  21401706.3934   21401712.2184
      1867.2354       1454.9884
  24133715.8324  -10073237.17047  -7606539.38145  24133714.6694   24133718.7774
       568.7664        443.2024
  20887827.0354  -28298178.98049 -22005767.81747  20887824.6704   20887829.6324
      3132.8224       2441.1594
  22167758.8754  -20555110.58548 -13832366.61746  22167757.2764   22167762.3294
      1900.7584       1481.1094
  21156567.8664  -31859387.82349 -24466777.79447  21156566.0654   21156571.1824
      -549.9014       -428.4954
  23895493.2014  -28871579.81447 -22154679.94845  23895490.5624   23895498.5424
     -2109.5394      -1643.7924
  22059899.4674  -29528399.59048 -22649885.06447  22059897.5494   22059901.4524
     -1492.2604      -1162.8004
  20328786.6384  -39836247.49149 -30374963.68247  20328784.5564   20328786.4574
       605.6194        471.9124
 04 12 12  0 15 29.9990000  0  9G 5G17G13G10G30G24G 7G 4G 2
  21600460.7374  -25334994.23149 -19404316.15647  21600458.6664   21600464.1934
       -51.2594        -39.9424
  21391059.1674  -30863176.74649 -23749552.67347  21391056.6824   21391062.3814
      1860.5834       1449.8054
  24130512.3964  -10090070.67747  -7619656.36345  24130511.7434   24130514.3724
       550.2804        428.7844
  20869979.5554  -28391966.81349 -22078849.23047  20869977.2794   20869982.1894
      3116.5134       2428.4514
  22156952.7674  -20611892.51948 -13876612.26946  22156951.7644   22156957.2884
      1881.6134       1466.1904
  21159713.0404  -31842861.36549 -24453900.02547  21159710.8894   21159715.8264
      -555.0324       -432.4924
  23907545.0654  -28808236.85047 -22105321.86845  23907544.3884   23907552.8594
     -2116.4574      -1649.1904
  22068416.9434  -29483634.41248 -22615003.09647  22068415.8134   22068418.7684
     -1495.1404      -1165.0454
  20325346.5724  -39854322.69749 -30389048.26247  20325344.9124   20325346.7234
       596.2144        464.5834
 04 12 12  0 15 59.9990000  0  9G 5G17G13G10G30G24G 7G 4G 2
  21600798.3534  -25333219.41149 -19402933.18247  21600796.4484   21600801.4564
       -67.9874        -52.9774
  21380448.4564  -30918932.71949 -23792998.87447  21380446.6694   21380452.2784
      1855.5284       1445.8664
  24127416.6414  -10106341.14647  -7632334.61545  24127415.7644   24127418.9314
       533.4064        415.6304
  20852227.8554  -28485255.45449 -22151541.66147  20852225.1374   20852229.9754
      3101.7814       2416.9714
  22146259.1174  -20668090.76448 -13920403.10446  22146257.5824   22146262.4174
      1864.0924       1452.5394
  21162888.7404  -31826172.37249 -24440895.61047  21162886.8734   21162891.9104
      -558.4934       -435.1894
  23919644.9594  -28744676.96747 -22055794.71445  23919642.9344   23919647.3274
     -2121.7674      -1653.3244
  22076953.4914  -29438774.64348 -22580047.41346  22076951.7074   22076955.7934
     -1496.4114      -1166.0354
  20321962.1914  -39872106.65549 -30402905.89847  20321960.6734   20321962.4604
       588.4224        458.5114
 04 12 12  0 16 29.9990000  0  9G 5G17G13G10G30G24G 7G 4G 2
  21601240.3174  -25330899.70949 -19401125.61947  21601238.1364   21601243.0004
       -85.8384        -66.8864
  21369875.7784  -30974494.71849 -23836293.92347  21369873.2954   21369878.9724
      1849.3644       1441.0634
  24124423.3394  -10122062.47747  -7644584.97845  24124422.3664   24124427.6294
       515.4484        401.6524
  20834567.5984  -28578057.53449 -22223854.95647  20834565.0984   20834570.4874
      3085.8334       2404.5444
  22135674.0084  -20723718.88248 -13963749.67446  22135672.1514   22135677.3474
      1845.3404       1437.9244
  21166092.7634  -31809336.24949 -24427776.54547  21166090.7204   21166095.8454
      -563.0954       -438.7754
  23931774.3334  -28680915.54647 -22006110.44745  23931774.4174   23931781.0864
     -2128.0854      -1658.2564
  22085504.0994  -29393835.49348 -22545029.88646  22085502.8824   22085507.8614
     -1498.6634      -1167.7904
  20318631.5544  -39889614.26749 -30416548.19747  20318629.2004   20318631.1384
       579.5364        451.5874
 04 12 12  0 16 59.9990000  0  9G 5G17G13G10G30G24G 7G 4G 2
  21601786.2304  -25328029.85349 -19398889.36647  21601784.1094   21601789.2054
      -104.2324        -81.2194
  21359340.1694  -31029856.29749 -23879432.79547  21359338.2454   21359344.0944
      1842.6084       1435.7984
  24121537.3574  -10137227.50147  -7656401.83545  24121536.0504   24121542.7864
       496.7774        387.1014
  20817001.6184  -28670364.53449 -22295782.46147  20816999.1654   20817005.3754
      3069.2144       2391.5944
  22125197.4424  -20778768.93848 -14006645.82646  22125196.3914   22125200.5844
      1825.9514       1422.8194
  21169325.6864  -31792346.92649 -24414538.10547  21169323.6494   21169328.6124
      -568.2554       -442.7964
  23943951.4404  -28616946.62747 -21956264.56645  23943947.0204   23943953.8874
     -2135.1244      -1663.7244
  22094073.6844  -29348810.76348 -22509945.67947  22094071.6884   22094076.2664
     -1501.5954      -1170.0754
  20315353.1144  -39906839.55549 -30429970.50447  20315351.1934   20315353.3754
       570.0454        444.1914
 04 12 12  0 17 29.9990000  0  9G 5G17G13G10G30G24G 7G 4G 2
  21602437.2744  -25324609.59349 -19396224.23347  21602434.8044   21602439.8964
      -122.9914        -95.8364
  21348843.9604  -31085016.34749 -23922414.64147  21348841.6504   21348847.6434
      1835.4854       1430.2474
  24118761.9454  -10151834.47347  -7667783.88245  24118759.2694   24118761.4234
       477.7214        372.2454
  20799531.1034  -28762173.35649 -22367321.77647  20799529.0174   20799535.0974
      3052.1614       2378.3084
  22114833.0944  -20833238.71048 -14049089.80346  22114831.4264   22114834.7834
      1806.1604       1407.3964
  21172587.1144  -31775203.76349 -24401179.79647  21172585.5944   21172591.0754
      -573.8234       -447.1344
  23956162.7804  -28552769.66546 -21906256.59145  23956159.2824   23956166.9724
     -2142.4324      -1669.4234
  22102656.9944  -29303700.00148 -22474794.43947  22102656.0744   22102661.2624
     -1504.9124      -1172.6584
  20312129.5544  -39923781.62049 -30443172.11647  20312127.5174   20312129.7424
       560.1714        436.4984
 04 12 12  0 17 59.9990000  0  9G 5G17G13G10G30G24G 7G 4G 2
  21603190.5554  -25320650.28849 -19393139.06247  21603188.0574   21603193.2884
      -141.2054       -110.0304
  21338383.6814  -31139984.85449 -23965247.23247  21338381.8894   21338387.8804
      1828.8104       1425.0464
  24116083.9384  -10165892.70047  -7678738.29545  24116083.1104   24116087.4064
       459.2344        357.8424
  20782154.5624  -28853491.91349 -22438479.07247  20782151.8464   20782158.0784
      3035.5014       2365.3244
  22104575.9114  -20887136.72448 -14091088.24446  22104574.7534   22104579.0524
      1786.7964       1392.3084
  21175877.1454  -31757917.15649 -24387709.71247  21175874.8984   21175880.5294
      -578.8704       -451.0684
  23968411.3234  -28488395.45647 -21856094.91245  23968409.7894   23968415.5214
     -2149.3914      -1674.8444
  22111255.9754  -29258513.41648 -22439584.11847  22111254.7554   22111259.4884
     -1507.6674      -1174.8054
  20308957.0644  -39940450.59349 -30456160.93047  20308955.3114   20308957.7104
       550.8124        429.2054
 04 12 12  0 18 29.9990000  0  9G 5G17G13G10G30G24G 7G 4G 2
  21604055.3654  -25316106.24949 -19389598.25647  21604052.9534   21604058.2394
      -160.5624       -125.1144
  21327969.5934  -31194715.42249 -24007894.42047  21327966.9624   21327972.8584
      1821.0154       1418.9724
  24113522.4694  -10179355.16147  -7689228.49545  24113520.5604   24113525.0454
       439.4914        342.4594
  20764879.9714  -28944271.60749 -22509216.48047  20764877.6054   20764883.0534
      3017.6034       2351.3784
  22094437.5564  -20940415.57648 -14132604.22246  22094436.4584   22094440.3464
      1766.2674       1376.3124
  21179202.3084  -31740441.42349 -24374092.26147  21179200.1434   21179205.9284
      -585.0314       -455.8684
  23980710.4684  -28423778.02847 -21805743.67845  23980708.6694   23980711.7004
     -2157.4444      -1681.1264
  22119879.1434  -29213205.27148 -22404279.07547  22119876.9324   22119881.2344
     -1511.6384      -1177.9014
  20305846.2364  -39956800.45049 -30468901.08447  20305844.3094   20305846.4164
       540.2894        421.0054
 04 12 12  0 18 59.9990000  0  9G 5G17G13G10G30G24G 7G 4G 2
  21605020.9204  -25311032.12649 -19385644.39847  21605018.8124   21605023.6694
      -179.1374       -139.5864
  21317589.0754  -31249261.43049 -24050397.78547  21317587.0964   21317592.6584
      1813.9144       1413.4384
  24111063.9704  -10192274.82747  -7699295.74545  24111062.1184   24111066.6234
       420.4844        327.6464
  20747697.6354  -29034564.03149 -22579574.19847  20747695.0124   20747700.5194
      3000.4214       2337.9894
  22084408.1594  -20993127.42348 -14173678.38746  22084406.2354   22084409.1444
      1746.4254       1360.8504
  21182553.3854  -31722830.72349 -24360369.63747  21182551.3864   21182556.8964
      -590.4684       -460.1064
  23993038.9964  -28358971.63747 -21755245.19545  23993038.0394   23993044.5644
     -2164.4954      -1686.6124
  22128512.8304  -29167829.42248 -22368921.27247  22128511.2854   22128515.8854
     -1514.8274      -1180.3844
  20302785.6154  -39972884.86049 -30481434.39247  20302783.4214   20302785.5934
       530.5304        413.3994
 04 12 12  0 19 29.9990000  0  9G 5G17G13G10G30G24G 7G 4G 2
  21606091.7684  -25305406.35849 -19381260.68847  21606089.3884   21606093.8294
      -196.6744       -153.2514
  21307249.1694  -31303600.55649 -24092739.95147  21307246.6414   21307252.3214
      1807.8804       1408.7374
  24108712.3444  -10204628.61147  -7708922.02845  24108711.1844   24108714.6994
       402.3964        313.5444
  20730611.7544  -29124344.61349 -22649533.07247  20730609.6704   20730615.7644
      2984.1934       2325.3454
  22074489.2724  -21045248.57448 -14214292.27246  22074487.7074   22074491.1534
      1727.5644       1346.1534
  21185934.2104  -31705062.95449 -24346524.62947  21185932.6264   21185937.6004
      -594.8294       -463.5044
  24005413.4344  -28293954.23647 -21704582.31045  24005410.2184   24005418.0864
     -2170.6664      -1691.4194
  22137163.8794  -29122363.74248 -22333493.46946  22137162.3334   22137167.5434
     -1516.9214      -1182.0164
  20299779.8064  -39988681.46649 -30493743.44047  20299777.6584   20299779.5454
       521.7794        406.5804
 04 12 12  0 19 59.9990000  0  9G 5G17G13G10G30G24G 7G 4G 2
  21607254.8424  -25299288.47549 -19376493.50347  21607253.1744   21607258.2954
      -211.4744       -164.7834
  21296937.1364  -31357791.09749 -24134966.34347  21296934.8814   21296940.1854
      1804.5204       1406.1184
  24106458.3814  -10216474.36147  -7718152.46045  24106456.7384   24106463.0894
       387.1314        301.6594
  20713613.9614  -29213669.79549 -22719137.08347  20713611.4254   20713617.5104
      2970.5784       2314.7354
  22064672.0044  -21096836.27648 -14254490.47546  22064670.5684   22064674.7314
      1711.3734       1333.5364
  21189334.6644  -31687197.10649 -24332603.18847  21189332.5374   21189337.1464
      -596.4924       -464.7994
  24017818.7354  -28228784.92047 -21653801.13445  24017812.6104   24017820.3164
     -2174.1284      -1694.1334
  22145821.1164  -29076867.15948 -22298041.58846  22145819.7154   22145825.1544
     -1516.3484      -1181.5714
  20296817.3594  -40004249.04649 -30505874.02547  20296815.2274   20296817.2744
       515.7544        401.8864
 04 12 12  0 20 29.9990000  0  9G 5G17G13G10G30G24G 7G 4G 2
  21608518.9224  -25292648.36349 -19371319.39847  21608516.8484   21608522.0024
      -231.0164       -180.0134
  21286659.0864  -31411801.70749 -24177052.52347  21286656.8254   21286662.0544
      1796.3944       1399.7864
  24104308.5504  -10227780.33747  -7726962.29945  24104306.9594   24104309.4294
       366.8714        285.8774
  20696709.8374  -29302506.40049 -22788360.39347  20696707.1814   20696712.5374
      2952.0824       2300.3244
  22054962.1744  -21147858.15848 -14294247.77546  22054961.1904   22054966.0024
      1690.3264       1317.1384
  21192759.0674  -31669202.42049 -24318581.34947  21192756.8954   21192761.5794
      -602.9454       -469.8274
  24030251.6504  -28163433.22047 -21602877.74745  24030249.7144   24030254.2254
     -2182.3264      -1700.5154
  22154491.9544  -29031308.79448 -22262541.56746  22154490.4994   22154493.8904
     -1520.5804      -1184.8684
  20293904.2264  -40019556.71349 -30517802.07647  20293902.1854   20293904.4324
       504.9274        393.4494
 04 12 12  0 20 59.9990000  0  9G 5G17G13G10G30G24G 7G 4G 2
  21609890.0064  -25285445.82349 -19365707.03847  21609887.4314   21609892.6114
      -248.3104       -193.4884
  21276423.4904  -31465591.25249 -24218966.44747  21276421.0594   21276426.1324
      1790.4254       1395.1354
  24102266.7824  -10238504.59547  -7735318.82045  24102265.9324   24102270.1804
       348.8784        271.8474
  20679906.3354  -29390811.05649 -22857169.20247  20679903.5654   20679908.5114
      2935.7124       2287.5684
  22045370.1254  -21198271.64648 -14333531.00346  22045368.2704   22045372.1214
      1671.4124       1302.4014
  21196215.1624  -31651037.72949 -24304427.04247  21196213.5364   21196218.4364
      -607.1904       -473.1354
  24042730.5534  -28097858.32047 -21551780.38245  24042725.7154   24042732.2214
     -2188.3314      -1705.1954
  22163180.6994  -28985647.40948 -22226961.25147  22163179.3814   22163184.0254
     -1522.5994      -1186.4414
  20291048.9484  -40034563.11549 -30529495.37547  20291046.5874   20291048.7964
       496.2854        386.7154
 04 12 12  0 21 29.9990000  0  9G 5G17G13G10G30G24G 7G 4G 2
  21611361.8314  -25277710.29749 -19359679.36547  21611359.3754   21611364.6794
      -267.6684       -208.5734
  21266223.9674  -31519187.81549 -24260729.99547  21266221.7574   21266227.0714
      1782.3764       1388.8634
  24100331.8414  -10248675.04047  -7743243.82345  24100330.0834   24100334.1974
       328.8684        256.2554
  20663198.4924  -29478610.15549 -22925584.07047  20663196.0654   20663200.9654
      2917.2334       2273.1674
  22035886.3074  -21248104.04748 -14372361.43846  22035885.4064   22035889.5254
      1650.4654       1286.0754
  21199698.8244  -31632732.00749 -24290162.84147  21199697.0264   21199701.9954
      -613.4844       -478.0394
  24055243.1264  -28032089.19047 -21500531.71845  24055243.1174   24055250.1464
     -2196.4704      -1711.5274
  22171884.4814  -28939912.03348 -22191323.29347  22171883.0064   22171887.4134
     -1526.6794      -1189.6204
  20288245.3504  -40049296.80449 -30540976.16647  20288243.0334   20288245.2674
       485.6194        378.4044
 04 12 12  0 21 59.9990000  0  9G 5G17G13G10G30G24G 7G 4G 2
  21612930.9964  -25269462.40249 -19353252.44347  21612928.7934   21612934.0784
      -284.4254       -221.6314
  21256058.1874  -31572610.83649 -24302358.31447  21256055.8664   21256061.1704
      1776.9124       1384.6064
  24098498.1574  -10258310.60047  -7750752.03545  24098496.8974   24098501.4414
       311.2894        242.5614
  20646583.3804  -29565921.21149 -22993618.64647  20646581.1474   20646586.6634
      2901.2434       2260.7094
  22026510.3744  -21297373.72248 -14410753.37846  22026508.9914   22026514.2224
      1631.9954       1271.6844
  21203205.6994  -31614305.24549 -24275804.31847  21203203.4704   21203208.5124
      -617.2024       -480.9374
  24067789.5474  -27966145.77646 -21449147.28144  24067788.2274   24067798.0464
     -2201.8384      -1715.7134
  22180598.8744  -28894122.28048 -22155642.95847  22180596.6764   22180600.9304
     -1528.1874      -1190.7964
  20285489.6874  -40063777.44049 -30552259.77447  20285487.5924   20285489.5724
       477.5054        372.0814
 04 12 12  0 22 29.9990000  0  9G 5G17G13G10G30G24G 7G 4G 2
  21614608.7134  -25260646.98649 -19346383.30047  21614606.6584   21614611.7044
      -303.5944       -236.5664
  21245936.2594  -31625803.97649 -24343807.51247  21245933.8224   21245938.8194
      1768.9314       1378.3884
  24096777.0654  -10267354.58947  -7757799.26845  24096776.0374   24096780.2504
       291.3114        226.9984
  20630071.6214  -29652685.83749 -23061227.42747  20630069.7854   20630075.7104
      2882.7414       2246.2914
  22017253.1894  -21346023.10748 -14448661.98546  22017251.9524   22017256.2894
      1611.0314       1255.3464
  21206745.1294  -31595701.41349 -24261307.82047  21206743.5544   21206749.1964
      -623.3914       -485.7604
  24080385.1164  -27899972.54547 -21397583.82945  24080384.8164   24080390.7724
     -2209.7994      -1721.9174
  22189332.1574  -28848222.11048 -22119876.58747  22189330.2854   22189335.5934
     -1532.1114      -1193.8524
  20282793.2684  -40077948.82449 -30563302.40947  20282790.8634   20282792.6954
       466.9154        363.8284
 04 12 12  0 22 59.9990000  0  9G 5G17G13G10G30G24G 7G 4G 2
  21616380.0474  -25251341.73549 -19339132.46347  21616377.5564   21616382.6144
      -318.9354       -248.5214
  21235842.6104  -31678843.51749 -24385137.02347  21235840.5594   21235845.2614
      1764.8174       1375.1824
  24095153.6454  -10275882.69147  -7764444.51745  24095152.6424   24095156.2904
       275.0924        214.3594
  20613650.9424  -29738978.69249 -23128468.59047  20613648.5024   20613654.6664
      2867.9294       2234.7484
  22008098.4974  -21394127.72748 -14486146.08846  22008097.4724   22008102.7124
      1593.8254       1241.9414
  21210304.4824  -31576997.61049 -24246733.42947  21210302.7464   21210308.3234
      -625.7304       -487.5824
  24093007.6814  -27833646.60947 -21345901.31845  24093007.3724   24093009.6764
     -2213.9794      -1725.1744
  22198072.6984  -28802288.48748 -22084084.16246  22198071.0584   22198075.9054
     -1532.2294      -1193.9424
  20280140.4944  -40091887.60649 -30574163.79047  20280138.3534   20280140.3444
       460.1304        358.5424
 04 12 12  0 23 29.9990000  0  9G 5G17G13G10G30G24G 7G 4G 2
  21618253.7414  -25241489.67549 -19331455.54247  21618252.0384   21618257.4594
      -338.0874       -263.4444
  21225789.1634  -31731671.24049 -24426301.47547  21225787.1984   21225792.4934
      1756.7934       1368.9294
  24093640.0874  -10283836.38647  -7770642.15245  24093638.8954   24093643.9094
       254.9434        198.6554
  20597331.8464  -29824739.87749 -23195295.46547  20597328.9774   20597334.6624
      2849.2544       2220.1984
  21999059.9884  -21441628.28548 -14523159.49946  21999058.5514   21999063.3384
      1572.7114       1225.4894
  21213893.9784  -31558135.63249 -24232035.78347  21213891.9574   21213897.9364
      -631.9414       -492.4224
  24105666.1074  -27767110.43847 -21294054.92145  24105666.1184   24105673.1844
     -2221.8524      -1731.3144
  22206830.5074  -28756263.58348 -22048220.60146  22206829.0754   22206833.9834
     -1536.2214      -1197.0554
  20277542.8794  -40105535.88349 -30584798.80947  20277541.0664   20277543.5244
       449.5234        350.2774
 04 12 12  0 23 59.9990000  0  9G 5G17G13G10G30G24G 7G 4G 2
  21620234.2834  -25231082.84549 -19323346.33347  21620232.4044   21620237.7314
      -354.7354       -276.4174
  21215778.3694  -31784278.15249 -24467293.85947  21215776.5204   21215782.0834
      1751.2494       1364.6084
  24092238.6844  -10291206.27447  -7776384.89845  24092237.4574   24092241.1574
       237.3794        184.9664
  20581115.6784  -29909958.18249 -23261699.32747  20581113.0134   20581118.1174
      2832.9334       2207.4814
  21990138.1414  -21488514.75948 -14559694.40146  21990136.4904   21990141.2254
      1554.0694       1210.9634
  21217515.4194  -31539107.21349 -24217208.45047  21217513.0904   21217518.9284
      -635.6874       -495.3404
  24118370.6944  -27700355.63846 -21242038.19744  24118368.3824   24118375.6944
     -2227.4014      -1735.6364
  22215609.2804  -28710138.56448 -22012279.02846  22215607.0384   22215610.9654
     -1537.7124      -1198.2184
  20275002.7304  -40118884.95049 -30595200.68047  20275000.7904   20275003.5284
       441.3514        343.9094
 04 12 12  0 24 29.9990000  0  9G 5G17G13G10G30G24G 7G 4G 2
  21622316.7194  -25220141.12849 -19314820.32947  21622314.4534   21622319.8274
      -371.7924       -289.7074
  21205806.6584  -31836682.72449 -24508128.58047  21205804.5024   21205809.9074
      1745.2464       1359.9314
  24090943.4194  -10298010.81747  -7781687.12745  24090941.8344   24090946.9854
       219.1984        170.8024
  20564998.5734  -29994650.38849 -23327693.24247  20564996.5574   20565001.5904
      2816.1174       2194.3784
  21981328.1124  -21534804.72548 -14595764.48946  21981326.9574   21981332.0354
      1534.8764       1196.0074
  21221164.2094  -31519931.25849 -24202266.14647  21221162.4254   21221168.0424
      -639.8434       -498.5794
  24131113.4914  -27633401.33446 -21189866.10944  24131109.3664   24131119.7444
     -2233.3404      -1740.2614
  22224401.6014  -28663932.11348 -21976273.98446  22224400.4494   22224403.1854
     -1539.6634      -1199.7374
  20272515.7994  -40131953.21049 -30605383.73547  20272514.1064   20272516.7124
       432.7354        337.1964
 04 12 12  0 24 59.9990000  0  9G 5G17G13G10G30G24G 7G 4G 2
  21624492.8104  -25208708.83949 -19305912.06047  21624490.3434   21624495.2844
      -389.9354       -303.8464
  21195865.0854  -31888927.71549 -24548838.94847  21195862.6434   21195867.8774
      1738.1484       1354.4004
  24089748.6834  -10304292.21547  -7786581.67945  24089747.2694   24089750.8704
       199.9224        155.7804
  20548975.3874  -30078857.60149 -23393309.23647  20548972.7144   20548977.7104
      2798.0904       2180.3294
  21972626.6274  -21580540.19748 -14631402.51046  21972624.9214   21972629.3224
      1514.5874       1180.1984
  21224833.8634  -31500651.02449 -24187242.58747  21224831.4854   21224836.7674
      -645.1104       -502.6834
  24143884.8454  -27566290.94046 -21137572.30944  24143880.6954   24143888.7384
     -2240.2704      -1745.6644
  22233202.4154  -28617687.50048 -21940239.19046  22233200.4344   22233204.0174
     -1542.7374      -1202.1334
  20270074.9404  -40144783.91349 -30615381.68147  20270072.6324   20270074.8554
       423.0084        329.6164
 04 12 12  0 25 29.9990000  0  9G 5G17G13G10G30G24G 7G 4G 2
  21626772.0294  -25196728.29449 -19296576.57847  21626770.0254   21626774.9394
      -406.2804       -316.5824
  21185963.7544  -31940953.91249 -24589378.82547  21185961.8834   21185967.6204
      1732.7514       1350.1944
  24088663.3444  -10309991.30947  -7791022.51345  24088662.2684   24088666.1814
       182.4654        142.1834
  20533054.3814  -30162518.74849 -23458499.72047  20533052.2254   20533057.6444
      2781.7804       2167.6194
  21964039.6034  -21625660.95748 -14666561.52646  21964038.3424   21964042.9504
      1495.9794       1165.6994
  21228534.4634  -31481207.60349 -24172091.86547  21228531.9284   21228536.7094
      -648.6154       -505.4144
  24156696.6274  -27498966.38747 -21085111.66845  24156695.3784   24156699.5534
     -2245.4904      -1749.7334
  22242019.9484  -28571345.95348 -21904128.87946  22242018.3514   22242023.2364
     -1544.0684      -1203.1694
  20267689.3944  -40157318.13149 -30625148.59347  20267687.2404   20267689.5964
       415.0394        323.4064
 04 12 12  0 25 59.9990000  0  9G 5G17G13G10G30G24G 7G 4G 2
  21629143.9784  -25184264.96449 -19286864.90147  21629141.8154   21629146.7944
      -424.1774       -330.5264
  21176093.2304  -31992825.85749 -24629798.51647  21176091.1624   21176096.8484
      1725.7794       1344.7634
  24087677.9764  -10315172.49547  -7795059.76145  24087675.9414   24087680.4934
       163.4234        127.3454
  20517225.7994  -30245696.63149 -23523313.62647  20517223.4824   20517229.4414
      2763.8134       2153.6204
  21955558.2784  -21670230.64348 -14701291.14046  21955556.3514   21955561.5634
      1475.7924       1149.9674
  21232252.4164  -31461665.87149 -24156864.53547  21232250.1504   21232255.3524
      -653.7344       -509.4044
  24169536.2674  -27431492.66847 -21032534.73545  24169533.9084   24169537.1794
     -2252.3864      -1755.1084
  22250843.7064  -28524972.31548 -21867993.57946  22250842.6144   22250848.1444
     -1547.0104      -1205.4624
  20265348.0584  -40169620.42049 -30634734.77847  20265346.1204   20265348.6634
       405.5154        315.9854
 04 12 12  0 26 29.9990000  0  9G 5G17G13G10G30G24G 7G 4G 2
  21631613.0594  -25171288.22149 -19276753.16747  21631610.9414   21631616.3904
      -442.6384       -344.9134
  21166258.2024  -32044511.53449 -24670073.05747  21166255.7004   21166261.3194
      1718.1884       1338.8484
  24086797.5394  -10319803.25047  -7798668.12645  24086795.2704   24086799.3424
       143.6474        111.9344
  20501496.2144  -30328357.58649 -23587724.73147  20501493.5894   20501499.5774
      2745.1994       2139.1154
  21947187.5554  -21714216.60248 -14735565.89846  21947186.4914   21947191.4094
      1454.9404       1133.7214
  21235995.6974  -31441994.58849 -24141536.25847  21235993.4234   21235998.2654
      -659.4004       -513.8194
  24182407.1834  -27363838.50446 -20979817.18145  24182405.5604   24182412.9224
     -2259.6014      -1760.7364
  22259680.5244  -28478534.89948 -21831808.59246  22259678.9424   22259684.5684
     -1550.4914      -1208.1764
  20263057.3654  -40181659.25449 -30644115.68547  20263055.1894   20263057.6664
       395.3334        308.0514
 04 12 12  0 26 59.9990000  0  9G 5G17G13G10G30G24G 7G 4G 2
  21634190.1944  -25157749.91549 -19266203.85147  21634187.5314   21634192.4214
      -459.8204       -358.3014
  21156466.9444  -32095961.14849 -24710163.65647  21156465.1994   21156470.9314
      1711.8044       1333.8724
  24086029.9784  -10323833.68947  -7801808.70745  24086028.4594   24086031.5274
       125.1554         97.5194
  20485874.4714  -30410450.11149 -23651692.91147  20485872.1274   20485877.7744
      2727.7334       2125.5064
  21938939.4424  -21757568.21048 -14769346.35646  21938937.4384   21938942.1504
      1435.2964       1118.4124
  21239772.5994  -31422144.22349 -24126068.43647  21239770.9114   21239775.2314
      -663.8684       -517.3004
  24195325.7934  -27295954.97546 -20926920.93944  24195324.5074   24195329.0724
     -2265.7444      -1765.5254
  22268538.3684  -28431984.22348 -21795535.34946  22268537.3904   22268542.3644
     -1552.7294      -1209.9184
  20260826.0914  -40193385.07249 -30653252.69047  20260824.1204   20260826.3154
       386.4244        301.1104
 04 12 12  0 27 29.9990000  0  9G 5G17G13G10G30G24G 7G 4G 2
  21636863.1744  -25143700.88449 -19255256.56647  21636860.7554   21636865.4804
      -477.4544       -372.0414
  21146712.0624  -32147223.93649 -24750108.68047  21146709.9834   21146716.2464
      1705.0034       1328.5734
  24085367.2884  -10327312.76247  -7804519.62945  24085366.0194   24085369.9534
       106.1234         82.6924
  20470352.4294  -30492021.77749 -23715255.22647  20470349.7494   20470355.0294
      2709.7144       2111.4644
  21930801.4164  -21800333.88348 -14802670.24846  21930799.4134   21930804.0164
      1415.1364       1102.7034
  21243574.6644  -31402164.16649 -24110499.55047  21243572.7204   21243577.2584
      -668.8224       -521.1604
  24208281.3774  -27227892.13946 -20873885.02844  24208275.2904   24208283.6304
     -2272.2634      -1770.6004
  22277410.1094  -28385369.77048 -21759212.39846  22277408.7094   22277412.6554
     -1555.4924      -1212.0724
  20258644.7474  -40204847.27849 -30662184.28547  20258642.7594   20258645.1564
       377.0094        293.7744
 04 12 12  0 27 59.9990000  0  9G 5G17G13G10G30G24G 7G 4G 2
  21639630.7554  -25129154.10549 -19243921.42547  21639628.6964   21639633.5854
      -495.5854       -386.1714
  21136990.8244  -32198311.62949 -24789917.26647  21136988.6644   21136994.6064
      1697.5584       1322.7734
  24084808.7104  -10330252.12747  -7806810.02645  24084807.0344   24084811.4244
        86.5694         67.4574
  20454927.6174  -30573082.66849 -23778419.53647  20454924.6924   20454929.5654
      2691.0804       2096.9454
  21922772.2334  -21842524.38848 -14835545.94846  21922770.3444   21922774.8814
      1394.3604       1086.5134
  21247398.5654  -31382066.73749 -24094839.21147  21247396.6424   21247401.7834
      -674.2814       -525.4144
  24221260.2614  -27159662.41847 -20820719.03345  24221260.7024   24221267.9474
     -2279.5644      -1776.2894
  22286291.0704  -28338703.58848 -21722849.13646  22286289.3974   22286292.8944
     -1558.8044      -1214.6544
  20256511.0944  -40216057.79749 -30670919.74947  20256509.2904   20256511.6624
       367.0554        286.0164
 04 12 12  0 28 29.9990000  0  9G 5G17G13G10G30G24G 7G 4G 2
  21642506.3504  -25114045.24049 -19232148.29447  21642504.1194   21642509.3194
      -510.1584       -397.5254
  21127315.0304  -32249158.59049 -24829538.26947  21127312.8104   21127318.5254
      1693.6854       1319.7554
  24084364.9094  -10332585.99647  -7808628.58945  24084362.6334   24084365.7484
        70.5334         54.9574
  20439611.5724  -30653565.46149 -23841133.38647  20439609.0234   20439613.9474
      2675.9394       2085.1474
  21914865.5354  -21884073.60548 -14867921.95746  21914864.4324   21914868.1554
      1377.1544       1073.1074
  21251257.9724  -31361786.70349 -24079036.58147  21251256.0254   21251260.9774
      -676.2044       -526.9114
  24234289.8904  -27091200.95147 -20767372.45945  24234288.3574   24234293.5424
     -2283.0474      -1779.0024
  22295194.2664  -28291920.55348 -21686394.79846  22295192.1534   22295194.8954
     -1558.5084      -1214.4224
  20254438.9824  -40226951.16049 -30679408.07747  20254436.4104   20254438.7434
       360.6214        281.0034
 04 12 12  0 28 59.9990000  0  9G 5G17G13G10G30G24G 7G 4G 2
  21645467.7824  -25098484.35549 -19220022.94247  21645465.4014   21645470.6884
      -527.3154       -410.8934
  21117664.6494  -32299872.96549 -24869055.95247  21117662.3034   21117667.9934
      1687.1514       1314.6634
  24084014.9334  -10334422.63447  -7810059.73945  24084012.7624   24084017.3864
        51.8214         40.3784
  20424385.5794  -30733576.91449 -23903479.94647  20424383.0654   20424388.7824
      2658.0624       2071.2174
  21907060.9264  -21925088.93648 -14899881.94146  21907059.0254   21907063.7284
      1357.1634       1057.5264
  21255130.6244  -31341432.75449 -24063176.35747  21255128.9924   21255134.5854
      -680.8144       -530.5054
  24247341.7594  -27022616.79247 -20713930.23145  24247341.2264   24247345.7054
     -2289.2104      -1783.7904
  22304097.1854  -28245128.90448 -21649933.75446  22304095.3964   22304099.1774
     -1560.9434      -1216.3214
  20252405.2354  -40237635.71749 -30687733.70047  20252403.1624   20252405.4114
       351.5624        273.9444
 04 12 12  0 29 29.9990000  0  9G 5G17G13G10G30G24G 7G 4G 2
  21648526.5214  -25082410.26249 -19207497.68047  21648524.1954   21648528.8354
      -543.3424       -423.3834
  21108050.7404  -32350392.18749 -24908421.56847  21108048.7124   21108054.6604
      1681.7124       1310.4244
  24083771.2394  -10335699.54647  -7811054.70445  24083769.5014   24083774.2014
        34.2264         26.6774
  20409261.5254  -30813052.72049 -23965409.12347  20409259.1554   20409265.0934
      2641.2434       2058.1104
  21899369.4934  -21965507.40548 -14931376.84046  21899367.7304   21899372.3184
      1338.3284       1042.8534
  21259030.2634  -31320942.62049 -24047210.01947  21259028.4584   21259033.8514
      -684.2644       -533.1924
  24260430.3134  -26953848.10446 -20660344.35244  24260426.8044   24260432.2694
     -2294.3294      -1787.7884
  22313013.5734  -28198266.48348 -21613417.57546  22313012.1974   22313017.2254
     -1562.2364      -1217.3264
  20250423.9464  -40248049.26949 -30695848.15147  20250421.5474   20250423.5484
       343.5804        267.7254
 04 12 12  0 29 59.9990000  0  9G 5G17G13G10G30G24G 7G 4G 2
  21651676.4314  -25065856.22849 -19194598.44247  21651674.1914   21651678.7564
      -558.0724       -434.8614
  21098468.7354  -32400747.86549 -24947659.74647  21098466.4524   21098472.3944
      1677.4814       1307.1284
  24083628.3764  -10336447.99847  -7811637.91745  24083626.8954   24083630.0944
        17.8294         13.8924
  20394233.9844  -30892023.02849 -24026944.41247  20394231.3914   20394237.4424
      2625.6184       2045.9354
  21891785.5284  -22005359.79548 -14962430.65246  21891784.0774   21891788.6414
      1320.7184       1029.1314
  21262949.7384  -31300348.39649 -24031162.56747  21262947.5694   21262953.0594
      -686.5244       -534.9554
  24273541.6434  -26884927.53146 -20606640.17744  24273543.1144   24273546.1604
     -2298.1724      -1790.7594
  22321939.6144  -28151365.12948 -21576871.07946  22321937.4554   22321942.8504
     -1562.2854      -1217.3654
  20248487.3974  -40258223.55449 -30703776.16347  20248485.6384   20248487.6944
       336.8504        262.4804
 04 12 12  0 30 29.9990000  0 10G 5G17G13G10G30G24G 7G 4G 6G 2
  21654921.2664  -25048803.71349 -19181310.78147  21654918.9014   21654924.2074
      -577.9794       -450.3724
  21088920.8254  -32450919.96849 -24986754.88347  21088918.7774   21088924.5804
      1668.0574       1299.7844
  24083589.1674  -10336648.21047  -7811793.89845  24083588.2984   24083594.3094
        -3.7244         -2.8974
  20379306.9724  -30970466.38949 -24088069.08847  20379304.3944   20379310.1874
      2604.7094       2029.6424
  21884313.1374  -22044625.47848 -14993027.27846  21884312.1034   21884316.5604
      1297.8104       1011.2794
  21266892.3644  -31279630.38249 -24015018.66247  21266890.3074   21266895.8054
      -693.9274       -540.7224
  24286694.6704  -26815835.47646 -20552802.16044  24286690.1104   24286692.3304
     -2307.0984      -1797.7464
  22330875.3524  -28104405.29148 -21540279.01046  22330874.1954   22330879.6354
     -1567.5214      -1221.4464
  24567563.0114   -5555172.49047  -3459634.73445  24567561.4034   24567566.2874
      4013.5044       3127.4174
  20246601.5004  -40268139.03649 -30711502.51447  20246598.8754   20246600.7064
       324.9074        253.1754
 04 12 12  0 30 59.9990000  0 10G 5G17G13G10G30G24G 7G 4G 6G 2
  21658268.4874  -25031213.66549 -19167604.26547  21658266.2564   21658271.9144
      -592.6734       -461.8234
  21079416.2544  -32500867.80748 -25025675.27047  21079414.0624   21079419.7634
      1663.7504       1296.4294
  24083665.2604  -10336259.63747  -7811491.11845  24083663.3874   24083665.9594
       -20.1894        -15.7334
  20364488.1734  -31048340.65249 -24148750.29947  20364485.8874   20364491.1994
      2588.9004       2017.3244
  21876960.7434  -22083263.15948 -15023134.56146  21876959.1324   21876964.0774
      1280.0844        997.4674
  21270865.8034  -31258748.41549 -23998746.99747  21270864.0084   21270869.3924
      -696.1994       -542.4924
  24299877.8204  -26746532.51947 -20498799.75845  24299877.1144   24299883.4484
     -2310.9504      -1800.7504
  22339831.1644  -28057346.39748 -21503609.74946  22339829.7574   22339833.8664
     -1567.6564      -1221.5504
  24544650.8354   -5675583.60047  -3553461.52645  24544648.3704   24544653.5874
      4016.0404       3129.3754
  20244770.7694  -40277755.12149 -30718995.56247  20244768.6144   20244770.8934
       318.1344        247.8964
 04 12 12  0 31 29.9990000  0  9G 5G17G13G10G30G24G 4G 6G 2
  21661708.7924  -25013134.86749 -19153516.90247  21661706.6784   21661712.1654
      -611.7314       -476.6734
  21069944.2254  -32550638.82048 -25064457.85847  21069942.2134   21069948.6124
      1655.1074       1289.6924
  24083839.9704  -10335329.76047  -7810766.49245  24083838.3754   24083844.0274
       -40.9274        -31.8884
  20349769.3494  -31125691.56849 -24209023.71347  20349766.5704   20349771.5984
      2568.6864       2001.5724
  21869719.1714  -22121319.91348 -15052789.17246  21869717.5904   21869721.7944
      1257.9174        980.1934
  21274862.1934  -31237750.53049 -23982385.00247  21274859.8824   21274865.2754
      -702.8274       -547.6574
  22348795.3274  -28010236.28748 -21466900.56546  22348794.1254   22348797.9334
     -1572.1264      -1225.0334
  24521731.8604   -5796020.24247  -3647308.23945  24521729.2654   24521735.2204
      4014.0884       3127.8554
  20242988.5894  -40287119.50349 -30726292.48447  20242986.7754   20242989.1124
       306.9894        239.2144
 04 12 12  0 31 59.9990000  0  9G 5G17G13G10G30G24G 4G 6G 2
  21665254.4904  -24994501.89249 -19138997.71947  21665252.2594   21665257.7834
      -630.6634       -491.4254
  21060520.0244  -32600165.77248 -25103050.26847  21060517.6454   21060523.8674
      1646.4734       1282.9654
  24084134.8154  -10333791.04347  -7809567.48245  24084132.1704   24084136.1874
       -61.8084        -48.1644
  20335162.1324  -31202450.29349 -24268835.69147  20335159.5704   20335164.6174
      2548.3944       1985.7614
  21862600.1164  -22158727.67948 -15081938.08046  21862598.8854   21862603.5884
      1235.7474        962.9194
  21278892.6494  -31216569.39349 -23965880.22047  21278890.4264   21278895.3224
      -709.4504       -552.8184
  22357783.0494  -27963007.80048 -21430099.13846  22357781.5734   22357784.9024
     -1576.5524      -1228.4814
  24498822.5914   -5916413.29046  -3741120.94145  24498820.3684   24498824.0294
      4011.9934       3126.2274
  20241267.0024  -40296165.12649 -30733341.01747  20241265.2524   20241267.5584
       295.8374        230.5234
 04 12 12  0 32 29.9990000  0  9G 5G17G13G10G30G24G 4G 6G 2
  21668901.2244  -24975339.64349 -19124066.11947  21668898.9614   21668904.1584
      -647.3694       -504.4424
  21051137.6214  -32649471.69248 -25141470.45447  21051135.1844   21051141.0924
      1640.0084       1277.9264
  24084537.1514  -10331667.00847  -7807912.36945  24084536.2994   24084540.5864
       -80.3874        -62.6374
  20320663.5044  -31278638.71249 -24328203.26347  20320661.2894   20320666.3724
      2530.2794       1971.6444
  21855601.3314  -22195509.15448 -15110598.97546  21855599.8204   21855604.5334
      1215.8634        947.4254
  21282953.1684  -31195228.42149 -23949250.88747  21282951.1184   21282956.1974
      -713.8694       -556.2624
  22366787.5274  -27915684.38648 -21393223.74546  22366786.4074   22366790.4944
     -1578.8114      -1230.2434
  24475915.1344   -6036784.16146  -3834916.41245  24475914.0624   24475917.2064
      4012.2754       3126.4574
  20239602.8814  -40304915.33649 -30740159.35947  20239600.2734   20239602.4884
       286.9574        223.6034
 04 12 12  0 32 59.9990000  0  9G 5G17G13G10G30G24G 4G 6G 2
  21672637.5914  -24955703.88949 -19108765.54847  21672635.4654   21672640.5504
      -660.8924       -514.9804
  21041786.8434  -32698610.70448 -25179760.58447  21041784.4554   21041790.1114
      1636.6674       1275.3244
  24085043.9594  -10329011.87147  -7805843.40045  24085041.8274   24085044.1644
       -95.8534        -74.6914
  20306264.0564  -31354309.66949 -24387167.61247  20306261.3784   20306266.7434
      2515.2404       1959.9264
  21848711.1164  -22231718.11348 -15138813.74446  21848709.4494   21848713.7404
      1198.9704        934.2614
  21287033.2464  -31173782.40449 -23932539.69747  21287031.7474   21287037.1874
      -715.1184       -557.2354
  22375799.3924  -27868320.40048 -21356316.73446  22375798.4354   22375803.7864
     -1577.9454      -1229.5674
  24453003.3944   -6157185.30547  -3928735.42945  24453002.5484   24453007.4844
      4015.3994       3128.8784
  20237982.3514  -40313424.45449 -30746789.83247  20237980.7364   20237983.0394
       281.1404        219.0704
 04 12 12  0 33 29.9990000  0  9G 5G17G13G10G30G24G 4G 6G 2
  21676460.5564  -24935610.85649 -19093108.64847  21676458.7334   21676464.1934
      -677.3854       -527.8324
  21032464.5484  -32747597.51548 -25217932.11547  21032462.3774   21032467.7654
      1630.3434       1270.3974
  24085645.4744  -10325840.35947  -7803372.04745  24085645.0564   24085649.3114
      -114.3614        -89.1114
  20291960.1184  -31429476.07049 -24445738.79047  20291957.3724   20291963.1494
      2497.1054       1945.7954
  21841926.6514  -22267368.71748 -15166593.44446  21841925.3174   21841929.0594
      1179.0104        918.7084
  21291131.8164  -31152246.34049 -23915758.34447  21291130.0054   21291135.0354
      -719.3864       -560.5604
  22384819.5914  -27820930.92248 -21319389.86946  22384817.7204   22384822.0114
     -1580.0454      -1231.2054
  24430087.9154   -6277629.32747  -4022587.89045  24430084.1234   24430088.4864
      4015.5454       3129.0004
  20236407.0494  -40321707.47349 -30753244.13447  20236404.7414   20236406.7814
       272.2964        212.1794
 04 12 12  0 33 59.9990000  0  9G 5G17G13G10G30G24G 4G 6G 2
  21680379.7484  -24915022.03249 -19077065.42447  21680377.2474   21680382.7344
      -692.8164       -539.8564
  21023180.3084  -32796391.64948 -25255953.51147  21023177.5854   21023182.6614
      1624.9464       1266.1914
  24086355.5264  -10322112.43947  -7800467.15045  24086354.9514   24086356.9994
      -131.7774       -102.6844
  20277760.6094  -31504096.22649 -24503884.32647  20277758.0274   20277763.5504
      2479.9384       1932.4184
  21835257.2724  -22302420.47848 -15193906.50646  21835255.6354   21835259.7404
      1160.1274        903.9964
  21295255.4264  -31130580.25749 -23898875.67747  21295253.2374   21295257.5794
      -722.6174       -563.0784
  22393850.1024  -27773475.66548 -21282411.75546  22393848.4274   22393852.0824
     -1581.1664      -1232.0784
  24407164.3094   -6398074.43747  -4116441.13345  24407161.4794   24407167.5914
      4016.5504       3129.7804
  20234880.5444  -40329724.18449 -30759490.92047  20234878.9784   20234881.0744
       264.4724        206.0814
 04 12 12  0 34 29.9990000  0  9G 5G17G13G10G30G24G 4G 6G 2
  21684382.3334  -24893986.87449 -19060674.40947  21684379.8794   21684385.3304
      -709.8624       -553.1404
  21013922.4564  -32845041.13049 -25293862.18047  21013919.7074   21013924.9874
      1617.9634       1260.7494
  24087163.1934  -10317876.10047  -7797166.06345  24087161.7584   24087165.5224
      -150.9804       -117.6494
  20263656.1854  -31578216.56949 -24561640.41347  20263653.6234   20263658.9114
      2461.0694       1917.7154
  21828691.9574  -22336920.31048 -15220789.48846  21828690.4914   21828694.5044
      1139.5434        887.9564
  21299394.0884  -31108831.96649 -23881928.94847  21299391.8584   21299396.6154
      -727.5794       -566.9444
  22402883.8944  -27726002.77448 -21245419.88546  22402882.4674   22402886.4614
     -1583.9454      -1234.2444
  24384236.4394   -6518566.38347  -4210330.89845  24384234.5894   24384237.6474
      4015.8254       3129.2094
  20233397.1414  -40337522.50349 -30765567.53547  20233395.2294   20233397.0134
       255.0084        198.7084
 04 12 12  0 34 59.9990000  0  9G 5G17G13G10G30G24G 4G 6G 2
  21688474.7364  -24872478.15149 -19043914.38347  21688472.6434   21688477.3104
      -727.4394       -566.8344
  21004697.2624  -32893516.79349 -25331635.41447  21004695.2094   21004700.3714
      1610.3324       1254.8044
  24088070.4454  -10313102.46847  -7793446.27745  24088069.6414   24088073.0664
      -170.6694       -132.9854
  20249652.0734  -31651807.06049 -24618983.60747  20249649.8104   20249655.3754
      2441.5734       1902.5224
  21822237.1594  -22370839.16348 -15247219.77446  21822235.7064   21822240.3814
      1118.3654        871.4544
  21303553.6384  -31086972.99949 -23864895.97747  21303551.7354   21303556.8854
      -733.0504       -571.2074
  22411926.7984  -27678483.39748 -21208391.80046  22411925.2844   22411928.8134
     -1587.3154      -1236.8694
  24361305.2094   -6639074.37247  -4304233.17745  24361302.5744   24361307.2544
      4014.5984       3128.2614
  20231960.7044  -40345073.77849 -30771451.64747  20231958.1514   20231960.0274
       244.9844        190.8974
 04 12 12  0 35 29.9990000  0  9G 5G17G13G10G30G24G 4G 6G 2
  21692671.2334  -24850427.60649 -19026732.15247  21692669.1064   21692673.2374
      -741.9114       -578.1134
  20995519.7024  -32941748.62649 -25369218.64847  20995517.4454   20995522.4264
      1605.7574       1251.2414
  24089097.0994  -10307722.07647  -7789253.73745  24089094.8154   24089097.3414
      -187.2884       -145.9514
  20235762.8234  -31724796.20549 -24675858.23847  20235760.2814   20235766.0874
      2425.0784       1889.6714
  21815907.7184  -22404106.63248 -15273142.47946  21815905.6744   21815909.7134
      1100.1934        857.2924
  21307747.4294  -31064933.69149 -23847722.48947  21307745.6024   21307751.1954
      -735.5134       -573.1274
  22420990.6964  -27630847.74948 -21171273.10746  22420989.2984   22420993.4064
     -1587.6274      -1237.1124
  24338380.3674   -6759526.73147  -4398092.12045  24338380.9614   24338384.5054
      4016.2844       3129.5664
  20230583.1454  -40352308.11449 -30777088.79047  20230581.4254   20230583.1544
       237.9634        185.4264
 04 12 12  0 35 59.9990000  0  9G 5G17G13G10G30G24G 4G 6G 2
  21696953.7214  -24827924.95549 -19009197.62747  21696951.1014   21696956.5734
      -757.2404       -590.0574
  20986371.2744  -32989824.19049 -25406680.12047  20986368.9324   20986373.6004
      1600.2784       1246.9704
  24090217.9934  -10301822.63947  -7784656.73345  24090216.4484   24090219.0844
      -204.9464       -159.6954
  20221971.2434  -31797270.27649 -24732331.51747  20221968.7534   20221973.9394
      2407.5824       1876.0374
  21809683.6374  -22436810.02748 -15298625.64946  21809681.8094   21809686.1194
      1081.1114        842.4244
  21311959.1644  -31042802.11749 -23830477.10647  21311957.2924   21311962.9114
      -738.8844       -575.7534
  22430060.2724  -27583183.59948 -21134132.20246  22430058.7124   22430063.6264
     -1588.9244      -1238.1234
  24315454.9644   -6880009.14947  -4491974.48845  24315453.7084   24315458.4854
      4017.0104       3130.1304
  20229250.2874  -40359313.67049 -30782547.66447  20229248.1024   20229249.9314
       230.0664        179.2724
 04 12 12  0 36 29.9990000  0  9G 5G17G13G10G30G24G 4G 6G 2
  21701324.2054  -24804953.52949 -18991297.83647  21701322.1044   21701328.2564
      -774.8464       -603.7754
  20977255.7384  -33037725.55549 -25444005.84847  20977253.6164   20977258.1384
      1592.4444       1240.8664
  24091442.6364  -10295386.39447  -7779641.42445  24091441.4194   24091444.9534
      -224.8274       -175.1934
  20208281.7024  -31869210.05949 -24788388.45047  20208278.8464   20208284.3524
      2387.7204       1860.5604
  21803570.8214  -22468931.02448 -15323654.99646  21803569.4304   21803574.2274
      1059.6454        825.6974
  21316191.4344  -31020560.47749 -23813145.96047  21316189.4844   21316195.3774
      -744.5954       -580.2034
  22439138.9024  -27535473.33048 -21096955.35946  22439137.8404   22439141.5644
     -1592.4524      -1240.8724
  24292524.0564   -7000501.72147  -4585864.71245  24292523.6684   24292528.8464
      4015.2584       3128.7704
  20227964.1554  -40366072.42049 -30787814.21947  20227962.1444   20227963.9144
       219.7784        171.2544
 04 12 12  0 36 59.9990000  0  9G 5G17G13G10G30G24G 4G 6G 2
  21705790.3464  -24781484.55749 -18973010.35447  21705788.1244   21705794.1564
      -788.7364       -614.5994
  20968179.6994  -33085421.99249 -25481171.89547  20968177.3094   20968181.7564
      1588.2604       1237.6054
  24092774.2054  -10288383.13047  -7774184.31845  24092773.0634   24092777.1344
      -241.0394       -187.8194
  20194699.4354  -31940583.94049 -24844004.43047  20194696.8614   20194702.3264
      2371.5234       1847.9394
  21797575.0474  -22500438.74048 -15348206.46946  21797573.4904   21797578.5494
      1041.8944        811.8664
  21320450.3774  -30998178.31449 -23795705.31947  21320448.4934   21320454.4484
      -746.5804       -581.7524
  22448233.7054  -27487686.38548 -21059718.76846  22448232.1034   22448235.5404
     -1592.3324      -1240.7794
  24269601.3064   -7120972.06547  -4679737.66045  24269600.0454   24269603.7404
      4017.1644       3130.2614
  20226730.6074  -40372553.82449 -30792864.66047  20226728.7024   20226730.5424
       213.2554        166.1724
 04 12 12  0 37 29.9990000  0  9G 5G17G13G10G30G24G 4G 6G 2
  21710339.3944  -24757578.64749 -18954382.39647  21710337.4334   21710343.2044
      -804.8554       -627.1584
  20959131.3874  -33132972.05149 -25518223.87247  20959128.7784   20959133.4244
      1581.8004       1232.5704
  24094203.0614  -10280871.67647  -7768331.21945  24094202.3754   24094206.6924
      -259.5164       -202.2194
  20181213.9474  -32011448.91249 -24899223.85647  20181211.7154   20181216.6174
      2352.9434       1833.4614
  21791684.9054  -22531391.65848 -15372325.63046  21791683.5264   21791688.1244
      1021.8234        796.2274
  21324724.0604  -30975714.69549 -23778201.20247  21324722.6684   21324728.7464
      -750.8614       -585.0864
  22457330.6834  -27439881.64948 -21022468.30446  22457328.9804   22457332.5664
     -1594.4724      -1242.4464
  24246672.8264   -7241476.93547  -4773637.49945  24246667.7824   24246672.4294
      4016.6634       3129.8734
  20225539.6094  -40378816.71649 -30797744.83347  20225537.1194   20225538.9514
       204.3664        159.2474
 04 12 12  0 37 59.9990000  0  9G 5G17G13G10G30G24G 4G 6G 2
  21714986.2644  -24733162.91149 -18935357.16647  21714983.5384   21714989.3744
      -821.9964       -640.5174
  20950124.6754  -33180301.03949 -25555103.58947  20950122.3104   20950127.2124
      1574.3124       1226.7374
  24095745.1634  -10272777.98547  -7762024.39945  24095743.0194   24095746.3034
      -279.1104       -217.4874
  20167840.6084  -32081729.08949 -24953987.58747  20167838.2634   20167842.9224
      2333.2874       1818.1444
  21785914.8934  -22561714.85648 -15395954.10046  21785913.1964   21785917.8874
      1000.6884        779.7564
  21329029.3744  -30953095.35749 -23760575.74647  21329027.1584   21329032.7824
      -756.2114       -589.2564
  22466445.9374  -27391984.56148 -20985145.89546  22466444.3574   22466447.5174
     -1597.7424      -1244.9934
  24223745.5024   -7361939.66847  -4867504.50545  24223743.1064   24223749.9804
      4015.1164       3128.6604
  20224402.6954  -40384786.97149 -30802396.97647  20224400.8774   20224402.8684
       194.5184        151.5724
 04 12 12  0 38 29.9990000  0  9G 5G17G13G10G30G24G 4G 6G 2
  21719716.1274  -24708309.93449 -18915991.23447  21719713.4704   21719718.5944
      -835.9404       -651.3814
  20941146.2044  -33227479.76349 -25591866.21347  20941144.2264   20941149.3144
      1569.8524       1223.2594
  24097381.6214  -10264173.26047  -7755319.40345  24097380.5244   24097384.4204
      -295.6054       -230.3454
  20154564.6304  -32151494.37049 -25008350.11047  20154562.1784   20154567.1714
      2316.6334       1805.1674
  21780250.6274  -22591479.04948 -15419146.98146  21780249.0774   21780254.3854
       982.5564        765.6294
  21333349.9524  -30930391.40549 -23742884.34847  21333347.6284   21333352.4094
      -758.4674       -591.0134
  22475563.3774  -27344066.31148 -20947806.99246  22475561.9474   22475566.5264
     -1597.8724      -1245.0964
  24200817.3234   -7482429.49347  -4961392.66945  24200816.6164   24200820.9854
      4016.4924       3129.7354
  20223309.6124  -40390535.54249 -30806876.37947  20223307.2864   20223309.2684
       187.6384        146.2124
 04 12 12  0 38 59.9990000  0  9G 5G17G13G10G30G24G 4G 6G 2
  21724539.3294  -24682961.94049 -18896239.57547  21724536.7744   21724541.5864
      -851.6004       -663.5844
  20932208.7624  -33274448.34649 -25628465.10047  20932206.6114   20932211.6104
      1563.6774       1218.4494
  24099127.6734  -10254997.89647  -7748169.73645  24099126.1194   24099130.0384
      -313.7994       -244.5224
  20141398.3854  -32220683.58349 -25062263.74947  20141395.8994   20141401.0124
      2298.2554       1790.8464
  21774704.9134  -22620623.96348 -15441857.30646  21774703.4784   21774708.2134
       962.7654        750.2064
  21337697.4474  -30907543.07049 -23725080.44347  21337695.8234   21337700.3124
      -762.4524       -594.1174
  22484697.2754  -27296066.95148 -20910404.89046  22484695.7554   22484701.1074
     -1599.7284      -1246.5404
  24177896.3444   -7602884.55547  -5055253.71045  24177894.8524   24177900.0144
      4016.1994       3129.5084
  20222268.8244  -40396002.31749 -30811136.20047  20222266.9894   20222269.0104
       179.0884        139.5504
 04 12 12  0 39 29.9990000  0  9G 5G17G13G10G30G24G 4G 6G 2
  21729448.9014  -24657157.62949 -18876132.33347  21729447.0614   21729451.5704
      -868.5784       -676.8134
  20923303.7634  -33321243.65149 -25664928.96047  20923301.5794   20923307.0114
      1556.1204       1212.5614
  24100974.5584  -10245289.34347  -7740604.60245  24100973.3114   24100977.9754
      -333.3004       -259.7194
  20128335.1854  -32289332.79649 -25115756.62147  20128332.5124   20128337.6934
      2278.4204       1775.3914
  21769269.2004  -22649186.52348 -15464113.83846  21769267.5874   21769272.7764
       941.5344        733.6634
  21342066.2374  -30884587.47249 -23707192.95347  21342064.2944   21342068.2684
      -767.8414       -598.3184
  22493838.5314  -27248023.75148 -20872968.64446  22493837.5374   22493842.2164
     -1603.0424      -1249.1244
  24154975.1254   -7723339.74547  -5149114.86045  24154973.0214   24154978.4074
      4014.2794       3128.0084
  20221275.5834  -40401224.78949 -30815205.65947  20221273.3074   20221275.2064
       169.1284        131.7894
 04 12 12  0 39 59.9990000  0  9G 5G17G13G10G30G24G 4G 6G 2
  21734451.0204  -24630872.30749 -18855650.27147  21734448.9194   21734453.7424
      -883.8174       -688.6874
  20914436.6364  -33367838.91049 -25701236.94447  20914434.3924   20914440.0824
      1550.1794       1207.9304
  24102929.9054  -10235021.27347  -7732603.49945  24102927.4954   24102931.4874
      -351.2084       -273.6684
  20115379.4264  -32357414.05649 -25168806.93547  20115376.9054   20115382.4374
      2260.2494       1761.2324
  21763950.1344  -22677140.00148 -15485895.78046  21763948.7224   21763952.9614
       921.9844        718.4294
  21346460.3074  -30861497.95949 -23689201.11347  21346458.3304   21346462.8744
      -771.5204       -601.1854
  22502996.4574  -27199910.04048 -20835477.44346  22502994.0244   22502998.2464
     -1604.5584      -1250.3034
  24132056.4074   -7843766.44147  -5242953.77145  24132056.0364   24132063.0224
      4014.1104       3127.8724
  20220332.7934  -40406176.19649 -30819063.89547  20220331.0994   20220333.0074
       160.8684        125.3514
 04 12 12  0 40 29.9990000  0  9G 5G17G13G10G30G24G 4G 6G 2
  21739537.7724  -24604144.79849 -18834823.65347  21739535.1884   21739539.7994
      -898.0264       -699.7604
  20905601.1144  -33414271.17149 -25737417.91147  20905598.6414   20905604.4384
      1545.2554       1204.0954
  24104983.1084  -10224231.32947  -7724195.70645  24104980.9784   24104983.9564
      -368.1334       -286.8644
  20102524.8174  -32424963.24149 -25221442.63447  20102522.1604   20102528.3424
      2242.9904       1747.7834
  21758740.4384  -22704521.39248 -15507231.92946  21758738.6464   21758742.5614
       903.4614        703.9964
  21350871.8094  -30838312.29249 -23671134.34947  21350869.9704   21350875.6564
      -774.2194       -603.2884
  22512157.3454  -27151763.13448 -20797960.36446  22512155.6124   22512159.4544
     -1605.2234      -1250.8244
  24109139.3484   -7964199.87647  -5336797.94445  24109139.0014   24109145.0614
      4014.7734       3128.3904
  20219436.1124  -40410893.97249 -30822740.08147  20219433.6584   20219435.3304
       153.5874        119.6794
 04 12 12  0 40 59.9990000  0  9G 5G17G13G10G30G24G 4G 6G 2
  21744703.1464  -24576998.61449 -18813670.80147  21744700.7914   21744706.0624
      -911.3404       -710.1344
  20896792.0104  -33460561.88749 -25773488.58447  20896789.6514   20896795.6804
      1541.1474       1200.8934
  24107131.0884  -10212941.87347  -7715398.71345  24107128.7044   24107133.4184
      -384.1634       -299.3474
  20089768.0154  -32492000.84849 -25273679.68947  20089765.6234   20089771.4014
      2226.5484       1734.9704
  21753633.1534  -22731352.11748 -15528138.97746  21753632.1884   21753636.8804
       885.6604        690.1224
  21355298.4944  -30815052.08149 -23653009.50647  21355296.2914   21355301.6664
      -776.1094       -604.7614
  22521320.9944  -27103604.75948 -20760434.34346  22521319.9144   22521324.0204
     -1604.9324      -1250.5994
  24086219.3094   -8084659.66247  -5430662.67645  24086215.8694   24086221.1094
      4016.1924       3129.5014
  20218577.5154  -40415399.92549 -30826251.20447  20218575.7774   20218577.9284
       147.1364        114.6514
 04 12 12  0 41 29.9990000  0 10G 5G17G13G10G30G24G 7G 4G 6G 2
  21749961.8564  -24549362.56849 -18792136.24047  21749959.6474   21749965.4844
      -928.4934       -723.5014
  20888023.8364  -33506637.71249 -25809391.80647  20888021.8214   20888028.1134
      1533.1414       1194.6554
  24109389.8324  -10201079.84747  -7706155.53345  24109387.7534   24109388.9954
      -404.0604       -314.8524
  20077122.8464  -32558452.49349 -25325460.14347  20077120.1564   20077125.8044
      2206.1444       1719.0724
  21748646.7964  -22757558.90048 -15548559.83746  21748645.0144   21748650.1704
       864.0524        673.2874
  21359752.1704  -30791644.20449 -23634769.59647  21359750.2854   21359756.3874
      -781.8404       -609.2264
   -299792.4584     105379.97754     72108.91144
     -2424.9144      -1889.5124
  22530502.0514  -27055361.66448 -20722842.30246  22530500.3884   22530504.5914
     -1608.6224      -1253.4734
  24063302.7624   -8205070.71947  -5524489.46745  24063302.1004   24063306.9034
      4013.7434       3127.5954
  20217774.4034  -40419620.78349 -30829540.18347  20217772.7674   20217774.6734
       136.7894        106.5894
 04 12 12  0 41 59.9990000  0  9G 5G17G13G10G30G24G 4G 6G 2
  21755312.3334  -24521248.62149 -18770229.29447  21755310.0844   21755315.4694
      -945.8424       -737.0184
  20879294.9594  -33552508.46249 -25845135.23747  20879292.8724   20879299.1504
      1524.8084       1188.1624
  24111752.4984  -10188655.62547  -7696474.28545  24111750.0994   24111752.9614
      -424.2254       -330.5634
  20064587.7604  -32624327.13349 -25376790.99547  20064584.8024   20064589.7394
      2185.4364       1702.9364
  21743775.7214  -22783151.51048 -15568502.12346  21743774.7604   21743779.5684
       842.1324        656.2074
  21364232.8044  -30768098.84749 -23616422.56747  21364230.8084   21364237.1244
      -787.8744       -613.9274
  22539697.5284  -27007043.74948 -20685191.97046  22539695.5664   22539699.4774
     -1612.5714      -1256.5474
  24040399.1234   -8325440.74547  -5618284.23745  24040394.5054   24040400.7174
      4010.8414       3125.3384
  20217024.1004  -40423566.56249 -30832614.81147  20217021.7644   20217023.7814
       126.1814         98.3244
 04 12 12  0 42 29.9990000  0  9G 5G17G13G10G30G24G 4G 6G 2
  21760753.5684  -24492657.21349 -18747950.29747  21760750.9884   21760756.2504
      -959.3814       -747.5704
  20870605.8134  -33598172.45849 -25880717.55347  20870603.4224   20870609.8194
      1520.2744       1184.6294
  24114225.9034  -10175668.34247  -7686354.28245  24114223.4084   24114225.4234
      -440.7074       -343.4104
  20052161.6654  -32689622.11149 -25427670.15847  20052159.5064   20052164.5174
      2168.4254       1689.6804
  21739023.4154  -22808128.49048 -15587964.71646  21739022.1584   21739027.1894
       823.8944        641.9964
  21368740.1444  -30744414.81649 -23597967.47947  21368737.8074   21368744.0434
      -790.1974       -615.7384
  22548905.8594  -26958649.58948 -20647482.23946  22548904.0834   22548908.9444
     -1612.8034      -1256.7274
  24017502.3964   -8445766.28447  -5712044.36945  24017498.2484   24017503.7384
      4011.7074       3126.0034
  20216325.9274  -40427235.88749 -30835474.02347  20216323.7614   20216325.5764
       119.2814         92.9474
 04 12 12  0 42 59.9990000  0  9G 5G17G13G10G30G24G 4G 6G 2
  21766275.1874  -24463640.19049 -18725339.64747  21766272.4484   21766278.2074
      -977.3304       -761.5564
  20861946.0474  -33643679.77249 -25916177.77647  20861943.6434   20861950.3314
      1511.2564       1177.6004
  24116792.0024  -10162168.58247  -7675834.96445  24116790.9424   24116792.9234
      -461.5034       -359.6124
  20039837.9184  -32754386.53649 -25478135.90747  20039835.5634   20039840.1704
      2146.9254       1672.9284
  21734379.2164  -22832540.04948 -15606986.70447  21734377.2554   21734382.1834
       801.2644        624.3614
  21373264.0734  -30720642.24149 -23579443.40047  21373261.9374   21373267.3794
      -796.9114       -620.9704
  22558120.1474  -26910229.59648 -20609752.38346  22558118.1354   22558122.7884
     -1617.4864      -1260.3764
  23994604.1184   -8566095.42447  -5805807.31345  23994601.9794   23994606.2304
      4007.9684       3123.0874
  20215670.2284  -40430679.35349 -30838157.23947  20215668.2534   20215670.3654
       107.9704         84.1324
 04 12 12  0 43 29.9990000  0  9G 5G17G13G10G30G24G 4G 6G 2
  21771887.8074  -24434142.24949 -18702354.25647  21771885.5104   21771890.9744
      -990.6914       -771.9664
  20853326.7024  -33688972.89549 -25951471.10547  20853324.6204   20853331.2894
      1506.7474       1174.0894
  24119469.0974  -10148099.41947  -7664871.90545  24119468.0804   24119470.2654
      -477.9024       -372.3854
  20027626.0944  -32818562.18449 -25528142.87447  20027623.5384   20027627.6684
      2129.9314       1659.6864
  21729851.5234  -22856328.74148 -15625523.34247  21729850.1254   21729854.7124
       783.1714        610.2624
  21377816.1074  -30696723.83049 -23560805.67447  21377813.8234   21377818.8004
      -799.1464       -622.7104
  22567349.3084  -26861726.25148 -20571957.57946  22567347.7304   22567352.2324
     -1617.5654      -1260.4394
  23971714.8534   -8686368.83547  -5899526.82345  23971713.8434   23971719.5344
      4008.7644       3123.7024
  20215069.1964  -40433839.14549 -30840619.41047  20215067.0814   20215069.2084
       101.1614         78.8274
 04 12 12  0 43 59.9990000  0  9G 5G17G13G10G30G24G 4G 6G 2
  21777581.5174  -24404218.58948 -18679037.14047  21777579.7004   21777584.9854
     -1005.4714       -783.4844
  20844739.3114  -33734104.82649 -25986638.82747  20844736.6784   20844742.7054
      1500.7714       1169.4314
  24122246.0404  -10133514.91347  -7653507.30545  24122243.7334   24122247.0784
      -495.7254       -386.2804
  20015515.8844  -32882201.39949 -25577731.85147  20015513.3124   20015517.5474
      2111.4034       1645.2494
  21725433.3544  -22879547.83748 -15643616.14347  21725431.6934   21725436.4774
       763.5694        594.9894
  21382384.4684  -30672713.15449 -23542096.04747  21382382.7154   21382387.6954
      -802.8534       -625.6004
  22576585.0004  -26813192.86548 -20534139.35246  22576583.5694   22576587.7484
     -1619.2044      -1261.7174
  23948829.0954   -8806637.82047  -5993242.86245  23948826.7844   23948833.0724
      4007.8884       3123.0304
  20214511.9244  -40436768.92049 -30842902.34747  20214509.5174   20214511.8434
        92.8684         72.3644
 04 12 12  0 44 29.9990000  0  9G 5G17G13G10G30G24G 4G 6G 2
  21783354.5654  -24373885.30648 -18655400.83747  21783351.9984   21783356.5854
     -1019.0264       -794.0464
  20836179.1234  -33779089.68549 -26021691.94747  20836176.5454   20836182.3374
      1495.9394       1165.6674
  24125113.2084  -10118429.89747  -7641752.71845  24125112.6294   24125117.3164
      -512.3424       -399.2204
  20003505.2254  -32945316.78549 -25626912.65147  20003502.5194   20003507.1424
      2093.9864       1631.6774
  21721120.3914  -22902211.47448 -15661276.11647  21721118.8974   21721123.9324
       745.1484        580.6344
  21386968.8344  -30648624.37149 -23523325.55847  21386966.7974   21386971.0364
      -805.3864       -627.5754
  22585824.9164  -26764643.61648 -20496308.76346  22585822.5624   22585826.2034
     -1619.6404      -1262.0574
  23925940.3604   -8926914.25747  -6086964.70345  23925938.5194   23925944.5124
      4008.2004       3123.2764
  20213994.9904  -40439482.98249 -30845017.19747  20213993.1024   20213995.3814
        85.7514         66.8194
 04 12 12  0 44 59.9990000  0  9G 5G17G13G10G30G24G 4G 6G 2
  21789215.4214  -24343083.99848 -18631399.83447  21789213.2074   21789217.6404
     -1034.6004       -806.1844
  20827658.2834  -33823867.08449 -26056583.41147  20827655.7314   20827661.4544
      1488.9754       1160.2394
  24128091.5654  -10102784.71847  -7629561.63145  24128090.7154   24128093.2744
      -531.0014       -413.7704
  19991605.1394  -33007847.47849 -25675637.83547  19991602.9014   19991608.3284
      2074.4624       1616.4634
  21716925.3324  -22924259.70948 -15678456.56047  21716923.5684   21716927.6934
       724.5694        564.5984
  21391579.1974  -30624397.32149 -23504447.32447  21391577.0574   21391581.3364
      -810.0084       -631.1764
  22595076.1774  -26716018.42948 -20458419.00246  22595075.1374   22595078.6924
     -1622.1934      -1264.0474
  23903066.8054   -9047136.05947  -6180644.03745  23903062.5824   23903064.4194
      4006.3984       3121.8734
  20213531.0924  -40441921.07049 -30846917.00547  20213528.9084   20213531.2764
        76.5414         59.6424
 04 12 12  0 45 29.9990000  0  9G 5G17G13G10G30G24G 4G 6G 2
  21795155.2824  -24311874.23248 -18607080.54847  21795152.8144   21795157.6374
     -1045.1674       -814.4164
  20819166.1184  -33868494.35649 -26091357.89847  20819163.6554   20819169.1364
      1486.9814       1158.6854
  24131164.6434  -10086637.25047  -7616979.16845  24131163.2394   24131167.9724
      -544.6954       -424.4314
  19979806.2134  -33069849.74449 -25723951.26047  19979804.0334   19979809.9324
      2059.8664       1605.0884
  21712835.2364  -22945749.98048 -15695202.22347  21712833.8044   21712838.8754
       709.0084        552.4744
  21396204.3574  -30600089.61349 -23485506.24247  21396202.2994   21396207.3064
      -809.6634       -630.9074
  22604334.5554  -26667374.56848 -20420514.68346  22604332.4224   22604336.1734
     -1619.7854      -1262.1714
  23880187.5154   -9167358.27847  -6274323.70445  23880185.5294   23880188.8164
      4009.3804       3124.1944
  20213108.2534  -40444140.52249 -30848646.44747  20213106.5304   20213108.8414
        72.2604         56.3064
 04 12 12  0 45 59.9990000  0  9G 5G17G13G10G30G24G 4G 6G 2
  21801176.1184  -24280235.06749 -18582426.67547  21801173.5674   21801179.1994
     -1062.6264       -828.0204
  20810706.5874  -33912948.13849 -26125997.20247  20810704.2444   20810709.7944
      1478.0494       1151.7274
  24134337.4394  -10069965.55347  -7603988.21145  24134337.1714   24134340.4504
      -565.3314       -440.5214
  19968113.2084  -33131299.89749 -25771834.46647  19968110.6824   19968116.3874
      2038.2604       1588.2544
  21708856.4044  -22966659.50548 -15711495.36646  21708854.7014   21708859.0124
       686.4994        534.9354
  21400849.0964  -30575678.29849 -23466484.43247  21400847.1224   21400852.5074
      -816.2944       -636.0744
  22613598.0974  -26618689.11948 -20382577.97246  22613596.9874   22613601.3064
     -1624.3544      -1265.7294
  23857313.4864   -9287556.03247  -6367984.30745  23857312.4544   23857316.9234
      4005.3304       3121.0334
  20212732.5864  -40446118.60649 -30850187.81247  20212730.3214   20212731.9464
        61.0584         47.5774
 04 12 12  0 46 29.9990000  0  9G 5G17G13G10G30G24G 4G 6G 2
  21807284.7444  -24248130.91349 -18557410.47747  21807282.7564   21807288.2184
     -1076.0444       -838.4734
  20802287.2584  -33957190.87249 -26160472.04647  20802285.0934   20802290.7724
      1473.0484       1147.8294
  24137617.5904  -10052732.30347  -7590559.67645  24137616.2984   24137619.2264
      -581.9624       -453.4794
  19956532.1104  -33192159.60649 -25819257.59247  19956529.6704   19956535.0684
      2020.6034       1574.4954
  21704994.8744  -22986950.70648 -15727306.69047  21704993.5734   21704997.7264
       667.8724        520.4194
  21405521.4044  -30551125.96749 -23447352.73647  21405519.4784   21405525.0164
      -818.9604       -638.1504
  22622878.2144  -26569924.45948 -20344579.53746  22622875.5894   22622881.5894
     -1624.9644      -1266.2054
  23834453.5514   -9407689.69347  -6461594.88545  23834449.9634   23834456.3584
      4005.1964       3120.9254
  20212409.0814  -40447817.70449 -30851511.78047  20212406.7944   20212408.5004
        53.7824         41.9074
 04 12 12  0 46 59.9980000  0  9G 5G17G13G10G30G24G 4G 6G 2
  21813473.2524  -24215611.53249 -18532070.71747  21813470.8594   21813476.5474
     -1090.3904       -849.6534
  20793899.6924  -34001267.34449 -26194817.33747  20793897.5484   20793903.2724
      1467.0924       1143.1884
  24140995.6434  -10034985.54547  -7576730.99745  24140992.3414   24140996.7094
      -599.5614       -467.1904
  19945055.7064  -33252472.31549 -25866254.47247  19945052.9754   19945058.1664
      2001.9564       1559.9654
  21701242.3964  -23006669.77348 -15742672.19947  21701241.0734   21701246.1534
       648.3894        505.2404
  21410211.5284  -30526480.14049 -23428148.19447  21410209.7114   21410215.3874
      -822.5524       -640.9494
  22632163.0264  -26521128.75348 -20306556.91746  22632161.8874   22632166.6224
     -1626.5234      -1267.4214
  23811594.8834   -9527799.61947  -6555186.95045  23811593.2414   23811601.4434
      4003.9534       3119.9594
  20212129.3634  -40449284.36849 -30852654.63047  20212127.6264   20212129.2424
        45.5764         35.5144
 04 12 12  0 47 29.9980000  0  9G 5G17G13G10G30G24G 4G 6G 2
  21819742.8114  -24182661.49448 -18506395.38647  21819740.6204   21819746.9604
     -1105.7914       -861.6564
  20785546.5004  -34045165.10349 -26229023.37247  20785544.0754   20785549.8664
      1459.8964       1137.5804
  24144471.6394  -10016709.43947  -7562489.84445  24144471.2964   24144474.2714
      -618.3044       -481.7994
  19933684.8114  -33312225.84749 -25912815.63147  19933682.2884   19933687.3684
      1982.1114       1544.5004
  21697601.9864  -23025802.83948 -15757581.08547  21697600.0004   21697605.2164
       627.6714        489.0954
  21414923.4684  -30501723.67149 -23408857.43747  21414920.9004   21414926.4024
      -827.3724       -644.7064
  22641458.2914  -26472283.34348 -20268495.55846  22641456.6554   22641461.7144
     -1629.2574      -1269.5494
  23788749.1374   -9647876.38647  -6648753.23545  23788745.6474   23788750.7214
      4001.5704       3118.1094
  20211897.5104  -40450503.51949 -30853604.61147  20211895.6884   20211896.9974
        36.1744         28.1884
 04 12 12  0 47 59.9980000  0  9G 5G17G13G10G30G24G 4G 6G 2
  21826095.7934  -24149274.76848 -18480379.78747  21826093.7944   21826100.0244
     -1118.6384       -871.6654
  20777229.2814  -34088873.09949 -26263081.54347  20777227.0464   20777232.2634
      1455.2814       1133.9854
  24148054.1434   -9997896.07647  -7547830.06845  24148051.3784   24148054.9104
      -634.5384       -494.4454
  19922422.7184  -33371408.12749 -25958931.67347  19922420.3714   19922425.0494
      1964.7414       1530.9664
  21694074.3784  -23044340.26048 -15772025.83247  21694073.0784   21694076.9084
       609.5374        474.9634
  21419656.5384  -30476848.12649 -23389473.88647  21419654.6264   21419660.3454
      -829.6544       -646.4844
  22650763.3494  -26423380.62148 -20230389.55146  22650762.3794   22650767.7144
     -1629.5244      -1269.7584
  23765908.7134   -9767904.57247  -6742281.77545  23765905.1264   23765907.3354
      4001.6804       3118.1944
  20211715.1324  -40451466.09449 -30854354.66047  20211712.6254   20211713.5664
        29.3184         22.8454
 04 12 12  0 48 29.9980000  0  9G 5G17G13G10G30G24G 4G 6G 2
  21832528.5714  -24115473.01248 -18454040.77847  21832526.4304   21832531.6584
     -1133.8294       -883.5034
  20768944.2764  -34132410.67949 -26297006.92747  20768941.8484   20768947.1894
      1448.1774       1128.4504
  24151730.4174   -9978565.90447  -7532767.56445  24151728.8234   24151731.0884
      -653.1354       -508.9394
  19911265.6004  -33430037.89049 -26004617.18447  19911263.1594   19911268.1064
      1944.8724       1515.4844
  21690656.5244  -23062301.68348 -15786021.74847  21690655.1904   21690659.1424
       588.9114        458.8924
  21424409.0064  -30451873.22649 -23370012.92447  21424406.9484   21424412.6834
      -834.3874       -650.1724
  22660076.6524  -26374440.07848 -20192254.06946  22660075.2784   22660079.2444
     -1632.1694      -1271.8204
  23743070.9284   -9887901.45447  -6835785.88445  23743069.9854   23743074.8524
      3999.1674       3116.2304
  20211576.1504  -40452191.48449 -30854919.89147  20211574.3874   20211575.6684
        19.9954         15.5804
 04 12 12  0 48 59.9980000  0  9G 5G17G13G10G30G24G 4G 6G 2
  21839038.4054  -24081267.20748 -18427386.91247  21839036.0294   21839040.7044
     -1148.6254       -895.0334
  20760689.7014  -34175786.73349 -26330806.44147  20760687.5714   20760692.9414
      1441.4614       1123.2164
  24155506.3004   -9958728.57647  -7517309.84345  24155504.0784   24155508.8534
      -671.4194       -523.1834
  19900211.8034  -33488123.55049 -26049878.71447  19900209.5944   19900214.6424
      1925.4084       1500.3164
  21687346.2164  -23079696.67848 -15799576.29747  21687344.5914   21687349.7294
       568.7334        443.1704
  21429178.7714  -30426807.95549 -23350481.53547  21429176.8094   21429182.0684
      -838.7254       -653.5524
  22669395.0954  -26325470.62548 -20154096.04646  22669393.8564   22669396.6944
     -1634.4724      -1273.6174
  23720240.1384  -10007874.10847  -6929271.00145  23720238.0924   23720245.7084
      3996.9774       3114.5224
  20211482.0534  -40452688.68649 -30855307.31347  20211479.6784   20211480.9174
        11.0504          8.6114
 04 12 12  0 49 29.9980000  0  9G 5G17G13G10G30G24G 4G 6G 2
  21845631.7604  -24046619.56248 -18400388.76147  21845628.9894   21845634.2544
     -1161.5204       -905.0794
  20752473.6584  -34218961.27149 -26364448.92647  20752471.4194   20752476.9124
      1436.5004       1119.3504
  24159384.2544   -9938345.24847  -7501426.71945  24159382.6384   24159385.8224
      -687.7974       -535.9504
  19889269.2354  -33545624.48449 -26094684.60347  19889266.9464   19889272.3534
      1907.6614       1486.4884
  21684151.2924  -23096485.67248 -15812658.64147  21684149.8894   21684154.7014
       550.3074        428.8114
  21433973.2734  -30401612.74149 -23330848.89747  21433971.2404   21433976.0774
      -841.2594       -655.5264
  22678727.5194  -26276432.70648 -20115884.66746  22678726.2084   22678729.6914
     -1634.9714      -1274.0044
  23697419.7024  -10127780.51747  -7022704.47545  23697420.9544   23697428.1564
      3996.5594       3114.2004
  20211438.2364  -40452918.16149 -30855486.11547  20211436.1924   20211437.4634
         3.9094          3.0454
 04 12 12  0 49 59.9980000  0  9G 5G17G13G10G30G24G 4G 6G 2
  21852299.5124  -24011576.06848 -18373082.17247  21852297.3404   21852303.0844
     -1174.3984       -915.1144
  20744287.9284  -34261977.88349 -26397968.35047  20744285.6314   20744291.0734
      1431.5374       1115.4834
  24163359.8924   -9917460.40847  -7485152.78645  24163357.1374   24163360.1724
      -704.1874       -548.7204
  19878430.3504  -33602583.70449 -26139068.38347  19878427.9894   19878433.4084
      1889.9164       1472.6614
  21681063.3184  -23112712.67448 -15825303.06747  21681061.7884   21681066.4174
       531.8584        414.4344
  21438783.0304  -30376331.47649 -23311149.19747  21438781.6234   21438786.7424
      -843.8564       -657.5514
  22688063.8194  -26227369.71748 -20077653.75646  22688062.3174   22688066.4184
     -1635.5284      -1274.4364
  23674610.7744  -10247662.32647  -7116118.82445  23674609.7884   23674614.8664
      3995.9014       3113.6944
  20211437.4084  -40452923.40949 -30855490.19847  20211435.1234   20211436.6744
        -3.2854         -2.5594
 04 12 12  0 50 29.9980000  0  9G 5G17G13G10G30G24G 4G 6G 2
  21859051.9634  -23976091.14048 -18345431.61147  21859049.8814   21859055.6494
     -1191.1874       -928.1964
  20736140.9254  -34304788.55149 -26431327.29547  20736138.7594   20736144.2934
      1422.5544       1108.4844
  24167436.2984   -9896027.19547  -7468451.54945  24167435.3094   24167438.2744
      -724.5814       -564.6104
  19867703.9804  -33658952.74849 -26182992.28747  19867701.6214   19867706.7144
      1868.1024       1455.6634
  21678091.7364  -23128330.41648 -15837472.75047  21678089.8664   21678094.5004
       509.4274        396.9574
  21443620.6584  -30350916.29849 -23291345.15547  21443618.2984   21443623.4024
      -850.4294       -662.6724
  22697415.0224  -26178233.96148 -20039366.16246  22697412.5804   22697416.6734
     -1640.0324      -1277.9464
  23651814.0424  -10367469.60147  -7209475.13545  23651811.6664   23651815.1034
      3991.2594       3110.0684
  20211487.6244  -40452656.92849 -30855282.54247  20211485.9554   20211487.5014
       -14.4474        -11.2584
 04 12 12  0 50 59.9980000  0  9G 5G17G13G10G30G24G 4G 6G 2
  21865887.9724  -23940171.99648 -18317442.69947  21865885.3704   21865890.8554
     -1204.5224       -938.5874
  20728032.9784  -34347398.11749 -26464529.53747  20728030.4154   20728036.0594
      1416.9564       1104.1204
  24171620.0504   -9874051.33947  -7451327.42745  24171616.9624   24171619.6494
      -741.5394       -577.8284
  19857089.0634  -33714735.63749 -26226459.45047  19857086.7134   19857091.4204
      1849.6814       1441.3094
  21675234.2224  -23143344.13348 -15849171.75647  21675232.8744   21675237.4094
       490.4404        382.1624
  21448480.7344  -30325372.11149 -23271440.58147  21448479.1454   21448483.9064
      -853.6164       -665.1564
  22706778.9424  -26129030.37248 -20001025.69946  22706776.1154   22706780.1734
     -1641.2774      -1278.9164
  23629027.7694  -10487204.99147  -7302775.46845  23629024.6694   23629029.1114
      3990.0414       3109.1284
  20211589.4314  -40452123.71849 -30854867.04547  20211587.3454   20211589.0474
       -22.2254        -17.3194
 04 12 12  0 51 29.9980000  0  9G 5G17G13G10G30G24G 4G 6G 2
  21872795.0804  -23903873.81449 -18289158.42947  21872792.6764   21872798.2394
     -1216.7414       -948.1094
  20719952.1524  -34389859.50049 -26497616.30747  20719950.1774   20719955.9224
      1412.3764       1100.5514
  24175893.2844   -9851587.02047  -7433822.76045  24175891.8954   24175893.4194
      -757.4774       -590.2404
  19846576.0734  -33769985.06849 -26269510.94147  19846573.4794   19846578.1814
      1832.2224       1427.7054
  21672481.8034  -23157807.42448 -15860441.86547  21672480.5224   21672484.9324
       472.4364        368.1334
  21453357.1494  -30299752.05549 -23251476.89047  21453354.3884   21453360.3604
      -855.7774       -666.8384
  22716142.8544  -26079811.83548 -19962673.59846  22716141.0964   22716147.0344
     -1641.3344      -1278.9604
  23606245.0994  -10606919.51247  -7396059.45245  23606244.2294   23606249.6994
      3989.6574       3108.8204
  20211730.9384  -40451376.98949 -30854285.17047  20211729.2764   20211731.1634
       -28.9794        -22.5814
 04 12 12  0 51 59.9980000  0  9G 5G17G13G10G30G24G 4G 6G 2
  21879775.5104  -23867190.45249 -18260574.01347  21879773.4354   21879778.9224
     -1228.1184       -956.9744
  20711901.9534  -34432164.20849 -26530580.99247  20711900.0094   20711905.5734
      1408.5854       1097.5984
  24180260.4224   -9828627.04247  -7415931.84845  24180259.6954   24180265.5714
      -772.4974       -601.9454
  19836165.3554  -33824692.15649 -26312139.82947  19836163.0104   19836168.0544
      1815.5734       1414.7324
  21669836.7034  -23171712.65248 -15871277.11247  21669834.9334   21669838.8164
       455.2744        354.7574
  21458247.9074  -30274048.15249 -23231447.87247  21458246.0524   21458251.5204
      -857.1634       -667.9204
  22725512.3364  -26030570.25948 -19924303.55746  22725511.0784   22725516.3384
     -1640.6874      -1278.4574
  23583472.7114  -10726602.90647  -7489319.15945  23583470.2064   23583475.6994
      3989.9584       3109.0614
  20211915.6804  -40450408.45449 -30853530.45847  20211913.5044   20211915.4594
       -34.9254        -27.2144
 04 12 12  0 52 29.9980000  0  9G 5G17G13G10G30G24G 4G 6G 2
  21886831.9304  -23830107.98148 -18231678.60047  21886829.8544   21886835.5654
     -1242.6264       -968.2794
  20703884.9844  -34474295.67449 -26563410.68947  20703882.5074   20703887.6284
      1401.5584       1092.1224
  24184729.4404   -9805155.98047  -7397642.69745  24184727.3284   24184730.6474
      -790.8434       -616.2364
  19825861.7574  -33878839.83349 -26354332.81447  19825859.1884   19825863.8894
      1795.6644       1399.2194
  21667299.8034  -23185043.66548 -15881664.91047  21667298.2554   21667302.4614
       434.8904        338.8774
  21463158.2054  -30248243.71749 -23211340.51547  21463156.3624   21463162.1354
      -861.7584       -671.5004
  22734890.6694  -25981289.00648 -19885902.58846  22734889.0484   22734892.6064
     -1643.2764      -1280.4764
  23560708.0704  -10846236.46047  -7582540.06145  23560705.8324   23560710.6234
      3987.0304       3106.7754
  20212145.1404  -40449201.85249 -30852590.23947  20212143.1834   20212145.4294
       -44.1134        -34.3734
 04 12 12  0 52 59.9980000  0  9G 5G17G13G10G30G24G 4G 6G 2
  21893961.8284  -23792640.72548 -18202483.35747  21893959.6414   21893965.4714
     -1255.7894       -978.5354
  20695898.4224  -34516266.03149 -26596114.84547  20695896.0484   20695900.9444
      1395.8344       1087.6624
  24189290.2624   -9781186.97747  -7378965.51245  24189289.3804   24189292.9884
      -807.6424       -629.3334
  19815661.7784  -33932439.68549 -26396098.91447  19815659.0714   19815664.0744
      1777.0424       1384.7084
  21664868.1074  -23197813.38748 -15891615.35347  21664867.3054   21664872.5524
       415.8664        324.0514
  21468085.9684  -30222351.11949 -23191164.46247  21468083.7954   21468088.9334
      -865.0384       -674.0564
  22744275.5844  -25931980.65748 -19847480.48546  22744273.4704   22744276.3924
     -1644.5304      -1281.4544
  23537948.6294  -10965830.28647  -7675730.02745  23537947.6054   23537952.2844
      3985.3344       3105.4504
  20212417.6974  -40447769.39449 -30851474.03147  20212415.9244   20212418.1904
       -52.0004        -40.5204
 04 12 12  0 53 29.9980000  0  9G 5G17G13G10G30G24G 4G 6G 2
  21901174.5324  -23754738.73248 -18172949.36747  21901172.0554   21901177.7774
     -1268.3194       -988.2994
  20687952.1484  -34558022.86249 -26628652.62447  20687949.8204   20687954.8714
      1390.6274       1083.6054
  24193956.2334   -9756668.66047  -7359860.33445  24193955.1434   24193957.1704
      -824.1624       -642.2044
  19805575.9484  -33985439.07149 -26437397.10947  19805573.3994   19805578.6324
      1758.9174       1370.5834
  21662556.5894  -23209970.14648 -15901088.15747  21662554.6984   21662559.2994
       397.2894        309.5774
  21473040.0844  -30196318.32049 -23170879.15947  21473037.7064   21473042.8514
      -867.8214       -676.2254
  22753673.7474  -25882592.69148 -19808996.34546  22753671.7804   22753674.4404
     -1645.2714      -1282.0294
  23515207.0094  -11085330.03047  -7768846.68045  23515205.9714   23515211.8664
      3984.0504       3104.4544
  20212743.3534  -40446059.08849 -30850141.31947  20212741.3514   20212743.8134
       -59.3704        -46.2634
 04 12 12  0 53 59.9980000  0  9G 5G17G13G10G30G24G 4G 6G 2
  21908459.4764  -23716452.93648 -18143116.31047  21908457.5814   21908463.0904
     -1283.4204      -1000.0684
  20680037.3434  -34599614.67849 -26661061.82147  20680034.9284   20680040.0214
      1382.7884       1077.4964
  24198718.1154   -9731651.13747  -7340366.11545  24198716.0464   24198718.6224
      -843.0974       -656.9574
  19795595.3334  -34037886.37849 -26478265.11847  19795592.8994   19795598.3434
      1738.1814       1354.4264
  21660349.4084  -23221563.21048 -15910121.71747  21660348.0624   21660353.1084
       376.2244        293.1624
  21478010.3934  -30170194.10549 -23150522.62447  21478008.3804   21478013.6674
      -873.1714       -680.3934
  22763076.9334  -25833173.75448 -19770488.06946  22763075.0914   22763079.3814
     -1648.6384      -1284.6514
  23492476.6124  -11204782.11947  -7861926.23245  23492473.9444   23492479.3264
      3980.2144       3101.4704
  20213112.5474  -40444119.60649 -30848630.02747  20213110.2964   20213113.0164
       -69.3364        -54.0284
 04 12 12  0 54 29.9980000  0  9G 5G17G13G10G30G24G 4G 6G 2
  21915820.2624  -23677772.96748 -18112976.09647  21915818.2394   21915823.7204
     -1296.4944      -1010.2554
  20672156.1554  -34641028.51349 -26693332.32847  20672154.1094   20672159.3804
      1376.8334       1072.8564
  24203575.5894   -9706122.55747  -7320473.72445  24203573.3074   24203576.8794
      -860.1254       -670.2264
  19785721.9484  -34089768.15049 -26518692.45047  19785719.8194   19785725.4994
      1719.3244       1339.7324
  21658253.0604  -23232580.41348 -15918706.55847  21658251.6524   21658256.9254
       356.9904        278.1754
  21483001.7044  -30143965.82949 -23130085.00247  21482999.6104   21483004.5184
      -876.6714       -683.1224
  22772488.8634  -25783710.93848 -19731945.61346  22772487.4534   22772492.7504
     -1650.0424      -1285.7464
  23469756.0584  -11324171.74347  -7954957.12245  23469755.1734   23469761.5284
      3978.0564       3099.7814
  20213527.3634  -40441938.30449 -30846930.30947  20213525.5684   20213527.8624
       -77.4284        -60.3344
 04 12 12  0 54 59.9980000  0  9G 5G17G13G10G30G24G 4G 6G 2
  21923258.8234  -23638685.33948 -18082518.21847  21923256.6224   21923262.3134
     -1309.2104      -1020.1634
  20664312.7414  -34682248.19449 -26725451.54747  20664310.4594   20664315.6644
      1371.2284       1068.4884
  24208534.3854   -9680067.87047  -7300171.34945  24208531.4114   24208533.7884
      -876.7784       -683.2144
  19775960.1904  -34141068.17849 -26558666.47347  19775957.7774   19775963.3364
      1700.7604       1325.2674
  21656269.8264  -23243006.52348 -15926830.80447  21656268.0224   21656272.5334
       338.1844        263.5214
  21488015.6834  -30117617.34949 -23109553.71447  21488013.3684   21488018.3044
      -879.8124       -685.5674
  22781911.2994  -25734188.30948 -19693356.56046  22781909.9684   22781916.6444
     -1651.2494      -1286.6864
  23447051.7664  -11443480.57547  -8047925.00845  23447051.8084   23447058.5134
      3976.0964       3098.2554
  20213992.1904  -40439499.22449 -30845029.72347  20213989.7454   20213992.2544
       -85.1454        -66.3474
 04 12 12  0 55 29.9980000  0  9G 5G17G13G10G30G24G 4G 6G 2
  21930763.4794  -23599248.49548 -18051788.23047  21930761.0704   21930766.9874
     -1322.3724      -1030.4194
  20656495.2894  -34723330.13749 -26757463.43547  20656493.0054   20656497.7304
      1365.1084       1063.7204
  24213580.0884   -9653544.88747  -7279504.06245  24213578.4244   24213582.0674
      -893.8844       -696.5344
  19766298.1514  -34191842.48049 -26598230.84147  19766295.8414   19766301.2004
      1681.7264       1310.4364
  21654387.4334  -23252898.72548 -15934539.01647  21654385.6234   21654389.9444
       318.9034        248.4964
  21493041.0894  -30091205.36049 -23088972.92947  21493039.4644   21493044.4744
      -883.4634       -688.4134
  22791336.0304  -25684662.27148 -19654764.87446  22791334.8474   22791341.4474
     -1652.8584      -1287.9404
  23424354.5224  -11562762.94047  -8140872.26445  23424353.3704   23424360.3374
      3973.6664       3096.3614
  20214494.0954  -40436858.91149 -30842972.33047  20214492.1774   20214494.6914
       -93.3604        -72.7484
 04 12 12  0 55 59.9980000  0  9G 5G17G13G10G30G24G 4G 6G 2
  21938349.5874  -23559380.82848 -18020722.54447  21938347.4954   21938353.5814
     -1335.7804      -1040.8674
  20648719.9134  -34764190.10349 -26789302.35747  20648717.4944   20648722.2624
      1358.5714       1058.6274
  24218730.8684   -9626470.68747  -7258407.26245  24218730.9564   24218731.3034
      -911.3454       -710.1444
  19756752.6974  -34242006.74249 -26637319.85947  19756750.1744   19756755.1554
      1662.2464       1295.2574
  21652622.3674  -23262173.70548 -15941766.27247  21652620.8554   21652624.7544
       299.2014        233.1434
  21498095.7574  -30064645.69249 -23068277.07947  21498093.8664   21498098.4894
      -887.5154       -691.5704
  22800778.7484  -25635049.00248 -19616105.19846  22800777.4664   22800781.3774
     -1654.9164      -1289.5444
  23401675.7954  -11681932.70447  -8233731.79045  23401676.4384   23401682.4154
      3970.7274       3094.0714
  20215050.9694  -40433933.55049 -30840692.82447  20215048.8444   20215051.0044
      -101.9984        -79.4804
 04 12 12  0 56 29.9980000  0  9G 5G17G13G10G30G24G 4G 6G 2
  21946006.6884  -23519143.34348 -17989368.68447  21946004.4504   21946010.1584
     -1348.0454      -1050.4234
  20640975.8714  -34804886.55249 -26821013.86347  20640973.3254   20640977.7844
      1353.1274       1054.3844
  24223976.0784   -9598905.40047  -7236927.76345  24223974.7784   24223979.5344
      -927.6784       -722.8734
  19747311.9144  -34291619.16049 -26675978.86647  19747309.2004   19747314.2394
      1643.8544       1280.9254
  21650963.1264  -23270890.98748 -15948558.95147  21650961.8474   21650966.0754
       280.6174        218.6634
  21503166.9314  -30037997.07749 -23047511.90947  21503164.7634   21503170.1354
      -890.4494       -693.8574
  22810226.0264  -25585406.99548 -19577423.11846  22810224.2684   22810227.3304
     -1655.8614      -1290.2814
  23379013.5684  -11801046.44447  -8326547.70045  23379010.4464   23379015.1524
      3968.8404       3092.6024
  20215650.3314  -40430781.94249 -30838237.02147  20215648.5054   20215650.5864
      -109.5184        -85.3384
 04 12 12  0 56 59.9980000  0  9G 5G17G13G10G30G24G 4G 6G 2
  21953739.8314  -23478505.82548 -17957703.10847  21953737.6914   21953742.9534
     -1361.0894      -1060.5894
  20633268.3324  -34845386.70849 -26852572.41847  20633266.2664   20633270.9424
      1346.8304       1049.4784
  24229323.0014   -9570817.25147  -7215040.82045  24229321.7854   24229322.1364
      -944.8734       -736.2644
  19737982.0454  -34340646.36549 -26714181.86447  19737979.6374   19737984.5424
      1624.6154       1265.9324
  21649416.0694  -23279018.29448 -15954891.92247  21649414.9554   21649419.3164
       261.2274        203.5544
  21508261.1524  -30011226.66949 -23026651.85047  21508259.3154   21508264.5214
      -894.2314       -696.8034
  22819683.3854  -25535703.37248 -19538693.00746  22819682.3854   22819685.7474
     -1657.6234      -1291.6544
  23356362.2914  -11920069.11147  -8419292.60445  23356360.4584   23356364.9684
      3966.0484       3090.4294
  20216299.6214  -40427371.11649 -30835579.22747  20216297.5434   20216299.5774
      -117.8974        -91.8694
 04 12 12  0 57 29.9980000  0  9G 5G17G13G10G30G24G 4G 6G 2
  21961540.1964  -23437516.92748 -17925763.72847  21961537.7284   21961542.9884
     -1372.5004      -1069.4804
  20625590.5074  -34885736.32849 -26884013.67147  20625588.1544   20625592.8084
      1342.1164       1045.8044
  24234758.7714   -9542253.74047  -7192783.54645  24234756.5754   24234760.6684
      -960.3654       -748.3404
  19728755.2944  -34389134.37949 -26751964.71447  19728752.8174   19728757.5034
      1606.9424       1252.1634
  21647973.2774  -23286602.69248 -15960801.84047  21647971.7654   21647975.8214
       243.4634        189.7134
  21513370.4064  -29984380.78349 -23005732.97747  21513368.0964   21513373.2834
      -896.4544       -698.5364
  22829144.5934  -25485984.07448 -19499950.68646  22829142.5274   22829146.7754
     -1657.8574      -1291.8384
  23333721.7494  -12039044.49547  -8512000.69745  23333720.0414   23333724.3544
      3964.7114       3089.3854
  20216988.9624  -40423747.43049 -30832755.57247  20216986.9904   20216989.0514
      -124.6844        -97.1564
 04 12 12  0 57 59.9980000  0  9G 5G17G13G10G30G24G 4G 6G 2
  21969410.5564  -23396154.51748 -17893533.30047  21969408.3884   21969414.1614
     -1385.5414      -1079.6404
  20617945.4434  -34925910.93649 -26915318.55947  20617943.2484   20617947.6484
      1335.6204       1040.7424
  24240287.7924   -9513191.64147  -7170137.76545  24240286.6284   24240289.2694
      -977.6734       -761.8294
  19719635.4204  -34437058.54049 -26789308.19647  19719632.8364   19719637.9294
      1587.5044       1237.0164
  21646637.3854  -23293620.68448 -15966270.39947  21646635.9304   21646640.8724
       223.9154        174.4794
  21518496.8274  -29957435.14949 -22984736.37447  21518495.7654   21518500.8804
      -900.4384       -701.6404
  22838612.1334  -25436224.92248 -19461177.32146  22838611.7064   22838616.9514
     -1659.8294      -1293.3724
  23311097.5004  -12157946.08447  -8604651.28545  23311094.9574   23311097.9844
      3961.5464       3086.9164
  20217723.3994  -40419886.84349 -30829747.31847  20217721.5384   20217723.6064
      -133.2454       -103.8274
 04 12 12  0 58 29.9980000  0  8G 5G17G10G30G24G 4G 6G 2
  21977358.3624  -23354388.68748 -17860988.52147  21977356.3344   21977361.9044
     -1400.2534      -1091.1044
  20610340.0134  -34965877.94849 -26946461.67747  20610337.8294   20610342.2364
      1327.3784       1034.3204
  19710629.3724  -34484386.25949 -26826186.91747  19710626.8164   19710631.6824
      1566.2744       1220.4724
  21645415.8074  -23300040.57348 -15971272.91847  21645414.4504   21645419.3184
       202.6824        157.9334
  21523650.4104  -29930357.05649 -22963636.55547  21523648.2684   21523653.2024
      -906.1804       -706.1154
  22848095.5234  -25386393.16248 -19422347.38246  22848093.9824   22848100.5164
     -1663.5944      -1296.3064
  23288491.3584  -12276739.13147  -8697217.27145  23288489.2504   23288493.5564
      3956.5824       3083.0494
  20218510.0314  -40415756.58449 -30826528.92947  20218507.6904   20218509.4954
      -143.5464       -111.8544
 04 12 12  0 58 59.9980000  0  8G 5G17G10G30G24G 4G 6G 2
  21985384.2844  -23312217.43648 -17828127.81947  21985381.4924   21985386.8494
     -1411.3884      -1099.7834
  20602774.4964  -35005633.17549 -26977439.77147  20602772.3324   20602776.8354
      1322.7044       1030.6794
  19701737.1324  -34531113.22649 -26862597.52147  19701734.9674   19701739.8864
      1548.6024       1206.7024
  21644309.5864  -23305859.27748 -15975806.98547  21644307.3584   21644311.9544
       185.0294        144.1784
  21528828.4724  -29903142.63849 -22942430.51547  21528826.6474   21528831.8064
      -908.3614       -707.8144
  22857593.8984  -25336484.80948 -19383457.79146  22857592.0954   22857596.8234
     -1663.7804      -1296.4534
  23265907.8024  -12395417.57847  -8789693.94045  23265904.6164   23265910.6184
      3955.1074       3081.9014
  20219347.7614  -40411352.87149 -30823097.45847  20219345.5614   20219347.1384
      -150.3004       -117.1174
 04 12 12  0 59 29.9980000  0  8G 5G17G10G30G24G 4G 6G 2
  21993461.7614  -23269764.88648 -17795047.93447  21993459.4114   21993465.5824
     -1421.5524      -1107.7024
  20595226.3384  -35045297.94049 -27008347.37547  20595224.2024   20595228.9874
      1318.8554       1027.6794
  19692936.5394  -34577360.78149 -26898634.56147  19692933.9894   19692939.1434
      1531.7884       1193.6004
  21643291.7784  -23311199.42848 -15979968.14247  21643290.5164   21643295.5624
       168.2764        131.1234
  21534009.9884  -29875913.69849 -22921213.15747  21534007.9994   21534012.9214
      -909.6734       -708.8354
  22867082.3054  -25286621.72048 -19344603.44046  22867080.3214   22867086.4634
     -1663.1434      -1295.9564
  23243324.7024  -12514100.77247  -8882174.30945  23243320.4324   23243325.9124
      3954.3904       3081.3454
  20220214.8804  -40406797.53349 -30819547.83647  20220212.6254   20220214.1514
      -156.1774       -121.6974
 04 12 12  0 59 59.9980000  0  9G 5G17G10G30G24G 4G 6G29G 2
  22001612.7594  -23226927.21348 -17761667.94547  22001611.3804   22001617.3144
     -1434.5954      -1117.8664
  20587716.0464  -35084765.53249 -27039101.33747  20587714.1124   20587718.6854
      1312.0024       1022.3384
  19684247.4714  -34623022.24249 -26934214.89847  19684245.0484   19684250.1494
      1512.0114       1178.1904
  21642387.7714  -23315955.36948 -15983674.07147  21642386.2904   21642390.6874
       148.5334        115.7394
  21539214.2594  -29848563.59049 -22899901.37147  21539212.6524   21539217.5084
      -913.9604       -712.1784
  22876584.2014  -25236696.75048 -19305700.88046  22876581.7864   22876586.4604
     -1665.4414      -1297.7464
  23220758.3854  -12632679.99047  -8974573.67445  23220756.3104   23220759.9154
      3950.6334       3078.4134
  23940418.1124     -87928.12144    -46545.18843
      4204.4194       3276.1694
  20221130.6994  -40401983.99849 -30815797.02047  20221128.5804   20221130.3554
      -165.0404       -128.6034
 04 12 12  1  0 29.9980000  0  9G 5G17G10G30G24G 4G 6G29G 2
  22009826.5704  -23183768.74448 -17728037.99447  22009824.4094   22009830.3374
     -1444.7894      -1125.8094
  20580231.7714  -35124098.01749 -27069750.02247  20580229.2704   20580233.6144
      1307.9484       1019.1784
  19675658.2084  -34668159.45649 -26969386.74147  19675655.7374   19675660.6334
      1494.9744       1164.9144
  21641581.8234  -23320190.04048 -15986973.81847  21641580.1954   21641585.0324
       131.6494        102.5854
  21544430.7184  -29821154.34849 -22878543.51547  21544428.7664   21544433.6914
      -915.4804       -713.3624
  22886082.2144  -25186772.16248 -19266798.61646  22886081.0134   22886085.7074
     -1664.9784      -1297.3854
  23198202.2654  -12751214.84947  -9066938.47745  23198199.1964   23198202.6494
      3949.5414       3077.5644
  23916393.0044    -214139.66644   -144932.39843
      4207.5644       3280.7414
  20222084.3584  -40396974.30349 -30811893.35347  20222082.0084   20222083.6654
      -171.1464       -133.3624
 04 12 12  1  0 59.9980000  0  9G 5G17G10G30G24G 4G 6G29G 2
  22018111.3604  -23140228.93548 -17694110.89947  22018109.4934   22018115.1244
     -1456.1024      -1134.6234
  20572784.6394  -35163231.95149 -27100243.99247  20572782.3504   20572786.9054
      1302.7074       1015.0974
  19667181.1664  -34712709.23949 -27004100.84847  19667178.2814   19667182.7994
      1476.7894       1150.7454
  21640886.3574  -23323841.45948 -15989819.08747  21640885.3374   21640889.6574
       113.5924         88.5134
  21549670.2484  -29793622.88449 -22857090.42147  21549667.8874   21549673.0064
      -918.1794       -715.4644
  22895595.2914  -25136784.95948 -19227847.56246  22895592.9924   22895597.9254
     -1665.6634      -1297.9194
  23175665.1294  -12869640.17047  -9159217.94145  23175663.3124   23175666.9654
      3947.2694       3075.7984
  23892381.3524    -340367.19144   -243355.43243
      4209.4364       3282.2414
  20223086.3144  -40391705.60249 -30807787.86647  20223084.4154   20223086.4624
      -178.3824       -138.9994
 04 12 12  1  1 29.9980000  0  9G 5G17G10G30G24G 4G 6G29G 2
  22026463.2864  -23096345.54148 -17659916.06847  22026460.6904   22026465.7464
     -1468.7274      -1144.4624
  20565368.8984  -35202202.71649 -27130610.81747  20565366.4804   20565370.9284
      1296.0314       1009.8954
  19658808.3294  -34756706.77149 -27038384.63447  19658805.9174   19658810.3734
      1457.1244       1135.4214
  21640295.7764  -23326945.96048 -15992238.17846  21640294.4214   21640298.5394
        94.1634         73.3744
  21554925.4734  -29766004.35649 -22835569.48347  21554923.5534   21554928.9064
      -922.3424       -718.7084
  22905112.1194  -25086770.21948 -19188875.03546  22905110.3204   22905113.6884
     -1667.8614      -1299.6344
  23153143.4114  -12987989.10647  -9251437.85545  23153141.6174   23153146.7924
      3943.4494       3072.8154
  23868350.1974    -466642.38544    -40030.68543
      4209.7384       3280.3144
  20224131.8634  -40386213.28449 -30803508.13247  20224129.9074   20224131.6514
      -187.0714       -145.7694
 04 12 12  1  1 59.9980000  0  9G 5G17G10G30G24G 4G 6G29G 2
  22034875.0434  -23052137.35448 -17625468.14247  22034872.7484   22034878.4174
     -1480.1934      -1153.3964
  20557981.0014  -35241026.07449 -27160862.77647  20557978.6864   20557983.0904
      1290.4274       1005.5274
  19650538.5144  -34800168.45849 -27072250.87447  19650535.8364   19650540.0924
      1438.6084       1120.9924
  21639805.6574  -23329520.83048 -15994244.57046  21639804.4054   21639809.0664
        75.8144         59.0744
  21560194.8774  -29738315.12849 -22813993.45747  21560192.8954   21560198.3424
      -925.3424       -721.0454
  22914632.8064  -25036744.11848 -19149893.66746  22914630.6744   22914634.7254
     -1668.8734      -1300.4224
  23130634.6864  -13106275.56747  -9343609.05346  23130632.5694   23130638.8084
      3940.6234       3070.6124
  23844310.5044    -592978.52644   -138474.33745
      4211.0264       3281.3124
  20225216.8864  -40380513.59149 -30799066.80547  20225214.7004   20225216.2054
      -194.6414       -151.6694
 04 12 12  1  2 29.9980000  0  9G 5G17G10G30G24G 4G 6G29G 2
  22043359.5384  -23007549.50748 -17590724.38947  22043357.4384   22043363.3104
     -1492.9034      -1163.3024
  20550632.2114  -35279644.44449 -27190955.00347  20550630.0084   20550634.2014
      1283.5264       1000.1514
  19642380.6914  -34843036.52849 -27105654.55047  19642378.1944   19642382.6334
      1418.7224       1105.4984
  21639427.3794  -23331509.52548 -15995794.20547  21639426.2684   21639431.4184
        56.2304         43.8174
  21565488.0084  -29710497.66149 -22792317.51247  21565486.2124   21565491.6564
      -929.7264       -724.4644
  22924165.4854  -24986648.98248 -19110858.49446  22924163.3524   22924168.3984
     -1671.3114      -1302.3224
  23108150.3354  -13224439.65348  -9435684.91346  23108147.2824   23108153.1384
      3936.4474       3067.3594
  23820267.1704    -719315.12947   -236918.38645  23820265.4664   23820273.3974
      4210.8794       3281.2164
  20226352.2164  -40374549.20449 -30794419.22647  20226349.7454   20226351.4264
      -203.5554       -158.6144
 04 12 12  1  2 59.9980000  0  9G 5G17G10G30G24G 4G 6G29G 2
  22051916.4344  -22962585.74548 -17555687.72247  22051914.2354   22051919.7954
     -1504.3764      -1172.2404
  20543322.1114  -35318058.93849 -27220888.36847  20543319.9154   20543324.1734
      1277.7324        995.6354
  19634335.6294  -34885312.30549 -27138596.69547  19634333.1704   19634337.7234
      1399.9874       1090.8994
  21639160.2284  -23332914.62648 -15996889.09947  21639158.4954   21639163.4084
        37.7814         29.4404
  21570805.1094  -29682553.24049 -22770542.63447  21570803.2754   21570809.0924
      -932.9404       -726.9664
  22933711.7004  -24936486.29948 -19071770.69246  22933709.8024   22933714.2904
     -1672.5304      -1303.2694
  23085685.6074  -13342480.67147  -9527664.87546  23085684.0904   23085689.7994
      3933.3494       3064.9434
  23796228.5454    -845649.90547   -335361.13545  23796226.1794   23796232.6604
      4211.8164       3281.9384
  20227537.0184  -40368321.32549 -30789566.32547  20227534.7894   20227536.4594
      -211.3434       -164.6834
 04 12 12  1  3 29.9980000  0  9G 5G17G10G30G24G 4G 6G29G 2
  22060534.6404  -22917296.70248 -17520397.57947  22060532.7004   22060537.6324
     -1515.5984      -1180.9854
  20536041.9004  -35356317.55349 -27250700.27347  20536039.4644   20536043.7724
      1272.0874        991.2374
  19626394.4314  -34927044.07949 -27171114.94947  19626391.9474   19626396.3824
      1381.4054       1076.4194
  21638995.2124  -23333785.34048 -15997567.58347  21638993.4364   21638998.0044
        19.5774         15.2544
  21576137.9694  -29654530.07649 -22748706.40447  21576136.0664   21576141.2964
      -936.0044       -729.3534
  22943261.8304  -24886304.01148 -19032667.62846  22943259.5164   22943263.8124
     -1673.6024      -1304.1054
  23063238.0314  -13460444.38947  -9619584.62345  23063235.8114   23063241.0584
      3930.2064       3062.4974
  23772178.9704    -972028.15047   -433837.58845  23772176.3084   23772183.1684
      4212.8024       3282.6964
  20228762.9934  -40361878.32549 -30784545.79847  20228760.7204   20228762.4724
      -218.9764       -170.6304
 04 12 12  1  3 59.9980000  0  9G 5G17G10G30G24G 4G 6G29G 2
  22069206.8294  -22871722.16948 -17484884.97747  22069204.9514   22069210.2054
     -1524.6654      -1188.0504
  20528783.9074  -35394457.20749 -27280419.48447  20528781.7154   20528786.1844
      1268.5434        988.4754
  19618549.0444  -34968268.99949 -27203238.25147  19618546.6954   19618551.6044
      1364.9464       1063.5954
  21638923.9244  -23334159.89648 -15997859.45247  21638922.3544   21638926.7714
         3.4734          2.7064
  21581478.8014  -29626465.19749 -22726837.66747  21581476.3184   21581481.7174
      -936.9814       -730.1154
  22952806.0744  -24836139.20448 -18993578.18146  22952804.1304   22952809.3284
     -1672.6194      -1303.3394
  23040798.2034  -13578365.73247  -9711471.37045  23040796.1854   23040800.6384
      3929.2364       3061.7394
  23748116.3294   -1098483.98147   -532374.60945  23748114.1554   23748120.2534
      4215.7414       3284.9984
  20230022.3934  -40355257.41649 -30779386.64147  20230020.6224   20230022.4124
      -224.4734       -174.9154
 04 12 12  1  4 29.9980000  0  9G 5G17G10G30G24G 4G 6G29G 2
  22077948.8754  -22825786.71048 -17449091.13247  22077946.4884   22077951.7604
     -1535.1344      -1196.2084
  20521563.8444  -35432399.91049 -27309985.22847  20521561.4674   20521566.2594
      1263.4934        984.5404
  19610815.6064  -35008909.22749 -27234905.94847  19610813.0814   19610818.2284
      1346.9754       1049.5914
  21638961.3374  -23333961.79048 -15997705.09447  21638959.7984   21638964.2004
       -14.0824        -10.9744
  21586841.3264  -29598280.82049 -22704875.81547  21586839.7524   21586844.6024
      -939.4184       -732.0164
  22962363.4044  -24785913.83148 -18954441.55546  22962361.8784   22962366.1134
     -1673.1094      -1303.7234
  23018381.1824  -13696164.52948  -9803262.59846  23018380.3904   23018386.6774
      3926.6434       3059.7174
  23724050.9724   -1224936.16746   -630908.86945  23724050.9814   23724052.9264
      4217.0234       3285.9954
  20231331.1534  -40348380.88449 -30774028.29847  20231329.1134   20231330.8264
      -231.4324       -180.3374
 04 12 12  1  4 59.9980000  0  9G 5G17G10G30G24G 4G 6G29G 2
  22086751.2144  -22779526.92848 -17413044.57047  22086749.1424   22086754.8004
     -1546.8424      -1205.3284
  20514374.2574  -35470179.28449 -27339423.70047  20514372.2364   20514377.3254
      1257.1184        979.5724
  19603186.5384  -35048998.42949 -27266144.27547  19603184.1514   19603189.6194
      1327.6894       1034.5644
  21639101.4634  -23333225.88348 -15997131.66446  21639099.6974   21639103.8384
       -32.9194        -25.6494
  21592221.3974  -29570010.74649 -22682847.17547  21592219.4934   21592224.2664
      -943.2144       -734.9714
  22971926.2674  -24735661.54148 -18915283.94146  22971924.5544   22971929.4174
     -1674.9314      -1305.1414
  22995983.0954  -13813872.37148  -9894982.92346  22995981.7634   22995988.4594
      3922.6114       3056.5794
  23699984.0654   -1351415.44947   -729464.15045  23699981.6904   23699987.8414
      4216.8954       3285.8874
  20232682.2864  -40341282.38849 -30768496.99447  20232679.7464   20232681.8244
      -239.7714       -186.8344
 04 12 12  1  5 29.9980000  0  9G 5G17G10G30G24G 4G 6G29G 2
  22095628.3364  -22732877.52348 -17376694.40747  22095625.9444   22095632.0254
     -1561.8604      -1217.0324
  20507229.5264  -35507727.37149 -27368681.94747  20507227.2914   20507232.3124
      1247.3474        971.9594
  19595675.7864  -35088469.18849 -27296900.70047  19595673.1804   19595678.5724
      1304.9954       1016.8794
  21639355.7904  -23331885.95048 -15996087.56246  21639354.6004   21639358.8264
       -55.1054        -42.9384
  21597630.2044  -29541587.55449 -22660699.22447  21597628.3844   21597633.1344
      -950.4064       -740.5774
  22981506.7894  -24685314.95348 -18876052.83446  22981505.0044   22981509.7684
     -1680.1754      -1309.2294
  22973614.2504  -13931419.30148  -9986577.88046  22973613.5134   22973619.1684
      3915.1814       3050.7924
  23675922.8044   -1477851.04647   -827985.34645  23675921.6714   23675927.6244
      4213.4274       3283.1854
  20234087.1134  -40333894.69349 -30762740.33847  20234085.5354   20234087.7324
      -251.4864       -195.9634
 04 12 12  1  5 59.9980000  0  9G 5G17G10G30G24G 4G 6G29G 2
  22104575.1924  -22685862.75548 -17340059.54247  22104572.8324   22104578.4304
     -1572.8824      -1225.6234
  20500124.7154  -35545065.73749 -27397776.77547  20500122.0094   20500126.7784
      1241.4674        967.3764
  19588277.7364  -35127343.48749 -27327192.34747  19588275.4824   19588281.1694
      1286.2134       1002.2434
  21639721.6044  -23329964.69048 -15994590.47646  21639720.2444   21639724.6954
       -73.3524        -57.1564
  21603064.5234  -29513032.67749 -22638448.66447  21603062.4754   21603067.4474
      -953.6814       -743.1284
  22991102.7824  -24634895.45848 -18836764.90346  22991101.2244   22991104.2194
     -1681.4894      -1310.2524
  22951274.7144  -14048824.74347 -10078062.61346  22951271.8884   22951275.6354
      3911.5394       3047.9504
  23651867.2894   -1604261.51147   -926486.98545  23651866.0074   23651874.5754
      4213.6534       3283.3574
  20235544.4944  -40326239.31149 -30756775.09947  20235542.2564   20235544.3014
      -259.3034       -202.0554
 04 12 12  1  6 29.9980000  0  9G 5G17G10G30G24G 4G 6G29G 2
  22113574.4584  -22638568.29748 -17303206.74947  22113572.4214   22113578.6234
     -1580.5284      -1231.5794
  20493043.2114  -35582277.22749 -27426772.73347  20493040.8014   20493045.4924
      1238.8354        965.3264
  19580977.7694  -35165704.34049 -27357083.90647  19580975.6694   19580981.4154
      1270.7514        990.1944
  21640182.1694  -23327546.55748 -15992706.22846  21640180.5994   21640184.8444
       -88.2554        -68.7704
  21608507.2974  -29484428.66549 -22616159.81847  21608505.5894   21608510.9304
      -953.7104       -743.1514
  23000693.6614  -24584485.84448 -18797484.68046  23000692.6694   23000696.9104
     -1679.5074      -1308.7064
  22928944.0274  -14166169.35647 -10169499.93245  22928940.9744   22928945.1924
      3911.0634       3047.5824
  23627805.4634   -1730726.51447  -1025031.10545  23627801.5984   23627808.3274
      4217.0044       3285.9754
  20237036.2224  -40318399.38649 -30750666.06047  20237033.9404   20237036.0814
      -263.8354       -205.5864
 04 12 12  1  6 59.9980000  0  9G 5G17G10G30G24G 4G 6G29G 2
  22122633.9544  -22590963.88648 -17266112.42747  22122631.4864   22122636.9064
     -1592.0604      -1240.5664
  20485992.9344  -35619328.76749 -27455644.06147  20485990.3194   20485994.9334
      1232.2494        960.1954
  19573782.6434  -35203519.25749 -27386550.06547  19573779.9534   19573785.7234
      1251.3034        975.0414
  21640742.9614  -23324599.92248 -15990410.16547  21640741.5914   21640745.6484
      -107.1064        -83.4604
  21613965.9844  -29455742.97149 -22593807.32347  21613964.2704   21613969.4904
      -957.6944       -746.2554
  23010291.6374  -24534053.29348 -18758186.58446  23010289.7904   23010295.2484
     -1681.5644      -1310.3094
  22906631.7074  -14283418.05047 -10260862.53046  22906629.8834   22906633.5894
      3906.5614       3044.0764
  23603734.5074   -1857210.13847  -1123589.80145  23603733.3324   23603738.8854
      4216.3274       3285.4494
  20238568.8574  -40310342.23249 -30744387.75047  20238567.2594   20238569.3544
      -272.3324       -212.2074
 04 12 12  1  7 29.9980000  0  9G 5G17G10G30G24G 4G 6G29G 2
  22131754.3374  -22543033.71048 -17228764.26146  22131752.5244   22131757.7294
     -1603.2444      -1249.2804
  20478975.8284  -35656201.64749 -27484376.17547  20478973.7894   20478978.3854
      1225.9354        955.2744
  19566693.7404  -35240769.90849 -27415576.53347  19566691.3114   19566697.1674
      1232.1094        960.0854
  21641407.2584  -23321107.77148 -15987689.02046  21641405.9164   21641410.3974
      -125.6444        -97.9034
  21619444.5884  -29426957.10749 -22571376.78247  21619441.7544   21619447.6514
      -961.3774       -749.1254
  23019896.8274  -24483579.39948 -18718856.30046  23019894.7844   23019899.4494
     -1683.3184      -1311.6764
  22884341.4584  -14400550.04448 -10352134.18846  22884340.7774   22884345.2234
      3902.2954       3040.7454
  23579664.5784   -1983690.77147  -1222146.19945  23579663.9894   23579669.8724
      4215.7234       3284.9764
  20240147.5814  -40302049.32749 -30737925.74047  20240145.1184   20240147.5024
      -280.5364       -218.6004
 04 12 12  1  7 59.9980000  0  9G 5G17G10G30G24G 4G 6G29G 2
  22140933.7724  -22494798.44148 -17191178.36046  22140931.1764   22140936.3504
     -1614.2474      -1257.8534
  20471989.6094  -35692913.67449 -27512982.94547  20471987.4294   20471992.1524
      1219.6874        950.4064
  19559708.5754  -35277474.27649 -27444177.33047  19559706.7434   19559712.4924
      1213.0494        945.2314
  21642172.0474  -23317089.25948 -15984557.72046  21642170.3954   21642175.3904
      -144.0174       -112.2204
  21624936.7384  -29398088.90149 -22548882.07847  21624935.2344   21624941.0554
      -964.9614       -751.9194
  23029504.1914  -24433081.84248 -18679507.57346  23029503.6844   23029508.1344
     -1685.0074      -1312.9924
  22862071.6814  -14517581.02548 -10443327.12746  22862069.5674   22862075.3424
      3898.0574       3037.4484
  23555594.0584   -2110183.04747  -1320711.55345  23555591.9574   23555599.4144
      4215.2824       3284.6244
  20241766.9194  -40293538.77549 -30731294.13447  20241764.5634   20241766.9274
      -288.6504       -224.9224
 04 12 12  1  8 29.9980000  0  9G 5G17G10G30G24G 4G 6G29G 2
  22150173.3024  -22446241.48848 -17153341.80046  22150171.4794   22150176.8924
     -1623.1324      -1264.7784
  20465037.8264  -35729445.50649 -27541449.30447  20465035.4854   20465040.3094
      1215.5164        947.1564
  19552832.0774  -35313613.83249 -27472338.01247  19552829.7764   19552835.4664
      1196.0244        931.9664
  21643039.7694  -23312526.85848 -15981002.60646  21643038.0944   21643043.1134
      -160.3304       -124.9324
  21630449.6884  -29369119.23849 -22526308.31247  21630447.6964   21630453.5784
      -966.5684       -753.1704
  23039122.6124  -24382541.53648 -18640125.52846  23039121.2894   23039127.0954
     -1684.5594      -1312.6444
  22839823.6394  -14634489.41048 -10534424.51346  22839822.0894   22839828.6724
      3895.6944       3035.6034
  23531527.8304   -2236664.98647  -1419268.97845  23531524.5574   23531531.8964
      4216.6344       3285.6934
  20243430.7314  -40284791.49849 -30724478.06247  20243429.1674   20243431.5244
      -294.7424       -229.6704
 04 12 12  1  8 59.9980000  0  9G 5G17G10G30G24G 4G 6G29G 2
  22159464.0504  -22397420.66448 -17115299.63147  22159461.6354   22159467.5284
     -1633.9644      -1273.2164
  20458109.4864  -35765852.18549 -27569818.14347  20458107.6194   20458112.4464
      1209.2374        942.2634
  19546051.6614  -35349243.65249 -27500101.49647  19546049.4154   19546055.4314
      1176.9404        917.0954
  21644000.3474  -23307476.94048 -15977067.60946  21643999.0644   21644003.9504
      -178.6424       -139.2034
  21635971.6964  -29340103.15449 -22503698.38147  21635969.8074   21635974.9524
      -970.1784       -755.9834
  23048739.7554  -24332013.47048 -18600753.03046  23048736.8104   23048740.9664
     -1686.3004      -1313.9984
  22817592.3564  -14751328.11648 -10625467.60946  22817589.6354   22817595.2674
      3891.2384       3032.1364
  23507449.5484   -2363188.07147  -1517858.31545  23507447.9574   23507454.8234
      4215.8724       3285.0984
  20245130.7064  -40275862.50749 -30717520.40047  20245128.4284   20245130.7434
      -302.9084       -236.0334
 04 12 12  1  9 29.9980000  0  9G 5G17G10G30G24G 4G 6G29G 2
  22168821.4764  -22348246.02748 -17076981.77046  22168819.2314   22168825.2414
     -1644.5004      -1281.4294
  20451223.3834  -35802040.63249 -27598016.92947  20451221.2434   20451226.0294
      1203.1784        937.5414
  19539385.9434  -35384271.71249 -27527396.08047  19539383.7074   19539389.7214
      1158.1154        902.4264
  21645071.6954  -23301848.53048 -15972681.84946  21645070.3734   21645074.7564
      -196.6924       -153.2674
  21641520.0544  -29310948.13849 -22480980.17747  21641517.6894   21641522.5804
      -973.6244       -758.6684
  23058368.4184  -24281404.77648 -18561317.69146  23058367.0634   23058371.7944
     -1687.6944      -1315.0864
  22795388.7094  -14868002.28448 -10716382.52646  22795387.3384   22795391.9094
      3886.9874       3028.8214
  23483384.3954   -2489656.83747  -1616405.41245  23483381.7394   23483389.1864
      4215.2254       3284.5864
  20246881.5044  -40266659.70749 -30710349.37747  20246879.7444   20246882.1544
      -310.8004       -242.1834
 04 12 12  1  9 59.9980000  0  9G 5G17G10G30G24G 4G 6G29G 2
  22178240.5534  -22298748.94748 -17038412.64246  22178238.4024   22178244.1824
     -1655.1704      -1289.7424
  20444372.9324  -35838039.38749 -27626067.90247  20444370.8934   20444375.9464
      1196.8684        932.6244
  19532829.8394  -35418726.49849 -27554243.95247  19532827.2754   19532833.1234
      1139.0544        887.5744
  21646247.4524  -23295671.50048 -15967868.58346  21646246.1674   21646250.1654
      -214.9394       -167.4854
  21647088.8484  -29281682.57549 -22458175.83247  21647086.7104   21647091.2774
      -977.2864       -761.5224
  23068009.9674  -24230744.24348 -18521841.93946  23068007.5604   23068011.4814
     -1689.4304      -1316.4414
  22773213.8754  -14984538.27947 -10807189.80446  22773211.4214   22773214.2074
      3882.3784       3025.2264
  23459323.2334   -2616096.49047  -1714929.77745  23459321.6264   23459327.5874
      4214.2324       3283.8214
  20248680.2844  -40257211.49049 -30702987.12347  20248677.8774   20248679.8054
      -318.9634       -248.5434
 04 12 12  1 10 29.9980000  0  9G 5G17G10G30G24G 4G 6G29G 2
  22187717.8914  -22248947.45048 -16999606.30846  22187715.1474   22187720.8664
     -1663.9164      -1296.5554
  20437555.9544  -35873863.68649 -27653982.93747  20437553.5024   20437558.6884
      1192.4034        929.1464
  19526379.1364  -35452624.18649 -27580657.72147  19526376.6764   19526382.7714
      1121.8204        874.1464
  21647524.0554  -23288962.85548 -15962641.06946  21647522.7544   21647526.5794
      -231.2544       -180.1984
  21652675.8794  -29252321.99249 -22435297.44947  21652673.9764   21652678.3614
      -979.0974       -762.9334
  23077658.3674  -24180046.99648 -18482337.59546  23077655.7344   23077658.1384
     -1689.3064      -1316.3394
  22751061.9984  -15100949.04948 -10897899.48446  22751058.9054   22751063.1174
      3879.4144       3022.9184
  23435264.9114   -2742519.41447  -1813441.16345  23435264.0034   23435269.3214
      4214.9974       3284.4104
  20250521.5804  -40247533.29549 -30695445.66547  20250519.6104   20250521.3954
      -325.2764       -253.4614
 04 12 12  1 10 59.9980000  0  9G 5G17G10G30G24G 4G 6G29G 2
  22197248.8354  -22198861.09148 -16960578.00546  22197246.3624   22197251.8564
     -1676.3544      -1306.2494
  20430768.9334  -35909530.32149 -27681775.11347  20430766.4864   20430771.7684
      1184.1584        922.7194
  19520031.4894  -35485982.33149 -27606651.07347  19520028.8444   19520034.6894
      1100.8504        857.8044
  21648898.9254  -23281741.38548 -15957013.95946  21648897.0654   21648901.0814
      -251.3034       -195.8214
  21658277.8394  -29222883.67049 -22412358.47847  21658276.1434   21658280.6854
      -984.6674       -767.2734
  23087307.6814  -24129330.32048 -18442818.11546  23087305.2564   23087310.7714
     -1692.9324      -1319.1644
  22728929.1004  -15217249.44248 -10988523.11746  22728927.3054   22728933.6314
      3872.7404       3017.7164
  23411208.9964   -2868939.60647  -1911950.41645  23411206.6104   23411211.7934
      4211.8724       3281.9814
  20252403.4354  -40237642.71849 -30687738.71447  20252401.5434   20252403.7414
      -335.3294       -261.2964
 04 12 12  1 11 29.9980000  0  9G 5G17G10G30G24G 4G 6G29G 2
  22206849.0354  -22148418.25948 -16921271.92246  22206845.7114   22206850.9574
     -1685.6624      -1313.5044
  20424026.0004  -35944964.66049 -27709386.28347  20424023.5224   20424028.7074
      1178.9444        918.6574
  19513800.4144  -35518726.53048 -27632166.02447  19513797.5724   19513803.6804
      1082.9424        843.8504
  21650384.6494  -23273933.79448 -15950930.12946  21650382.8774   21650387.3724
      -268.2934       -209.0594
  21663907.4804  -29193292.71549 -22389300.58647  21663906.4454   21663911.9344
      -987.2264       -769.2694
  23096976.0684  -24078519.11548 -18403224.98546  23096974.5634   23096979.8564
     -1693.5634      -1319.6614
  22706832.9814  -15333362.69348 -11079000.92346  22706830.9664   22706837.3804
      3868.9944       3014.7974
  23387167.6114   -2995279.34147  -2010396.98145  23387165.0274   23387170.6324
      4211.7034       3281.8424
  20254340.5394  -40227465.03549 -30679808.04847  20254338.5054   20254340.6784
      -342.3824       -266.7924
 04 12 12  1 11 59.9980000  0  9G 5G17G10G30G24G 4G 6G29G 2
  22216498.6234  -22097701.54448 -16881752.42946  22216496.6294   22216502.3064
     -1695.7254      -1321.3424
  20417312.1704  -35980246.45849 -27736878.59047  20417309.7304   20417314.7134
      1172.8304        913.8924
  19507670.5644  -35550937.29148 -27657265.31047  19507668.1664   19507674.1234
      1064.1754        829.2264
  21651965.9924  -23265621.66048 -15944453.15046  21651964.3884   21651968.9104
      -286.1054       -222.9394
  21669554.6164  -29163628.98249 -22366185.98447  21669551.6444   21669556.9974
      -990.6584       -771.9424
  23106648.4964  -24027693.64948 -18363620.74046  23106646.8584   23106651.8654
     -1695.0634      -1320.8264
  22684758.4284  -15449365.96848 -11169393.04746  22684757.0474   22684761.9794
      3864.3074       3011.1474
  23363125.9134   -3121615.02447  -2108840.32945  23363124.9394   23363130.4824
      4210.5024       3280.9084
  20256317.0284  -40217080.17549 -30671715.94447  20256314.8924   20256316.6604
      -350.2794       -272.9454
 04 12 12  1 12 29.9980000  0  9G 5G17G10G30G24G 4G 6G29G 2
  22226202.5334  -22046710.15148 -16842018.90246  22226199.7424   22226205.9004
     -1702.3544      -1326.5104
  20410627.6774  -36015371.89449 -27764249.05647  20410625.4344   20410630.4324
      1170.1444        911.8014
  19501643.6084  -35582611.35949 -27681946.39047  19501640.9994   19501646.8144
      1048.7694        817.2234
  21653644.6614  -23256803.19848 -15937581.62746  21653642.8744   21653646.7874
      -300.4384       -234.1064
  21675212.0174  -29133888.66749 -22343011.71647  21675210.7084   21675216.8124
      -990.7004       -771.9744
  23116323.7974  -23976850.19148 -18324002.49146  23116322.2204   23116327.0164
     -1693.1624      -1319.3464
  22662706.7584  -15565254.02048 -11259695.43446  22662704.7704   22662708.6574
      3862.9034       3010.0544
  23339087.4734   -3247940.27647  -2207275.58845  23339085.5154   23339092.5494
      4212.5614       3282.5144
  20258332.9804  -40206484.67149 -30663459.70547  20258331.1274   20258333.1514
      -354.8004       -276.4674
 04 12 12  1 12 59.9980000  0  9G 5G17G10G30G24G 4G 6G29G 2
  22235954.1944  -21995465.23348 -16802087.83046  22235951.1814   22235957.1124
     -1713.7484      -1335.3874
  20403970.0504  -36050359.11049 -27791511.81947  20403967.5874   20403972.7474
      1162.5284        905.8654
  19495715.0554  -35613767.95849 -27706224.24847  19495712.6014   19495717.8134
      1028.5564        801.4724
  21655414.9554  -23247498.37748 -15930331.11846  21655413.3794   21655417.2014
      -319.6324       -249.0634
  21680884.2894  -29104090.41849 -22319792.30847  21680881.2264   21680887.4214
      -995.6544       -775.8354
  23125999.7134  -23926006.92348 -18284384.36546  23125997.4944   23126002.1044
     -1696.1144      -1321.6464
  22640672.1874  -15681042.64148 -11349920.30046  22640670.1854   22640675.7324
      3856.5394       3005.0964
  23315048.7194   -3374270.07447  -2305714.35245  23315045.9074   23315051.1734
      4209.7014       3280.2904
  20260385.0044  -40195697.29249 -30655053.95047  20260383.5404   20260385.9494
      -364.1684       -283.7674
 04 12 12  1 13 29.9980000  0  9G 5G17G10G30G24G 4G 6G29G 2
  22245772.0774  -21943867.69848 -16761881.98546  22245770.0344   22245775.5184
     -1725.0434      -1344.1904
  20397357.8374  -36085106.23149 -27818587.49047  20397355.3944   20397360.6374
      1154.9274        899.9434
  19489903.7414  -35644305.66848 -27730019.85747  19489901.1944   19489906.4134
      1008.3274        785.7094
  21657296.7734  -23237607.04348 -15922623.58346  21657295.7054   21657300.0524
      -338.7404       -263.9534
  21686584.5634  -29074132.33449 -22296448.34547  21686582.3704   21686587.7304
     -1000.5254       -779.6314
  23135692.9434  -23875062.11047 -18244687.13046  23135690.5954   23135696.1764
     -1699.0974      -1323.9724
  22618678.4834  -15796627.48548 -11439986.38046  22618675.7564   22618680.4464
      3850.1574       3000.1214
  23291027.5234   -3500499.66147  -2404075.11545  23291025.1154   23291029.7914
      4206.6994       3277.9434
  20262494.4284  -40184616.14149 -30646419.28547  20262492.0794   20262494.6054
      -373.5634       -291.0884
 04 12 12  1 13 59.9980000  0  9G 5G17G10G30G24G 4G 6G29G 2
  22255641.0024  -21892006.79248 -16721470.92846  22255639.0244   22255644.4264
     -1733.7504      -1350.9724
  20390774.8914  -36119699.36749 -27845543.17647  20390772.4144   20390777.6194
      1149.8304        895.9724
  19484193.7144  -35674311.59648 -27753401.08647  19484191.2634   19484196.5894
       990.6784        771.9564
  21659274.4474  -23227217.28248 -15914527.66546  21659272.7924   21659277.4064
      -355.2784       -276.8404
  21692298.4144  -29044100.71048 -22273047.07747  21692296.7934   21692302.3134
     -1002.9834       -781.5464
  23145390.8714  -23824101.71647 -18204977.74546  23145389.3114   23145392.3764
     -1699.6424      -1324.3934
  22596704.8974  -15912092.99348 -11529959.48446  22596702.8334   22596707.9294
      3846.1264       2996.9784
  23267008.7134   -3626712.17547  -2502422.56845  23267007.7644   23267011.4634
      4206.0874       3277.4714
  20264642.3454  -40173327.70549 -30637623.10047  20264640.2244   20264642.2464
      -380.4534       -296.4574
 04 12 12  1 14 29.9980000  0  9G 5G17G10G30G24G 4G 6G29G 2
  22265562.7164  -21839872.06348 -16680846.48846  22265559.8574   22265565.5794
     -1744.2224      -1359.1364
  20384223.5324  -36154125.38649 -27872368.64447  20384221.3994   20384226.4774
      1142.8534        890.5354
  19478587.6454  -35703773.01248 -27776358.02947  19478584.9494   19478590.0034
       971.1064        756.7054
  21661348.2184  -23216317.83948 -15906034.60046  21661346.4364   21661351.8214
      -373.6554       -291.1594
  21698030.1624  -29013982.68948 -22249578.48247  21698028.4784   21698032.9874
     -1007.2714       -784.8874
  23155094.6424  -23773113.14847 -18165246.38046  23155091.6334   23155095.2234
     -1701.9684      -1326.2114
  22574756.2424  -16027423.71348 -11619827.55246  22574755.8864   22574760.7024
      3840.2844       2992.4284
  23242999.6484   -3752891.70947  -2600744.40545  23242995.6164   23243002.7064
      4203.5854       3275.5294
  20266832.1014  -40161819.03949 -30628655.30747  20266830.2114   20266832.1224
      -389.1874       -303.2634
 04 12 12  1 14 59.9980000  0  9G 5G17G10G30G24G 4G 6G29G 2
  22275538.3494  -21787447.93148 -16639996.53846  22275536.1934   22275541.4794
     -1752.1944      -1365.3454
  20377708.4724  -36188365.30949 -27899049.10047  20377705.9384   20377710.9384
      1138.2734        886.9684
  19473087.7224  -35732672.08848 -27798876.78047  19473085.4694   19473090.6484
       954.0444        743.4114
  21663521.9594  -23204891.50948 -15897130.98646  21663520.4564   21663526.3354
      -389.5134       -303.5174
  21703782.0654  -28983759.48648 -22226027.92347  21703779.4224   21703783.7034
     -1009.1254       -786.3314
  23164805.4644  -23722077.52748 -18125478.34246  23164803.9654   23164809.1414
     -1701.8754      -1326.1364
  22552840.0054  -16142598.47348 -11709574.08646  22552838.7304   22552844.5414
      3836.6304       2989.5834
  23218997.4144   -3879014.87547  -2699021.89945  23218995.8734   23219000.5904
      4203.2984       3275.2844
  20269067.9674  -40150071.60649 -30619501.46247  20269065.7664   20269067.6004
      -395.4644       -308.1524
 04 12 12  1 15 29.9980000  0  9G 5G17G10G30G24G 4G 6G29G 2
  22285564.7424  -21734757.06448 -16598938.74746  22285562.7004   22285568.1814
     -1761.5484      -1372.6344
  20371223.8944  -36222439.09849 -27925600.10147  20371221.6504   20371227.0874
      1132.2504        882.2734
  19467692.1204  -35761029.46248 -27820973.42347  19467689.6244   19467694.3794
       935.4614        728.9294
  21665792.6434  -23192960.40448 -15887834.03746  21665791.3554   21665796.6384
      -406.8914       -317.0554
  21709549.0324  -28953450.72648 -22202410.69447  21709546.8454   21709551.4874
     -1012.4844       -788.9494
  23174522.9394  -23671014.46648 -18085688.96546  23174521.0814   23174525.5554
     -1703.2674      -1327.2204
  22530949.2424  -16257635.31648 -11799213.15146  22530947.4544   22530953.8824
      3831.4994       2985.5824
  23195004.6244   -4005100.46547  -2797270.29645  23195001.4764   23195009.8684
      4201.4534       3273.8594
  20271344.4414  -40138105.62449 -30610177.31847  20271342.7764   20271344.4634
      -403.3024       -314.2624
 04 12 12  1 15 59.9980000  0  9G 5G17G10G30G24G 4G 6G29G 2
  22295645.4784  -21681783.79748 -16557660.90146  22295643.0584   22295648.6024
     -1769.0724      -1378.4964
  20364775.2234  -36256327.90549 -27952006.95747  20364772.7554   20364778.2004
      1127.9474        878.9204
  19462402.2764  -35788827.17448 -27842633.97147  19462399.7674   19462404.5064
       918.6794        715.8554
  21668162.6144  -23180507.62648 -15878130.58046  21668160.9344   21668165.9774
      -422.3304       -329.0884
  21715335.8644  -28923037.99348 -22178712.45947  21715334.0654   21715339.0284
     -1014.0674       -790.1824
  23184248.3754  -23619905.92048 -18045864.14846  23184246.4294   23184251.4944
     -1702.9724      -1326.9864
  22509089.2814  -16372513.20648 -11888728.36546  22509087.9214   22509092.8914
      3828.0294       2982.8804
  23171023.1154   -4131126.06047  -2895472.08445  23171019.9564   23171025.8784
      4201.2664       3273.7134
  20273667.1314  -40125902.61549 -30600668.47647  20273665.2734   20273666.4984
      -409.3094       -318.9434
 04 12 12  1 16 29.9980000  0  9G 5G17G10G30G24G 4G 6G29G 2
  22305771.2294  -21628571.91148 -16516197.12546  22305768.7614   22305774.3034
     -1778.8024      -1386.0794
  20358353.7574  -36290072.85849 -27978301.72747  20358351.2314   20358356.5424
      1121.2804        873.7254
  19457211.2414  -35816107.16748 -27863891.09347  19457208.6404   19457213.3944
       899.5664        700.9614
  21670622.9454  -23167576.40248 -15868054.31546  21670621.4624   21670626.0564
      -440.1184       -342.9504
  21721135.9444  -28892562.59848 -22154965.39447  21721133.8464   21721138.8514
     -1018.0544       -793.2894
  23193973.5274  -23568792.68048 -18006035.67646  23193972.0534   23193977.5244
     -1704.9664      -1328.5464
  22487251.8114  -16487271.20748 -11978150.17746  22487249.6564   22487253.8914
      3822.0994       2978.2574
  23147043.8204   -4257129.68347  -2993656.76845  23147042.9674   23147047.3334
      4198.5914       3271.6244
  20276027.1034  -40113503.88949 -30591007.12547  20276024.4574   20276025.6554
      -417.6924       -325.4754
 04 12 12  1 16 59.9980000  0  9G 5G17G10G30G24G 4G 6G29G 2
  22315948.4584  -21575094.75648 -16474526.63846  22315945.6424   22315951.5094
     -1787.6274      -1392.9554
  20351965.4944  -36323644.20349 -28004461.21747  20351963.0364   20351968.3404
      1115.4634        869.1924
  19452124.0944  -35842840.59948 -27884722.32847  19452121.2884   19452125.9664
       881.3514        686.7674
  21673180.8414  -23154138.84248 -15857583.50046  21673179.0754   21673183.4164
      -456.9364       -356.0544
  21726952.3504  -28861994.90648 -22131146.41347  21726950.3914   21726955.9804
     -1021.1204       -795.6784
  23203707.6404  -23517645.19748 -17966180.52346  23203706.7074   23203710.1594
     -1706.0954      -1329.4224
  22465441.8874  -16601877.26448 -12067453.59346  22465440.7824   22465445.9464
      3816.9884       2974.2754
  23123077.6814   -4383078.36247  -3091798.45745  23123075.1844   23123081.2714
      4196.7254       3270.1694
  20278428.8114  -40100880.09349 -30581170.39347  20278426.8164   20278428.2404
      -425.1944       -331.3214
 04 12 12  1 17 29.9980000  0  9G 5G17G10G30G24G 4G 6G29G 2
  22326174.8764  -21521352.63848 -16432649.68246  22326172.2594   22326177.8344
     -1795.8084      -1399.3304
  20345610.3824  -36357039.07249 -28030483.19547  20345608.1094   20345613.3994
      1110.2114        865.1004
  19447140.9374  -35869025.39948 -27905126.05747  19447138.4664   19447143.5344
       863.6814        672.9994
  21675833.8914  -23140194.22748 -15846717.58046  21675832.5604   21675836.5394
      -473.2044       -368.7324
  21732788.6074  -28831332.22348 -22107253.41947  21732786.0084   21732790.8564
     -1023.6944       -797.6824
  23213447.9244  -23466460.87047 -17926296.64046  23213445.6074   23213449.4844
     -1706.7764      -1329.9554
  22443664.2094  -16716326.32748 -12156634.64246  22443662.5664   22443668.0394
      3812.3464       2970.6574
  23099122.1584   -4508966.95547  -3189893.49945  23099119.2114   23099126.2054
      4195.1964       3268.9764
  20280874.2274  -40088028.81849 -30571156.40747  20280872.1154   20280873.9164
      -432.1924       -336.7734
 04 12 12  1 17 59.9980000  0  9G 5G17G10G30G24G 4G 6G29G 2
  22336452.3754  -21467337.96048 -16390560.35546  22336450.8854   22336456.5874
     -1804.8074      -1406.3424
  20339291.2304  -36390246.85549 -28056359.38747  20339289.0634   20339294.4264
      1103.9724        860.2384
  19442264.1184  -35894652.20248 -27925094.98547  19442261.8824   19442266.7374
       845.1124        658.5284
  21678586.3844  -23125734.01748 -15835449.89446  21678584.5194   21678587.7264
      -490.3984       -382.1284
  21738642.0084  -28800564.14848 -22083278.29347  21738640.6954   21738645.8324
     -1027.1864       -800.4064
  23223196.7204  -23415229.10247 -17886375.77346  23223195.2914   23223198.9664
     -1708.3504      -1331.1794
  22421917.4924  -16830605.87548 -12245683.59246  22421915.1544   22421921.3424
      3806.6824       2966.2464
  23075179.7684   -4634781.12247  -3287930.36645  23075178.4004   23075184.7724
      4192.7544       3267.0804
  20283364.8864  -40074939.61249 -30560957.02047  20283362.8384   20283365.0104
      -440.1204       -342.9504
 04 12 12  1 18 29.9980000  0  9G 5G17G10G30G24G 4G 6G29G 2
  22346784.3824  -21413046.38148 -16348255.25246  22346782.2954   22346787.2754
     -1815.0134      -1414.2954
  20333008.7254  -36423259.83449 -28082083.78147  20333006.7474   20333012.1084
      1096.4824        854.4014
  19437495.3394  -35919714.18848 -27944623.79347  19437492.6074   19437497.3924
       825.3314        643.1154
  21681437.3064  -23110752.75448 -15823776.18346  21681435.4224   21681438.8264
      -508.7464       -396.4264
  21744519.4214  -28769683.32748 -22059215.31447  21744516.8414   21744522.2644
     -1031.9394       -804.1084
  23232956.2314  -23363942.45348 -17846412.14346  23232955.4724   23232958.4644
     -1711.1474      -1333.3624
  22400205.1034  -16944706.07348 -12334592.81546  22400203.4324   22400208.2994
      3799.7124       2960.8154
  23051253.7624   -4760510.88647  -3385901.59545  23051252.2574   23051257.9924
      4188.8824       3264.0644
  20285902.5524  -40061605.21749 -30550566.58247  20285900.4784   20285902.8634
      -449.2584       -350.0724
 04 12 12  1 18 59.9980000  0  9G 5G17G10G30G24G 4G 6G29G 2
  22357154.9944  -21358551.37448 -16305791.63646  22357152.4654   22357157.5824
     -1820.5634      -1418.6214
  20326750.7454  -36456148.83749 -28107711.57147  20326748.2704   20326753.5624
      1093.5154        852.0894
  19432819.9554  -35944283.18749 -27963768.45947  19432817.5334   19432822.1554
       810.0664        631.2204
  21684373.0564  -23095323.22548 -15811753.17946  21684371.5884   21684375.0404
      -522.4474       -407.1004
  21750402.9224  -28738760.50948 -22035119.61347  21750401.3304   21750406.1754
     -1032.1374       -804.2644
  23242712.0674  -23312671.65647 -17806460.86546  23242710.8304   23242715.5244
     -1709.4194      -1332.0164
  22378515.3104  -17058695.41848 -12423415.68446  22378512.0114   22378515.7664
      3797.0784       2958.7614
  23027330.7874   -4886223.52947  -3483859.46845  23027329.5154   23027334.6814
      4189.4484       3264.5024
  20288472.8344  -40048096.81049 -30540040.54847  20288470.7884   20288473.7794
      -453.8934       -353.6834
 04 12 12  1 19 29.9980000  0  9G 5G17G10G30G24G 4G 6G29G 2
  22367574.9204  -21303793.28748 -16263123.01146  22367572.7054   22367577.9674
     -1829.2164      -1425.3624
  20320527.6704  -36488851.13049 -28133193.87247  20320525.1054   20320530.6534
      1087.3624        847.2954
  19428249.5024  -35968297.46949 -27982480.88047  19428247.1044   19428252.4034
       791.6344        616.8594
  21687406.4344  -23079384.75448 -15799333.59846  21687404.6634   21687408.5444
      -539.3214       -420.2494
  21756307.5024  -28707732.78648 -22010942.15747  21756305.6804   21756310.4484
     -1035.6124       -806.9724
  23252477.6844  -23261354.14448 -17766473.20346  23252476.2304   23252481.1364
     -1710.9074      -1333.1744
  22356855.1364  -17172509.01248 -12512101.57446  22356853.6084   22356858.4044
      3791.2814       2954.2454
  23003426.7224   -5011853.65447  -3581753.06145  23003423.1144   23003428.8404
      4186.6784       3262.3534
  20291087.8974  -40034351.68449 -30529330.06047  20291086.4774   20291089.0354
      -461.7424       -359.8004
 04 12 12  1 19 59.9980000  0  9G 5G17G10G30G24G 4G 6G29G 2
  22378044.8654  -21248771.07948 -16220248.58946  22378042.7654   22378048.7244
     -1836.2764      -1430.8644
  20314340.4274  -36521362.54249 -28158527.43347  20314338.2914   20314344.0204
      1082.6884        843.6534
  19423786.5554  -35991753.84749 -28000758.57547  19423783.8824   19423788.9164
       774.7674        603.7154
  21690536.5204  -23062935.74548 -15786516.20546  21690534.6504   21690538.9204
      -554.6214       -432.1714
  21762232.4114  -28676596.41448 -21986680.05447  21762230.3484   21762235.2284
     -1037.5084       -808.4484
  23262252.1084  -23209986.02847 -17726446.11546  23262250.6874   23262256.7544
     -1710.8774      -1333.1514
  22335232.8304  -17286140.85548 -12600645.82746  22335230.3504   22335234.6244
      3786.8934       2950.8244
  22979534.8314   -5137393.98947  -3679576.68645  22979533.6284   22979540.2054
      4185.3574       3261.3154
  20293750.2674  -40020366.15249 -30518432.24747  20293747.8214   20293750.5734
      -468.0234       -364.6934
 04 12 12  1 20 29.9970000  0  9G 5G17G10G30G24G 4G 6G29G 2
  22388554.7274  -21193540.13948 -16177211.53146  22388552.1674   22388558.8804
     -1846.2904      -1438.6664
  20308180.5304  -36553732.40449 -28183750.69547  20308178.5574   20308184.0914
      1074.9424        837.6174
  19419419.2434  -36014703.00149 -28018641.02547  19419416.5834   19419421.8354
       754.8204        588.1724
  21693753.3094  -23046029.12948 -15773342.23046  21693751.4194   21693756.2194
      -572.8954       -446.4124
  21768168.4974  -28645403.06848 -21962373.54847  21768166.4184   21768171.2934
     -1042.5234       -812.3554
  23272026.6254  -23158619.56148 -17686420.33546  23272026.1974   23272031.1134
     -1713.9494      -1335.5414
  22313635.0884  -17399635.22848 -12689082.97846  22313632.5594   22313637.3014
      3779.3204       2944.9244
  22955656.3644   -5262887.60847  -3777363.84645  22955653.9744   22955659.6264
      4180.8214       3257.7824
  20296446.9584  -40006191.51549 -30507387.07547  20296444.9084   20296447.9914
      -477.3924       -371.9944
 04 12 12  1 20 59.9970000  0 10G 5G17G10G30G24G 4G 6G29G26G 2
  22399116.4514  -21138044.88048 -16133968.50346  22399113.6084   22399119.3734
     -1853.8424      -1444.5514
  20302058.1444  -36585907.77249 -28208822.41147  20302055.9244   20302061.1504
      1069.5594        833.4234
  19415158.9624  -36037092.62149 -28036087.47747  19415156.3304   19415161.1904
       737.3184        574.5334
  21697067.8054  -23028610.97348 -15759769.65346  21697066.2514   21697070.8404
      -588.7604       -458.7744
  21774125.6844  -28614095.97748 -21937978.40947  21774124.1854   21774128.8194
     -1045.1244       -814.3834
  23281813.5644  -23107196.27148 -17646350.25146  23281812.4464   23281817.1264
     -1714.6614      -1336.1014
  22292072.2514  -17512942.53448 -12777374.35746  22292071.1314   22292076.4204
      3774.0524       2940.8194
  22931793.5604   -5388285.20547  -3875076.29645  22931791.3374   22931796.7594
      4178.5544       3256.0174
  23853593.5894   -4427472.87947  -1772153.68445  23853591.9334   23853598.1634
      4677.3974       3644.7294
  20299191.3044  -39991771.96649 -30496151.06647  20299188.8484   20299191.5384
      -484.4174       -377.4684
 04 12 12  1 21 29.9970000  0 10G 5G17G10G30G24G 4G 6G29G26G 2
  22409718.7314  -21082328.94848 -16090553.51146  22409716.3564   22409720.8794
     -1860.7844      -1449.9594
  20295965.0794  -36617926.18749 -28233771.82147  20295962.7644   20295968.5074
      1064.6714        829.6134
  19410997.2334  -36058961.72249 -28053128.32547  19410994.5224   19410999.5514
       720.3754        561.3314
  21700471.0664  -23010722.69248 -15745830.75746  21700469.7504   21700474.6664
      -603.9654       -470.6214
  21780097.7364  -28582714.53748 -21913525.33347  21780096.0354   21780101.1804
     -1047.2394       -816.0314
  23291601.0654  -23055756.70048 -17606267.50646  23291600.1124   23291604.3944
     -1714.8374      -1336.2374
  22270541.5094  -17626095.37148 -12865545.38446  22270539.5094   22270543.9164
      3769.2374       2937.0694
  22907944.0244   -5513617.59547  -3972737.87545  22907940.6054   22907945.7454
      4176.7314       3254.5994
  23826880.6544   -4567848.25047  -1881537.09145  23826878.5364   23826883.6854
      4680.6114       3647.2254
  20301974.4374  -39977146.89349 -30484754.90347  20301972.2084   20301974.2054
      -490.9014       -382.5214
 04 12 12  1 21 59.9970000  0 10G 5G17G10G30G24G 4G 6G29G26G 2
  22420368.0604  -21026361.66848 -16046942.66546  22420365.9524   22420370.6024
     -1869.6704      -1456.8844
  20289908.3484  -36649754.07749 -28258572.76647  20289906.0654   20289912.1514
      1057.7794        824.2434
  19406940.7954  -36080277.73749 -28069738.19247  19406938.2554   19406943.1094
       701.3624        546.5174
  21703970.7684  -22992332.88748 -15731501.07546  21703969.4214   21703974.1544
      -621.2514       -484.0894
  21786090.2444  -28551225.37648 -21888988.32147  21786088.0644   21786093.4444
     -1051.3754       -819.2524
  23301402.0384  -23004267.58547 -17566146.08346  23301399.3244   23301402.4044
     -1717.0754      -1337.9814
  22249043.1234  -17739057.97548 -12953568.18146  22249042.2854   22249047.1094
      3762.3174       2931.6744
  22884110.5664   -5638849.09247  -4070320.84745  22884109.4974   22884114.8494
      4172.7414       3251.4854
  23800159.8064   -4708274.05047  -1990959.85745  23800157.1514   23800165.0774
      4681.7294       3648.1104
  20304802.2784  -39962283.16249 -30473172.76847  20304800.6654   20304802.5104
      -499.3954       -389.1394
 04 12 12  1 22 29.9970000  0 10G 5G17G10G30G24G 4G 6G29G26G 2
  22431059.9024  -20970173.69448 -16003159.84946  22431057.9804   22431063.2654
     -1877.8734      -1463.2754
  20283883.0374  -36681419.33049 -28283246.99147  20283880.4654   20283886.3594
      1051.5044        819.3554
  19402984.4614  -36101069.67049 -28085939.69347  19402981.9354   19402986.7034
       683.0764        532.2664
  21707560.1234  -22973471.82848 -15716804.18246  21707558.5534   21707563.4534
      -637.7884       -496.9764
  21792096.8604  -28519656.37448 -21864389.09647  21792095.3384   21792101.0104
     -1054.9154       -822.0114
  23311203.3784  -22952756.62147 -17526007.67246  23311201.6374   23311205.4344
     -1718.6544      -1339.2114
  22227579.0524  -17851856.46648 -13041463.07646  22227577.3364   22227583.2274
      3755.8714       2926.6524
  22860295.8594   -5764004.23547  -4167844.35445  22860293.2254   22860299.2604
      4169.2144       3248.7384
  23773422.4974   -4848775.06646  -2100441.32645  23773420.6024   23773425.1514
      4683.3464       3649.3584
  20307671.5624  -39947208.72549 -30461426.44747  20307669.5474   20307670.6794
      -507.3004       -395.2994
 04 12 12  1 22 59.9970000  0 10G 5G17G10G30G24G 4G 6G29G26G 2
  22441798.4514  -20913750.39448 -15959193.65946  22441795.1464   22441800.6434
     -1882.9454      -1467.2274
  20277891.5294  -36712903.87649 -28307780.40547  20277889.2584   20277894.8524
      1048.1924        816.7744
  19399130.3774  -36121320.98849 -28101719.93947  19399128.1294   19399133.0374
       667.7824        520.3504
  21711242.0414  -22954123.92548 -15701727.92746  21711240.5974   21711245.7074
      -651.2794       -507.4904
  21798123.5294  -28487989.79748 -21839713.84247  21798120.8694   21798127.2104
     -1055.4424       -822.4224
  23321011.5094  -22901206.19247 -17485838.50145  23321010.4604   23321015.5424
     -1717.2764      -1338.1384
  22206148.4924  -17964470.48948 -13129214.23846  22206147.1944   22206153.0084
      3752.4294       2923.9694
  22836498.2004   -5889061.99647  -4265291.93745  22836496.8044   22836502.9144
      4168.6724       3248.3124
  23746674.3224   -4989330.85847  -2209965.25045  23746673.6494   23746682.6724
      4687.7444       3652.8004
  20310583.6254  -39931906.17149 -30449502.37047  20310581.4594   20310582.4934
      -512.1874       -399.1074
 04 12 12  1 23 29.9970000  0 10G 5G17G10G30G24G 4G 6G29G26G 2
  22452567.0704  -20857150.38148 -15915089.78046  22452565.5944   22452571.5934
     -1891.4894      -1473.8844
  20271924.3554  -36744263.02749 -28332216.10647  20271921.8374   20271927.0564
      1041.2984        811.4004
  19395369.5734  -36141088.00749 -28117122.80947  19395366.6094   19395371.5674
       648.9124        505.6454
  21715006.1044  -22934346.65948 -15686317.08946  21715004.3704   21715008.4834
      -668.2824       -520.7394
  21804156.3004  -28456281.28448 -21815005.91547  21804154.5214   21804160.5634
     -1059.5784       -825.6444
  23330820.2224  -22849671.71547 -17445681.79746  23330817.2904   23330821.3724
     -1719.4764      -1339.8484
  22184746.2194  -18076952.85848 -13216862.82046  22184743.4294   22184748.0604
      3745.3024       2918.4164
  22812707.9224   -6014074.62847  -4362704.37245  22812707.4444   22812713.8054
      4164.4244       3245.0044
  23719908.4934   -5129993.17147  -2319572.27445  23719906.5524   23719912.6764
      4688.5634       3653.4314
  20313528.5484  -39916430.97049 -30437443.75747  20313526.2164   20313527.5034
      -520.6554       -405.7054
 04 12 12  1 23 59.9970000  0 10G 5G17G10G30G24G 4G 6G29G26G 2
  22463392.9314  -20800266.21648 -15870764.49146  22463390.5554   22463395.9604
     -1901.1644      -1481.4254
  20266001.3924  -36775386.47449 -28356468.12047  20265999.2274   20266004.6664
      1033.1824        805.0764
  19391720.6324  -36160261.62949 -28132063.29547  19391717.9484   19391722.9924
       628.9154        490.0644
  21718871.8284  -22914031.96748 -15670487.47246  21718870.1664   21718874.5084
      -686.3794       -534.8394
  21810219.0824  -28424420.67348 -21790179.47547  21810217.2254   21810223.2534
     -1064.8854       -829.7804
  23340643.8374  -22798042.63848 -17405451.37346  23340641.9364   23340647.2704
     -1722.8634      -1342.4944
  22163386.9714  -18189191.18048 -13304321.24246  22163385.3474   22163390.3844
      3736.9014       2911.8704
  22788948.3314   -6138928.93447  -4459993.42145  22788947.3524   22788954.1694
      4158.8394       3240.6534
  23693143.8224   -5270649.22747  -2429174.48845  23693141.2944   23693147.6294
      4688.0514       3653.0264
  20316526.2054  -39900673.12649 -30425164.90847  20316524.5144   20316526.0694
      -530.3044       -413.2244
 04 12 12  1 24 29.9970000  0 10G 5G17G10G30G24G 4G 6G29G26G 2
  22474255.8964  -20743181.96848 -15826283.28846  22474253.8374   22474258.7514
     -1906.8064      -1485.8224
  20260108.1314  -36806355.05549 -28380599.48247  20260106.0554   20260111.7644
      1028.9514        801.7804
  19388169.2204  -36178924.21949 -28146605.57347  19388166.7184   19388171.3704
       612.8624        477.5544
  21722823.8684  -22893263.31348 -15654304.13146  21722822.0744   21722826.9454
      -700.5194       -545.8564
  21816296.4184  -28392488.92048 -21765297.58647  21816294.7294   21816299.2104
     -1066.3154       -830.8954
  23350471.1444  -22746400.47948 -17365210.74846  23350469.5154   23350473.7914
     -1722.3014      -1342.0514
  22142059.4234  -18301264.46248 -13391651.05346  22142058.0654   22142062.9654
      3732.2834       2908.2734
  22765205.6834   -6263702.75647  -4557219.77645  22765204.5394   22765209.3544
      4157.0744       3239.2814
  23666361.7894   -5411376.78347  -2538832.36545  23666362.0994   23666367.7704
      4691.3714       3655.6144
  20319563.4874  -39884714.12549 -30412729.31447  20319561.4954   20319563.1434
      -536.0614       -417.7104
 04 12 12  1 24 59.9970000  0 10G 5G17G10G30G24G 4G 6G29G26G 2
  22485156.7604  -20685897.44448 -15781646.00846  22485154.3084   22485159.5724
     -1912.8594      -1490.5404
  20254246.0434  -36837165.43049 -28404607.56147  20254243.0084   20254248.5784
      1024.2894        798.1464
  19384715.6514  -36197073.46749 -28160747.83347  19384713.1494   19384718.0744
       596.3674        464.7004
  21726862.3414  -22872039.76248 -15637766.34346  21726860.7434   21726865.1424
      -715.0624       -557.1904
  21822387.4754  -28360482.73948 -21740357.69347  21822385.3394   21822389.8674
     -1068.2024       -832.3664
  23360302.6804  -22694741.70448 -17324957.17246  23360300.2654   23360304.8504
     -1722.2944      -1342.0474
  22120765.2474  -18413167.39248 -13478848.13746  22120763.6054   22120768.5364
      3727.1864       2904.3034
  22741478.8944   -6388389.90847  -4654378.63445  22741477.6684   22741482.1424
      4154.7494       3237.4674
  23639571.2024   -5552169.71947  -2648541.23945  23639569.2364   23639577.5954
      4694.0204       3657.6834
  20322639.3004  -39868550.78849 -30400134.49947  20322636.9954   20322639.1834
      -542.2714       -422.5504
 04 12 12  1 25 29.9970000  0 10G 5G17G10G30G24G 4G 6G29G26G 2
  22496101.4064  -20628380.48648 -15736827.61646  22496098.8214   22496104.7244
     -1918.9384      -1495.2744
  20248419.7914  -36867782.31849 -28428464.88047  20248416.9484   20248422.3044
      1019.4914        794.4084
  19381366.1744  -36214675.43549 -28174463.64647  19381363.4554   19381368.4974
       579.7964        451.7894
  21730993.8914  -22850328.42148 -15620848.43446  21730992.7404   21730996.0074
      -729.6844       -568.5854
  21828499.7324  -28328366.92848 -21715332.37147  21828497.3924   21828501.3144
     -1070.2114       -833.9304
  23370139.9364  -22643031.38747 -17284663.43546  23370139.2984   23370143.9994
     -1722.3134      -1342.0614
  22099511.6484  -18524862.06048 -13565882.91846  22099508.6464   22099513.9594
      3721.8764       2900.1624
  22717776.6224   -6512952.00247  -4751439.98945  22717773.8894   22717779.7634
      4152.1574       3235.4444
  23612774.7764   -5692989.60047  -2758271.04945  23612772.5474   23612778.9084
      4696.5834       3659.6664
  20325760.3324  -39852148.04849 -30387353.13647  20325758.2884   20325760.8164
      -548.6104       -427.4884
 04 12 12  1 25 59.9970000  0 10G 5G17G10G30G24G 4G 6G29G26G 2
  22507089.0354  -20570637.58548 -15691833.18546  22507086.9904   22507093.2334
     -1927.9404      -1502.2884
  20242628.7924  -36898208.91149 -28452173.91747  20242626.8344   20242632.4214
      1011.5914        788.2534
  19378119.6004  -36231734.79749 -28187756.65847  19378117.0954   19378122.0994
       560.1794        436.5034
  21735217.1334  -22828134.91448 -15603554.79146  21735215.8404   21735220.0594
      -747.2024       -582.2344
  21834630.8134  -28296145.11448 -21690224.44647  21834628.6324   21834633.2894
     -1075.3024       -837.8984
  23379989.4454  -22591272.93147 -17244332.19745  23379988.8774   23379993.1764
     -1725.4814      -1344.5284
  22078294.9584  -18636349.87848 -13652756.51646  22078293.5504   22078298.1564
      3713.3294       2893.5044
  22694096.2944   -6637389.51347  -4848404.21645  22694094.0514   22694100.0244
      4146.4294       3230.9854
  23585972.0094   -5833837.03547  -2868022.30845  23585969.6134   23585977.8684
      4695.9224       3659.1684
  20328926.3314  -39835509.58849 -30374388.10347  20328924.8424   20328927.5344
      -558.0014       -434.8064
 04 12 12  1 26 29.9970000  0 10G 5G17G10G30G24G 4G 6G29G26G 2
  22518107.1674  -20512734.87648 -15646714.20546  22518105.9884   22518111.7524
     -1933.6034      -1506.7044
  20236863.3244  -36928508.39749 -28475783.90047  20236861.0574   20236866.5654
      1006.9664        784.6504
  19374964.2624  -36248315.97649 -28200677.06347  19374961.8494   19374966.8014
       543.8674        423.7924
  21739519.0844  -22805525.03648 -15585936.73146  21739517.9904   21739522.5804
      -761.4174       -593.3104
  21840770.3214  -28263880.58048 -21665083.24247  21840768.1084   21840773.7354
     -1077.0524       -839.2614
  23389837.8574  -22539529.57647 -17204012.69345  23389836.1564   23389839.3294
     -1725.3724      -1344.4384
  22057108.5504  -18747691.77548 -13739516.44946  22057106.3664   22057109.7234
      3708.1194       2889.4454
  22670427.6554   -6761762.57247  -4945318.25845  22670426.1974   22670433.3004
      4143.8364       3228.9634
  23559153.2784   -5974772.14147  -2977841.89445  23559150.8324   23559156.9424
      4698.4254       3661.1084
  20332125.3584  -39818699.09849 -30361289.02047  20332123.4244   20332126.6484
      -564.0944       -439.5534
 04 12 12  1 26 59.9970000  0 10G 5G17G10G30G24G 4G 6G29G26G 2
  22529169.6184  -20454610.48648 -15601422.49046  22529166.7224   22529171.8584
     -1941.0884      -1512.5354
  20231134.1314  -36958615.68849 -28499244.11447  20231131.7084   20231137.4784
      1000.3924        779.5264
  19371912.1674  -36264355.40049 -28213175.31447  19371909.4974   19371914.5694
       525.6774        409.6184
  21743913.0694  -22782436.00248 -15567945.31246  21743911.5944   21743916.6094
      -777.5314       -605.8694
  21846929.3444  -28231507.97448 -21639857.83847  21846927.7794   21846934.1114
     -1080.8534       -842.2244
  23399692.3854  -22487736.36547 -17163654.34945  23399691.1494   23399695.3974
     -1727.1664      -1345.8404
  22035960.6574  -18858820.53948 -13826110.28746  22035959.1924   22035963.4674
      3700.8164       2883.7534
  22646787.1284   -6886002.92447  -5042128.89445  22646785.3254   22646789.9034
      4139.1904       3225.3484
  23532329.9034   -6115726.71547  -3087676.62545  23532327.4154   23532334.6514
      4698.8294       3661.4194
  20335369.7864  -39801651.67249 -30348005.31447  20335367.7754   20335370.7864
      -572.1764       -445.8524
 04 12 12  1 27 29.9970000  0 10G 5G17G10G30G24G 4G 6G29G26G 2
  22540273.5614  -20396255.42748 -15555951.02346  22540271.3964   22540277.4584
     -1948.8124      -1518.5564
  20225443.5574  -36988518.34549 -28522544.89047  20225441.5524   20225447.1324
       993.4964        774.1544
  19368965.4334  -36279842.05949 -28225242.83647  19368962.6674   19368967.6864
       507.1764        395.2024
  21748399.5824  -22758858.21648 -15549573.04546  21748398.1244   21748404.1964
      -793.8654       -618.5964
  21853112.8134  -28199015.23448 -21614538.82847  21853110.8704   21853117.1044
     -1084.9264       -845.3964
  23409559.6284  -22435881.26547 -17123247.80245  23409558.6414   23409563.6424
     -1729.3284      -1347.5254
  22014856.9834  -18969721.86248 -13912526.88146  22014854.8194   22014860.0034
      3693.1184       2877.7534
  22623174.4654   -7010095.55147  -5138824.47845  22623170.9664   22623175.3724
      4134.1654       3221.4324
  23505505.9504   -6256685.73747  -3197514.83645  23505504.5724   23505510.7164
      4698.8854       3661.4694
  20338661.4234  -39784355.20349 -30334527.55047  20338659.5714   20338661.9974
      -580.5564       -452.3814
 04 12 12  1 27 59.9970000  0 10G 5G17G10G30G24G 4G 6G29G26G 2
  22551412.0194  -20337723.83848 -15510342.00846  22551409.5894   22551416.0604
     -1953.8454      -1522.4754
  20219782.9664  -37018267.55949 -28545726.09947  20219780.2724   20219785.8824
       989.1944        770.8014
  19366113.3254  -36294828.33549 -28236920.45047  19366110.7494   19366115.8104
       491.3444        382.8654
  21752969.7914  -22734845.07548 -15530861.54446  21752968.2844   21752973.4164
      -807.5244       -629.2384
  21859308.6634  -28166453.68748 -21589166.19847  21859306.9754   21859313.6414
     -1086.4004       -846.5454
  23419431.1044  -22384015.44747 -17082832.88746  23419429.2444   23419434.5864
     -1728.8904      -1347.1864
  21993786.2664  -19080444.36148 -13998804.13846  21993784.5994   21993789.3114
      3687.8754       2873.6684
  22599577.3214   -7134088.53047  -5235442.34745  22599575.4654   22599580.3304
      4131.5424       3219.3824
  23478673.6854   -6397697.19847  -3307393.86845  23478671.4434   23478677.6624
      4701.2884       3663.3454
  20341990.0404  -39766861.27749 -30320895.91647  20341988.2844   20341990.5824
      -586.3034       -456.8594
 04 12 12  1 28 29.9970000  0 10G 5G17G10G30G24G 4G 6G29G26G 2
  22562591.5404  -20278974.76048 -15464563.54046  22562589.1954   22562594.8134
     -1961.1374      -1528.1574
  20214158.5004  -37047819.11049 -28568753.27047  20214156.7244   20214162.4944
       982.4924        765.5784
  19363364.5254  -36309271.61449 -28248174.94947  19363362.1954   19363367.4084
       473.1714        368.7034
  21757630.1024  -22710355.06148 -15511778.43646  21757628.5104   21757633.2964
      -823.4814       -641.6744
  21865527.6284  -28133779.43248 -21563705.74547  21865525.5544   21865530.3444
     -1090.2674       -849.5594
  23429310.3774  -22332094.99347 -17042375.43345  23429307.9424   23429313.3314
     -1730.8024      -1348.6754
  21972760.8164  -19190942.00248 -14084906.19346  21972758.6544   21972762.9034
      3680.2624       2867.7374
  22576009.3544   -7257934.76547  -5331945.86745  22576007.0584   22576014.7584
      4126.4934       3215.4474
  23451837.7004   -6538714.20347  -3417277.21045  23451836.5014   23451844.4284
      4701.3974       3663.4344
  20345364.9824  -39749126.19949 -30307076.37447  20345363.3084   20345365.2434
      -594.4424       -463.2014
 04 12 12  1 28 59.9970000  0 10G 5G17G10G30G24G 4G 6G29G26G 2
  22573812.5774  -20220012.65548 -15418619.06946  22573809.1534   22573814.8314
     -1969.1124      -1534.3734
  20208572.5454  -37077174.42749 -28591627.53447  20208570.5504   20208576.5474
       975.0174        759.7534
  19360719.1784  -36323174.73249 -28259008.54147  19360716.5214   19360721.7644
       454.2834        353.9864
  21762379.5414  -22685392.17148 -15492326.83446  21762378.2134   21762383.2664
      -840.1344       -654.6484
  21871766.6824  -28100993.85848 -21538158.53847  21871764.6034   21871768.6624
     -1094.8924       -853.1644
  23439202.7044  -22280121.14747 -17001876.39645  23439200.3274   23439203.4604
     -1733.5364      -1350.8104
  21951775.3064  -19301213.85648 -14170832.31046  21951774.1094   21951779.2174
      3671.7514       2861.1034
  22552469.9154   -7381632.61647  -5428333.73346  22552469.8134   22552475.7254
      4120.6074       3210.8624
  23425004.0934   -6679734.76547  -3527163.32845  23425001.5264   23425007.4374
      4700.5454       3662.7594
  20348786.0424  -39731151.59449 -30293070.18547  20348783.8584   20348785.2674
      -603.3624       -470.1534
 04 12 12  1 29 29.9970000  0 10G 5G17G10G30G24G 4G 6G29G26G 2
  22585071.8344  -20160839.78548 -15372510.34846  22585069.8694   22585075.5234
     -1974.4794      -1538.5564
  20203024.3014  -37106332.25049 -28614347.90847  20203022.3154   20203027.9794
       970.0584        755.8884
  19358175.8734  -36336538.22249 -28269421.64247  19358173.4344   19358178.9234
       437.8744        341.2004
  21767220.8734  -22659957.84948 -15472507.91946  21767219.0174   21767223.6674
      -854.2004       -665.6104
  21878026.7024  -28068096.25348 -21512524.03247  21878024.9624   21878028.8304
     -1097.0404       -854.8384
  23449102.9074  -22228093.50247 -16961335.37645  23449100.3154   23449103.8504
     -1733.6744      -1350.9124
  21930835.1984  -19411256.69948 -14256579.97746  21930833.7744   21930838.2534
      3665.6424       2856.3444
  22528961.5324   -7505177.86047  -5524602.69045  22528959.1034   22528964.2734
      4117.0354       3208.0734
  23398167.6814   -6820755.22047  -3637049.46745  23398166.1284   23398173.3454
      4702.0244       3663.9224
  20352251.8624  -39712936.83549 -30278876.85847  20352249.6804   20352251.2044
      -609.7604       -475.1384
 04 12 12  1 29 59.9970000  0 10G 5G17G10G30G24G 4G 6G29G26G 2
  22596360.1794  -20101517.32348 -15326285.07346  22596358.3254   22596364.2904
     -1979.2014      -1542.2344
  20197502.6444  -37135350.70949 -28636959.68247  20197500.2804   20197505.8454
       965.6224        752.4334
  19355724.5124  -36349421.44449 -28279460.51447  19355721.9214   19355726.9784
       422.1344        328.9374
  21772138.5084  -22634112.66448 -15452368.83646  21772137.0394   21772141.8344
      -867.6534       -676.0934
  21884296.8434  -28035144.51548 -21486847.34447  21884294.8574   21884299.7184
     -1098.6344       -856.0784
  23459000.0504  -22176069.80847 -16920797.42045  23458998.9774   23459004.1014
     -1733.3634      -1350.6734
  21909928.3344  -19521126.58648 -14342192.88346  21909925.5654   21909930.8074
      3660.0954       2852.0234
  22505469.3874   -7628625.85647  -5620795.90145  22505467.5324   22505473.0224
      4114.0174       3205.7244
  23371318.7324   -6961830.54147  -3746978.27345  23371317.8854   23371326.7894
      4704.0834       3665.5274
  20355752.3144  -39694540.09049 -30264541.72747  20355750.4474   20355751.6614
      -615.5924       -479.6824
 04 12 12  1 30 29.9970000  0 10G 5G17G10G30G24G 4G 6G29G26G 2
  22607678.8824  -20042043.09448 -15279941.53646  22607675.8674   22607682.0494
     -1986.6394      -1548.0304
  20192008.1564  -37164224.44149 -28659458.67747  20192005.7424   20192011.4304
       958.3904        746.7974
  19353364.9524  -36361820.90949 -28289122.43247  19353362.3474   19353367.6434
       403.6174        314.5084
  21777134.5774  -22607854.10648 -15431907.60846  21777133.3834   21777138.6704
      -883.7574       -688.6414
  21890578.2464  -28002133.71248 -21461124.63147  21890576.5084   21890581.9234
     -1102.9714       -859.4564
  23468899.6574  -22124045.06247 -16880258.65845  23468898.8964   23468904.5604
     -1735.7994      -1352.5684
  21889054.5604  -19630815.66748 -14427664.88446  21889052.8844   21889057.5304
      3651.6794       2845.4654
  22481997.0824   -7751968.24447  -5716906.85845  22481995.7994   22482001.7224
      4107.9844       3201.0314
  23344467.0034   -7102952.09747  -3856943.02045  23344464.5344   23344470.8314
      4703.1184       3664.7594
  20359288.7274  -39675956.52649 -30250061.02147  20359286.8114   20359288.3614
      -624.2134       -486.4004
 04 12 12  1 30 59.9970000  0 10G 5G17G10G30G24G 4G 6G29G26G 2
  22619033.8834  -19982365.01448 -15233439.15646  22619032.0934   22619038.3914
     -1990.8814      -1551.3374
  20186551.6574  -37192897.98649 -28681801.69547  20186549.4534   20186555.0274
       954.2114        743.5414
  19351107.7684  -36373682.64949 -28298365.34247  19351105.0674   19351110.3624
       388.2074        302.4994
  21782220.2204  -22581129.35648 -15411083.17746  21782219.2264   21782224.2644
      -896.7994       -698.8024
  21896881.4284  -27969008.73448 -21435312.96647  21896879.8214   21896885.2144
     -1104.3074       -860.4984
  23478812.4584  -22071964.08847 -16839676.09045  23478810.3154   23478815.9954
     -1735.1714      -1352.0794
  21868226.5434  -19740266.73448 -14512951.41546  21868224.8964   21868229.2154
      3646.1444       2841.1504
  22458559.6254   -7875146.84547  -5812890.12646  22458557.0554   22458562.0794
      4105.0084       3198.7074
  23317615.9924   -7244061.98547  -3966898.74045  23317614.1074   23317620.1954
      4705.1754       3666.3684
  20362870.5924  -39657131.00349 -30235391.77547  20362868.6384   20362870.8054
      -629.7874       -490.7434
 04 12 12  1 31 29.9970000  0 10G 5G17G10G30G24G 4G 6G29G26G 2
  22630423.9234  -19922512.07648 -15186800.53646  22630421.9434   22630427.2764
     -1998.3234      -1557.1344
  20181128.8384  -37221397.35249 -28704008.98947  20181126.2724   20181131.7274
       946.6754        737.6694
  19348947.3944  -36385034.05849 -28307210.59247  19348944.8894   19348950.2404
       369.5004        287.9224
  21787389.5904  -22553967.11348 -15389917.83546  21787387.9254   21787392.4964
      -913.0244       -711.4474
  21903202.5674  -27935795.44548 -21409432.49347  21903200.3764   21903205.9614
     -1108.9594       -864.1244
  23488727.9394  -22019853.12247 -16799070.17145  23488725.6054   23488730.5244
     -1737.8834      -1354.1894
  21847440.1394  -19849503.37448 -14598070.85546  21847438.2574   21847443.0584
      3637.2894       2834.2504
  22435145.6804   -7998184.49847  -5908763.60046  22435143.4124   22435150.0684
      4098.4914       3193.6284
  23290761.8284   -7385183.17447  -4076863.24445  23290759.3574   23290765.5844
      4703.8414       3665.3344
  20366494.3584  -39638090.08149 -30220554.69047  20366492.3324   20366494.4504
      -638.6594       -497.6564
 04 12 12  1 31 59.9970000  0 10G 5G17G10G30G24G 4G 6G29G26G 2
  22641841.4244  -19862510.00648 -15140045.71346  22641839.6684   22641845.6204
     -2003.1254      -1560.8784
  20175734.0724  -37249744.98649 -28726098.04647  20175731.7494   20175737.3034
       941.7774        733.8524
  19346879.2844  -36395899.26649 -28315676.98647  19346877.2104   19346882.5684
       353.4794        275.4384
  21792636.6234  -22526392.53248 -15368431.13646  21792635.4654   21792640.3304
      -926.5784       -722.0094
  21909535.4594  -27902516.31448 -21383500.71147  21909532.9674   21909538.8944
     -1111.0174       -865.7274
  23498644.6444  -21967734.70947 -16758458.44045  23498643.7004   23498649.6394
     -1738.0174      -1354.2994
  21826690.3804  -19958546.29948 -14683039.38646  21826687.7254   21826690.9354
      3630.8764       2829.2534
  22411754.7614   -8121100.86747  -6004542.51345  22411752.7094   22411757.9464
      4094.5754       3190.5764
  23263900.0944   -7526334.93747  -4186851.60345  23263898.3694   23263903.0444
      4704.9104       3666.1614
  20370153.9174  -39618856.52949 -30205567.50847  20370152.6284   20370154.7624
      -644.9554       -502.5614
 04 12 12  1 32 29.9970000  0 10G 5G17G10G30G24G 4G 6G29G26G 2
  22653296.3404  -19802319.81048 -15093144.28446  22653294.0624   22653299.2384
     -2008.7864      -1565.2864
  20170376.3014  -37277898.67849 -28748035.98247  20170374.2384   20170379.9264
       935.8404        729.2264
  19344912.7434  -36406237.61449 -28323732.84447  19344909.8454   19344915.4644
       336.5314        262.2324
  21797970.6584  -22498366.07548 -15346592.38146  21797969.3584   21797973.8964
      -941.0564       -733.2884
  21915889.0094  -27869129.43348 -21357484.96447  21915886.7974   21915891.6714
     -1114.0524       -868.0914
  23508575.0944  -21915566.81147 -16717808.14545  23508572.6514   23508576.6284
     -1739.1234      -1355.1594
  21805985.8724  -20067350.73448 -14767822.03846  21805983.1124   21805987.9184
      3623.5154       2823.5174
  22388394.8374   -8243850.96647  -6100191.86545  22388393.1614   22388400.1864
      4089.5204       3186.6424
  23237043.9134   -7667472.25847  -4296828.74745  23237040.3244   23237047.2714
      4704.9414       3666.1924
  20373859.1564  -39599388.32249 -30190397.47547  20373857.1484   20373859.5104
      -652.2504       -508.2464
 04 12 12  1 32 59.9970000  0 10G 5G17G10G30G24G 4G 6G29G26G 2
  22664782.6724  -19741961.02248 -15046111.47546  22664779.8514   22664785.4224
     -2014.3634      -1569.6354
  20165052.6244  -37305874.53349 -28769835.34147  20165050.5534   20165056.1484
       929.9054        724.6024
  19343041.5954  -36416066.83149 -28331391.97247  19343039.3974   19343045.0494
       319.5664        249.0124
  21803386.1944  -22469906.57848 -15324416.16946  21803384.6624   21803389.4564
      -955.4254       -744.4894
  21922259.8164  -27835651.13048 -21331397.97747  21922257.7684   21922262.0064
     -1117.0884       -870.4594
  23518507.0374  -21863365.92047 -16677132.14545  23518505.6624   23518510.2454
     -1740.1484      -1355.9624
  21785320.9274  -20175931.04348 -14852430.03446  21785319.9514   21785325.9564
      3616.0124       2817.6704
  22365067.5614   -8366447.89447  -6195721.93245  22365065.2554   22365069.9744
      4084.3774       3182.6344
  23210184.5514   -7808608.15747  -4406804.76245  23210182.7724   23210189.5174
      4704.8194       3666.0924
  20377605.1524  -39579702.06249 -30175057.53347  20377603.4884   20377605.7544
      -659.4644       -513.8694
 04 12 12  1 33 29.9970000  0 10G 5G17G10G30G24G 4G 6G29G26G 2
  22676298.5024  -19681437.16848 -14998950.06346  22676295.9584   22676303.6294
     -2019.7774      -1573.8514
  20159763.6874  -37333673.10149 -28791496.55947  20159760.7714   20159766.2404
       924.0844        720.0654
  19341267.8814  -36425389.34749 -28338656.26847  19341265.4874   19341270.9824
       302.7424        235.9024
  21808883.3164  -22441017.41848 -15301905.14746  21808881.7474   21808887.2404
      -969.6554       -755.5744
  21928648.1284  -27802082.31848 -21305240.45947  21928645.7994   21928649.2034
     -1120.0464       -872.7644
  23528446.5164  -21811132.40147 -16636430.72245  23528445.1074   23528449.3474
     -1741.1934      -1356.7734
  21764703.2254  -20284285.38348 -14936861.96346  21764701.4364   21764706.7284
      3608.4824       2811.8024
  22341767.8464   -8488889.07847  -6291130.62745  22341765.5904   22341770.3884
      4079.2414       3178.6284
  23183328.0084   -7949740.25947  -4516777.80145  23183327.4944   23183334.3654
      4704.7294       3666.0284
  20381393.9164  -39559798.91549 -30159548.58847  20381391.0714   20381393.0774
      -666.6364       -519.4564
 04 12 12  1 33 59.9970000  0 10G 5G17G10G30G24G 4G 6G29G26G 2
  22687843.3044  -19620769.26648 -14951676.40546  22687840.7344   22687848.1484
     -2022.7864      -1576.1974
  20154503.6054  -37361312.12249 -28813033.45347  20154501.0934   20154506.4204
       920.4604        717.2414
  19339586.9064  -36434224.47549 -28345540.77847  19339584.3134   19339589.6134
       288.2584        224.6164
  21814459.4484  -22411719.09048 -15279075.32546  21814457.2814   21814461.6994
      -981.5404       -764.8334
  21935048.5594  -27768440.48848 -21279026.03846  21935046.8864   21935051.4894
     -1120.7664       -873.3244
  23538387.7594  -21758884.50247 -16595718.07445  23538386.9424   23538390.6684
     -1740.0004      -1355.8414
  21744123.3574  -20392429.57748 -15021130.16146  21744122.2284   21744127.3124
      3603.1594       2807.6554
  22318492.4714   -8611189.48847  -6386429.59545  22318492.0234   22318498.1374
      4076.1854       3176.2424
  23156469.6524   -8090883.38647  -4626759.45045  23156467.9314   23156473.7544
      4706.7694       3667.6074
  20385219.0424  -39539696.70049 -30143884.52247  20385216.4594   20385218.5864
      -671.5574       -523.2914
 04 12 12  1 34 29.9970000  0 10G 5G17G10G30G24G 4G 6G29G26G 2
  22699413.8954  -19559969.25348 -14904299.80946  22699411.8564   22699417.1524
     -2030.6114      -1582.2964
  20149272.7644  -37388799.56449 -28834452.23647  20149270.6524   20149275.7414
       911.9094        710.5784
  19337996.0964  -36442582.16849 -28352053.26647  19337993.8854   19337999.1544
       268.8734        209.5124
  21820110.4594  -22382022.73848 -15255935.32646  21820108.7874   21820112.9834
      -998.2604       -777.8664
  21941463.3594  -27734733.97948 -21252761.22746  21941461.0794   21941466.2234
     -1126.4254       -877.7324
  23548333.2734  -21706630.56147 -16555000.70445  23548330.9824   23548334.7824
     -1743.6694      -1358.7074
  21723584.8364  -20500369.52948 -15105239.19846  21723581.6374   21723587.2224
      3592.7934       2799.5804
  22295247.8164   -8733354.59547  -6481623.12345  22295245.1714   22295250.6284
      4068.1124       3169.9574
  23129609.6654   -8232042.58547  -4736753.59745  23129606.9254   23129613.5864
      4703.7144       3665.2334
  20389079.9364  -39519404.29549 -30128072.26147  20389077.6994   20389079.6484
      -681.3764       -530.9424
 04 12 12  1 34 59.9970000  0 10G 5G17G10G30G24G 4G 6G29G26G 2
  22711025.4654  -19498957.14348 -14856757.91546  22711022.3344   22711027.9494
     -2037.7204      -1587.8334
  20144086.9624  -37416052.87449 -28855688.57447  20144084.6524   20144089.7424
       904.0774        704.4754
  19336512.4014  -36450381.27449 -28358130.48547  19336509.8614   19336515.0594
       250.1904        194.9534
  21825851.5064  -22351848.30748 -15232422.79146  21825849.6734   21825854.7714
     -1014.1934       -790.2804
  21947904.1644  -27700880.32048 -21226381.76046  21947902.5334   21947908.4124
     -1131.3794       -881.5934
  23558295.3334  -21654288.00747 -16514214.30645  23558292.2954   23558295.1934
     -1746.6314      -1361.0074
  21703099.0514  -20608020.30548 -15189122.88746  21703096.8904   21703101.9154
      3583.0474       2791.9834
  22272040.3164   -8855298.44847  -6576644.26145  22272039.4774   22272044.6644
      4060.6294       3164.1224
  23102761.0324   -8373132.18847  -4846693.51245  23102758.3784   23102764.8824
      4701.3084       3663.3574
  20392992.8804  -39498839.09849 -30112047.42847  20392991.1204   20392992.8254
      -690.5194       -538.0674
 04 12 12  1 35 29.9970000  0 10G 5G17G10G30G24G 4G 6G29G26G 2
  22722667.3474  -19437774.91648 -14809083.47346  22722664.3584   22722670.4654
     -2039.7254      -1589.3974
  20138938.2384  -37443110.84149 -28876772.68947  20138935.5184   20138940.8174
       901.0924        702.1494
  19335126.8914  -36457662.53549 -28363804.19447  19335124.5334   19335129.6924
       236.5434        184.3194
  21831676.4574  -22321237.44648 -15208570.19546  21831674.9144   21831680.0244
     -1025.1454       -798.8134
  21954367.5654  -27666918.63948 -21199918.12246  21954365.7284   21954371.2834
     -1131.4254       -881.6304
  23568262.1764  -21601895.77447 -16473389.21845  23568260.7674   23568266.0804
     -1744.8024      -1359.5824
  21682661.0094  -20715419.05148 -15272810.20246  21682659.3354   21682663.9564
      3578.1854       2788.1944
  22248872.4314   -8977057.30647  -6671521.22945  22248869.8934   22248874.9814
      4057.9754       3162.0564
  23075917.2864   -8514187.89847  -4956607.02745  23075916.0684   23075922.3264
      4703.6724       3665.1984
  20396951.2504  -39478040.32849 -30095840.59047  20396948.9024   20396950.5104
      -694.7394       -541.3564
 04 12 12  1 35 59.9970000  0 10G 5G17G10G30G24G 4G 6G29G26G 2
  22734326.5894  -19376500.58848 -14761337.27746  22734324.4314   22734330.8524
     -2046.0754      -1594.3434
  20133812.0234  -37470048.05149 -28897762.71747  20133809.4584   20133814.6334
       893.8214        696.4834
  19333825.5614  -36464502.02949 -28369133.66347  19333822.8394   19333828.1824
       218.5604        170.3064
  21837570.4224  -22290267.47148 -15184437.78046  21837568.9754   21837573.4064
     -1040.3604       -810.6714
  21960836.9824  -27632923.67948 -21173428.55947  21960835.6144   21960840.4964
     -1135.8114       -885.0464
  23578227.0644  -21549528.97447 -16432583.95445  23578225.8314   23578231.4304
     -1747.1544      -1361.4194
  21662259.4544  -20822637.68648 -15356357.16546  21662256.6824   21662261.5524
      3568.8844       2780.9494
  22225721.8934   -9098702.58347  -6766309.66846  22225721.0154   22225727.7204
      4050.7844       3156.4504
  23049068.9014   -8655281.54347  -5066550.09545  23049067.4184   23049072.3764
      4701.5734       3663.5614
  20400938.9444  -39457083.02549 -30079510.21947  20400936.9724   20400938.5894
      -703.3064       -548.0324
 04 12 12  1 36 29.9970000  0 10G 5G17G10G30G24G 4G 6G29G26G 2
  22746020.6874  -19315047.56048 -14713451.83146  22746018.0204   22746024.8534
     -2050.5984      -1597.8684
  20128726.2804  -37496774.58249 -28918588.57847  20128723.7304   20128728.8014
       888.1204        692.0414
  19332624.1564  -36470811.84949 -28374050.39847  19332621.8084   19332627.3604
       202.2564        157.6034
  21843548.9244  -22258851.69248 -15159957.94946  21843547.1374   21843552.4444
     -1053.8504       -821.1804
  21967329.5794  -27598805.87048 -21146843.26047  21967327.6204   21967332.9124
     -1138.5944       -887.2174
  23588205.5554  -21497097.83247 -16391728.56645  23588203.7824   23588207.4044
     -1748.0264      -1362.0974
  21641907.6154  -20929584.62048 -15439692.40646  21641905.3924   21641910.6294
      3561.1424       2774.9144
  22202615.2194   -9220141.86447  -6860937.60146  22202612.3254   22202617.5614
      4045.2564       3152.1454
  23022230.2134   -8796320.27647  -5176450.39245  23022228.0764   23022234.1834
      4701.0464       3663.1544
  20404974.5454  -39435877.59649 -30062986.50047  20404972.3664   20404973.9124
      -710.2604       -553.4494
 04 12 12  1 36 59.9970000  0 10G 5G17G10G30G24G 4G 6G29G26G 2
  22757746.7904  -19253429.12548 -14665437.50146  22757744.2654   22757750.4274
     -2056.4304      -1602.4134
  20123678.3374  -37523300.60649 -28939258.20047  20123675.8204   20123681.0434
       881.0654        686.5434
  19331522.4044  -36476604.13949 -28378563.87147  19331520.0394   19331524.9104
       184.7144        143.9324
  21849609.6364  -22227002.92548 -15135140.75946  21849607.6704   21849612.9244
     -1068.5634       -832.6454
  21973843.0834  -27564575.39948 -21120170.17047  21973841.2174   21973846.5084
     -1142.6414       -890.3704
  23598193.6394  -21444612.56147 -16350830.97445  23598192.1734   23598196.5754
     -1750.1434      -1363.7464
  21621605.2984  -21036267.75248 -15522822.08746  21621603.8084   21621609.1564
      3551.9654       2767.7654
  22179542.2284   -9341382.07047  -6955410.43246  22179541.2624   22179546.1514
      4038.2594       3146.6974
  22995400.8624   -8937311.03347  -5286313.25745  22995398.5254   22995404.4984
      4699.0804       3661.6244
  20409054.8554  -39414434.97049 -30046277.95747  20409052.8524   20409053.9544
      -718.4794       -559.8544
 04 12 12  1 37 29.9970000  0 10G 5G17G10G30G24G 4G 6G29G26G 2
  22769500.1694  -19191667.47848 -14617311.55746  22769497.7744   22769503.3974
     -2062.0384      -1606.7834
  20118665.1334  -37549645.08549 -28959786.35747  20118662.6784   20118667.4994
       874.1564        681.1604
  19330515.2324  -36481899.60949 -28382690.20847  19330512.4234   19330517.2724
       167.3024        130.3644
  21855747.8094  -22194743.12748 -15110003.25746  21855746.1034   21855751.3114
     -1083.0424       -843.9314
  21980375.7974  -27530251.34248 -21093424.15847  21980373.3034   21980378.3804
     -1146.6304       -893.4794
  23608184.7594  -21392092.45347 -16309906.24145  23608184.7654   23608189.2054
     -1752.1894      -1365.3414
  21601351.3444  -21142703.90548 -15605759.32546  21601349.7794   21601354.3204
      3542.8104       2760.6314
  22156506.2254   -9462439.71747  -7049741.02445  22156504.1284   22156508.6604
      4031.2244       3141.2114
  22968575.5584   -9078270.05747  -5396151.41745  22968574.2554   22968581.2614
      4697.1314       3660.0964
  20413177.1274  -39392774.37149 -30029399.55547  20413174.5914   20413176.2564
      -726.6264       -566.2034
 04 12 12  1 37 59.9970000  0 10G 5G17G10G30G24G 4G 6G29G26G 2
  22781280.8164  -19129759.92648 -14569071.93146  22781278.4634   22781283.3524
     -2065.0824      -1609.1524
  20113687.1974  -37575801.68749 -28980168.11247  20113685.1884   20113690.0204
       869.6264        677.6314
  19329602.7504  -36486693.65749 -28386425.82847  19329600.0574   19329604.8404
       152.3644        118.7264
  21861965.4374  -22162069.00948 -15084542.93246  21861963.8114   21861968.4004
     -1095.0874       -853.3154
  21986925.9154  -27495827.94448 -21066600.73946  21986923.5794   21986927.8564
     -1148.2114       -894.7104
  23618189.9434  -21339531.55347 -16268949.68045  23618187.7794   23618192.3944
     -1751.8414      -1365.0684
  21581146.4284  -21248884.91148 -15688497.75246  21581144.0734   21581148.3124
      3536.0444       2755.3604
  22133506.5524   -9583305.44847  -7143922.07045  22133503.4714   22133509.4064
      4026.5994       3137.6104
  22941760.9974   -9219187.92547  -5505957.51345  22941759.0734   22941765.4014
      4697.4534       3660.3494
  20417341.2814  -39370889.86649 -30012346.69147  20417338.9914   20417340.9224
      -732.3244       -570.6434
 04 12 12  1 38 29.9970000  0 10G 5G17G10G30G24G 4G 6G29G26G 2
  22793081.8294  -19067737.91748 -14520743.11246  22793080.0634   22793086.3424
     -2068.8584      -1612.0954
  20108740.8844  -37601798.72749 -29000425.53547  20108738.2894   20108742.9714
       864.2794        673.4654
  19328780.0304  -36491016.48749 -28389794.26047  19328777.5474   19328782.0314
       136.6544        106.4824
  21868256.6864  -22129011.54048 -15058783.87146  21868255.0584   21868259.1394
     -1107.8544       -863.2644
  21993489.0074  -27461333.22148 -21039721.74846  21993487.5484   21993492.5554
     -1150.6184       -896.5854
  23628193.4004  -21286958.31047 -16227983.51045  23628192.4354   23628196.2474
     -1752.2474      -1365.3874
  21560984.3324  -21354836.63348 -15771057.51746  21560982.3684   21560986.6754
      3528.3034       2749.3284
  22110539.6764   -9704004.57748  -7237973.31146  22110536.1394   22110541.6614
      4020.9594       3133.2154
  22914950.1744   -9360089.74247  -5615751.06645  22914946.6864   22914952.0144
      4696.7974       3659.8424
  20421542.1894  -39348810.12149 -29995141.69147  20421540.3394   20421543.1314
      -738.8444       -575.7224
 04 12 12  1 38 59.9970000  0 10G 5G17G10G30G24G 4G 6G29G26G 2
  22804909.2184  -19005582.52248 -14472310.36046  22804907.4774   22804913.5574
     -2074.0924      -1616.1744
  20103828.1814  -37627613.87549 -29020541.22647  20103825.7204   20103830.5624
       857.3544        668.0674
  19328050.6344  -36494847.83849 -28392779.72047  19328048.2364   19328052.9954
       119.4674         93.0924
  21874623.4274  -22095551.54748 -15032711.13946  21874622.0444   21874626.3884
     -1122.0724       -874.3424
  22000071.6824  -27426745.11448 -21012769.97746  22000069.4224   22000074.0314
     -1154.5734       -899.6674
  23638204.1014  -21234350.66747 -16186990.55445  23638202.9274   23638208.7714
     -1754.2454      -1366.9454
  21540870.1234  -21460534.73548 -15853419.63746  21540868.5454   21540873.3814
      3518.9804       2742.0604
  22087606.4204   -9824512.03948  -7331875.17546  22087604.4834   22087610.6294
      4013.6454       3127.5134
  22888142.2324   -9500950.33847  -5725512.54045  22888141.0654   22888147.8324
      4694.5554       3658.0974
  20425784.8914  -39326513.39749 -29977767.62247  20425783.1844   20425786.3444
      -746.9304       -582.0234
 04 12 12  1 39 29.9970000  0 10G 5G17G10G30G24G 4G 6G29G26G 2
  22816759.4484  -18943313.21848 -14423788.85346  22816757.4604   22816763.7184
     -2078.0924      -1619.2914
  20098946.8674  -37653263.65449 -29040528.05747  20098944.7424   20098949.5544
       851.6144        663.5954
  19327411.3774  -36498206.02749 -28395396.48647  19327409.0614   19327413.7774
       103.4594         80.6174
  21881063.7594  -22061708.51548 -15006339.95446  21881061.7764   21881066.9044
     -1135.0494       -884.4514
  22006667.4474  -27392080.30248 -20985758.44146  22006665.9774   22006670.8684
     -1157.3824       -901.8564
  23648218.9074  -21181725.34147 -16145983.82445  23648217.8624   23648221.9924
     -1755.0164      -1367.5484
  21520802.7464  -21565993.89448 -15935595.58646  21520800.4624   21520804.7054
      3510.7144       2735.6214
  22064708.1634   -9944841.41648  -7425638.24946  22064705.7874   22064711.6094
      4007.3724       3122.6254
  22861341.9484   -9641783.32247  -5835252.49145  22861341.5804   22861347.3524
      4693.2994       3657.1174
  20430065.5734  -39304016.48349 -29960237.56447  20430063.9874   20430067.2884
      -753.8634       -587.4264
 04 12 12  1 39 59.9970000  0 10G 5G17G10G30G24G 4G 6G29G26G 2
  22828629.9364  -18880941.36748 -14375187.43246  22828627.1104   22828633.1654
     -2081.9504      -1622.2984
  20094096.0334  -37678755.81449 -29060392.07247  20094093.6094   20094098.2714
       845.9034        659.1444
  19326860.6444  -36501100.80449 -28397652.14847  19326858.2644   19326862.9384
        87.6364         68.2874
  21887574.3054  -22027493.22748 -14979678.71346  21887573.0234   21887578.4814
     -1147.8194       -894.4054
  22013277.3864  -27357346.72548 -20958693.31846  22013275.9794   22013280.8644
     -1160.0894       -903.9664
  23658235.1844  -21129090.34747 -16104969.61545  23658233.7164   23658237.7834
     -1755.8554      -1368.1964
  21500778.6084  -21671219.65048 -16017589.66146  21500776.6494   21500781.1934
      3502.4484       2729.1794
  22041841.1904  -10064997.82247  -7519266.53145  22041840.0594   22041846.3084
      4001.1644       3117.7874
  22834548.2024   -9782593.23247  -5944974.42845  22834546.6924   22834552.4764
      4692.0794       3656.1654
  20434383.7904  -39281327.61049 -29942557.92747  20434381.8474   20434384.6184
      -760.6644       -592.7254
 04 12 12  1 40 29.9970000  0 10G 5G17G10G30G24G 4G 6G29G26G 2
  22840527.8684  -18818412.40148 -14326463.60146  22840525.4564   22840532.0894
     -2087.0014      -1626.2334
  20089285.9184  -37704032.69549 -29080088.33247  20089283.5494   20089288.2844
       838.8724        653.6664
  19326408.3554  -36503476.68449 -28399503.47647  19326405.9144   19326410.8494
        70.4004         54.8584
  21894167.2444  -21992851.20048 -14952684.94746  21894165.4944   21894170.3344
     -1162.0014       -905.4554
  22019911.6634  -27322487.07448 -20931529.95146  22019909.5434   22019914.4064
     -1164.2354       -907.1964
  23668263.4064  -21076388.40547 -16063903.17945  23668261.9544   23668267.7494
     -1757.9804      -1369.8524
  21480810.7634  -21776152.14548 -16099355.20846  21480808.3684   21480813.3644
      3492.7394       2721.6164
  22019022.2134  -10184920.71047  -7612712.86046  22019020.3744   22019025.3674
      3993.4054       3111.7414
  22807769.2194   -9923319.78647  -6054631.47045  22807767.2454   22807773.1684
      4689.2474       3653.9604
  20438748.9094  -39258389.58249 -29924684.14147  20438746.9134   20438749.5294
      -768.8984       -599.1424
 04 12 12  1 40 59.9970000  0 10G 5G17G10G30G24G 4G 6G29G26G 2
  22852444.1974  -18755786.00548 -14277663.84046  22852442.5654   22852448.8944
     -2088.9394      -1627.7424
  20084506.3504  -37729150.47149 -29099660.61747  20084503.8774   20084508.6644
       834.7874        650.4854
  19326044.5764  -36505391.50249 -28400995.53647  19326041.7504   19326046.3734
        56.3584         43.9154
  21900828.7164  -21957841.69148 -14925404.82646  21900827.6844   21900832.1414
     -1172.8654       -913.9214
  22026557.8814  -27287557.84548 -20904312.36846  22026555.6884   22026561.7584
     -1165.3034       -908.0284
  23678295.0614  -21023675.96847 -16022828.59245  23678293.6064   23678297.6364
     -1757.0074      -1369.0954
  21460887.9934  -21880845.49648 -16180934.41746  21460886.4194   21460890.8194
      3485.9734       2716.3444
  21996236.8234  -10304663.46748  -7706018.83846  21996234.5874   21996239.5334
      3988.6544       3108.0394
  22780995.8114  -10064015.72847  -6164264.62845  22780993.5044   22780999.3964
      4689.5204       3654.1744
  20443150.1564  -39235259.16949 -29906660.44547  20443148.4294   20443150.8604
      -774.0464       -603.1524
 04 12 12  1 41 29.9970000  0 10G 5G17G10G30G24G 4G 6G29G26G 2
  22864382.3864  -18693050.84148 -14228779.33546  22864380.7144   22864387.3824
     -2093.4714      -1631.2744
  20079759.2614  -37754094.62349 -29119097.60947  20079757.0864   20079761.9274
       828.0614        645.2424
  19325770.0554  -36506832.64749 -28402118.49747  19325767.5884   19325772.2804
        39.6574         30.9004
  21907563.5264  -21922453.16848 -14897829.33746  21907561.7364   21907565.6644
     -1186.3914       -924.4604
  22033221.7034  -27252544.69748 -20877029.41546  22033218.9004   22033224.6654
     -1169.0364       -910.9364
  23688332.0664  -20970938.61047 -15981734.54845  23688330.0114   23688333.0754
     -1758.7674      -1370.4654
  21441014.6024  -21985283.17348 -16262314.39546  21441012.4174   21441016.7754
      3476.5004       2708.9604
  21973485.8174  -10424208.67948  -7799170.86746  21973484.8764   21973490.6394
      3980.9974       3102.0784
  22754229.8174  -10204663.67347  -6273860.41245  22754229.8374   22754235.9914
      4686.8974       3652.1274
  20447592.1614  -39211922.09549 -29888475.70947  20447589.6964   20447591.5444
      -781.8824       -609.2594
 04 12 12  1 41 59.9970000  0 10G 5G17G10G30G24G 4G 6G29G26G 2
  22876346.2224  -18630185.77448 -14179793.59046  22876343.8204   22876350.5784
     -2096.3884      -1633.5504
  20075050.3354  -37778840.73349 -29138380.28347  20075048.2034   20075053.0614
       822.7854        641.1324
  19325589.8914  -36507777.75049 -28402854.93347  19325587.5624   19325592.3394
        24.5014         19.0914
  21914373.5064  -21886663.99648 -14869941.68546  21914372.3144   21914376.6334
     -1198.3844       -933.8054
  22039904.2954  -27217423.27548 -20849662.09046  22039901.9894   22039907.0904
     -1171.3064       -912.7074
  23698373.6824  -20918152.28347 -15940602.34245  23698373.1214   23698378.6064
     -1759.0624      -1370.7034
  21421194.3644  -22089438.67148 -16343474.50246  21421192.3514   21421196.7034
      3468.3454       2702.6054
  21950781.2554  -10543528.95948  -7892147.60846  21950778.3284   21950784.7064
      3974.8274       3097.2674
  22727480.1694  -10345236.14347  -6383397.34345  22727478.4654   22727484.3674
      4685.6444       3651.1444
  20452076.7744  -39188354.31749 -29870111.20147  20452074.4764   20452075.6264
      -788.2124       -614.1924
 04 12 12  1 42 29.9970000  0 10G 5G17G10G30G24G 4G 6G29G26G 2
  22888324.1834  -18567232.55948 -14130739.16146  22888323.7074   22888328.8344
     -2100.6244      -1636.8524
  20070372.0434  -37803427.16249 -29157538.53347  20070369.5774   20070374.2034
       816.1204        635.9384
  19325496.6154  -36508267.31049 -28403236.40747  19325494.4354   19325499.3314
         8.0164          6.2464
  21921252.6894  -21850515.88648 -14841774.32346  21921250.9334   21921255.4364
     -1211.5964       -944.1004
  22046599.9034  -27182232.11648 -20822240.41946  22046598.5344   22046604.2094
     -1174.9464       -915.5424
  23708422.0314  -20865355.50447 -15899461.99945  23708420.9604   23708425.0064
     -1760.7694      -1372.0304
  21401420.6934  -22193348.45148 -16424443.15346  21401418.6154   21401422.8474
      3458.7674       2695.1434
  21928111.3244  -10662660.19448  -7984977.04846  21928109.7864   21928114.8044
      3967.1404       3091.2744
  22700739.6764  -10485768.63347  -6492903.12545  22700736.0214   22700742.7914
      4682.9614       3649.0574
  20456597.7004  -39164594.88449 -29851597.34747  20456595.6764   20456597.0994
      -795.9354       -620.2094
 04 12 12  1 42 59.9970000  0 10G 5G17G10G30G24G 4G 6G29G26G 2
  22900324.6914  -18504186.52748 -14081612.40846  22900321.3084   22900326.9314
     -2101.9214      -1637.8614
  20065724.9074  -37827846.02749 -29176566.21347  20065722.7724   20065727.6444
       812.2844        632.9484
  19325491.4934  -36508295.28149 -28403258.20547  19325489.2954   19325493.7444
        -5.6024         -4.3654
  21928200.1314  -21814003.92348 -14813323.46946  21928198.6104   21928203.9014
     -1221.9174       -952.1434
  22053312.9444  -27146963.64948 -20794758.50346  22053310.5594   22053314.4294
     -1175.7704       -916.1854
  23718473.0764  -20812540.71347 -15858307.61845  23718471.2954   23718476.4454
     -1759.6444      -1371.1504
  21381696.0384  -22297002.13548 -16505212.23746  21381693.7794   21381698.5224
      3451.9814       2689.8544
  21905479.3934  -10781591.44748  -8077650.69046  21905477.6444   21905482.2604
      3962.1734       3087.4074
  22674003.9624  -10626250.17047  -6602369.24845  22674003.9014   22674009.7194
      4682.9714       3649.0654
  20461157.5364  -39140636.25649 -29832928.27947  20461154.8334   20461156.5154
      -800.8124       -624.0094
 04 12 12  1 43 29.9970000  0 10G 5G17G10G30G24G 4G 6G29G26G 2
  22912337.6624  -18441047.42948 -14032413.12946  22912335.9674   22912341.4314
     -2106.0194      -1641.0574
  20061110.7114  -37852093.72749 -29195460.51947  20061108.7544   20061113.4774
       805.5454        627.6984
  19325574.6134  -36507860.31049 -28402919.24947  19325571.8984   19325576.5064
       -22.0584        -17.1894
  21935218.6324  -21777127.68248 -14784588.75546  21935216.6874   21935221.1454
     -1235.0854       -962.4044
  22060039.5504  -27111614.41148 -20767213.63046  22060037.0364   22060041.8514
     -1179.5134       -919.1014
  23728526.2634  -20759704.62747 -15817136.70645  23728524.9214   23728530.3114
     -1761.4044      -1372.5184
  21362020.4594  -22400394.30948 -16585777.55446  21362019.1564   21362023.8294
      3442.1774       2682.2144
  21882886.0804  -10900316.57948  -8170163.73746  21882884.9944   21882889.9244
      3954.1644       3081.1634
  22647284.2204  -10766674.05847  -6711790.43645  22647282.0264   22647287.0774
      4679.8684       3646.6424
  20465754.6204  -39116475.39349 -29814101.62847  20465752.4564   20465754.5844
      -808.6244       -630.0974
 04 12 12  1 43 59.9970000  0 10G 5G17G10G30G24G 4G 6G29G26G 2
  22924378.9054  -18377772.14048 -13983107.74246  22924376.2574   22924383.0434
     -2110.0424      -1644.1864
  20056538.3114  -37876123.68149 -29214185.15547  20056536.0934   20056540.8054
       798.7204        622.3784
  19325753.6664  -36506918.13049 -28402185.07447  19325751.2304   19325756.0884
       -38.4754        -29.9814
  21942312.7884  -21739843.98348 -14755536.53846  21942311.3274   21942316.3254
     -1248.1134       -972.5564
  22066790.5414  -27076138.47848 -20739570.04246  22066788.0734   22066793.0224
     -1183.2974       -922.0514
  23738594.1194  -20706801.18247 -15775913.27045  23738593.1674   23738597.3554
     -1763.1654      -1373.8954
  21342405.3504  -22503476.42748 -16666101.24846  21342402.9734   21342408.2504
      3432.2914       2674.5124
  21860343.3724  -11018786.25748  -8262477.70146  21860340.3274   21860346.2164
      3946.1114       3074.8874
  22620582.3434  -10906990.93547  -6821128.17545  22620580.1384   22620586.5034
      4676.7684       3644.2324
  20470398.4904  -39092066.06749 -29795081.37147  20470396.9734   20470399.9574
      -816.4044       -636.1594
 04 12 12  1 44 29.9970000  0 10G 5G17G10G30G24G 4G 6G29G26G 2
  22936434.4774  -18314424.05348 -13933745.62346  22936430.6444   22936438.1844
     -2114.0054      -1647.2784
  20051996.1084  -37899996.20449 -29232787.11747  20051993.4084   20051998.0854
       791.9264        617.0844
  19326018.2544  -36505531.00449 -28401104.19247  19326015.4434   19326019.9724
       -54.8274        -42.7214
  21949472.3364  -21702215.91748 -14726216.00646  21949471.0724   21949476.3834
     -1261.1504       -982.7154
  22073553.3834  -27040595.67748 -20711874.35446  22073551.1204   22073556.3194
     -1187.0674       -924.9874
  23748660.4424  -20653890.78247 -15734684.39545  23748661.2184   23748665.4714
     -1764.9454      -1375.2814
  21322837.4554  -22606306.85648 -16746228.83346  21322835.2634   21322839.4674
      3422.3144       2666.7364
  21837836.3274  -11137057.87148  -8354637.32846  21837834.0714   21837840.1384
      3937.8764       3068.4744
  22593889.8544  -11047257.93647  -6930427.12745  22593888.6994   22593894.2894
      4673.5194       3641.7014
  20475079.9324  -39067468.93049 -29775914.77547  20475077.9254   20475080.1654
      -824.2374       -642.2644
 04 12 12  1 44 59.9970000  0 10G 5G17G10G30G24G 4G 6G29G26G 2
  22948513.7694  -18250945.95848 -13884282.22246  22948511.1724   22948516.6254
     -2117.1014      -1649.6894
  20047493.9914  -37923650.64249 -29251219.14247  20047491.9744   20047496.8524
       785.7804        612.2964
  19326377.7764  -36503640.18949 -28399630.82447  19326375.2464   19326379.7294
       -70.4494        -54.8964
  21956710.0734  -21664186.19048 -14696582.46446  21956708.1634   21956712.8874
     -1273.3774       -992.2404
  22080341.2014  -27004925.64048 -20684079.52946  22080339.0024   22080344.5164
     -1190.1664       -927.4014
  23758740.3364  -20600912.96047 -15693403.00245  23758741.5034   23758747.2824
     -1766.0814      -1376.1624
  21303328.6754  -22708822.76748 -16826111.35646  21303327.3954   21303331.3664
      3412.9194       2659.4154
  21815380.2514  -11255067.92148  -8446593.15446  21815378.0164   21815383.0494
      3930.2564       3062.5384
  22567219.0234  -11187411.28147  -7039637.48145  22567217.5434   22567225.5374
      4670.7904       3639.5734
  20479807.7884  -39042624.05649 -29756555.13447  20479805.8434   20479808.2144
      -831.3654       -647.8174
 04 12 12  1 45 29.9970000  0 10G 5G17G10G30G24G 4G 6G29G26G 2
  22960609.4614  -18187377.74648 -13834748.58246  22960607.5414   22960613.9984
     -2120.1834      -1652.0914
  20043027.7024  -37947123.43049 -29269509.62847  20043025.4284   20043029.9474
       779.6084        607.4874
  19326826.1554  -36501284.45949 -28397795.18247  19326823.4544   19326828.0504
       -85.9974        -67.0114
  21964016.2154  -21625794.40148 -14666666.79246  21964014.1604   21964019.0454
     -1285.4564      -1001.6544
  22087145.1304  -26969165.30048 -20656214.33646  22087143.0864   22087149.7454
     -1193.2994       -929.8434
  23768832.6534  -20547904.54847 -15652097.74345  23768829.9284   23768833.9464
     -1767.2164      -1377.0464
  21283874.5794  -22811058.51448 -16905775.54946  21283872.4494   21283876.6374
      3403.4384       2652.0294
  21792966.7824  -11372850.32348  -8538371.62346  21792964.8444   21792969.0944
      3922.5294       3056.5164
  22540564.3764  -11327484.54547  -7148785.43945  22540563.6134   22540569.5234
      4667.9624       3637.3754
  20484575.6384  -39017568.33649 -29737031.19747  20484573.9044   20484575.8094
      -838.4564       -653.3434
 04 12 12  1 45 59.9970000  0 10G 5G17G10G30G24G 4G 6G29G26G 2
  22972732.2864  -18123676.92748 -13785111.60846  22972729.8234   22972734.8434
     -2125.7964      -1656.4624
  20038604.0674  -37970368.92849 -29287623.00347  20038601.6874   20038606.3754
       770.8194        600.6364
  19327370.7574  -36498420.48649 -28395563.50347  19327368.3824   19327372.8674
      -104.1514        -81.1574
  21971398.5994  -21586998.13248 -14636435.95746  21971396.5994   21971401.8244
     -1300.1194      -1013.0804
  22093977.4714  -26933269.15848 -20628243.33646  22093975.0854   22093980.5344
     -1199.0594       -934.3314
  23778933.3234  -20494820.35447 -15610733.44745  23778931.2874   23778935.2284
     -1770.9374      -1379.9464
  21264481.6314  -22912966.52848 -16985184.37546  21264479.7964   21264483.6284
      3391.1964       2642.4884
  21770604.0394  -11490356.54848  -8629934.86346  21770603.7974   21770608.3414
      3912.0084       3048.3184
  22513933.7314  -11467428.94947  -7257833.01545  22513933.0474   22513938.8414
      4662.3504       3632.9964
  20489392.5204  -38992256.48649 -29717307.67447  20489390.5664   20489392.5794
      -848.2394       -660.9664
 04 12 12  1 46 29.9970000  0 10G 5G17G10G30G24G 4G 6G29G26G 2
  22984868.3424  -18059895.52948 -13735411.84246  22984866.6964   22984872.6144
     -2126.1844      -1656.7674
  20034214.7644  -37993435.88849 -29305597.25247  20034212.5384   20034217.1004
       767.0714        597.7174
  19328003.0604  -36495099.00449 -28392975.33047  19328000.3004   19328005.1814
      -117.1904        -91.3164
  21978847.6024  -21547849.35248 -14605930.44246  21978846.0954   21978851.0944
     -1309.6204      -1020.4824
  22100824.2644  -26897286.30348 -20600204.75346  22100822.6624   22100827.8764
     -1199.7574       -934.8754
  23789038.0334  -20441709.37047 -15569348.30545  23789036.7114   23789042.3454
     -1769.6004      -1378.9114
  21245143.1714  -23014593.40648 -17064374.13846  21245140.4114   21245145.3934
      3383.9944       2636.8774
  21748289.2334  -11607632.59248  -8721318.67846  21748286.2924   21748291.8694
      3906.5444       3044.0564
  22487320.3204  -11607290.42847  -7366815.92745  22487317.6694   22487323.4494
      4661.7704       3632.5434
  20494249.1254  -38966737.91949 -29697423.07447  20494246.7204   20494248.7504
      -852.9104       -664.6074
 04 12 12  1 46 59.9970000  0 10G 5G17G10G30G24G 4G 6G29G26G 2
  22997008.7514  -17996098.91448 -13685700.23046  22997006.6414   22997012.8204
     -2126.5424      -1657.0464
  20029847.2564  -38016386.27649 -29323480.65947  20029845.0544   20029849.8444
       763.2754        594.7594
  19328709.4524  -36491383.98649 -28390080.50547  19328707.1424   19328712.1034
      -130.1564       -101.4214
  21986351.9504  -21508413.12648 -14575200.95446  21986350.7754   21986354.9784
     -1319.0294      -1027.8154
  22107676.8834  -26861278.83548 -20572146.98146  22107674.6444   22107679.2684
     -1200.4254       -935.3974
  23799140.5144  -20388633.78447 -15527990.72845  23799138.1344   23799143.0464
     -1768.3364      -1377.9264
  21225846.0814  -23115999.20548 -17143391.61046  21225843.9014   21225849.0224
      3376.7074       2631.2024
  21726003.3914  -11724737.78648  -8812569.38846  21726002.5464   21726007.7414
      3900.8564       3039.6234
  22460709.4554  -11747127.72047  -7475780.01445  22460707.9054   22460713.3804
      4661.0374       3631.9744
  20499131.4434  -38941074.79749 -29677425.83547  20499130.1644   20499131.9684
      -857.6254       -668.2804
 04 12 12  1 47 29.9970000  0 10G 5G17G10G30G24G 4G 6G29G26G 2
  23009165.7914  -17932216.67948 -13635921.90646  23009163.0484   23009169.7474
     -2131.8124      -1661.1504
  20025516.2894  -38039146.28749 -29341215.72747  20025514.1884   20025518.8264
       754.4894        587.9134
  19329505.6964  -36487203.80549 -28386823.21147  19329502.8034   19329507.7664
      -148.0704       -115.3804
  21993924.8474  -21468618.95648 -14544192.52246  21993923.8094   21993928.2464
     -1333.3924      -1039.0074
  22114547.1684  -26825173.15748 -20544012.68746  22114545.2804   22114550.2454
     -1206.1764       -939.8764
  23809246.5034  -20335520.00847 -15486603.39845  23809245.4114   23809249.9114
     -1772.0274      -1380.7984
  21206605.6354  -23217107.98348 -17222177.68446  21206603.8314   21206608.5294
      3364.3494       2621.5704
  21703768.3464  -11841595.46148  -8903627.24246  21703765.4714   21703770.4824
      3890.1144       3031.2554
  22434119.5794  -11886863.94547  -7584665.35045  22434116.9824   22434121.9664
      4655.1834       3627.4144
  20504057.2814  -38915194.10149 -29657259.05347  20504055.1714   20504057.0214
      -867.3314       -675.8424
 04 12 12  1 47 59.9970000  0 10G 5G17G10G30G24G 4G 6G29G26G 2
  23021351.8384  -17868182.46248 -13586025.15646  23021348.9294   23021353.7394
     -2137.5754      -1665.6454
  20021234.5704  -38061646.16349 -29358748.09347  20021232.5874   20021237.0204
       745.0694        580.5724
  19330401.3854  -36482491.53849 -28383151.31347  19330399.1644   19330404.5534
      -166.5144       -129.7514
  22001578.5974  -21428400.46648 -14512853.45646  22001577.2084   22001581.6984
     -1348.1964      -1050.5404
  22121450.0344  -26788899.64448 -20515747.61346  22121448.0144   22121452.7264
     -1212.4674       -944.7814
  23819374.4594  -20282299.02647 -15445132.52245  23819373.5024   23819378.0344
     -1776.4074      -1384.2144
  21187435.6344  -23317848.06648 -17300676.43446  21187433.3784   21187438.6554
      3351.2674       2611.3764
  21681589.4794  -11958133.38548  -8994435.94046  21681588.2004   21681593.0914
      3878.6874       3022.3524
  22407561.0444  -12026426.62547  -7693415.47245  22407558.6504   22407565.2854
      4648.5574       3622.2524
  20509037.2764  -38889026.46949 -29636868.68547  20509034.8584   20509036.1614
      -877.6204       -683.8604
 04 12 12  1 48 29.9970000  0 10G 5G17G10G30G24G 4G 6G29G26G 2
  23033549.1814  -17804077.36048 -13536073.16446  23033547.2514   23033553.0084
     -2137.5404      -1665.6154
  20016987.4124  -38083964.01049 -29376138.61547  20016985.5014   20016990.2294
       741.3094        577.6434
  19331384.4094  -36477326.78649 -28379126.83247  19331381.8264   19331387.0694
      -179.2364       -139.6644
  22009297.3174  -21387839.00048 -14481247.14246  22009295.6544   22009300.3404
     -1357.2944      -1057.6344
  22128369.1484  -26752536.73448 -20487412.89446  22128367.1374   22128372.4354
     -1213.0934       -945.2654
  23829508.0894  -20229048.97047 -15403639.01845  23829505.8454   23829511.4704
     -1774.9834      -1383.1064
  21168321.5604  -23418295.40348 -17378947.07547  21168319.2224   21168323.9344
      3343.8024       2605.5594
  21659460.3014  -12074426.79948  -9085054.11846  21659458.3224   21659463.1654
      3872.8034       3017.7664
  22381022.0084  -12165890.52547  -7802088.59245  22381019.3464   22381025.8074
      4647.5304       3621.4494
  20514056.5654  -38862650.51349 -29616315.98847  20514053.7464   20514055.5934
      -882.2224       -687.4454
 04 12 12  1 48 59.9970000  0 10G 5G17G10G30G24G 4G 6G29G26G 2
  23045756.8794  -17739926.60048 -13486085.58146  23045754.4234   23045760.4694
     -2139.1344      -1666.8564
  20012771.3944  -38106121.61149 -29393404.27547  20012769.1194   20012773.6384
       735.9024        573.4294
  19332448.6904  -36471733.87549 -28374768.71947  19332446.2514   19332451.0924
      -193.5274       -150.8024
  22017075.8554  -21346959.54748 -14449393.04446  22017074.6734   22017079.6354
     -1367.9114      -1065.9044
  22135300.0894  -26716106.80648 -20459025.94546  22135298.9204   22135305.1664
     -1215.4934       -947.1354
  23839640.0644  -20175791.94047 -15362140.09745  23839640.2404   23839645.0974
     -1775.3854      -1383.4124
  21149258.7844  -23518469.80848 -17457005.04246  21149256.6454   21149260.9174
      3334.6064       2598.3924
  21637374.3044  -12190494.69948  -9175496.60546  21637371.7304   21637376.3114
      3865.2194       3011.8564
  22354497.4944  -12305274.53847  -7910699.46646  22354496.2844   22354501.5744
      4644.7654       3619.3024
  20519109.8824  -38836088.41649 -29595618.24647  20519108.1074   20519110.5894
      -888.5094       -692.3454
 04 12 12  1 49 29.9970000  0 10G 5G17G10G30G24G 4G 6G29G26G 2
  23057974.1524  -17675721.01548 -13436055.30646  23057972.2014   23057979.6554
     -2139.7724      -1667.3494
  20008587.9884  -38128106.32749 -29410535.22347  20008585.4654   20008590.1744
       731.1924        569.7594
  19333595.9784  -36465702.27749 -28370068.76447  19333593.7464   19333598.8454
      -207.0704       -161.3544
  22024917.2124  -21305752.56948 -14417283.74046  22024915.8504   22024920.8684
     -1377.6804      -1073.5174
  22142248.5124  -26679596.76948 -20430576.57846  22142247.0194   22142252.4134
     -1217.0244       -948.3314
  23849779.8154  -20122515.40347 -15320625.96245  23849779.5604   23849782.1974
     -1774.9474      -1383.0784
  21130251.7014  -23618356.71948 -17534839.00546  21130248.6294   21130252.8854
      3326.0074       2591.6924
  21615332.2234  -12306321.96848  -9265751.57246  21615330.9204   21615336.3124
      3858.1484       3006.3474
  22327991.7384  -12444562.92147  -8019235.82646  22327990.5174   22327995.4964
      4642.5514       3617.5704
  20524202.5164  -38809328.16249 -29574766.10047  20524200.3354   20524202.9834
      -894.0544       -696.6664
 04 12 12  1 49 59.9970000  0 10G 5G17G10G30G24G 4G 6G29G26G 2
  23070201.7034  -17611470.38748 -13385989.91946  23070199.2584   23070205.2424
     -2142.1894      -1669.2404
  20004436.0714  -38149924.51649 -29427536.39447  20004433.6664   20004438.4664
       724.6914        564.6944
  19334825.9204  -36459240.86949 -28365033.89547  19334823.6404   19334828.1764
      -222.3364       -173.2504
  22032819.3434  -21264228.01548 -14384926.97846  22032817.8984   22032822.5844
     -1389.2004      -1082.4924
  22149211.4504  -26643013.71248 -20402070.31046  22149209.0584   22149214.2614
     -1220.4504       -951.0024
  23859920.4174  -20069226.65447 -15279102.25245  23859919.0444   23859922.1844
     -1776.3764      -1384.1834
  21111295.7314  -23717960.64848 -17612452.44446  21111294.2984   21111299.0404
      3315.6514       2583.6234
  21593335.3114  -12421912.10048  -9355821.73046  21593334.0154   21593339.6404
      3849.2304       2999.3994
  22301503.4314  -12583759.08547  -8127700.32745  22301501.6304   22301506.9704
      4638.4834       3614.4014
  20529331.6004  -38782376.54349 -29553764.84347  20529329.2454   20529332.0054
      -901.3894       -702.3814
 04 12 12  1 50 29.9970000  0  9G 5G17G10G30G24G 6G29G26G 2
  23082443.7584  -17547135.89548 -13335859.19546  23082441.8004   23082447.9094
     -2147.6074      -1673.4574
  20000323.4644  -38171533.87649 -29444374.84647  20000321.4674   20000326.4824
       715.0744        557.2014
  19336144.8524  -36452309.60349 -28359632.89747  19336142.5044   19336146.9994
      -240.6564       -187.5244
  22040789.2204  -21222346.94748 -14352292.39846  22040787.6164   22040792.5504
     -1403.7174      -1093.8034
  22156194.5984  -26606315.57048 -20373474.35346  22156193.0774   22156197.5404
     -1226.9184       -956.0414
  21092404.5424  -23817237.05948 -17689810.67046  21092402.7794   21092407.4394
      3301.9544       2572.9524
  21571394.2864  -12537220.25648  -9445672.14546  21571391.0444   21571396.6604
      3837.1564       2989.9884
  22275041.6784  -12722817.77647  -8236057.70845  22275039.5974   22275045.6584
      4631.2164       3608.7374
  20534504.2984  -38755191.90449 -29532582.01147  20534502.4214   20534504.9544
      -911.8114       -710.5024
 04 12 12  1 50 59.9970000  0  9G 5G17G10G30G24G 6G29G26G 2
  23094693.0334  -17482770.53648 -13285704.39946  23094690.5984   23094696.4944
     -2147.0284      -1673.0064
  19996242.1574  -38192984.52249 -29461089.63047  19996239.6234   19996244.6004
       711.3064        554.2644
  19337544.0324  -36444960.65749 -28353906.43547  19337541.2104   19337545.5284
      -252.9484       -197.1034
  22048816.6284  -21180162.57548 -14319421.48246  22048814.8454   22048819.5804
     -1412.2064      -1100.4174
  22163190.1764  -26569552.54048 -20344827.84846  22163188.4834   22163193.7834
     -1227.5684       -956.5464
  21073566.8494  -23916234.15348 -17766951.26346  21073564.3184   21073568.8964
      3294.2334       2566.9354
  21549495.6284  -12652293.57348  -9535339.59746  21549494.3364   21549498.0624
      3830.8274       2985.0604
  22248596.9484  -12861785.76547  -8344344.39446  22248595.1724   22248600.8724
      4629.6844       3607.5444
  20539712.4144  -38727824.62149 -29511256.86147  20539710.0844   20539712.8634
      -916.3354       -714.0274
 04 12 12  1 51 29.9970000  0  9G 5G17G10G30G24G 6G29G26G 2
  23106963.1354  -17418287.75048 -13235458.09646  23106961.2414   23106966.4614
     -2151.2624      -1676.3064
  19992206.7934  -38214186.39449 -29477610.55947  19992205.0114   19992209.8514
       702.6984        547.5554
  19339038.4494  -36437106.73249 -28347786.48847  19339035.9074   19339039.8374
      -270.1064       -210.4724
  22056918.3554  -21137588.45848 -14286246.87346  22056916.7624   22056921.4564
     -1425.4694      -1110.7574
  22170215.3174  -26532635.07248 -20316060.99346  22170213.4714   22170218.1424
     -1233.0634       -960.8284
  21054797.2194  -24014859.97948 -17843802.56746  21054795.8634   21054801.0074
      3281.4884       2557.0044
  21527660.4914  -12767039.74248  -9624752.15346  21527658.8774   21527663.1534
      3819.5184       2976.2474
  22222187.0494  -13000570.35747  -8452488.20246  22222185.5504   22222190.9904
      4623.1614       3602.4614
  20544971.1564  -38700185.39449 -29489719.80547  20544969.4454   20544972.0654
      -925.7454       -721.3614
 04 12 12  1 51 59.9970000  0  9G 5G17G10G30G24G 6G29G26G 2
  23119242.5204  -17353765.23848 -13185180.83846  23119239.0554   23119245.8764
     -2151.4154      -1676.4284
  19988205.6704  -38235213.89749 -29493995.62347  19988203.7624   19988208.4864
       697.9124        543.8274
  19340614.4234  -36428824.02349 -28341332.41747  19340612.2124   19340616.1384
      -283.2994       -220.7534
  22065079.7014  -21094701.94148 -14252828.83746  22065077.9224   22065082.9274
     -1434.7704      -1118.0014
  22177255.4434  -26495637.19748 -20287231.48846  22177253.7434   22177258.7374
     -1234.6824       -962.0874
  21036086.8944  -24113186.88348 -17920420.93046  21036084.8964   21036090.0424
      3272.5304       2550.0244
  21505873.5244  -12881530.34648  -9713965.54246  21505871.6094   21505877.4494
      3812.0204       2970.4054
  22195799.6574  -13139242.55147  -8560544.37646  22195796.2994   22195802.4734
      4620.4484       3600.3464
  20550268.9214  -38672348.94549 -29468029.06747  20550266.8024   20550268.9644
      -931.2634       -725.6614
 04 12 12  1 52 29.9970000  0  9G 5G17G10G30G24G 6G29G26G 2
  23131522.9114  -17289222.27848 -13134887.66346  23131521.2494   23131527.2254
     -2153.8284      -1678.3084
  19984234.7164  -38256082.48149 -29510256.85647  19984232.6344   19984237.5874
       690.8574        538.3304
  19342269.0074  -36420130.57149 -28334558.29447  19342266.4544   19342270.5884
      -298.7024       -232.7564
  22073296.5044  -21051522.33448 -14219182.41246  22073294.6604   22073299.1934
     -1446.2754      -1126.9704
  22184307.0904  -26458575.15648 -20258351.98246  22184305.4404   22184311.7744
     -1238.5844       -965.1284
  21017430.2834  -24211228.34048 -17996816.85446  21017428.4384   21017433.2704
      3261.2434       2541.2284
  21484131.6994  -12995778.38248  -9802989.89646  21484130.4174   21484136.4974
      3802.1244       2962.6924
  22169428.4604  -13277814.94147  -8668522.83445  22169427.0244   22169432.5434
      4615.2814       3596.3194
  20555601.2924  -38644331.35249 -29446197.17847  20555598.4434   20555600.4454
      -939.0474       -731.7254
 04 12 12  1 52 59.9970000  0  9G 5G17G10G30G24G 6G29G26G 2
  23143815.2304  -17224628.64547 -13084554.99746  23143812.3814   23143819.2764
     -2154.0094      -1678.4474
  19980300.2744  -38276759.09049 -29526368.49647  19980297.7164   19980302.8524
       685.9154        534.4794
  19344006.7624  -36410995.71249 -28327440.21047  19344004.6574   19344009.2654
      -311.8824       -243.0254
  22081574.5504  -21008019.71648 -14185284.29946  22081572.8094   22081577.0574
     -1455.5124      -1134.1644
  22191378.6524  -26421416.08048 -20229396.88146  22191376.9884   22191383.1524
     -1240.3104       -966.4734
  20998834.6724  -24308949.38348 -18072963.12046  20998832.9144   20998837.7634
      3251.9494       2533.9874
  21462445.0084  -13109747.90848  -9891797.26746  21462443.1934   21462448.7224
      3794.2814       2956.5794
  22143086.0024  -13416251.46448  -8776395.39546  22143084.3974   22143089.1244
      4612.1764       3593.9034
  20560972.2884  -38616100.11749 -29424198.81347  20560970.4874   20560972.4194
      -944.6924       -736.1244
 04 12 12  1 53 29.9970000  0  9G 5G17G10G30G24G 6G29G26G 2
  23156116.9934  -17159984.89647 -13034183.29346  23156114.7174   23156120.6894
     -2156.2694      -1680.2094
  19976402.9594  -38297240.79149 -29542328.27247  19976400.4674   19976405.2344
       678.7524        528.8974
  19345829.5784  -36401418.87349 -28319977.72947  19345827.3024   19345831.7834
      -327.2534       -255.0024
  22089913.4734  -20964194.48148 -14151134.77846  22089912.2064   22089917.1024
     -1466.8444      -1142.9974
  22198468.8874  -26384157.17948 -20200363.97546  22198467.4714   22198472.8124
     -1244.3074       -969.5914
  20980301.1484  -24406344.90448 -18148855.73247  20980299.2974   20980303.9004
      3240.3954       2524.9824
  21440811.4014  -13223433.23548  -9980383.20546  21440809.5194   21440812.8094
      3784.1194       2948.6614
  22116769.3034  -13554545.97848  -8884157.30446  22116767.0934   22116772.9234
      4606.7084       3589.6414
  20566386.2614  -38587652.77249 -29402032.04847  20566383.9274   20566385.8524
      -952.5544       -742.2524
 04 12 12  1 53 59.9960000  0  9G 5G17G10G30G24G 6G29G26G 2
  23168433.4134  -17095262.71747 -12983750.47146  23168430.7584   23168436.3884
     -2159.3334      -1682.5934
  19972549.4424  -38317493.09449 -29558109.28147  19972546.6524   19972551.4994
       670.7374        522.6544
  19347741.9104  -36391369.13749 -28312146.76347  19347739.5964   19347744.2264
      -343.3804       -267.5684
  22098320.2804  -20920017.90748 -14116711.50646  22098318.7304   22098324.0474
     -1478.9284      -1152.4084
  22205586.0934  -26346766.21548 -20171228.16646  22205583.6694   22205588.2454
     -1249.1544       -973.3654
  20961837.1544  -24503376.24848 -18224464.56547  20961835.3304   20961839.2034
      3227.9364       2515.2754
  21419240.2484  -13336794.42848 -10068716.57246  21419237.9454   21419241.2544
      3772.9774       2939.9814
  22090485.7204  -13692657.28248  -8991776.43346  22090485.4084   22090491.4674
      4600.3174       3584.6604
  20571847.2494  -38558957.22049 -29379671.87647  20571844.6414   20571846.2894
      -961.2444       -749.0224
 04 12 12  1 54 29.9960000  0  9G 5G17G10G30G24G 6G29G26G 2
  23180759.9914  -17030485.24947 -12933274.54246  23180757.2134   23180763.8614
     -2158.5304      -1681.9714
  19968733.5484  -38337541.48649 -29573731.40647  19968731.2134   19968736.4484
       666.4244        519.2924
  19349739.7484  -36380872.24549 -28303967.36247  19349737.0294   19349741.7214
      -355.7594       -277.2154
  22106789.4514  -20875514.48348 -14082033.53346  22106787.6284   22106792.6754
     -1487.2334      -1158.8834
  22212721.1964  -26309265.16648 -20142006.56646  22212718.9324   22212724.3394
     -1250.3434       -974.2914
  20943436.1964  -24600071.90548 -18299811.82647  20943434.2304   20943438.9344
      3219.1144       2508.4014
  21397723.8254  -13449860.51948 -10156819.96746  21397721.5494   21397726.5514
      3765.4344       2934.1024
  22064234.7714  -13830615.66347  -9099276.41646  22064232.3564   22064237.6254
      4597.5174       3582.4804
  20577350.2254  -38530035.97249 -29357135.83747  20577348.0774   20577349.8314
      -966.2344       -752.9084
 04 12 12  1 54 59.9960000  0  9G 5G17G10G30G24G 6G29G26G 2
  23193086.4444  -16965707.64647 -12882798.51946  23193083.6994   23193090.3804
     -2158.7194      -1682.1224
  19964947.9674  -38357435.08049 -29589232.90847  19964945.7814   19964950.9994
       660.9934        515.0594
  19351811.9954  -36369980.75549 -28295480.47847  19351809.3194   19351814.3854
      -369.1114       -287.6194
  22115310.4324  -20830738.93648 -14047143.52246  22115308.7214   22115313.1384
     -1496.5184      -1166.1194
  22219869.5544  -26271705.21148 -20112739.08546  22219867.0174   22219872.0624
     -1252.5314       -975.9974
  20925090.5024  -24696476.42948 -18374932.23347  20925088.8784   20925093.8544
      3209.1294       2500.6204
  21376255.3454  -13562674.98148 -10244727.24746  21376253.5484   21376259.6654
      3756.7854       2927.3624
  22038002.4144  -13968463.09648  -9206689.98346  22038001.2624   22038006.2004
      4593.4864       3579.3404
  20582886.5224  -38500940.43649 -29334463.99047  20582884.8144   20582886.7674
      -972.2714       -757.6144
 04 12 12  1 55 29.9960000  0  9G 5G17G10G30G24G 6G29G26G 2
  23205423.6684  -16900881.17948 -12832284.41846  23205420.6814   23205426.9464
     -2160.9664      -1683.8684
  19961202.1804  -38377121.81849 -29604573.21547  19961199.4914   19961204.3564
       653.4394        509.1734
  19353969.1324  -36358645.00449 -28286647.42147  19353966.5174   19353971.7484
      -384.5344       -299.6384
  22123891.7994  -20785642.72748 -14012003.64146  22123889.9664   22123895.1004
     -1507.7894      -1174.9004
  22227036.5964  -26234034.56148 -20083385.33946  22227034.8294   22227040.3854
     -1256.8734       -979.3834
  20906810.7834  -24792535.90548 -18449783.74747  20906809.0604   20906814.5354
      3196.9174       2491.1044
  21354846.4904  -13675183.19848 -10332395.91046  21354844.2584   21354849.7444
      3745.8634       2918.8514
  22011804.3684  -14106144.60248  -9313974.25446  22011802.1184   22011806.1454
      4587.2354       3574.4684
  20588467.5254  -38471619.04249 -29311616.14847  20588464.9654   20588466.8434
      -980.4834       -764.0124
 04 12 12  1 55 59.9960000  0  9G 5G17G10G30G24G 6G29G26G 2
  23217763.6494  -16836030.64848 -12781751.56546  23217761.6384   23217766.9874
     -2161.2024      -1684.0494
  19957490.9414  -38396622.84049 -29619768.81247  19957488.6244   19957493.4584
       647.7534        504.7434
  19356205.9084  -36346888.46849 -28277486.48547  19356203.6814   19356208.9014
      -398.0654       -310.1794
  22132529.4104  -20740250.15448 -13976632.82646  22132527.7344   22132532.4704
     -1517.1394      -1182.1814
  22234220.9244  -26196274.81648 -20053962.18046  22234219.9364   22234225.8584
     -1259.3774       -981.3314
  20888593.4904  -24888269.50248 -18524381.33347  20888591.8994   20888596.8824
      3186.4994       2482.9844
  21333490.9554  -13787403.63948 -10419840.37246  21333489.6504   21333493.9884
      3736.7524       2911.7554
  21985630.3914  -14243678.31248  -9421143.32946  21985628.4694   21985635.1754
      4582.7894       3571.0014
  20594085.1584  -38442093.38949 -29288609.14747  20594082.9964   20594085.5644
      -986.7864       -768.9244
 04 12 12  1 56 29.9960000  0  9G 5G17G10G30G24G 6G29G26G 2
  23230107.4574  -16771163.30647 -12731205.58946  23230104.5054   23230111.7414
     -2162.3234      -1684.9184
  19953814.2274  -38415942.50349 -29634823.08947  19953812.2284   19953816.9844
       641.1584        499.6034
  19358521.7364  -36334717.78449 -28268002.82647  19358519.5294   19358524.5674
      -412.3674       -321.3254
  22141222.1844  -20694569.12248 -13941037.24546  22141220.5524   22141225.5104
     -1527.2794      -1190.0874
  22241423.9624  -26158430.36448 -20024473.00946  22241421.6884   22241427.3424
     -1262.7214       -983.9374
  20870438.4044  -24983679.54148 -18598726.79647  20870436.2814   20870440.8124
      3175.1034       2474.1064
  21312190.4784  -13899337.98448 -10507061.94146  21312188.2784   21312192.3044
      3726.5794       2903.8284
  21959487.7834  -14381065.30548  -9528198.08246  21959485.7034   21959491.7514
      4577.2554       3566.6924
  20599740.6314  -38412368.36649 -29265446.79847  20599739.3234   20599741.8394
      -993.9664       -774.5174
 04 12 12  1 56 59.9960000  0  9G 5G17G10G30G24G 6G29G26G 2
  23242448.1024  -16706302.04347 -12680664.39445  23242447.1854   23242452.7424
     -2162.2024      -1684.8344
  19950169.5914  -38435099.89049 -29649750.92747  19950166.7904   19950171.2204
       635.5774        495.2554
  19360913.0914  -36322155.06049 -28258213.69047  19360910.2814   19360915.1324
      -425.5504       -331.5974
  22149965.3164  -20648622.50348 -13905234.69946  22149964.1584   22149968.0874
     -1536.2114      -1197.0454
  22248637.3824  -26120520.92048 -19994933.18546  22248636.0874   22248641.5454
     -1264.9814       -985.6974
  20852340.8114  -25078783.64248 -18672833.89247  20852338.8274   20852342.2954
      3164.7774       2466.0604
  21290941.5664  -14011003.02248 -10594073.62646  21290939.3794   21290943.5234
      3717.3744       2896.6534
  21933368.0784  -14518322.08148  -9635151.35646  21933366.0564   21933371.4364
      4572.7234       3563.1584
  20605432.2764  -38382464.05949 -29242144.74447  20605429.8264   20605432.5254
     -1000.0884       -779.2904
 04 12 12  1 57 29.9960000  0  9G 5G17G10G30G24G 6G29G26G 2
  23254802.9564  -16641392.86147 -12630085.82945  23254799.7814   23254805.8544
     -2164.7484      -1686.8204
  19946564.8854  -38454038.06949 -29664507.94647  19946562.7324   19946567.2554
       627.2464        488.7624
  19363388.0584  -36309145.41649 -28248076.30047  19363385.8394   19363390.5824
      -441.4114       -343.9574
  22158769.8754  -20602356.45648 -13869183.24846  22158768.1834   22158772.8714
     -1547.8124      -1206.0884
  22255875.5924  -26082489.58948 -19965298.38246  22255874.1124   22255878.5824
     -1270.0894       -989.6814
  20834311.9694  -25173522.51548 -18746656.37247  20834310.3134   20834314.3304
      3151.5024       2455.7164
  21269755.6494  -14122339.16248 -10680829.00846  21269752.9154   21269757.9964
      3705.3744       2887.3024
  21907285.1974  -14655388.41048  -9741956.27146  21907283.5604   21907288.4244
      4565.2214       3557.3174
  20611167.0704  -38352323.88249 -29218658.89747  20611165.3334   20611167.7624
     -1008.9554       -786.1994
 04 12 12  1 57 59.9960000  0  9G 5G17G10G30G24G 6G29G26G 2
  23267159.0264  -16576452.51547 -12579482.98745  23267156.8644   23267163.3224
     -2165.3604      -1687.2904
  19943000.4094  -38472770.41149 -29679104.57347  19942997.9784   19943002.5724
       620.7794        483.7234
  19365946.3864  -36295704.65349 -28237602.97547  19365943.8184   19365948.0594
      -455.3414       -354.8104
  22167631.4934  -20555787.95148 -13832896.12146  22167630.1044   22167634.7904
     -1557.4444      -1213.5904
  22263133.8074  -26044350.11948 -19935579.31346  22263131.3014   22263135.9384
     -1273.3134       -992.1914
  20816351.0064  -25267907.80548 -18820203.35246  20816349.1374   20816352.5014
      3140.0984       2446.8304
  21248629.9474  -14233357.17848 -10767336.49646  21248627.2254   21248631.9864
      3695.1384       2879.3244
  21881237.1484  -14792274.43248  -9848620.67546  21881235.1134   21881239.6664
      4559.6164       3552.9464
  20616945.1474  -38321961.64149 -29195000.00947  20616943.3854   20616945.3554
     -1015.9494       -791.6514
 04 12 12  1 58 29.9960000  0  9G 5G17G10G30G24G 6G29G26G 2
  23279525.1004  -16511468.50547 -12528846.12245  23279522.7604   23279529.7034
     -2163.5204      -1685.8624
  19939478.2464  -38491280.85049 -29693528.28947  19939475.8754   19939480.1514
       616.5404        480.4204
  19368588.5194  -36281819.57949 -28226783.43347  19368586.1234   19368590.3164
      -466.9514       -363.8584
  22176552.7994  -20508904.69548 -13796363.73546  22176551.7694   22176557.3434
     -1564.7044      -1219.2494
  22270414.1894  -26006086.75048 -19905763.71546  22270412.1274   22270417.3724
     -1274.2494       -992.9194
  20798460.0404  -25361921.65748 -18893460.88746  20798458.3914   20798462.8064
      3130.8664       2439.6374
  21227566.2894  -14344038.57548 -10853581.67946  21227565.3924   21227570.9634
      3687.0354       2873.0124
  21855225.8334  -14928961.37248  -9955129.91646  21855224.0564   21855230.4914
      4556.1864       3550.2724
  20622767.5134  -38291362.09949 -29171156.21047  20622766.0664   20622768.6034
     -1020.6824       -795.3364
 04 12 12  1 58 59.9960000  0  9G 5G17G10G30G24G 6G29G26G 2
  23291887.0364  -16446500.94147 -12478222.06445  23291885.7784   23291892.1374
     -2165.6334      -1687.5054
  19935987.0064  -38509626.48549 -29707823.59547  19935984.6674   19935988.8014
       608.3744        474.0584
  19371303.8424  -36267549.49249 -28215663.87447  19371301.5484   19371305.7904
      -482.4444       -375.9294
  22185523.2494  -20461766.95348 -13759633.05346  22185521.8094   22185526.1774
     -1575.7994      -1227.8934
  22277708.4604  -25967756.69448 -19875896.15246  22277706.2144   22277712.3864
     -1279.1264       -996.7204
  20780630.1484  -25455619.17348 -18966471.92247  20780628.3904   20780633.3764
      3117.6214       2429.3154
  21206558.1774  -14454437.89048 -10939607.07646  21206556.2734   21206561.4184
      3674.8964       2863.5554
  21829243.9544  -15065503.20648 -10061526.09246  21829241.2744   21829247.2514
      4548.5634       3544.3364
  20628625.4294  -38260582.54249 -29147172.13947  20628623.4894   20628625.3474
     -1029.3544       -802.0954
 04 12 12  1 59 29.9960000  0  9G 5G17G10G30G24G 6G29G26G 2
  23304257.2544  -16381504.85147 -12427575.80345  23304254.3474   23304261.4324
     -2166.1764      -1687.9264
  19932535.7364  -38527758.93849 -29721952.76847  19932533.9654   19932538.5754
       601.6464        468.8154
  19374102.1614  -36252848.56249 -28204208.60647  19374099.3344   19374103.1844
      -496.3884       -386.7954
  22194549.7444  -20414330.04548 -13722669.25246  22194548.3004   22194552.8404
     -1585.3834      -1235.3634
  22285021.9124  -25929311.96448 -19845939.23946  22285020.3684   22285026.7584
     -1282.6564       -999.4734
  20762869.9174  -25548950.07148 -19039197.26947  20762868.5534   20762873.7304
      3105.7244       2420.0454
  21185613.4974  -14564504.25348 -11025373.03946  21185611.5294   21185615.1484
      3664.0854       2855.1314
  21803297.6804  -15201848.54248 -10167769.18846  21803295.4404   21803300.1814
      4542.2984       3539.4544
  20634525.8884  -38229575.23449 -29123010.59847  20634523.7384   20634525.9254
     -1036.5854       -807.7284
 04 12 12  1 59 59.9960000  0  9G 5G17G10G30G24G 6G29G26G 2
  23316631.7314  -16316472.23047 -12376901.06845  23316629.3924   23316635.8734
     -2166.8914      -1688.4894
  19929129.1064  -38545666.57049 -29735906.76247  19929126.4584   19929130.8164
       594.5614        463.2934
  19376982.8034  -36237707.70849 -28192410.53347  19376980.3274   19376984.3854
      -510.5924       -397.8644
  22203635.2854  -20366585.88448 -13685466.02746  22203633.7474   22203638.5754
     -1595.1284      -1242.9584
  22292365.8684  -25890741.34748 -19815884.22946  22292362.7834   22292367.4014
     -1286.3914      -1002.3834
  20745183.1234  -25641900.99248 -19111626.54847  20745180.7894   20745185.6864
      3093.4404       2410.4734
  21164734.3404  -14674223.68248 -11110868.65946  21164732.4924   21164736.5434
      3652.9814       2846.4784
  21777390.6754  -15337982.68848 -10273847.71746  21777389.6644   21777394.9434
      4535.6794       3534.2934
  20640471.8474  -38198329.28349 -29098663.10847  20640469.6374   20640471.7884
     -1044.0934       -813.5804
 04 12 12  2  0 29.9960000  0  9G 5G17G10G30G24G 6G29G26G 2
  23328997.7064  -16251485.48447 -12326262.06645  23328996.5644   23329002.2504
     -2166.8104      -1688.4204
  19925749.0204  -38563428.57049 -29749747.27147  19925746.3784   19925750.5644
       588.2444        458.3714
  19379932.1054  -36222208.59849 -28180333.29347  19379929.7094   19379934.0044
      -523.9614       -408.2814
  22212763.7624  -20318616.90148 -13648087.63146  22212762.0104   22212767.4164
     -1604.0674      -1249.9224
  22299712.9934  -25852124.07648 -19785792.85246  22299710.3474   22299715.8014
     -1289.4024      -1004.7294
  20727552.2354  -25734549.03648 -19183819.82047  20727550.4814   20727555.4294
      3081.8534       2401.4434
  21143907.0464  -14783672.49648 -11196153.41746  21143905.2244   21143909.8614
      3642.4364       2838.2594
  21751511.4294  -15473981.75648 -10379821.00946  21751509.5414   21751515.0794
      4529.6224       3529.5784
  20646447.7354  -38166924.37749 -29074191.75147  20646445.9154   20646448.2074
     -1050.8694       -818.8594
 04 12 12  2  0 59.9960000  0  9G 5G17G10G30G24G 6G29G26G 2
  23341364.9874  -16186505.76647 -12275628.55545  23341361.4914   23341368.6194
     -2167.6344      -1689.0594
  19922404.3014  -38581002.57649 -29763441.29447  19922402.2334   19922406.4134
       580.8524        452.6124
  19382957.1244  -36206311.76249 -28167946.14447  19382954.4234   19382958.8174
      -538.3084       -419.4614
  22221941.8964  -20270384.72148 -13610504.12846  22221940.2844   22221944.3924
     -1613.9114      -1257.5914
  22307079.1214  -25813418.17548 -19755632.42446  22307076.7644   22307080.8364
     -1293.4754      -1007.9024
  20709987.7594  -25826850.18848 -19255742.75747  20709986.2824   20709990.7704
      3069.1314       2391.5314
  21123139.5464  -14892806.38348 -11281192.76646  21123137.3624   21123143.5314
      3630.7094       2829.1224
  21725666.7404  -15609800.57848 -10485653.82346  21725665.1414   21725670.8624
      4522.4744       3524.0064
  20652462.5364  -38135318.90949 -29049564.11747  20652460.2614   20652462.8004
     -1058.6714       -824.9364
 04 12 12  2  1 29.9960000  0  9G 5G17G10G30G24G 6G29G26G 2
  23353737.0084  -16121489.08047 -12224966.22945  23353734.1304   23353739.5204
     -2166.0794      -1687.8554
  19919104.7984  -38598341.62249 -29776952.23347  19919102.4734   19919106.8114
       575.7824        448.6604
  19386065.7784  -36189972.59849 -28155214.32547  19386063.6134   19386068.2894
      -550.2234       -428.7454
  22231178.8014  -20221845.67848 -13572681.51646  22231177.5084   22231181.8894
     -1621.2354      -1263.3004
  22314468.2094  -25774577.22248 -19725366.75046  22314466.7994   22314472.2144
     -1295.1964      -1009.2434
  20692498.7534  -25918755.67948 -19327357.40847  20692496.5734   20692501.5984
      3058.7044       2383.4074
  21102441.7394  -15001575.70748 -11365948.02146  21102439.1484   21102444.9214
      3621.3064       2821.7944
  21699865.3454  -15745388.89048 -10591307.02646  21699863.0314   21699868.9504
      4517.4584       3520.0934
  20658522.8404  -38103466.37149 -29024743.96547  20658521.2804   20658523.9424
     -1064.1374       -829.1984
 04 12 12  2  1 59.9960000  0  9G 5G17G10G30G24G 6G29G26G 2
  23366099.6284  -16056519.84447 -12174340.88945  23366097.0714   23366102.8414
     -2166.3614      -1688.0744
  19915834.8804  -38615526.78249 -29790343.26347  19915832.4834   19915836.7824
       568.7054        443.1474
  19389243.6204  -36173274.74949 -28142203.00947  19389240.9034   19389245.8434
      -564.0934       -439.5534
  22240458.3054  -20173084.37548 -13534685.70946  22240456.4784   22240460.9084
     -1630.5914      -1270.5884
  22321870.3814  -25735682.34448 -19695059.07246  22321868.1704   22321873.7734
     -1298.9364      -1012.1554
  20675069.4194  -26010344.59648 -19398725.38347  20675067.6154   20675072.4444
      3046.1274       2373.6074
  21081797.7894  -15110058.93848 -11450480.36946  21081795.6344   21081800.3184
      3609.7874       2812.8184
  21674091.5964  -15880824.71148 -10696841.37246  21674090.4594   21674096.0674
      4510.3764       3514.5784
  20664616.9004  -38071448.35949 -28999794.87147  20664614.3024   20664616.8554
     -1071.5864       -835.0014
 04 12 12  2  2 29.9960000  0  9G 5G17G10G30G24G 6G29G26G 2
  23378465.3434  -15991528.30747 -12123698.14245  23378464.3624   23378470.3504
     -2165.3454      -1687.2774
  19912607.5934  -38632484.98149 -29803557.44147  19912605.2894   19912609.6934
       562.9314        438.6484
  19392502.2964  -36156147.65049 -28128857.21847  19392499.9134   19392505.3684
      -576.6184       -449.3124
  22249792.4104  -20124031.42148 -13496462.63846  22249790.8074   22249795.5494
     -1638.5164      -1276.7624
  22329296.2524  -25696660.95048 -19664652.80346  22329293.2204   22329299.2814
     -1301.4424      -1014.1094
  20657715.1924  -26101542.17848 -19469788.43047  20657713.3934   20657717.7274
      3034.8094       2364.7874
  21061223.2124  -15218180.80148 -11534731.14946  21061221.3164   21061225.1004
      3599.4764       2804.7844
  21648363.3924  -16016032.24248 -10802197.86446  21648361.2824   21648365.6354
      4504.4444       3509.9604
  20670754.8854  -38039192.60049 -28974660.52447  20670752.5954   20670754.6834
     -1077.7614       -839.8134
 04 12 12  2  2 59.9960000  0 10G 5G17G10G30G24G21G 6G29G26G 2
  23390828.9734  -15926566.53947 -12073078.60145  23390826.7124   23390832.0734
     -2166.4204      -1688.1184
  19909414.7294  -38649264.93449 -29816632.72547  19909412.0204   19909416.6254
       554.8044        432.3144
  19395833.3554  -36138642.37049 -28115216.73447  19395831.1624   19395836.6304
      -591.3014       -460.7534
  22259172.2294  -20074739.03648 -13458053.02646  22259170.1954   22259176.3104
     -1648.5114      -1284.5544
  22336736.2684  -25657561.89748 -19634186.02546  22336733.8754   22336739.7294
     -1306.1184      -1017.7554
  23884653.3084   -7378777.55447  -5494191.44245  23884650.5574   23884655.5814
      3477.7954       2709.9684
  20640426.9234  -26192395.05848 -19540582.87947  20640425.1164   20640429.3844
      3021.1424       2354.1374
  21040707.5964  -15325987.35148 -11618736.22446  21040705.5404   21040710.6664
      3586.7834       2794.8944
  21622668.2164  -16151056.82148 -10907411.80146  21622666.7634   21622671.5914
      4496.1784       3503.5114
  20676928.4224  -38006748.35049 -28949379.29147  20676926.3434   20676928.2664
     -1086.1554       -846.3534
 04 12 12  2  3 29.9960000  0 10G 5G17G10G30G24G21G 6G29G26G 2
  23403189.6934  -15861601.74547 -12022456.71845  23403187.9714   23403196.0694
     -2163.4514      -1685.8004
  19906262.2714  -38665830.18849 -29829540.70747  19906260.0154   19906264.5874
       550.6204        429.0544
  19399243.5814  -36120725.52449 -28101255.56347  19399240.9214   19399246.2804
      -602.0124       -469.1004
  22268604.1754  -20025174.55448 -13419431.40446  22268602.0384   22268607.0284
     -1654.5994      -1289.2974
  22344199.0924  -25618349.46748 -19603630.90046  22344196.6584   22344202.0434
     -1306.9494      -1018.4034
  23864793.2694   -7483146.25647  -5575517.75245  23864789.6184   23864793.6934
      3481.1444       2712.5804
  20623210.6934  -26282865.55648 -19611079.37947  20623208.9834   20623213.2884
      3011.3494       2346.5054
  21020259.6534  -15433439.97248 -11702465.50446  21020258.2454   21020263.5624
      3577.8824       2787.9584
  21597017.7624  -16285859.32048 -11012452.66246  21597015.1224   21597020.2954
      4491.7054       3500.0284
  20683145.1004  -37974079.81049 -28923923.28447  20683142.9654   20683145.0694
     -1090.6644       -849.8674
 04 12 12  2  3 59.9960000  0 10G 5G17G10G30G24G21G 6G29G26G 2
  23415548.0464  -15796662.55347 -11971854.78245  23415546.6904   23415551.3024
     -2164.1374      -1686.3414
  19903145.3954  -38682206.34249 -29842301.33747  19903143.5294   19903148.1684
       542.7264        422.9024
  19402725.6904  -36102425.21149 -28086995.58147  19402723.3934   19402728.7794
      -616.3584       -480.2784
  22278082.2994  -19975366.92948 -13380620.28646  22278080.0784   22278085.6364
     -1664.2494      -1296.8174
  22351676.5644  -25579049.43848 -19573007.50746  22351675.1464   22351679.5384
     -1311.4604      -1021.9164
  23844922.3514   -7587553.19847  -5656873.71445  23844921.6834   23844925.7804
      3480.8074       2712.3234
  20606063.7264  -26372976.96348 -19681296.05347  20606061.5034   20606066.0684
      2997.7824       2335.9334
  20999875.5844  -15540561.70048 -11785936.92546  20999873.7364   20999879.2074
      3565.2444       2778.1094
  21571401.4774  -16420462.10048 -11117337.88546  21571400.5294   21571406.4114
      4483.4094       3493.5634
  20689400.5874  -37941213.08849 -28898312.85447  20689397.6154   20689399.7484
     -1098.8464       -856.2454
 04 12 12  2  4 29.9960000  0 10G 5G17G10G30G24G21G 6G29G26G 2
  23427905.5334  -15731729.41847 -11921257.55745  23427902.8514   23427909.6524
     -2165.9284      -1687.7364
  19900070.2464  -38698370.63449 -29854896.88547  19900067.5744   19900072.4414
       533.6644        415.8424
  19406285.7994  -36083721.14649 -28072420.98047  19406282.9864   19406287.9034
      -631.7934       -492.3064
  22287609.2114  -19925296.94348 -13341604.74046  22287608.3244   22287612.8204
     -1674.9314      -1305.1424
  22359176.4414  -25539638.90548 -19542298.01646  22359173.9554   22359179.5294
     -1317.1644      -1026.3584
  23825053.2144   -7691976.19547  -5738242.23145  23825050.3734   23825056.5484
      3479.4094       2711.2264
  20588988.8964  -26462704.69448 -19751213.76547  20588987.1074   20588991.1594
      2982.8884       2324.3294
  20979558.2604  -15647327.43748 -11869130.95846  20979556.7144   20979562.0454
      3551.3264       2767.2654
  21545830.6934  -16554839.39448 -11222047.40946  21545829.0934   21545835.0824
      4473.8614       3486.1224
  20695696.0174  -37908126.03149 -28872530.72947  20695693.6544   20695696.2014
     -1108.2244       -863.5524
 04 12 12  2  4 59.9960000  0 10G 5G17G10G30G24G21G 6G29G26G 2
  23440262.2184  -15666795.92547 -11870660.04645  23440258.8394   23440264.2654
     -2163.5894      -1685.9104
  19897036.4414  -38714313.46049 -29867319.86747  19897033.7964   19897038.7244
       528.5594        411.8644
  19409922.6134  -36064606.57149 -28057526.49947  19409920.1924   19409924.8604
      -643.1134       -501.1274
  22297189.0794  -19874958.63548 -13302380.09946  22297187.7684   22297192.1244
     -1681.5294      -1310.2824
  22366699.3694  -25500108.76848 -19511495.33046  22366697.0534   22366701.5484
     -1318.8074      -1027.6404
  23805183.0264   -7796405.98747  -5819616.03545  23805179.5964   23805182.8644
      3481.9054       2713.1774
  20571988.4444  -26552037.38948 -19820823.64847  20571986.9654   20571991.7904
      2972.0254       2315.8634
  20959311.6634  -15753725.22648 -11952038.29746  20959310.1174   20959314.5644
      3541.3704       2759.5094
  21520305.7794  -16688978.50048 -11326571.35346  21520304.1874   21520307.9424
      4468.1974       3481.7124
  20702035.2014  -37874809.62249 -28846569.89947  20702033.2534   20702035.6234
     -1113.5134       -867.6724
 04 12 12  2  5 29.9960000  0 10G 5G17G10G30G24G21G 6G29G26G 2
  23452608.2414  -15601914.84447 -11820103.39045  23452605.7234   23452612.6094
     -2163.0204      -1685.4684
  19894034.3714  -38730084.04949 -29879608.62947  19894032.4834   19894037.6044
       521.5664        406.4154
  19413628.3574  -36045133.33549 -28042352.53847  19413625.9214   19413630.2034
      -656.2834       -511.3904
  22306809.0724  -19824405.11448 -13262987.77146  22306808.1194   22306811.7224
     -1689.8944      -1316.7994
  22374233.4924  -25460508.87848 -19480638.29946  22374231.7624   22374238.0914
     -1322.4024      -1030.4424
  23785296.6754   -7900892.42247  -5901034.01745  23785295.0744   23785297.6244
      3482.5304       2713.6694
  20555055.8674  -26641022.72448 -19890162.86047  20555053.9294   20555058.7374
      2959.1924       2305.8634
  20939126.4584  -15859801.97348 -12034695.47246  20939124.1674   20939128.6924
      3529.3364       2750.1324
  21494816.9884  -16822925.97348 -11430945.97646  21494814.9594   21494820.0004
      4460.4464       3475.6714
  20708409.4404  -37841313.97549 -28820469.39947  20708407.3814   20708409.7794
     -1120.7504       -873.3134
 04 12 12  2  5 59.9960000  0 10G 5G17G10G30G24G21G 6G29G26G 2
  23464961.8424  -15536995.20047 -11769516.67445  23464959.7574   23464965.9354
     -2163.5054      -1685.8464
  19891084.6674  -38745587.98649 -29891689.62447  19891082.6584   19891087.5314
       513.4714        400.1074
  19417420.2664  -36025209.34649 -28026827.34847  19417417.5344   19417420.8394
      -670.5244       -522.4874
  22316486.5884  -19773545.38548 -13223356.83146  22316485.9074   22316491.0594
     -1699.2464      -1324.0874
  22381801.6104  -25420745.01948 -19449653.49846  22381799.7404   22381804.9884
     -1327.0974      -1034.0994
  23765419.7884   -8005341.19447  -5982422.64445  23765418.9084   23765423.3084
      3482.0544       2713.2924
  20538207.4944  -26729564.45648 -19959156.40047  20538204.9894   20538209.6214
      2945.0894       2294.8754
  20919018.5944  -15965460.89548 -12117027.06846  20919017.4914   20919022.6814
      3516.0504       2739.7784
  21469381.7434  -16956584.17648 -11535095.14346  21469379.3504   21469385.7304
      4451.5144       3468.7074
  20714835.8004  -37807545.06049 -28794155.96347  20714833.2964   20714836.0344
     -1129.0924       -879.8124
 04 12 12  2  6 29.9960000  0 10G 5G17G10G30G24G21G 6G29G26G 2
  23477293.7214  -15472189.63647 -11719018.86245  23477291.7044   23477297.8894
     -2158.3004      -1681.7944
  19888157.5244  -38760974.82849 -29903679.37147  19888154.6694   19888159.2834
       510.9064        398.1094
  19421267.9484  -36004987.00349 -28011069.65747  19421265.3864   19421268.9184
      -679.0404       -529.1234
  22326195.2124  -19722532.62048 -13183606.66746  22326192.9364   22326198.8974
     -1702.9074      -1326.9394
  22389370.8554  -25380966.96448 -19418657.62346  22389369.1424   22389373.7874
     -1326.2074      -1033.4074
  23745525.6394   -8109902.45847  -6063898.82945  23745522.2414   23745527.6714
      3487.2334       2717.3194
  20521414.3354  -26817810.39648 -20027919.46947  20521412.4584   20521416.7584
      2936.5504       2288.2204
  20898966.0634  -16070849.11448 -12199147.71046  20898963.4084   20898968.2964
      3508.4234       2733.8374
  21443973.3024  -17090099.77748 -11639133.19346  21443972.8274   21443978.1064
      4448.0924       3466.0454
  20721284.7174  -37773653.03849 -28767746.60147  20721282.7744   20721285.6144
     -1131.8274       -881.9424
 04 12 12  2  6 59.9960000  0 10G 5G17G10G30G24G21G 6G29G26G 2
  23489619.9054  -15407422.70847 -11668551.15145  23489616.8994   23489623.1864
     -2159.0074      -1682.3414
  19885265.8944  -38776165.58449 -29915516.31647  19885263.8364   19885268.8154
       502.2644        391.3734
  19425186.7904  -35984390.15649 -27995020.15147  19425184.5444   19425188.4994
      -693.5844       -540.4564
  22335945.1394  -19671291.63048 -13143678.65946  22335943.8584   22335948.8794
     -1712.5624      -1334.4644
  22396958.8054  -25341096.46748 -19387589.70846  22396955.9014   22396961.7034
     -1331.3434      -1037.4084
  23725619.9994   -8214497.34347  -6145401.32645  23725617.4214   23725621.7014
      3486.2744       2716.5894
  20504693.6574  -26905679.70448 -20096389.05747  20504691.6134   20504696.4354
      2921.9034       2276.8074
  20878977.3744  -16175885.56348 -12280994.25746  20878976.1594   20878980.8454
      3494.5454       2723.0214
  21418611.2764  -17223390.64148 -11742996.15546  21418608.8804   21418613.4644
      4438.4434       3458.5234
  20727773.2204  -37739559.86349 -28741180.49347  20727770.7034   20727773.2494
     -1140.5924       -888.7734
 04 12 12  2  7 29.9960000  0 10G 5G17G10G30G24G21G 6G29G26G 2
  23501946.3744  -15342642.04947 -11618072.77145  23501943.6574   23501950.4224
     -2159.1034      -1682.4184
  19882424.0284  -38791104.83349 -29927157.28547  19882421.1524   19882426.0484
       494.2284        385.1124
  19429187.8954  -35963365.92049 -27978637.62147  19429185.2084   19429189.1394
      -707.4964       -551.2964
  22345750.2514  -19619770.45748 -13103532.32046  22345748.6744   22345752.7264
     -1721.5004      -1341.4284
  22404573.4644  -25301078.01648 -19356406.51946  22404570.6164   22404576.0784
     -1335.9554      -1041.0054
  23705721.9824   -8319070.87647  -6226887.18445  23705718.8344   23705722.1804
      3485.8924       2716.2694
  20488054.8474  -26993115.38148 -20164520.75147  20488053.4004   20488057.5624
      2907.7274       2265.7624
  20859066.9104  -16280512.09548 -12362521.38146  20859065.0364   20859070.6524
      3481.1584       2712.5884
  21393299.4934  -17356398.43048 -11846638.57946  21393297.7864   21393301.5844
      4429.2784       3451.3864
  20734309.4034  -37705210.35549 -28714414.64847  20734307.3154   20734310.0724
     -1148.8094       -895.1764
 04 12 12  2  7 59.9960000  0 10G 5G17G10G30G24G21G 6G29G26G 2
  23514270.3564  -15277876.16747 -11567605.88745  23514268.7004   23514275.5484
     -2157.6664      -1681.3004
  19879623.4914  -38805817.76649 -29938621.90147  19879621.5074   19879626.1614
       487.5724        379.9254
  19433264.5534  -35941942.02949 -27961943.67247  19433262.0574   19433266.4164
      -719.8334       -560.9104
  22355602.3754  -19567998.01548 -13063190.17846  22355600.6864   22355605.7504
     -1728.9334      -1347.2214
  22412211.3054  -25260937.28548 -19325128.04846  22412209.6154   22412214.8304
     -1339.1044      -1043.4574
  23685819.3614   -8423648.78547  -6308376.28545  23685817.2784   23685822.4004
      3486.9864       2717.1254
  20471494.5774  -27080140.83848 -20232332.79347  20471492.6324   20471497.9304
      2894.9284       2255.7874
  20839231.2214  -16384751.98248 -12443747.21746  20839229.0664   20839234.0044
      3469.1514       2703.2334
  21368037.0624  -17489145.35748 -11950077.68346  21368035.8314   21368041.9184
      4421.4424       3445.2774
  20740889.5874  -37670630.59649 -28687469.38747  20740887.3914   20740889.8824
     -1155.5554       -900.4334
 04 12 12  2  8 29.9960000  0 10G 5G17G10G30G24G21G 6G29G26G 2
  23526582.8874  -15213172.26247 -11517187.29545  23526580.9844   23526587.1744
     -2157.3274      -1681.0364
  19876858.8234  -38820348.28949 -29949944.38847  19876856.4174   19876860.9814
       479.7444        373.8284
  19437408.3034  -35920165.05149 -27944974.59347  19437406.1224   19437410.7354
      -733.3244       -571.4214
  22365493.1974  -19516021.78248 -13022689.24746  22365491.4894   22365495.8704
     -1737.3764      -1353.8014
  22419866.0824  -25220718.76148 -19293788.95946  22419863.9454   22419868.1624
     -1343.4674      -1046.8564
  23665910.1414   -8528275.23047  -6389903.34945  23665907.7794   23665913.4994
      3486.7954       2716.9804
  20455003.7024  -27166798.50448 -20299858.24147  20455001.7044   20455007.2184
      2880.8794       2244.8434
  20819461.2304  -16488646.77448 -12524704.17346  20819458.8814   20819462.6314
      3455.8494       2692.8704
  21342819.9814  -17621672.35548 -12053345.41346  21342817.8904   21342823.0724
      4412.2994       3438.1524
  20747504.8224  -37635865.20148 -28660379.47347  20747503.3234   20747505.1954
     -1163.5334       -906.6474
 04 12 12  2  8 59.9960000  0 10G 5G17G10G30G24G21G 6G29G26G 2
  23538884.7514  -15148525.20447 -11466812.98445  23538882.5394   23538889.7774
     -2154.0464      -1678.4804
  19874129.6274  -38834687.98849 -29961118.17747  19874127.4594   19874132.3104
       474.6984        369.8954
  19441620.6554  -35898029.42849 -27927726.05247  19441618.5044   19441623.1674
      -743.9204       -579.6784
  22375423.5554  -19463837.09648 -12982025.88046  22375421.6414   22375426.8124
     -1743.0134      -1358.1914
  22427534.8424  -25180413.98048 -19262382.65846  22427533.0194   22427538.4204
     -1345.0244      -1048.0724
  23645991.9374   -8632942.36847  -6471462.14545  23645989.8344   23645992.5984
      3489.5194       2719.1114
  20438585.8804  -27253077.69548 -20367088.77847  20438583.4764   20438588.1684
      2869.5474       2236.0124
  20799757.7624  -16592185.73048 -12605383.86446  20799755.8724   20799760.1764
      3445.2574       2684.6154
  21317645.6624  -17753967.79948 -12156432.71946  21317643.7064   21317649.1144
      4405.8704       3433.1434
  20754156.9234  -37600906.26748 -28633138.74347  20754155.3044   20754157.4424
     -1168.6004       -910.5974
 04 12 12  2  9 29.9960000  0 10G 5G17G10G30G24G21G 6G29G26G 2
  23551188.6274  -15083877.81947 -11416438.43445  23551185.7034   23551191.1444
     -2153.1464      -1677.7754
  19871448.7404  -38848776.56049 -29972096.28347  19871446.5164   19871451.2584
       467.1544        364.0174
  19445912.5484  -35875477.50749 -27910153.11847  19445910.1714   19445914.8454
      -756.9054       -589.7964
  22385403.4024  -19411387.22148 -12941155.88346  22385402.2644   22385407.0594
     -1750.9614      -1364.3824
  22435232.8764  -25139963.11148 -19230862.52346  22435230.7324   22435235.3164
     -1349.0584      -1051.2144
  23626079.2584   -8737590.09847  -6553005.75345  23626076.2054   23626079.7404
      3489.6794       2719.2354
  20422250.8874  -27338916.55348 -20433976.19747  20422248.8604   20422253.2324
      2855.7284       2225.2424
  20780134.3124  -16695306.15648 -12685737.41046  20780132.8814   20780137.6254
      3432.1204       2674.3774
  21292524.7054  -17885968.64848 -12259290.49446  21292524.0154   21292528.7694
      4396.8444       3426.1094
  20760858.0434  -37565694.03048 -28605700.63247  20760855.8964   20760858.2604
     -1176.2504       -916.5594
 04 12 12  2  9 59.9960000  0 10G 5G17G10G30G24G21G 6G29G26G 2
  23563474.5754  -15019299.52247 -11366117.74245  23563473.6844   23563480.5704
     -2153.2304      -1677.8384
  19868803.0614  -38862679.85949 -29982930.01647  19868800.7694   19868805.4654
       458.5064        357.2774
  19450270.6724  -35852577.83249 -27892309.21647  19450268.1164   19450272.8084
      -770.9374       -600.7294
  22395422.1854  -19358741.68348 -12900133.41746  22395420.9754   22395425.6714
     -1759.8634      -1371.3214
  22442944.3304  -25099432.53148 -19199280.26146  22442942.7914   22442947.8354
     -1354.1984      -1055.2214
  23606156.0334   -8842284.57347  -6634585.81145  23606153.7864   23606158.1264
      3488.7724       2718.5234
  20405987.6754  -27424379.40948 -20500570.62247  20405986.1504   20405990.5714
      2840.6494       2213.4924
  20760579.6954  -16798071.92148 -12765814.58846  20760577.5824   20760582.5804
      3417.8024       2663.2204
  21267449.7474  -18017737.61848 -12361967.57546  21267448.4344   21267453.1894
      4386.5574       3418.0944
  20767594.0414  -37530295.21548 -28578117.14147  20767592.2764   20767595.0264
     -1184.9484       -923.3364
 04 12 12  2 10 29.9960000  0 10G 5G17G10G30G24G21G 6G29G26G 2
  23575759.6744  -14954752.58247 -11315821.46045  23575756.1544   23575763.3014
     -2151.4204      -1676.4294
  19866200.0514  -38876356.91449 -29993587.45547  19866198.0234   19866202.8904
       451.7614        352.0214
  19454701.8254  -35829292.26249 -27874164.61947  19454699.2034   19454703.3384
      -782.9784       -610.1144
  22405485.1874  -19305863.31248 -12858929.50546  22405483.4654   22405488.1594
     -1766.7904      -1376.7224
  22450679.2414  -25058781.56048 -19167604.19046  22450677.8364   22450683.6704
     -1357.4014      -1057.7144
  23586232.6544   -8946985.24047  -6716170.70145  23586229.7694   23586233.9794
      3489.7284       2719.2724
  20389804.9414  -27509423.54948 -20566838.77647  20389803.1774   20389807.1754
      2827.4454       2203.2034
  20741098.4154  -16900439.80048 -12845581.72846  20741097.0874   20741102.7224
      3405.2444       2653.4364
  21242428.7484  -18149230.76848 -12464429.71546  21242426.0124   21242431.5864
      4378.1034       3411.5064
  20774373.4374  -37494669.50848 -28550356.85147  20774371.7334   20774374.4214
     -1191.6754       -928.5784
 04 12 12  2 10 59.9960000  0 10G 5G17G10G30G24G21G 6G29G26G 2
  23588038.1984  -14890237.95347 -11265550.36045  23588034.5514   23588039.3494
     -2149.5314      -1674.9534
  19863641.3504  -38889805.47949 -30004066.84947  19863638.8514   19863643.6664
       444.8484        346.6344
  19459206.1144  -35805620.96949 -27855719.45247  19459203.6444   19459208.1154
      -795.0634       -619.5294
  22415591.1024  -19252753.41948 -12817545.19246  22415590.0154   22415594.9484
     -1773.7144      -1382.1124
  22458439.3044  -25018008.35848 -19135832.88646  22458437.3494   22458443.1384
     -1360.7474      -1060.3204
  23566308.4504   -9051690.27447  -6797758.92945  23566304.4074   23566308.5344
      3490.6914       2720.0114
  20373702.2684  -27594045.11648 -20632777.66047  20373700.4824   20373704.7424
      2814.0814       2192.7904
  20721695.6774  -17002405.19348 -12925035.24346  20721693.6404   20721698.7144
      3392.5294       2643.5294
  21217459.9934  -18280443.01148 -12566672.95646  21217458.3904   21217463.3004
      4369.3964       3404.7224
  20781197.1644  -37458815.26548 -28522418.48647  20781194.7094   20781197.5114
     -1198.5554       -933.9384
 04 12 12  2 11 29.9960000  0 10G 5G17G10G30G24G21G 6G29G26G 2
  23600297.9114  -14825798.11347 -11215337.49745  23600295.5214   23600302.6184
     -2146.2174      -1672.3724
  19861117.8874  -38903064.99549 -30014398.93347  19861115.5354   19861120.5174
       439.3454        342.3474
  19463775.9184  -35781606.28749 -27837006.70647  19463773.3934   19463777.4984
      -805.6564       -627.7844
  22425733.8184  -19199455.02248 -12776014.00646  22425732.1344   22425737.5984
     -1779.1454      -1386.3464
  22466214.2094  -24977152.78848 -19103997.40346  22466212.3514   22466217.5014
     -1362.6984      -1061.8414
  23546374.6184   -9156439.45847  -6879381.59445  23546372.4334   23546377.3574
      3492.8724       2721.7144
  20357672.4774  -27678281.78448 -20698416.62347  20357670.5854   20357674.8984
      2802.0044       2183.3804
  20702362.1234  -17104005.25248 -13004204.09746  20702360.2194   20702364.3044
      3381.1594       2634.6684
  21192536.7984  -18411410.52148 -12668725.49646  21192535.8344   21192541.2294
      4362.0204       3398.9764
  20788055.1004  -37422772.58248 -28494333.29047  20788053.1024   20788055.9034
     -1204.0594       -938.2274
 04 12 12  2 11 59.9960000  0 10G 5G17G10G30G24G21G 6G29G26G 2
  23612548.0694  -14761434.31747 -11165183.92245  23612544.4824   23612551.2454
     -2143.9084      -1670.5764
  19858631.0424  -38916133.09349 -30024581.86247  19858628.9004   19858634.1854
       432.6364        337.1194
  19468410.9484  -35757248.93849 -27818026.95347  19468408.5004   19468412.5994
      -817.3674       -636.9084
  22435910.5234  -19145969.74648 -12734337.20446  22435909.5464   22435914.8714
     -1785.6474      -1391.4094
  22474004.0684  -24936212.86848 -19072096.18146  22474002.4334   22474008.1164
     -1365.8354      -1064.2904
  23526431.7404   -9261231.20647  -6961037.41445  23526429.0554   23526434.4214
      3494.0134       2722.6014
  20341715.5584  -27762129.87048 -20763752.79247  20341714.0824   20341718.5534
      2788.6994       2173.0134
  20683097.8164  -17205235.85448 -13083085.06746  20683096.6124   20683100.0614
      3368.4414       2624.7604
  21167661.6194  -18542128.38248 -12770583.51246  21167659.7654   21167665.1224
      4353.3514       3392.2214
  20794950.6994  -37386539.87648 -28466100.01447  20794948.3354   20794950.6944
     -1210.6664       -943.3764
 04 12 12  2 12 29.9960000  0 10G 5G17G10G30G24G21G 6G29G26G 2
  23624783.8984  -14697118.24547 -11115067.53745  23624782.5734   23624789.1024
     -2142.8594      -1669.7604
  19856186.8124  -38928978.27449 -30034591.09047  19856184.3414   19856189.9464
       424.6214        330.8734
  19473116.5984  -35732519.88649 -27798757.55647  19473114.0524   19473117.7054
      -830.3044       -646.9914
  22446130.0614  -19092269.75048 -12692493.08946  22446128.4234   22446133.7924
     -1793.3734      -1397.4314
  22481816.5894  -24895157.59648 -19040105.08846  22481815.0574   22481820.5274
     -1370.2994      -1067.7644
  23506490.0814   -9366033.87247  -7042701.79145  23506488.0104   23506492.4664
      3493.8074       2722.4434
  20325839.9954  -27845556.06648 -20828760.21747  20325838.3054   20325843.1244
      2774.0164       2161.5694
  20663911.5434  -17306063.10448 -13161651.74046  20663909.4904   20663913.7774
      3354.3514       2613.7804
  21142841.4264  -18672562.02948 -12872220.04946  21142839.7044   21142844.7214
      4343.1914       3384.3024
  20801885.9704  -37350086.40348 -28437694.71247  20801884.5404   20801887.2324
     -1218.6744       -949.6164
 04 12 12  2 12 59.9960000  0 10G 5G17G10G30G24G21G 6G29G26G 2
  23637017.8324  -14632835.43847 -11064977.05645  23637015.3214   23637022.4264
     -2141.9754      -1669.0764
  19853787.9984  -38941583.02549 -30044412.97047  19853785.8684   19853791.4274
       416.3564        324.4334
  19477895.9974  -35707404.01849 -27779186.74347  19477893.4764   19477897.3924
      -843.4314       -657.2194
  22456392.6064  -19038340.97848 -12650470.71446  22456390.8494   22456396.2684
     -1801.1424      -1403.4854
  22489655.7454  -24853969.73748 -19008010.65946  22489653.3414   22489658.2444
     -1374.9404      -1071.3784
  23486548.5754   -9470830.42447  -7124361.39845  23486545.5654   23486547.7224
      3493.2954       2722.0434
  20310049.3614  -27928541.09948 -20893423.87647  20310047.2894   20310051.5644
      2759.0064       2149.8754
  20644804.9124  -17406467.15948 -13239888.63546  20644803.2214   20644808.2814
      3339.9204       2602.5344
  21118080.7234  -18802690.66348 -12973618.94946  21118077.9684   21118082.1704
      4332.6954       3376.1264
  20808869.4004  -37313395.12248 -28409104.10447  20808866.8954   20808868.9784
     -1226.8224       -955.9654
 04 12 12  2 13 29.9960000  0 10G 5G17G10G30G24G21G 6G29G26G 2
  23649231.7274  -14568664.86047 -11014974.04345  23649227.2574   23649233.6674
     -2137.0134      -1665.1994
  19851420.7904  -38954022.89149 -30054106.37347  19851418.4764   19851423.8014
       412.0304        321.0624
  19482733.9664  -35681979.81749 -27759375.67247  19482731.4514   19482735.7174
      -852.4324       -664.2324
  22466682.9774  -18984262.69348 -12608331.81646  22466681.7414   22466686.6844
     -1804.9224      -1406.4354
  22497503.4734  -24812725.04048 -18975871.95546  22497501.0334   22497507.3934
     -1375.6594      -1071.9424
  23466591.6904   -9575696.41647  -7206075.15245  23466589.8584   23466592.3894
      3496.8284       2724.8074
  20294327.4914  -28011158.85148 -20957801.33847  20294325.9074   20294330.0924
      2747.9374       2141.2504
  20625765.5354  -17506521.47248 -13317852.98547  20625763.3074   20625769.1144
      3329.4534       2594.3784
  21093360.1214  -18932587.12448 -13074836.92046  21093358.7164   21093363.9654
      4326.0934       3370.9784
  20815882.6924  -37276542.29548 -28380387.61847  20815880.0764   20815882.1944
     -1230.9804       -959.2054
 04 12 12  2 13 59.9960000  0 10G 5G17G10G30G24G21G 6G29G26G 2
  23661426.0814  -14504559.63747 -10965021.95145  23661425.7764   23661433.1364
     -2136.2674      -1664.6194
  19849094.3304  -38966247.59549 -30063632.11447  19849092.1414   19849097.5764
       403.3834        314.3254
  19487639.5214  -35656200.03049 -27739287.52047  19487637.1504   19487641.3784
      -865.7484       -674.6104
  22477012.9854  -18929988.52648 -12566040.27846  22477010.7004   22477015.0874
     -1812.8424      -1412.6034
  22505373.5694  -24771373.51048 -18943650.00146  22505370.9514   22505375.8014
     -1380.6514      -1075.8294
  23446632.3374   -9680582.34947  -7287804.45245  23446629.4774   23446633.2584
      3496.0504       2724.1914
  20278686.3774  -28093357.69248 -21021852.38247  20278683.9944   20278688.7294
      2732.4764       2129.2024
  20606802.3884  -17606173.71548 -13395504.03447  20606800.2664   20606805.8504
      3314.5894       2582.7954
  21068694.6574  -19062198.13548 -13175832.44346  21068693.4324   21068699.9964
      4315.0744       3362.3914
  20822934.8344  -37239478.29148 -28351506.58247  20822932.9294   20822935.1584
     -1239.4844       -965.8314
 04 12 12  2 14 29.9960000  0 10G 5G17G10G30G24G21G 6G29G26G 2
  23673605.8714  -14440567.97047 -10915158.31045  23673602.0314   23673609.4744
     -2131.4874      -1660.9044
  19846800.2014  -38978302.19049 -30073025.30447  19846798.1914   19846803.5234
       398.5964        310.5944
  19492603.9094  -35630112.52649 -27718959.59347  19492601.5414   19492605.9864
      -875.0554       -681.8624
  22487368.1024  -18875567.10448 -12523633.99246  22487366.2964   22487371.3084
     -1816.8614      -1415.7354
  22513253.0364  -24729961.16648 -18911380.65746  22513251.5974   22513256.1914
     -1381.8144      -1076.7394
  23426662.4224   -9785533.71547  -7369584.65745  23426658.5974   23426661.9784
      3499.1154       2726.5734
  20263114.2214  -28175180.91048 -21085610.72347  20263113.2514   20263117.8454
      2720.8624       2120.1514
  20587907.5754  -17705466.94748 -13472875.35646  20587905.8494   20587910.3444
      3303.4174       2574.0904
  21044076.5294  -19191565.90848 -13276638.40646  21044075.7374   21044081.7474
      4307.7934       3356.7194
  20830020.1654  -37202248.92248 -28322496.68847  20830018.1214   20830019.7164
     -1244.1424       -969.4604
