     2.10           OBSERVATION DATA    G (GPS)             RINEX VERSION / TYPE
teqc  2000Jul20     CORS-ADM Account    20041212 05:50:01UTCPGM / RUN BY / DATE
Solaris 2.7|Ultra 2|cc SC5.0|=+-|*Sparc                     COMMENT
teqc  2000Jul20     CORS/NGS/NOAA       20041212 05:49:55UTCCOMMENT
BIT 2 OF LLI FLAGS DATA COLLECTED UNDER A/S CONDITION       COMMENT
htv1                                                        MARKER NAME
Jason Cockrell      U.S. Coast Guard                        OBSERVER / AGENCY
2199912124          ASHTECH Z-XII3      RD00                REC # / TYPE / VERS
16020               ASH700829.3     SNOW                    ANT # / TYPE
   350722.8656 -5130731.1515  3760329.7009                  APPROX POSITION XYZ
        0.0000        0.0000        0.0000                  ANTENNA: DELTA H/E/N
     1     1                                                WAVELENGTH FACT L1/2
     7    C1    L1    L2    P1    P2    D1    D2            # / TYPES OF OBSERV
    30.0000                                                 INTERVAL
 SNR is mapped to RINEX snr flag value [1-9]                COMMENT
  L1: 1 -> 1;  90 -> 5; 210 -> 9                            COMMENT
  L2: 1 -> 1; 150 -> 5; 250 -> 9                            COMMENT
Forced Modulo Decimation to 30 seconds                      COMMENT
  2004    12    11     0     0    0.0000000     GPS         TIME OF FIRST OBS
                                                            END OF HEADER
 04 12 11  0  0  0.0000000  0  9G17G 4G 5G 2G30G10G24G13G 7
  21895452.3634  -28722212.38449 -21788999.77347  21895450.3814   21895456.6774
      2134.3864       1663.1594
  21810390.2474  -30058646.64049 -23394803.27247  21810388.3444   21810392.2614
     -1356.7794      -1057.2304
  21731550.3284  -23895143.83349 -18284144.11547  21731548.1284   21731553.2134
       700.3484        545.7274
  20560464.1334  -39173198.27149 -30181281.58547  20560462.2224   20560464.0894
       985.4804        767.9064
  22722385.4034  -15998275.93348 -11838085.52846  22722383.9174   22722387.8754
      2607.1814       2031.5694
  21697690.6084  -23662432.20549 -16380744.20947  21697688.1874   21697694.0014
      3713.1774       2893.3844
  21099049.5724  -33241704.87449 -25544133.20847  21099047.5304   21099052.2814
      -290.8224       -226.6144
  24391233.5844   -4297398.91147  -3168753.14946  24391231.6434   24391235.0564
      1262.7184        983.9324
  23522846.7944  -29596419.77747 -22461526.92345  23522844.1994   23522850.7764
     -1818.6344      -1417.1164
 04 12 11  0  0 30.0000000  0  9G17G 4G 5G 2G30G10G24G13G 7
  21883288.0574  -28786137.59849 -21838811.61447  21883285.6234   21883291.9884
      2127.1254       1657.5004
  21818147.1864  -30017879.59049 -23363036.74147  21818145.6174   21818149.9694
     -1361.0464      -1060.5554
  21727608.3944  -23915862.29849 -18300288.38447  21727606.0994   21727611.1384
       680.7704        530.4694
  20554867.6744  -39202609.90449 -30204199.72947  20554865.6674   20554867.1724
       975.1444        759.8524
  22707550.8104  -16076230.85648 -11898829.59146  22707549.4764   22707554.4884
      2589.7354       2017.9744
  21676531.4664  -23773622.12149 -16467385.65647  21676529.4034   21676535.3274
      3699.3834       2882.6344
  21100727.8854  -33232883.10549 -25537259.10147  21100726.1364   21100731.0564
      -297.4934       -231.8134
  24384073.7554   -4335021.10847  -3198069.13546  24384072.1924   24384076.5134
      1245.2804        970.3534
  23533251.6864  -29541740.17147 -22418919.50245  23533249.4664   23533255.9514
     -1826.7264      -1423.4214
 04 12 11  0  1  0.0000000  0  9G17G 4G 5G 2G30G10G24G13G 7
  21871162.2354  -28849856.83549 -21888462.95547  21871160.0584   21871165.9694
      2121.3174       1652.9734
  21825926.7384  -29976997.10149 -23331180.26947  21825925.1674   21825929.2654
     -1363.8504      -1062.7414
  21723774.7934  -23936004.77049 -18315983.82847  21723772.5834   21723778.6094
       662.5534        516.2754
  20549327.8484  -39231723.06449 -30226885.29947  20549325.6684   20549326.9994
       966.2144        752.8944
  22692813.3404  -16153672.42948 -11959173.65346  22692812.1344   22692817.3194
      2573.6074       2005.4064
  21655450.4814  -23884408.78549 -16553712.88447  21655447.5214   21655453.0004
      3686.9164       2872.9204
  21102442.5074  -33223873.25649 -25530238.44147  21102440.6904   21102445.5854
      -302.6754       -235.8514
  24377012.9444   -4372129.13547  -3226984.44446  24377011.3324   24377013.9464
      1229.1254        957.7584
  23543700.4044  -29486830.24647 -22376132.60045  23543698.6624   23543703.6424
     -1833.3544      -1428.5874
 04 12 11  0  1 30.0000000  0  9G17G 4G 5G 2G30G10G24G13G 7
  21859075.2634  -28913377.86349 -21937959.85147  21859072.7504   21859078.3854
      2114.2574       1647.4734
  21833727.2564  -29936007.15649 -23299240.05847  21833725.2744   21833729.2724
     -1367.9044      -1065.8994
  21720049.6224  -23955578.50749 -18331236.10847  21720047.9214   21720053.2044
       643.1844        501.1824
  20543842.5754  -39260545.53849 -30249344.35547  20543840.7584   20543842.4314
       956.0864        745.0024
  22678173.0134  -16230606.04348 -12019121.90046  22678171.9924   22678176.6594
      2556.2124       1991.8544
  21634443.9464  -23994796.94449 -16639729.58747  21634441.3914   21634447.0394
      3673.1084       2862.1614
  21104191.2874  -33214683.49149 -25523077.58247  21104189.1934   21104194.2514
      -309.1074       -240.8624
  24370047.4754   -4408728.76347  -3255503.62046  24370046.1124   24370050.2764
      1211.7034        944.1854
  23554192.5804  -29431697.77647 -22333172.25645  23554190.0904   23554194.8874
     -1841.2324      -1434.7254
 04 12 11  0  2  0.0000000  0  9G17G 4G 5G 2G30G10G24G13G 7
  21847025.4744  -28976696.00449 -21987298.65047  21847023.4994   21847028.8744
      2107.1134       1641.9074
  21841547.6094  -29894906.17449 -23267213.32547  21841546.5534   21841549.9974
     -1371.9504      -1069.0524
  21716434.9934  -23974579.34449 -18346041.95947  21716432.6554   21716437.2794
       623.7354        486.0274
  20538414.4294  -39289072.99349 -30271573.53447  20538412.3404   20538413.8504
       945.9104        737.0744
  22663632.0864  -16307025.21148 -12078669.29746  22663630.1554   22663634.4124
      2538.6204       1978.1434
  21613514.3764  -24104779.60749 -16725430.32147  21613512.2624   21613518.0384
      3659.2144       2851.3354
  21105975.2034  -33205310.11549 -25515773.64947  21105973.0874   21105978.2374
      -315.6044       -245.9254
  24363180.9304   -4444813.73248  -3283621.74946  24363179.8974   24363182.9214
      1194.1574        930.5164
  23564727.9924  -29376338.42547 -22290035.10545  23564725.1304   23564730.3664
     -1849.0994      -1440.8604
 04 12 11  0  2 30.0000000  0  9G17G 4G 5G 2G30G10G24G13G 7
  21835019.1454  -29039792.37148 -22036464.63347  21835016.9404   21835021.8224
      2099.5014       1635.9754
  21849394.1074  -29853675.84349 -23235085.78847  21849392.2354   21849395.7834
     -1376.4124      -1072.5294
  21712931.1354  -23992988.18649 -18360386.52447  21712928.9864   21712935.1274
       603.7474        470.4534
  20533045.7434  -39317287.04249 -30293558.50847  20533043.3954   20533044.8684
       935.2514        728.7674
  22649191.9044  -16382908.87948 -12137799.40446  22649190.5004   22649195.1274
      2520.5364       1964.0534
  21592666.9274  -24214335.11349 -16810798.20347  21592664.4964   21592670.1814
      3644.7154       2840.0374
  21107797.1604  -33195735.19449 -25508312.67147  21107795.1284   21107800.4554
      -322.5034       -251.3024
  24356416.8514   -4480363.57948  -3311322.91246  24356415.3314   24356418.1894
      1176.1064        916.4474
  23575308.3344  -29320733.80147 -22246706.86345  23575306.0164   23575312.5714
     -1857.5224      -1447.4204
 04 12 11  0  3  0.0000000  0  9G17G 4G 5G 2G30G10G24G13G 7
  21823055.7584  -29102659.71248 -22085452.17047  21823053.6174   21823058.3474
      2094.0814       1631.7524
  21857265.5854  -29812309.99349 -23202852.66047  21857264.2124   21857267.5884
     -1378.7584      -1074.3564
  21709542.4424  -24010797.99849 -18374264.32147  21709540.0984   21709545.6244
       585.9894        456.6164
  20527737.2494  -39345180.46849 -30315293.64647  20527735.2624   20527736.6294
       926.7364        722.1324
  22634856.1464  -16458247.61048 -12196504.88746  22634854.5654   22634858.9124
      2504.5154       1951.5714
  21571902.4484  -24323453.62449 -16895825.57547  21571900.0574   21571905.3894
      3632.2894       2830.3534
  21109658.5464  -33185952.08249 -25500689.46647  21109656.7294   21109661.9044
      -327.2474       -254.9974
  24349754.6894   -4515369.29048  -3338600.06146  24349753.3274   24349757.4654
      1160.0584        903.9434
  23585936.1594  -29264876.75647 -22203181.98445  23585934.2954   23585942.7524
     -1863.7074      -1452.2344
 04 12 11  0  3 30.0000000  0  9G17G 4G 5G 2G30G10G24G13G 7
  21811128.6524  -29165336.84748 -22134291.49447  21811126.3224   21811131.8184
      2084.8974       1624.5964
  21865156.0264  -29770847.91049 -23170544.53747  21865154.3324   21865158.5384
     -1384.7964      -1079.0624
  21706259.6304  -24028047.72649 -18387705.68547  21706257.5244   21706263.1704
       564.5334        439.8964
  20522482.7834  -39372792.46549 -30336809.48147  20522481.0514   20522482.5304
       914.5344        712.6224
  22620615.7904  -16533078.21848 -12254814.44546  22620614.6074   22620618.3434
      2484.7164       1936.1434
  21551214.2894  -24432171.13149 -16980540.48547  21551212.0684   21551216.9814
      3616.0624       2817.7104
  21111552.1014  -33176000.02849 -25492934.61947  21111550.4274   21111555.5264
      -335.6984       -261.5834
  24343190.0404   -4549868.47247  -3365482.52346  24343188.7384   24343191.6304
      1140.3734        888.6014
  23596607.7154  -29208806.38347 -22159490.83845  23596605.4124   23596610.0824
     -1873.6974      -1460.0264
 04 12 11  0  4  0.0000000  0  9G17G 4G 5G 2G30G10G24G13G 7
  21799248.1154  -29227770.08849 -22182940.76847  21799245.8634   21799251.6374
      2078.5374       1619.6394
  21873073.9024  -29729237.01749 -23138120.47247  21873072.3734   21873076.8104
     -1387.9444      -1081.5154
  21703094.1814  -24044684.01949 -18400669.04247  21703091.9544   21703097.4124
       545.8134        425.3084
  20517292.0664  -39400069.68949 -30358064.45747  20517290.1794   20517291.9424
       905.1614        705.3204
  22606482.7094  -16607345.11548 -12312684.75346  22606481.6374   22606485.5894
      2467.6414       1922.8384
  21530613.0004  -24540431.45449 -17064899.14647  21530610.4444   21530615.8834
      3602.5184       2807.1554
  21113488.2704  -33165826.33349 -25485007.06647  21113486.4604   21113491.0204
      -341.3264       -265.9684
  24336731.3784   -4583805.73947  -3391927.10746  24336729.8814   24336734.9734
      1123.3004        875.2964
  23607328.5534  -29152469.61947 -22115592.06845  23607326.0814   23607329.8284
     -1880.8334      -1465.5824
 04 12 11  0  4 30.0000000  0  9G17G 4G 5G 2G30G10G24G13G 7
  21787407.4754  -29289991.62049 -22231425.05947  21787405.2204   21787411.0734
      2068.0874       1611.4964
  21881014.6404  -29687509.88249 -23105605.83047  21881013.0074   21881017.3164
     -1395.2414      -1087.2024
  21700038.4004  -24060738.95649 -18413179.39447  21700036.5234   21700042.1734
       523.0604        407.5794
  20512159.1544  -39427044.32449 -30379083.65547  20512157.1414   20512158.6484
       891.6614        694.7994
  22592451.7494  -16681078.18948 -12370139.07246  22592450.5964   22592454.9014
      2446.4704       1906.3394
  21510092.4644  -24648264.11449 -17148924.54947  21510090.1714   21510096.2724
      3584.8214       2793.3664
  21115460.6024  -33155464.01849 -25476932.53147  21115458.4334   21115462.4734
      -350.9874       -273.4974
  24330374.2514   -4617212.07047  -3417957.99845  24330372.5854   24330377.1984
      1102.2494        858.8964
  23618093.2144  -29095898.68347 -22071510.82145  23618090.3864   23618097.0924
     -1891.9674      -1474.2584
 04 12 11  0  5  0.0000000  0  9G17G 4G 5G 2G30G10G24G13G 7
  21775608.3904  -29351995.55249 -22279739.79547  21775606.1524   21775611.8594
      2064.0684       1608.3644
  21888978.3124  -29645661.42649 -23072996.65247  21888976.1754   21888980.7254
     -1396.0424      -1087.8254
  21697096.1764  -24076207.12449 -18425232.53247  21697093.7604   21697098.8144
       506.7034        394.8344
  20507084.5584  -39453711.10249 -30399862.96447  20507082.7054   20507083.9714
       884.6344        689.3264
  22578524.2864  -16754269.98248 -12427171.61246  22578522.7884   22578526.9354
      2431.5954       1894.7524
  21489656.0704  -24755660.66749 -17232610.13847  21489653.5524   21489659.1404
      3573.4794       2784.5284
  21117469.2604  -33144907.91449 -25468706.98647  21117467.2164   21117471.1264
      -354.1834       -275.9864
  24324120.0024   -4650080.24947  -3443569.56345  24324118.6384   24324122.4514
      1087.4804        847.3884
  23628902.5634  -29039088.12647 -22027242.93345  23628900.4904   23628908.1784
     -1896.7214      -1477.9564
 04 12 11  0  5 30.0000000  0  9G17G 4G 5G 2G30G10G24G13G 7
  21763839.6834  -29413841.15349 -22327931.16247  21763837.5004   21763843.6044
      2058.0764       1603.6964
  21896952.5074  -29603751.81949 -23040339.82147  21896951.0674   21896955.3794
     -1398.7494      -1089.9354
  21694252.9014  -24091147.76549 -18436874.60747  21694250.5114   21694255.7454
       488.4704        380.6254
  20502057.3804  -39480129.28749 -30420448.56647  20502055.4444   20502056.6924
       875.7014        682.3644
  22564687.4624  -16826977.34448 -12483826.67646  22564686.3424   22564691.2514
      2414.7334       1881.6074
  21469291.1774  -24862677.71749 -17316000.01447  21469288.9584   21469294.2574
      3560.1084       2774.1084
  21119503.2634  -33134218.15349 -25460377.29847  21119501.3544   21119504.9094
      -359.3014       -279.9744
  24317956.0894   -4682467.66947  -3468806.49745  24317954.4304   24317958.7024
      1070.8044        834.3924
  23639748.0404  -28982097.45047 -21982834.71545  23639746.1144   23639752.4114
     -1903.4684      -1483.2204
 04 12 11  0  6  0.0000000  0  9G17G 4G 5G 2G30G10G24G13G 7
  21752116.1884  -29475446.37449 -22375935.21447  21752114.6004   21752120.8354
      2049.1304       1596.7224
  21904954.7334  -29561699.72349 -23007571.95747  21904953.3064   21904957.2104
     -1404.3954      -1094.3334
  21691524.9214  -24105479.23949 -18448042.00647  21691523.0584   21691528.3804
       467.2264        364.0734
  20497092.5854  -39506217.35149 -30440776.93547  20497090.7024   20497092.3744
       863.7414        673.0444
  22550959.9084  -16899116.60948 -12540039.07646  22550958.8814   22550963.8094
      2394.8724       1866.1354
  21449014.9294  -24969230.87249 -17399028.41947  21449012.5374   21449017.6084
      3543.6664       2761.2974
  21121578.0684  -33123313.33049 -25451880.01947  21121576.3224   21121580.1994
      -367.4414       -286.3194
  24311901.7574   -4714290.77647  -3493603.71445  24311900.1074   24311903.2174
      1050.9874        818.9524
  23650643.4434  -28924845.11447 -21938222.56145  23650641.5544   23650646.5044
     -1913.0244      -1490.6664
 04 12 11  0  6 30.0000000  0  9G17G 4G 5G 2G30G10G24G13G 7
  21740431.5984  -29536854.96249 -22423786.04247  21740428.8884   21740434.8694
      2043.8954       1592.6464
  21912976.2964  -29519549.40048 -22974727.55347  21912974.5754   21912978.2194
     -1406.3444      -1095.8524
  21688906.3374  -24119245.35849 -18458768.86847  21688903.9254   21688909.0854
       449.7084        350.4214
  20492183.1344  -39532019.14449 -30460882.23647  20492181.0444   20492182.3424
       855.5284        666.6464
  22537332.7434  -16970729.40948 -12595841.24146  22537331.5854   22537336.6904
      2378.5684       1853.4294
  21428819.0814  -25075361.15849 -17481727.32247  21428816.5154   21428821.5544
      3530.8474       2751.3084
  21123685.8374  -33112237.92449 -25443249.83147  21123684.0774   21123687.7444
      -371.7814       -289.6994
  24305944.9424   -4745591.99147  -3517994.25145  24305942.8704   24305946.9104
      1034.9354        806.4414
  23661579.9054  -28867375.15447 -21893440.78845  23661577.6684   23661582.0204
     -1919.0244      -1495.3384
 04 12 11  0  7  0.0000000  0  9G17G 4G 5G 2G30G10G24G13G 7
  21728789.4394  -29598030.21149 -22471455.05147  21728787.3234   21728793.6154
      2035.0704       1585.7694
  21921022.4114  -29477264.71948 -22941778.44247  21921021.1184   21921024.2504
     -1411.8824      -1100.1664
  21686400.8814  -24132409.95249 -18469027.01447  21686398.6224   21686403.4044
       428.6004        333.9744
  20487334.8704  -39557497.98849 -30480735.87647  20487332.7604   20487333.8144
       843.6944        657.4234
  22523813.9414  -17041777.09348 -12651203.06846  22523812.0844   22523815.8254
      2358.6434       1837.9034
  21408711.0124  -25181029.18949 -17564066.01647  21408708.5604   21408714.1094
      3514.3104       2738.4224
  21125832.7524  -33100955.73749 -25434458.51147  21125830.8944   21125834.8744
      -379.7294       -295.8934
  24300095.4544   -4776333.08447  -3541948.34745  24300093.4654   24300095.9294
      1015.1544        791.0274
  23672562.3484  -28809651.14947 -21848461.05645  23672561.5924   23672568.7664
     -1928.5904      -1502.7954
 04 12 11  0  7 30.0000000  0  9G17G 4G 5G 2G30G10G24G13G 7
  21717182.2414  -29659024.03649 -22518982.68247  21717180.3644   21717186.9054
      2028.6064       1580.7324
  21929084.6474  -29434898.69348 -22908765.94347  21929083.1174   21929086.7644
     -1414.9524      -1102.5594
  21683999.9744  -24145025.38649 -18478857.23947  21683997.8354   21684002.9884
       409.8904        319.3954
  20482536.9364  -39582706.26649 -30500378.65647  20482535.4374   20482537.2004
       834.2904        650.0954
  22510391.7524  -17112309.87648 -12706163.66646  22510390.4274   22510394.4834
      2341.0394       1824.1884
  21388681.9044  -25286284.63449 -17646083.21747  21388679.3174   21388685.1234
      3500.1294       2727.3734
  21128009.2704  -33089519.76349 -25425547.35847  21128007.2694   21128011.5074
      -385.2234       -300.1744
  24294341.7444   -4806565.04647  -3565505.69745  24294339.5284   24294344.2494
       997.8404        777.5364
  23683586.6694  -28751725.43247 -21803324.18945  23683584.8204   23683590.5244
     -1935.5974      -1508.2574
 04 12 11  0  8  0.0000000  0  9G17G 4G 5G 2G30G10G24G13G 7
  21705618.3364  -29719796.15148 -22566337.55447  21705615.8554   21705622.0814
      2022.1144       1575.6734
  21937170.1734  -29392411.56049 -22875659.08247  21937168.1714   21937172.3874
     -1418.0984      -1105.0124
  21681711.4004  -24157051.60649 -18488228.33747  21681709.2944   21681715.1144
       391.1734        304.8114
  20477799.6294  -39607604.25849 -30519779.68247  20477797.7454   20477799.3234
       824.8904        642.7724
  22497075.1834  -17182285.43248 -12760690.07846  22497074.1544   22497077.9374
      2323.3694       1810.4174
  21368738.7544  -25391084.65249 -17727745.53347  21368736.2374   21368742.5244
      3485.8144       2716.2184
  21130221.7904  -33077890.48949 -25416485.58447  21130220.1604   21130224.9234
      -390.7604       -304.4874
  24288693.3354   -4836246.09547  -3588633.78145  24288691.4354   24288695.0594
       980.2894        763.8634
  23694655.9144  -28693558.03047 -21757999.00145  23694654.1754   23694660.4624
     -1942.8254      -1513.8914
 04 12 11  0  8 30.0000000  0  9G17G 4G 5G 2G30G10G24G13G 7
  21694095.5174  -29780344.16648 -22613517.81647  21694093.7864   21694099.9054
      2014.4304       1569.6864
  21945278.3794  -29349801.29149 -22842456.27847  21945276.8624   21945281.0774
     -1422.4034      -1108.3674
  21679536.0934  -24168486.55949 -18497138.71147  21679533.5734   21679538.3974
       371.2524        289.2884
  20473121.2604  -39632189.66549 -30538937.15147  20473119.2854   20473120.8184
       814.2374        634.4694
  22483866.1384  -17251699.62848 -12814779.05746  22483864.7164   22483869.4084
      2304.3784       1795.6184
  21348883.6384  -25495424.37249 -17809049.18547  21348880.9684   21348886.7774
      3470.2544       2704.0944
  21132472.1414  -33066066.25549 -25407271.89747  21132470.1864   21132475.2774
      -397.4394       -309.6924
  24283150.5684   -4865372.53547  -3611329.69345  24283148.3814   24283153.5304
       961.5294        749.2434
  23705771.0604  -28635147.31647 -21712484.22245  23705769.2424   23705774.7524
     -1951.0824      -1520.3224
 04 12 11  0  9  0.0000000  0  9G17G 4G 5G 2G30G10G24G13G 7
  21682613.2984  -29840688.85048 -22660539.63947  21682611.0084   21682616.5094
      2009.0874       1565.5214
  21953405.5784  -29307089.67249 -22809174.50147  21953404.3884   21953409.0584
     -1424.3174      -1109.8584
  21677467.7914  -24179351.37149 -18505604.81547  21677465.7344   21677470.8944
       353.6684        275.5864
  20468498.2114  -39656483.54449 -30557867.44547  20468496.3144   20468497.6454
       805.9314        627.9984
  22470760.8684  -17320571.14748 -12868445.16246  22470759.2204   22470764.3184
      2287.6754       1782.6034
  21329111.9814  -25599321.95249 -17890008.32047  21329109.8934   21329115.1814
      3456.8574       2693.6544
  21134755.0814  -33054068.42049 -25397922.94447  21134753.2534   21134758.5814
      -401.8044       -313.0944
  24277709.8094   -4893963.72747  -3633608.52745  24277707.9404   24277711.3724
       945.1174        736.4514
  23716928.5254  -28576514.13747 -21666796.06445  23716927.0654   23716932.4544
     -1957.0554      -1524.9744
 04 12 11  0  9 30.0000000  0  9G17G 4G 5G 2G30G10G24G13G 7
  21671161.5824  -29900868.30848 -22707432.70747  21671159.3774   21671164.7824
      2003.6874       1561.3154
  21961545.3644  -29264315.44249 -22775843.93747  21961543.7614   21961548.5414
     -1426.3204      -1111.4184
  21675501.9854  -24189684.70049 -18513656.78347  21675499.7634   21675505.0594
       336.0474        261.8554
  20463923.0574  -39680524.30649 -30576600.49547  20463921.3844   20463922.8834
       797.6174        621.5204
  22457750.8084  -17388936.62648 -12921716.96246  22457749.5344   22457754.5584
      2270.8764       1769.5144
  21309418.8394  -25702813.05649 -17970650.71647  21309416.3424   21309421.4624
      3443.3904       2683.1614
  21137063.8134  -33041935.72949 -25388468.90447  21137061.9524   21137067.5204
      -406.1954       -316.5154
  24272363.0064   -4922056.60947  -3655499.05245  24272361.6964   24272365.8364
       928.5574        723.5504
  23728121.5584  -28517696.89347 -21620964.47445  23728119.2114   23728125.3784
     -1963.0894      -1529.6814
 04 12 11  0 10  0.0000000  0  9G17G 4G 5G 2G30G10G24G13G 7
  21659749.3284  -29960839.86148 -22754163.77147  21659747.2604   21659752.2644
      1995.2074       1554.7074
  21969704.6094  -29221436.50349 -22742431.78247  21969703.3224   21969707.8054
     -1431.3674      -1115.3514
  21673644.5334  -24199444.18449 -18521261.59247  21673642.2784   21673647.7854
       315.3854        245.7564
  20459404.6264  -39704269.26849 -30595103.06847  20459402.7594   20459403.9964
       786.1804        612.6074
  22444845.9014  -17456751.30348 -12974559.55946  22444844.9314   22444849.7914
      2250.9424       1753.9814
  21289811.5564  -25805852.50449 -18050941.17047  21289808.7994   21289814.0074
      3426.7094       2670.1614
  21139406.1034  -33029626.00049 -25378876.91747  21139404.4474   21139409.8144
      -413.6434       -322.3194
  24267121.6014   -4949606.82747  -3676966.73945  24267120.4044   24267122.7684
       908.9064        708.2384
  23739355.8544  -28458653.50247 -21574956.70045  23739353.3824   23739360.2464
     -1972.3084      -1536.8604
 04 12 11  0 10 30.0000000  0  9G17G 4G 5G 2G30G10G24G13G 7
  21648379.2194  -30020591.17648 -22800723.21647  21648376.9014   21648381.9044
      1989.0174       1549.8844
  21977886.7264  -29178440.75748 -22708928.60947  21977885.1394   21977889.3874
     -1434.0974      -1117.4784
  21671899.0744  -24208617.99549 -18528410.03647  21671896.5604   21671901.7674
       297.0174        231.4424
  20454944.5274  -39727706.62149 -30613365.93847  20454942.9374   20454944.3364
       777.0874        605.5234
  22432049.0254  -17524001.10748 -13026961.99646  22432047.8254   22432051.5974
      2233.1954       1740.1504
  21270292.0644  -25908425.51849 -18130868.17547  21270289.5264   21270295.1254
      3412.2834       2658.9224
  21141784.6684  -33017127.72249 -25369138.00347  21141782.9704   21141788.1414
      -418.7804       -326.3214
  24261983.5284   -4976601.23447  -3698001.33145  24261982.1064   24261987.2404
       891.5104        694.6844
  23750638.0464  -28399371.95747 -21528763.34845  23750637.1044   23750641.1314
     -1978.9834      -1542.0634
 04 12 11  0 11  0.0000000  0  9G17G 4G 5G 2G30G10G24G13G 7
  21637043.1654  -30080162.48048 -22847142.40047  21637040.9154   21637045.7834
      1982.7774       1545.0214
  21986083.3394  -29135369.57448 -22675366.64847  21986081.4394   21986084.9574
     -1436.8444      -1119.6194
  21670256.7174  -24217247.09149 -18535134.02547  21670254.7294   21670260.0924
       278.6124        217.1004
  20450536.1454  -39750876.71249 -30631420.54947  20450534.0424   20450535.4414
       767.9094        598.3704
  22419352.4834  -17590724.55248 -13078954.27446  22419350.7474   22419355.1024
      2215.4044       1726.2874
  21250854.4284  -26010570.06549 -18210461.28747  21250851.8074   21250857.7904
      3397.7214       2647.5734
  21144191.8544  -33004481.92549 -25359284.13547  21144189.6114   21144194.2114
      -423.9194       -330.3264
  24256944.8944   -5003078.79847  -3718633.18045  24256943.1774   24256947.1864
       874.0134        681.0474
  23761957.2604  -28339893.02347 -21482416.14645  23761954.2234   23761960.9924
     -1985.7914      -1547.3674
 04 12 11  0 11 30.0000000  0  9G17G 4G 5G 2G30G10G24G13G 7
  21625745.6114  -30139531.98049 -22893404.33947  21625743.1714   21625748.2624
      1973.8884       1538.0944
  21994297.5134  -29092201.81748 -22641729.42347  21994296.1834   21994299.4824
     -1442.2294      -1123.8154
  21668722.0664  -24225309.92549 -18541416.77347  21668720.1774   21668725.2264
       257.6124        200.7374
  20446181.8604  -39773758.03649 -30649250.16547  20446179.7304   20446181.0544
       756.1764        589.2284
  22406758.8234  -17656898.10648 -13130518.07046  22406757.8504   22406762.8804
      2194.9024       1710.3124
  21231503.3264  -26112261.74749 -18289701.52647  21231500.6964   21231506.6424
      3380.4384       2634.1084
  21146629.7764  -32991667.31049 -25349298.72547  21146627.9964   21146632.6204
      -431.6674       -336.3644
  24252010.0914   -5029016.74747  -3738844.52645  24252007.8014   24252013.0324
       853.8704        665.3614
  23773316.3354  -28280195.28147 -21435898.46545  23773314.7824   23773319.3374
     -1995.2554      -1554.7424
 04 12 11  0 12  0.0000000  0  9G17G 4G 5G 2G30G10G24G13G 7
  21614489.2814  -30198683.31549 -22939496.27047  21614486.9374   21614492.6184
      1969.4934       1534.6684
  22002533.6394  -29048921.35348 -22608004.37647  22002532.2234   22002535.8974
     -1443.0994      -1124.4924
  21667298.5794  -24232790.50449 -18547245.81147  21667296.5724   21667301.8984
       241.0784        187.8534
  20441885.2264  -39796334.44649 -30666842.17147  20441883.5034   20441884.6344
       748.8794        583.5404
  22394275.0154  -17722503.63148 -13181639.24446  22394273.7894   22394279.7434
      2178.7794       1697.7504
  21212241.6364  -26213481.94949 -18368574.36947  21212239.1864   21212244.6664
      3367.5474       2624.0614
  21149103.5044  -32978668.26549 -25339169.59947  21149101.5074   21149106.1034
      -434.9464       -338.9194
  24247180.9304   -5054397.34347  -3758621.60745  24247178.5214   24247182.3504
       838.0974        653.0644
  23784720.4584  -28220262.69247 -21389197.81945  23784717.8274   23784724.6644
     -2000.2604      -1558.6414
 04 12 11  0 12 30.0000000  0  9G17G 4G 5G 2G30G10G24G13G 7
  21603268.0074  -30257651.45249 -22985445.44447  21603265.4794   21603271.7884
      1961.3664       1528.3364
  22010784.3904  -29005564.07748 -22574219.47847  22010782.8254   22010786.9834
     -1447.6524      -1128.0414
  21665979.5524  -24239724.49849 -18552648.93747  21665977.2804   21665982.5584
       220.8504        172.0914
  20437640.5314  -39818641.27349 -30684224.10047  20437638.6674   20437639.8374
       737.8844        574.9744
  22381892.8344  -17787574.54048 -13232343.85346  22381891.5774   22381895.5084
      2158.9364       1682.2894
  21193063.5984  -26314263.23249 -18447105.21447  21193061.2994   21193066.2844
      3350.8394       2611.0434
  21151605.0134  -32965520.48649 -25328924.57447  21151603.2884   21151608.0814
      -441.9044       -344.3414
  24242450.4644   -5079254.48447  -3777990.78545  24242448.1704   24242452.2814
       818.6204        637.8824
  23796164.1684  -28160130.90747 -21342341.96445  23796161.3344   23796168.3784
     -2008.8324      -1565.3194
 04 12 11  0 13  0.0000000  0  9G17G 4G 5G 2G30G10G24G13G 7
  21592087.4484  -30316401.79149 -23031224.90647  21592085.6314   21592091.8594
      1954.0414       1522.6294
  22019056.0994  -28962095.69748 -22540348.01747  22019054.2214   22019059.5924
     -1451.3754      -1130.9424
  21664769.7664  -24246077.90149 -18557599.65047  21664768.3174   21664773.3734
       201.4504        156.9744
  20433453.3374  -39840644.18349 -30701369.21147  20433451.6544   20433452.8274
       727.7064        567.0424
  22369618.4294  -17852074.40748 -13282603.48646  22369617.5914   22369621.7714
      2139.7934       1667.3714
  21173975.9914  -26414568.46649 -18525265.12347  21173973.5684   21173978.9004
      3334.8984       2598.6204
  21154141.7434  -32952189.82049 -25318537.03847  21154140.0204   21154144.8774
      -448.0614       -349.1394
  24237825.3704   -5103552.46547  -3796924.27645  24237823.4394   24237828.0734
       799.9044        623.2994
  23807652.2594  -28099765.53247 -21295304.05745  23807649.8654   23807655.2264
     -2016.7014      -1571.4574
 04 12 11  0 13 30.0000000  0  9G17G 4G 5G 2G30G10G24G13G 7
  21580947.9934  -30374939.44549 -23076838.64347  21580945.9474   21580952.2304
      1948.0024       1517.9234
  22027347.8454  -28918522.31648 -22506394.75147  22027346.0954   22027351.1624
     -1453.8874      -1132.8984
  21663670.1114  -24251856.63149 -18562102.56747  21663668.3354   21663674.1154
       183.3364        142.8584
  20429323.5904  -39862348.68149 -30718281.80947  20429321.5574   20429322.8584
       718.8174        560.1184
  22357452.8474  -17916006.68848 -13332420.84446  22357451.4954   22357456.0734
      2121.9474       1653.4664
  21154978.0234  -26514400.50149 -18603056.30247  21154975.8734   21154981.6304
      3320.1264       2587.1104
  21156712.2694  -32938682.44749 -25308011.81147  21156710.4994   21156715.1054
      -452.8514       -352.8714
  24233308.0334   -5127295.44847  -3815425.28145  24233306.2414   24233309.8704
       782.5134        609.7484
  23819182.1814  -28039172.48747 -21248088.71545  23819180.1884   23819185.5084
     -2023.2134      -1576.5334
 04 12 11  0 14  0.0000000  0  9G17G 4G 5G 2G30G10G24G13G 7
  21569846.5674  -30433277.77549 -23122297.05447  21569844.5044   21569851.0914
      1940.4164       1512.0114
  22035656.8634  -28874857.37448 -22472370.13047  22035655.4504   22035660.3644
     -1457.8364      -1135.9774
  21662677.9974  -24257074.62549 -18566168.54447  21662675.8944   21662681.0934
       163.7664        127.6094
  20425247.0524  -39883768.36149 -30734972.47447  20425245.4304   20425246.6874
       708.4124        552.0104
  22345392.4364  -17979383.29748 -13381805.20646  22345391.3344   22345395.9594
      2102.4354       1638.2604
  21136069.5714  -26613770.41349 -18680487.38047  21136067.0144   21136072.5414
      3303.7484       2574.3484
  21159313.9324  -32925012.30249 -25297359.75247  21159311.9014   21159316.0854
      -459.2204       -357.8354
  24228892.4234   -5150495.33047  -3833503.07745  24228890.6744   24228894.2874
       763.3714        594.8334
  23830751.0894  -27978365.26847 -21200706.51945  23830749.5244   23830757.0934
     -2031.3834      -1582.8944
 04 12 11  0 14 30.0000000  0  9G17G 4G 5G 2G30G10G24G13G 7
  21558786.6894  -30491399.95549 -23167587.04447  21558784.0484   21558790.6774
      1933.5864       1506.6904
  22043985.8404  -28831085.00148 -22438261.80447  22043984.7904   22043989.5624
     -1461.0304      -1138.4654
  21661794.5264  -24261715.97249 -18569785.18747  21661792.3404   21661797.4074
       144.9214        112.9254
  20421228.3924  -39904886.60049 -30751428.26047  20421226.6194   20421227.8534
       698.7274        544.4644
  22333442.4534  -18042185.49948 -13430741.97946  22333440.9084   22333444.6174
      2083.6644       1623.6334
  21117251.2344  -26712659.10949 -18757543.48747  21117248.9834   21117254.6934
      3288.0414       2562.1104
  21161948.8754  -32911163.05849 -25286568.13047  21161947.1404   21161951.8154
      -464.8054       -362.1864
  24224585.7294   -5173134.72047  -3851144.14045  24224584.2054   24224586.8514
       745.0534        580.5664
  23842367.6644  -27917327.69747 -21153144.88645  23842366.3194   23842371.9894
     -2038.5974      -1588.5144
 04 12 11  0 15  0.0000000  0  9G17G 4G 5G 2G30G10G24G13G 7
  21547760.7044  -30549341.07349 -23212735.93747  21547758.3744   21547764.6484
      1927.7774       1502.1614
  22052330.6344  -28787240.45248 -22404097.21947  22052328.9124   22052331.8624
     -1463.1984      -1140.1544
  21661014.4004  -24265816.13349 -18572980.12747  21661012.1594   21661017.2944
       127.1024         99.0414
  20417261.0174  -39925738.46049 -30767676.45947  20417258.9204   20417259.9234
       690.0814        537.7244
  22321594.3514  -18104447.03948 -13479257.46146  22321592.5604   22321596.3514
      2065.8044       1609.7184
  21098518.7914  -26811099.22549 -18834250.04947  21098516.1264   21098522.0964
      3273.2864       2550.6124
  21164611.9144  -32897170.19649 -25275664.60447  21164610.1224   21164614.6144
      -469.3544       -365.7304
  24220377.4484   -5195247.45047  -3868374.81045  24220375.0444   24220379.1974
       727.8144        567.1244
  23854021.9094  -27856095.19847 -21105431.33345  23854018.6174   23854024.4174
     -2044.7694      -1593.3284
 04 12 11  0 15 30.0000000  0  9G17G 4G 5G 2G30G10G24G13G 7
  21536775.9044  -30607067.99449 -23257717.94147  21536773.7284   21536779.3954
      1921.0904       1496.9534
  22060693.0634  -28743291.40648 -22369851.19947  22060691.6964   22060694.7424
     -1466.2294      -1142.5174
  21660343.0614  -24269342.49349 -18575727.94747  21660341.0834   21660346.2204
       108.4234         84.4874
  20413349.2354  -39946291.31049 -30783691.66147  20413347.7134   20413349.1014
       680.5194        530.2744
  22309854.9894  -18166133.11748 -13527324.52746  22309853.9234   22309858.1294
      2047.0224       1595.0834
  21079878.3924  -26909055.39649 -18910579.51047  21079875.8974   21079881.1764
      3257.5444       2538.3464
  21167308.2744  -32883001.43049 -25264624.00547  21167306.4014   21167311.1594
      -474.7914       -369.9664
  24216274.8834   -5216799.56147  -3885168.61745  24216273.7964   24216276.9064
       709.4384        552.7994
  23865715.0714  -27794635.30947 -21057540.55745  23865712.9784   23865719.0514
     -2052.0054      -1598.9724
 04 12 11  0 16  0.0000000  0  9G17G 4G 5G 2G30G10G24G13G 7
  21525828.3494  -30664599.09549 -23302547.37947  21525826.1364   21525831.6564
      1913.9084       1491.3564
  22069072.7164  -28699256.79548 -22335538.50547  22069071.3194   22069074.0664
     -1469.7594      -1145.2674
  21659777.6294  -24272314.49449 -18578043.80147  21659775.5944   21659780.7994
        89.2934         69.5804
  20409492.0094  -39966563.58249 -30799488.22647  20409490.0744   20409491.5684
       670.5434        522.5004
  22298223.6204  -18227260.55048 -13574956.28346  22298222.0564   22298226.4074
      2027.7684       1580.0794
  21061325.6794  -27006543.60849 -18986544.33147  21061323.9954   21061329.4764
      3241.2654       2525.6604
  21170034.2794  -32868675.53649 -25253460.97147  21170032.5084   21170037.7984
      -480.6624       -374.5424
  24212278.0214   -5237808.40347  -3901539.10945  24212276.8504   24212279.2714
       690.7194        538.2224
  23877449.0894  -27732966.92747 -21009487.31545  23877448.9554   23877454.5234
     -2059.5214      -1604.8214
 04 12 11  0 16 30.0000000  0  9G17G 4G 5G 2G30G10G24G13G 7
  21514917.7624  -30721937.69949 -23347226.80247  21514915.3514   21514920.3804
      1908.6744       1487.2794
  22077467.0594  -28655140.34448 -22301162.03447  22077465.6554   22077469.9764
     -1471.2864      -1146.4564
  21659316.8574  -24274736.05649 -18579930.74647  21659314.9924   21659320.1714
        72.1654         56.2344
  20405686.5174  -39986559.13749 -30815069.18947  20405684.8564   20405686.5764
       662.4854        516.2224
  22286697.1324  -18287831.12148 -13622154.11846  22286695.7474   22286699.8754
      2010.3524       1566.5104
  21042864.6584  -27103565.02949 -19062145.40447  21042862.0364   21042867.2384
      3226.8534       2514.4304
  21172789.7144  -32854196.61849 -25242178.70147  21172787.7164   21172792.9204
      -484.5644       -377.5824
  24208382.2864   -5258276.36747  -3917488.17345  24208380.2134   24208384.8504
       673.8194        525.0514
  23889227.1144  -27671093.73947 -20961274.52745  23889224.1994   23889230.0344
     -2065.1644      -1609.2174
 04 12 11  0 17  0.0000000  0  9G17G 4G 5G 2G30G10G24G13G 7
  21504040.5784  -30779094.74449 -23391764.74347  21504038.4494   21504043.4404
      1900.6874       1481.0554
  22085875.1504  -28610953.74248 -22266730.91947  22085873.9674   22085879.1524
     -1475.5044      -1149.7434
  21658959.0514  -24276618.90549 -18581397.91247  21658956.7544   21658961.6154
        52.2844         40.7414
  20401932.8314  -40006289.04449 -30830443.14347  20401930.6734   20401931.8564
       651.7414        507.8504
  22275274.7744  -18347854.25748 -13668925.38046  22275273.6404   22275278.4464
      1990.1584       1550.7724
  21024489.3554  -27200128.24149 -19137389.43847  21024486.9504   21024491.7164
      3209.6344       2501.0134
  21175571.5534  -32839576.18049 -25230786.15247  21175569.7534   21175575.2674
      -491.1804       -382.7394
  24204588.7954   -5278212.99047  -3933023.17145  24204587.1274   24204589.2354
       654.1804        509.7324
  23901034.8264  -27609027.26947 -20912911.14045  23901033.0734   23901040.5234
     -2073.4404      -1615.6654
 04 12 11  0 17 30.0000000  0  9G17G 4G 5G 2G30G10G24G13G 7
  21493207.6654  -30836020.57249 -23436122.51547  21493205.6664   21493210.8654
      1893.8474       1475.7264
  22094306.6074  -28566647.80748 -22232206.82347  22094305.1654   22094310.2474
     -1478.6464      -1152.1914
  21658712.3434  -24277914.30949 -18582407.32147  21658710.1584   21658715.0804
        33.5694         26.1584
  20398237.5144  -40025704.19749 -30845571.82847  20398235.9274   20398237.7104
       642.0884        500.3284
  22263966.9954  -18407278.95148 -13715230.32246  22263965.4984   22263970.2984
      1971.0194       1535.8594
  21006210.6274  -27296181.50349 -19212236.10847  21006208.2474   21006213.8514
      3193.4264       2488.3824
  21178390.1634  -32824765.40149 -25219245.28947  21178388.2684   21178393.4904
      -496.7124       -387.0494
  24200906.6384   -5297568.54447  -3948105.41445  24200905.0074   24200908.4864
       635.6644        495.3254
  23912893.4984  -27546718.51647 -20864358.98945  23912890.3774   23912898.0384
     -2080.6894      -1621.3174
 04 12 11  0 18  0.0000000  0  9G17G 4G 5G 2G30G10G24G13G 7
  21482411.3564  -30892758.20549 -23480333.64147  21482409.0254   21482413.7724
      1887.1474       1470.5044
  22102752.4684  -28522265.88748 -22197623.51647  22102751.3214   22102755.9624
     -1481.5674      -1154.4674
  21658568.7894  -24278666.10949 -18582993.15547  21658567.1784   21658572.5024
        15.0654         11.7404
  20394594.9754  -40044847.61049 -30860488.76347  20394593.1324   20394594.8334
       632.6254        492.9554
  22252764.6904  -18466146.71348 -13761101.29046  22252763.3244   22252768.1944
      1952.0514       1521.0794
  20988021.6324  -27391765.69049 -19286717.26647  20988019.1324   20988025.0934
      3177.3464       2475.8534
  21181236.7904  -32809807.94149 -25207590.12347  21181234.5464   21181239.5224
      -501.9484       -391.1284
  24197324.4504   -5316385.14047  -3962767.67445  24197323.0004   24197325.3824
       617.2544        480.9854
  23924788.6904  -27484211.00747 -20815651.91945  23924786.5844   23924790.0254
     -2087.8154      -1626.8684
 04 12 11  0 18 30.0000000  0  9G17G 4G 5G 2G30G10G24G13G 7
  21471646.8364  -30949322.13649 -23524409.42047  21471644.8084   21471650.5744
      1882.1804       1466.6344
  22111210.0164  -28477823.03248 -22162992.72047  22111208.4744   22111212.8634
     -1482.7414      -1155.3824
  21658526.3464  -24278889.76649 -18583167.44547  21658524.4774   21658529.3284
        -1.6844         -1.3124
  20391000.9344  -40063734.01149 -30875205.43347  20390998.9734   20391000.9894
       624.8874        486.9244
  22241666.7554  -18524470.58448 -13806548.45246  22241664.9294   22241669.1654
      1934.7254       1507.5774
  20969918.2124  -27486892.94449 -19360842.36247  20969916.1164   20969922.7624
      3162.9264       2464.6164
  21184107.6044  -32794718.51949 -25195832.13047  21184105.8704   21184110.9264
      -505.5594       -393.9424
  24193845.1174   -5334676.11147  -3977020.36245  24193842.2374   24193845.4664
       600.5754        467.9734
  23936718.8794  -27421519.65147 -20766801.48545  23936716.3004   23936720.5364
     -2093.1684      -1631.0414
 04 12 11  0 19  0.0000000  0  9G17G 4G 5G 2G30G10G24G13G 7
  21460922.3784  -31005679.90049 -23568324.54747  21460920.2804   21460926.1334
      1875.5794       1461.4904
  22119685.4914  -28433287.40448 -22128289.63447  22119683.8554   22119687.2214
     -1485.6124      -1157.6214
  21658589.8934  -24278553.47449 -18582905.41047  21658588.2044   21658593.4644
       -20.1064        -15.6674
  20387462.1224  -40082331.14349 -30889696.70947  20387460.2484   20387462.0684
       615.5154        479.6214
  22230676.9324  -18582216.65548 -13851545.37846  22230675.5704   22230680.7304
      1915.6654       1492.7244
  20951910.6474  -27581528.75249 -19434584.51747  20951908.1454   20951913.6414
      3146.7324       2451.9974
  21187010.3444  -32779465.27349 -25183946.48147  21187008.3514   21187013.3954
      -510.7344       -397.9754
  24190470.1064   -5352408.17447  -3990837.53845  24190467.8114   24190471.8574
       582.1564        453.6204
  23948689.2834  -27358612.54847 -20717783.02345  23948685.8114   23948692.3534
     -2100.0074      -1636.3684
 04 12 11  0 19 30.0000000  0  9G17G 4G 5G 2G30G10G24G13G 7
  21450237.4634  -31061830.73649 -23612078.43347  21450235.2594   21450240.8964
      1869.3154       1456.6104
  22128176.8604  -28388658.60548 -22093513.93347  22128176.0554   22128178.8664
     -1488.0534      -1159.5234
  21658761.4264  -24277657.35249 -18582207.14747  21658759.1594   21658764.3464
       -38.1134        -29.6974
  20383978.2314  -40100638.60049 -30903962.26547  20383976.3994   20383978.0584
       606.5004        472.5974
  22219798.0814  -18639382.78148 -13896090.38546  22219797.0404   22219802.2024
      1896.9704       1478.1594
  20933996.4554  -27675669.98249 -19507941.30847  20933994.0604   20933998.8074
      3130.8654       2439.6354
  21189944.1244  -32764047.98449 -25171933.00547  21189942.1044   21189947.2614
      -515.5564       -401.7324
  24187201.2034   -5369579.83747  -4004218.03845  24187200.0464   24187204.3244
       564.1254        439.5804
  23960698.7784  -27295489.46647 -20668596.35045  23960697.0904   23960704.2994
     -2106.5374      -1641.4434
 04 12 11  0 20  0.0000000  0  9G17G 4G 5G 2G30G10G24G13G 7
  21439589.8554  -31117783.29949 -23655677.82947  21439587.8174   21439593.1524
      1861.4524       1450.4824
  22136686.2154  -28343945.69848 -22058672.69346  22136684.1704   22136687.9414
     -1492.1194      -1162.6924
  21659036.3114  -24276210.82449 -18581079.99847  21659034.2004   21659039.3254
       -57.7304        -44.9844
  20380547.7684  -40118665.18149 -30918008.94947  20380546.0514   20380547.6294
       595.8734        464.3164
  22209029.7894  -18695976.23948 -13940189.18446  22209028.0934   22209032.7794
      1876.5574       1462.2524
  20916174.5264  -27769323.27049 -19580917.87847  20916172.3374   20916177.1104
      3113.2944       2425.9424
  21192906.7544  -32748475.78449 -25159798.81947  21192905.3884   21192910.2984
      -521.9884       -406.7454
  24184038.9074   -5386198.82147  -4017167.88745  24184037.9014   24184041.4024
       544.3454        424.1664
  23972753.8824  -27232159.70247 -20619248.55345  23972750.4184   23972755.2604
     -2114.7294      -1647.8454
 04 12 11  0 20 30.0000000  0  9G17G 4G 5G 2G30G10G24G13G 7
  21428979.9954  -31173538.80249 -23699123.66847  21428977.8194   21428983.2824
      1855.4864       1445.8344
  22145209.4484  -28299150.38848 -22023767.25246  22145208.0154   22145212.4894
     -1494.2414      -1164.3434
  21659416.2674  -24274216.21149 -18579525.76447  21659414.2604   21659418.7914
       -75.3364        -58.7034
  20377170.8104  -40136412.41749 -30931837.95847  20377168.9534   20377170.7864
       587.2004        457.5584
  22198369.0314  -18751996.92948 -13983841.66846  22198367.7004   22198371.9474
      1858.1154       1447.8824
  20898446.4704  -27862487.72449 -19653513.53947  20898443.7624   20898448.6784
      3097.6064       2413.7194
  21195899.5294  -32732750.75749 -25147545.54547  21195897.9584   21195902.8754
      -526.4464       -410.2164
  24180980.2374   -5402265.76947  -4029687.57145  24180980.2754   24180984.9074
       526.6584        410.3884
  23984842.1084  -27168625.10547 -20569741.07045  23984840.7114   23984845.9674
     -2120.8414      -1652.6014
 04 12 11  0 21  0.0000000  0  9G17G 4G 5G 2G30G10G24G13G 7
  21418411.1764  -31229076.55049 -23742399.83247  21418409.1274   21418414.7914
      1848.0504       1440.0394
  22153753.9474  -28254252.55948 -21988781.93047  22153752.5274   22153757.1244
     -1497.8174      -1167.1294
  21659903.7474  -24271653.94549 -18577529.20647  21659901.5544   21659906.5444
       -94.4234        -73.5764
  20373850.7854  -40153859.95249 -30945433.44147  20373848.6844   20373850.6264
       577.0084        449.6174
  22187821.1044  -18807422.83848 -14027030.68746  22187819.9174   22187824.7584
      1838.0504       1432.2484
  20880813.4674  -27955140.72849 -19725710.65947  20880811.5014   20880817.5044
      3080.3184       2400.2484
  21198925.4544  -32716852.60249 -25135157.36647  21198923.5294   21198928.2934
      -532.4074       -414.8634
  24178031.9884   -5417759.40047  -4041760.51245  24178031.7504   24178036.5564
       507.3534        395.3344
  23996974.7594  -27104865.53847 -20520058.36545  23996972.5074   23996978.9904
     -2128.5494      -1658.6094
 04 12 11  0 21 30.0000000  0  9G17G 4G 5G 2G30G10G24G13G 7
  21407873.9754  -31284449.32749 -23785547.44747  21407872.1014   21407877.9804
      1842.1354       1435.4304
  22162306.4344  -28209305.43148 -21953758.19947  22162305.8884   22162310.5264
     -1499.8474      -1168.7134
  21660489.2154  -24268577.71149 -18575132.15747  21660486.9644   21660491.7554
      -111.9324        -87.2194
  20370577.3874  -40171060.58449 -30958836.52147  20370575.5474   20370577.7234
       568.4094        442.9164
  22177377.1554  -18862305.54048 -14069796.43046  22177376.3614   22177380.4434
      1819.5634       1417.8404
  20863270.6284  -28047332.82749 -19797548.62247  20863268.3414   20863274.3224
      3064.5434       2387.9544
  21201973.3694  -32700834.59849 -25122675.79347  21201971.4524   21201976.2544
      -536.7624       -418.2574
  24175184.3024   -5432731.78247  -4053427.29445  24175183.4244   24175187.1484
       489.5354        381.4584
  24009142.8154  -27040934.33146 -20470241.90845  24009137.3704   24009143.4964
     -2134.6854      -1663.3914
 04 12 11  0 22  0.0000000  0  9G17G 4G 5G 2G30G10G24G13G 7
  21397379.5434  -31339599.38849 -23828521.50347  21397377.6624   21397383.3664
      1835.4354       1430.2084
  22170881.5264  -28164251.68848 -21918651.39647  22170879.7584   22170883.6284
     -1502.6864      -1170.9254
  21661182.7994  -24264930.82649 -18572290.44947  21661180.7354   21661185.7734
      -130.2404       -101.4854
  20367362.4324  -40187957.04649 -30972002.59147  20367360.2704   20367362.4504
       558.9384        435.5364
  22167049.3824  -18916586.03248 -14112092.90946  22167047.4794   22167051.0454
      1800.1354       1402.7044
  20845826.5254  -28139004.25249 -19868980.86647  20845824.1144   20845830.0404
      3047.8424       2374.9404
  21205055.4324  -32684639.84849 -25110056.50047  21205053.4234   21205058.3494
      -541.9614       -422.3084
  24172443.6574   -5447124.71547  -4064642.52245  24172443.0784   24172448.2594
       470.9564        366.9814
  24021348.9634  -26976774.43347 -20420247.28645  24021347.1114   24021353.5514
     -2141.5074      -1668.7104
 04 12 11  0 22 30.0000000  0  9G17G 4G 5G 2G30G10G24G13G 7
  21386923.7194  -31394547.78049 -23871338.42347  21386921.2374   21386927.0824
      1830.3694       1426.2614
  22179470.4484  -28119112.93448 -21883478.33947  22179468.9324   22179473.2384
     -1503.9134      -1171.8804
  21661981.2564  -24260735.30349 -18569021.22947  21661979.2364   21661984.4294
      -146.8554       -114.4324
  20364201.2854  -40204570.51149 -30984948.14147  20364199.1504   20364201.0694
       551.2014        429.5084
  22156830.7774  -18970284.02748 -14153935.49746  22156829.5284   22156832.7384
      1782.3644       1388.8544
  20828478.1374  -28230173.97749 -19940022.18147  20828475.4604   20828481.0684
      3032.7204       2363.1584
  21208167.4944  -32668289.79649 -25097316.19247  21208165.0444   21208169.6644
      -545.4534       -425.0284
  24169812.8234   -5460958.16247  -4075421.81945  24169811.1624   24169815.3084
       453.9194        353.6984
  24033599.6974  -26912407.47547 -20370091.26345  24033597.3264   24033602.8824
     -2146.8074      -1672.8344
 04 12 11  0 23  0.0000000  0  9G17G 4G 5G 2G30G10G24G13G 7
  21376495.8274  -31449344.34849 -23914037.03747  21376493.7364   21376499.1684
      1822.2614       1419.9444
  22188066.7744  -28073939.11448 -21848277.96547  22188065.2694   22188069.3544
     -1508.0754      -1175.1224
  21662874.7294  -24256042.02549 -18565364.13847  21662872.5954   21662877.3114
      -166.4754       -129.7194
  20361083.8184  -40220951.19849 -30997712.30447  20361081.8664   20361083.8034
       540.3904        421.0834
  22146714.1944  -19023448.16448 -14195362.09546  22146712.6414   22146716.5024
      1761.5084       1372.6054
  20811215.6064  -28320889.78749 -20010709.80747  20811213.0134   20811218.1694
      3014.5174       2348.9744
  21211297.4714  -32651834.80049 -25084494.10747  21211296.0024   21211300.8974
      -551.9894       -430.1214
  24167278.0974   -5474281.64747  -4085803.73345  24167277.6334   24167280.0674
       433.8124        338.0274
  24045877.2784  -26847884.00647 -20319813.25245  24045875.4524   24045881.1994
     -2155.1774      -1679.3544
 04 12 11  0 23 30.0000000  0  9G17G 4G 5G 2G30G10G24G13G 7
  21366105.5024  -31503947.92049 -23956585.26947  21366103.2614   21366108.2684
      1816.3644       1415.3484
  22196676.8594  -28028689.94448 -21813018.87446  22196674.9944   22196679.5794
     -1510.1044      -1176.7024
  21663870.4394  -24250811.01949 -18561288.04947  21663868.0604   21663872.6454
      -183.8404       -143.2524
  20358019.0324  -40237058.18949 -31010263.19647  20358016.8144   20358018.6694
       531.7974        414.3884
  22136706.8414  -19076036.00648 -14236339.64046  22136705.4294   22136708.8404
      1742.8084       1358.0334
  20794046.8764  -28411108.70649 -20081010.23547  20794044.2314   20794049.6944
      2998.4604       2336.4614
  21214456.9724  -32635233.98349 -25071558.39947  21214454.7984   21214459.9074
      -556.3044       -433.4844
  24164847.2414   -5487053.31947  -4095755.66845  24164845.6494   24164849.8144
       415.9214        324.0914
  24058191.5504  -26783163.36047 -20269381.63245  24058189.6924   24058198.4824
     -2160.9604      -1683.8644
 04 12 11  0 23 59.9990000  0  9G17G 4G 5G 2G30G10G24G13G 7
  21355754.5204  -31558340.62049 -23998969.17847  21355752.6854   21355757.8124
      1811.0804       1411.2314
  22205304.5594  -27983350.99248 -21777689.82546  22205302.7554   22205307.1944
     -1511.4024      -1177.7144
  21664970.7384  -24245027.47449 -18556781.40347  21664968.5024   21664973.0764
      -200.5604       -156.2814
  20355008.6864  -40252875.23449 -31022588.15847  20355006.9294   20355008.9854
       523.8094        408.1634
  22126813.1494  -19128028.75648 -14276853.47146  22126811.4374   22126815.0704
      1724.6654       1343.8964
  20776976.6144  -28500809.69949 -20150907.07547  20776973.8784   20776979.9634
      2982.9464       2324.3734
  21217646.0724  -32618472.33649 -25058497.37047  21217644.1584   21217649.7054
      -560.0174       -436.3764
  24162525.6854   -5499256.26347  -4105264.42345  24162523.6254   24162528.8474
       398.7014        310.6814
  24070550.4064  -26718232.36346 -20218786.17645  24070546.8484   24070553.1884
     -2166.4694      -1688.1434
 04 12 11  0 24 29.9990000  0  9G17G 4G 5G 2G30G10G24G13G 7
  21345439.7094  -31612548.47249 -24041209.05347  21345437.1824   21345442.0494
      1804.2244       1405.8874
  22213946.3534  -27937942.24748 -21742306.38646  22213944.7514   22213947.8734
     -1514.3064      -1179.9804
  21666171.9704  -24238714.36649 -18551862.10647  21666169.7714   21666174.8344
      -218.8244       -170.5114
  20352049.8914  -40268425.67549 -31034705.37947  20352047.9384   20352049.9664
       514.2894        400.7444
  22117027.1924  -19179451.03448 -14316922.77446  22117026.0974   22117030.2414
      1704.9944       1328.5654
  20760000.5164  -28590018.97349 -20220420.76647  20759998.4404   20760004.0374
      2965.7964       2311.0094
  21220861.7824  -32601571.89249 -25045328.19147  21220859.9964   21220865.4394
      -565.2474       -440.4524
  24160307.0484   -5510913.21847  -4114347.77145  24160305.1204   24160309.2554
       379.8974        296.0194
  24082941.8194  -26653109.77347 -20168041.40345  24082939.8514   24082945.2074
     -2173.3414      -1693.5024
 04 12 11  0 24 59.9990000  0  9G17G 4G 5G 2G30G10G24G13G 7
  21335161.0624  -31666561.00049 -24083296.72147  21335158.8384   21335163.7424
      1796.2614       1399.6844
  22222601.7514  -27892456.59148 -21706863.00847  22222599.9314   22222604.6464
     -1518.3844      -1183.1564
  21667475.5854  -24231864.62749 -18546524.67247  21667473.2204   21667478.4344
      -238.1684       -185.5864
  20349142.9814  -40283700.64149 -31046607.94247  20349141.0734   20349143.0754
       503.6454        392.4504
  22107353.2794  -19230291.27048 -14356538.53646  22107351.7834   22107355.4864
      1684.0754       1312.2664
  20743121.0534  -28678722.91349 -20289540.69947  20743119.0464   20743123.8484
      2947.4194       2296.6884
  21224105.9444  -32584524.98449 -25032044.88347  21224104.0654   21224109.2464
      -571.6024       -445.4054
  24158195.7544   -5522014.08347  -4122997.75345  24158193.3144   24158196.9964
       359.8304        280.3894
  24095372.5744  -26587789.52247 -20117142.50845  24095369.3194   24095376.3764
     -2181.5874      -1699.9354
 04 12 11  0 25 29.9990000  0  9G17G 4G 5G 2G30G10G24G13G 7
  21324923.6754  -31720359.31749 -24125217.48147  21324921.2704   21324926.4754
      1790.6114       1395.2814
  22231276.0234  -27846875.76548 -21671345.48147  22231274.5144   22231277.9884
     -1519.9644      -1184.3874
  21668884.2744  -24224460.32349 -18540755.10847  21668882.1714   21668887.2444
      -255.1044       -198.7814
  20346292.3134  -40298681.60449 -31058281.41447  20346290.4264   20346292.3644
       495.3774        386.0084
  22097793.2594  -19280529.57448 -14395685.26046  22097791.7494   22097795.2794
      1665.4974       1297.7914
  20726342.2344  -28766900.62749 -20358250.57847  20726339.7084   20726344.4024
      2931.3804       2284.1914
  21227381.0394  -32567313.17149 -25018633.07447  21227379.2744   21227384.2504
      -575.5474       -448.4784
  24156191.4424   -5532540.09847  -4131199.83645  24156190.9524   24156194.4974
       342.2344        266.6764
  24107842.7804  -26522253.59247 -20066075.57445  24107841.9934   24107846.3724
     -2187.1104      -1704.2514
 04 12 11  0 25 59.9990000  0  9G17G 4G 5G 2G30G10G24G13G 7
  21314716.7044  -31773997.17649 -24167013.20347  21314714.4814   21314719.6574
      1784.1244       1390.2254
  22239957.6734  -27801253.97348 -21635796.02447  22239955.6244   22239959.8774
     -1522.4934      -1186.3574
  21670388.4334  -24216556.64449 -18534596.41447  21670386.1444   21670391.3384
      -272.8684       -212.6254
  20343487.6924  -40313422.67749 -31069767.96047  20343485.4704   20343487.2774
       486.2514        378.8974
  22088337.0804  -19330218.71348 -14434404.05946  22088335.8184   22088339.7824
      1646.0344       1282.6244
  20709652.7444  -28854604.33849 -20426591.11047  20709650.3994   20709655.3704
      2914.4124       2270.9694
  21230677.5674  -32549990.90249 -25005135.19747  21230675.8024   21230680.2894
      -580.3824       -452.2454
  24154288.8224   -5542544.68047  -4138995.59045  24154286.8974   24154291.1714
       323.6844        252.2214
  24120340.4814  -26456556.43846 -20014883.03844  24120339.9634   24120349.3924
     -2193.6914      -1709.3624
 04 12 11  0 26 29.9990000  0  9G17G 4G 5G 2G30G10G24G13G 7
  21304553.0844  -31827411.43549 -24208634.69447  21304550.4564   21304555.3474
      1776.8964       1384.5944
  22248658.1424  -27755528.31648 -21600165.64047  22248656.3974   22248661.4604
     -1525.7124      -1188.8674
  21671999.2334  -24208091.38849 -18528000.13547  21671997.1144   21672002.3264
      -291.3764       -227.0454
  20340739.6264  -40327860.70349 -31081018.36747  20340738.0224   20340739.7904
       476.3664        371.1954
  22078998.4954  -19379294.30448 -14472644.77046  22078997.0864   22079001.5174
      1625.7614       1266.8284
  20693064.9934  -28941768.87249 -20494511.48747  20693062.7474   20693068.5524
      2896.6194       2257.1054
  21234007.3754  -32532495.28849 -24991502.24047  21234005.1934   21234009.6864
      -585.9324       -456.5714
  24152496.2164   -5551963.91447  -4146335.22845  24152494.1474   24152498.5524
       304.4104        237.1964
  24132890.6464  -26390635.38246 -19963516.10945  24132886.3364   24132895.5904
     -2200.9354      -1715.0054
 04 12 11  0 26 59.9990000  0  9G17G 4G 5G 2G30G10G24G13G 7
  21294423.1374  -31880639.40149 -24250111.02347  21294421.1814   21294425.7954
      1770.5784       1379.6714
  22257372.1364  -27709736.75048 -21564483.91246  22257370.2864   22257374.9294
     -1528.0464      -1190.6874
  21673710.2094  -24199103.41949 -18520996.54147  21673707.9804   21673712.8834
      -308.8814       -240.6864
  20338043.1794  -40342033.50749 -31092062.10147  20338041.1074   20338042.6994
       467.3824        364.1934
  22069769.6974  -19427792.94548 -14510435.90746  22069768.1144   22069772.8844
      1606.4104       1251.7484
  20676574.0454  -29028429.57249 -20562039.27347  20676571.4074   20676577.3424
      2879.6774       2243.9024
  21237362.2564  -32514864.33049 -24977763.82547  21237360.1974   21237365.0384
      -590.5344       -460.1564
  24150807.6414   -5560834.80847  -4153247.59945  24150806.6654   24150810.6594
       285.9344        222.8064
  24145468.7704  -26324528.76947 -19912004.57045  24145468.3924   24145472.5114
     -2207.1504      -1719.8514
 04 12 11  0 27 29.9990000  0  9G17G 4G 5G 2G30G10G24G13G 7
  21284332.9214  -31933660.17949 -24291425.90347  21284331.1744   21284336.3274
      1764.6494       1375.0524
  22266101.0174  -27663858.59548 -21528734.70646  22266099.9724   22266104.9394
     -1529.8544      -1192.0974
  21675523.3344  -24189572.87949 -18513570.16247  21675521.2684   21675526.5484
      -325.9464       -253.9824
  20335400.3204  -40355920.32249 -31102882.98947  20335398.2014   20335400.4684
       458.8954        357.5804
  22060653.4664  -19475692.47048 -14547760.20746  22060652.4654   22060657.2044
      1587.4344       1236.9584
  20660183.0764  -29114563.59349 -20629156.66047  20660180.4134   20660186.3234
      2863.1324       2231.0114
  21240746.9554  -32497077.27949 -24963903.77547  21240745.1784   21240749.8004
      -594.7334       -463.4274
  24149227.2614   -5569135.98647  -4159716.02145  24149226.1474   24149230.5344
       267.9744        208.8044
  24158087.2254  -26258216.18547 -19860332.44445  24158085.9034   24158091.7914
     -2212.9794      -1724.3984
 04 12 11  0 27 59.9990000  0  9G17G 4G 5G 2G30G10G24G13G 7
  21274281.2424  -31986484.10249 -24332587.39347  21274279.2224   21274284.5774
      1758.5764       1370.3194
  22274847.3094  -27617904.45048 -21492926.28146  22274845.4574   22274849.2124
     -1531.9464      -1193.7264
  21677437.5664  -24179511.60949 -18505730.21847  21677435.7414   21677440.9374
      -343.1494       -267.3894
  20332810.1824  -40369531.83349 -31113489.35647  20332808.0884   20332810.4524
       450.1934        350.7994
  22051652.1184  -19523002.41048 -14584625.08846  22051650.5134   22051654.3894
      1568.2264       1221.9954
  20643891.5154  -29200179.44349 -20695870.28347  20643888.9874   20643894.0354
      2846.3004       2217.8954
  21244159.4574  -32479145.26849 -24949930.77047  21244157.4844   21244162.3174
      -599.0614       -466.8014
  24147755.8824   -5576877.61447  -4165748.44245  24147754.1504   24147758.0734
       249.7314        194.5934
  24170745.7794  -26191708.77246 -19808508.50045  24170741.4144   24170746.0024
     -2218.9754      -1729.0734
 04 12 11  0 28 29.9990000  0  9G17G 4G 5G 2G30G10G24G13G 7
  21264261.0724  -32039143.00049 -24373620.28647  21264258.8234   21264263.9734
      1752.3134       1365.4374
  22283601.2544  -27571906.51648 -21457083.72046  22283599.4984   22283602.0264
     -1534.1334      -1195.4304
  21679447.0654  -24168952.33449 -18497502.21747  21679445.1524   21679450.3314
      -360.4394       -280.8604
  20330265.7914  -40382899.82049 -31123905.96347  20330264.2994   20330266.7454
       441.3544        343.9114
  22042754.3334  -19569753.38448 -14621054.41746  22042753.3664   22042758.0934
      1548.9014       1206.9374
  20627691.9424  -29285307.12749 -20762203.52747  20627689.9024   20627694.6024
      2829.2684       2204.6234
  21247592.5454  -32461100.29949 -24935869.74847  21247590.9944   21247596.3934
      -603.5664       -470.3124
  24146383.1734   -5584090.97147  -4171369.22845  24146381.3534   24146384.8974
       231.5104        180.3974
  24183431.7364  -26125038.82446 -19756557.93544  24183428.4804   24183437.6454
     -2225.1884      -1733.9054
 04 12 11  0 28 59.9990000  0  9G17G 4G 5G 2G30G10G24G13G 7
  21254276.0044  -32091617.19849 -24414509.26147  21254273.3464   21254278.2864
      1743.7184       1358.7414
  22292365.8264  -27525845.75548 -21421192.18746  22292364.0014   22292367.9324
     -1538.6844      -1198.9754
  21681555.2464  -24157877.05649 -18488872.14647  21681552.8954   21681558.0114
      -380.0824       -296.1664
  20327773.0634  -40396005.38049 -31134118.08047  20327770.6764   20327772.7434
       430.1044        335.1474
  22033967.9034  -19615925.25448 -14657032.49146  22033967.1354   22033972.2084
      1527.0894       1189.9394
  20611590.3614  -29369925.79249 -20828140.11847  20611587.5564   20611592.4584
      2809.7734       2189.4334
  21251052.2354  -32442923.60749 -24921706.08747  21251050.1124   21251055.4124
      -610.4434       -475.6694
  24145114.6344   -5590756.51047  -4176563.12945  24145112.9044   24145116.3644
       210.6754        164.1574
  24196150.8954  -26058187.81746 -19704466.31944  24196149.2184   24196159.1354
     -2233.7764      -1740.5914
 04 12 11  0 29 29.9990000  0  9G17G 4G 5G 2G30G10G24G13G 7
  21244334.5904  -32143853.67948 -24455213.00147  21244332.6744   21244337.9914
      1738.8204       1354.9244
  22301151.7834  -27479669.25248 -21385210.48946  22301150.6444   22301155.4174
     -1539.5394      -1199.6394
  21683770.5754  -24146234.13649 -18479799.75347  21683768.4664   21683773.3214
      -395.9424       -308.5274
  20325338.6164  -40408795.22849 -31144084.18347  20325336.4384   20325338.7134
       422.6574        329.3424
  22025303.8374  -19661463.78648 -14692517.05746  22025301.9254   22025306.6374
      1508.9954       1175.8414
  20595595.5014  -29453980.24449 -20893637.06947  20595592.6844   20595597.6244
      2793.9834       2177.1304
  21254546.2504  -32424562.28249 -24907398.55747  21254544.1184   21254549.6904
      -613.5414       -478.0854
  24143960.7864   -5596820.82647  -4181288.55045  24143959.0924   24143963.1804
       193.6804        150.9194
  24208918.4014  -25991103.18247 -19652192.71845  24208917.0054   24208922.9734
     -2238.4304      -1744.2244
 04 12 11  0 29 59.9990000  0  9G17G 4G 5G 2G30G10G24G13G 7
  21234422.5344  -32195942.72548 -24495801.85447  21234420.5254   21234425.9204
      1735.2204       1352.1184
  22309943.8244  -27433467.70148 -21349209.27846  22309942.1934   22309947.4894
     -1538.9844      -1199.2094
  21686076.4004  -24134115.39549 -18470356.59147  21686074.3824   21686079.4794
      -410.4594       -319.8394
  20322947.6554  -40421360.05749 -31153874.94747  20322945.6244   20322947.7084
       416.4874        324.5354
  22016741.0434  -19706458.63948 -14727577.97046  22016739.2584   22016743.5714
      1492.1654       1162.7264
  20579689.9484  -29537559.02249 -20958763.36647  20579687.4524   20579693.0574
      2779.4304       2165.7894
  21258057.7534  -32406107.00149 -24893017.82047  21258055.9644   21258061.7214
      -615.3264       -479.4764
  24142903.7594   -5602373.92747  -4185615.62645  24142901.6654   24142904.6014
       178.0114        138.7064
  24221712.0784  -25923876.20047 -19599808.05845  24221709.4674   24221713.5374
     -2241.8234      -1746.8734
 04 12 11  0 30 29.9990000  0  9G17G 4G 5G 2G30G10G24G13G 7
  21224544.9104  -32247852.23348 -24536250.81247  21224542.5614   21224547.9164
      1725.4674       1344.5194
  22318746.5184  -27387209.24648 -21313163.74546  22318744.7794   22318749.9074
     -1544.6974      -1203.6584
  21688479.0814  -24121489.62049 -18460518.33947  21688476.9824   21688482.2664
      -431.1684       -335.9754
  20320605.4394  -40433667.92349 -31163465.48247  20320603.3194   20320605.7034
       404.1144        314.8954
  22008288.0404  -19750876.68048 -14762189.43546  22008286.6644   22008291.3234
      1469.1344       1144.7784
  20563882.0984  -29620628.13149 -21023492.50847  20563879.6534   20563885.5594
      2758.5914       2149.5504
  21261594.2634  -32387525.95749 -24878539.08147  21261592.0544   21261597.4374
      -623.3274       -485.7094
  24141951.0274   -5607383.12247  -4189518.86745  24141949.2144   24141953.5954
       156.0234        121.5764
  24234534.4404  -25856475.24046 -19547287.84945  24234534.8144   24234541.1934
     -2251.4434      -1754.3704
 04 12 11  0 30 59.9990000  0  9G17G 4G 5G 2G30G10G24G13G 7
  21214709.3084  -32299536.20148 -24576524.02547  21214707.4584   21214713.1694
      1719.5434       1339.9064
  22327568.6974  -27340848.39148 -21277038.41646  22327567.2224   22327571.6024
     -1546.4614      -1205.0364
  21690986.8024  -24108312.28049 -18450250.29147  21690984.6694   21690989.9054
      -447.9044       -349.0154
  20318321.1554  -40445673.27349 -31172820.29347  20318318.9884   20318321.0294
       395.6324        308.2854
  21999954.1594  -19794671.13448 -14796314.97946  21999952.8934   21999958.2004
      1449.9264       1129.8134
  20548180.7424  -29703140.21749 -21087787.60947  20548178.4664   20548184.0464
      2741.6094       2136.3184
  21265162.2754  -32368774.17049 -24863927.29747  21265160.4634   21265165.8184
      -627.3774       -488.8664
  24141109.8414   -5611802.68247  -4192962.67045  24141108.2984   24141111.6064
       138.0214        107.5494
  24247406.3054  -25788855.17546 -19494596.90544  24247403.1614   24247407.8824
     -2257.0234      -1758.7244
 04 12 11  0 31 29.9990000  0  9G17G 4G 5G 2G30G10G24G13G 7
  21204909.7864  -32351032.65748 -24616651.12347  21204907.8624   21204913.5344
      1713.7084       1335.3564
  22336403.6754  -27294423.28948 -21240863.00446  22336402.3244   22336406.2514
     -1548.2404      -1206.4214
  21693591.7084  -24094623.13849 -18439583.43547  21693589.6214   21693594.4334
      -464.5044       -361.9504
  20316086.5204  -40457414.28849 -31181969.12947  20316084.5994   20316086.7634
       387.2564        301.7584
  21991733.3264  -19837879.34148 -14829983.71646  21991731.6404   21991735.7774
      1430.8604       1114.9574
  20532578.4584  -29785131.39849 -21151676.81947  20532576.1554   20532581.4414
      2724.6794       2123.1274
  21268756.2954  -32349889.86349 -24849212.24847  21268754.4274   21268759.4164
      -631.3684       -491.9754
  24140373.5224   -5615670.37747  -4195976.40345  24140371.2464   24140375.1694
       120.0274         93.5254
  24260307.6264  -25721054.80046 -19441765.50444  24260303.8134   24260312.7724
     -2262.7624      -1763.1894
 04 12 11  0 31 59.9990000  0  9G17G 4G 5G 2G30G10G24G13G 7
  21195143.1184  -32402357.02049 -24656644.11647  21195141.2944   21195147.1114
      1707.9434       1330.8624
  22345248.0594  -27247949.83848 -21204649.92946  22345246.3954   22345249.2224
     -1549.8754      -1207.6954
  21696290.6134  -24080439.08749 -18428530.94447  21696288.5524   21696293.3684
      -481.0334       -374.8304
  20313899.3464  -40468906.66049 -31190924.21847  20313897.6274   20313899.7464
       378.9254        295.2664
  21983618.6694  -19880515.92748 -14863207.03146  21983617.5554   21983622.3794
      1411.6714       1100.0014
  20517073.0974  -29866615.66649 -21215171.03747  20517070.6304   20517075.3374
      2707.6724       2109.8734
  21272372.1884  -32330888.72349 -24834406.16347  21272370.1084   21272375.0564
      -635.3104       -495.0474
  24139740.2354   -5619001.43547  -4198572.01945  24139738.3274   24139742.6304
       102.0614         79.5274
  24273237.9334  -25653090.39046 -19388806.30145  24273236.2444   24273244.4624
     -2268.1744      -1767.4114
 04 12 11  0 32 29.9990000  0  9G17G 4G 5G 2G30G10G24G13G 7
  21185413.3964  -32453489.38949 -24696487.50647  21185411.0234   21185416.8204
      1701.2644       1325.6594
  22354104.6834  -27201408.36748 -21168383.81646  22354102.9224   22354105.6334
     -1552.4454      -1209.6984
  21699087.4684  -24065741.59649 -18417078.37247  21699085.4664   21699090.5814
      -498.4104       -388.3714
  20311763.8954  -40480130.44449 -31199670.01147  20311761.7624   20311763.9304
       369.6834        288.0644
  21975617.2354  -19922560.30848 -14895968.89046  21975616.2464   21975620.4634
      1391.6444       1084.3974
  20501667.5574  -29947571.17949 -21278253.23447  20501665.3094   20501669.8284
      2689.7214       2095.8854
  21276013.6624  -32311751.25749 -24819493.84747  21276011.8294   21276016.2614
      -640.1264       -498.8004
  24139211.1644   -5621775.92447  -4200733.93145  24139209.2844   24139213.2764
        83.2644         64.8804
  24286206.4994  -25584942.83847 -19335704.32145  24286206.3694   24286211.1364
     -2274.5354      -1772.3704
 04 12 11  0 32 59.9990000  0  9G17G 4G 5G 2G30G10G24G13G 7
  21175714.6204  -32504457.97149 -24736203.27347  21175712.2334   21175717.8944
      1696.5804       1322.0114
  22362967.8024  -27154827.40748 -21132086.95046  22362966.1204   22362969.9904
     -1552.9654      -1210.1034
  21701976.7984  -24050560.35249 -18405248.85247  21701974.6814   21701979.9734
      -513.6854       -400.2734
  20309673.5694  -40491114.39449 -31208228.92647  20309671.6384   20309673.6294
       362.4974        282.4644
  21967725.1104  -19964039.97348 -14928290.70546  21967723.5284   21967727.9464
      1373.5754       1070.3184
  20486356.9444  -30028024.79449 -21340944.33947  20486354.8194   20486360.1834
      2673.7824       2083.4654
  21279675.8624  -32292506.22249 -24804497.71147  21279673.9854   21279678.1054
      -642.9064       -500.9654
  24138782.9114   -5624022.01347  -4202484.12245  24138782.2284   24138786.0484
        66.4864         51.8074
  24299206.7594  -25516641.19847 -19282482.27045  24299202.7854   24299209.3384
     -2278.7594      -1775.6524
 04 12 11  0 33 29.9990000  0  9G17G 4G 5G 2G30G10G24G13G 7
  21166052.1674  -32555231.32949 -24775766.91547  21166050.0754   21166056.0124
      1688.7384       1315.9004
  22371844.3804  -27108175.89048 -21095735.11946  22371842.9594   22371848.1994
     -1556.6324      -1212.9604
  21704963.4884  -24034865.52949 -18393019.12847  21704961.2864   21704965.9514
      -532.1404       -414.6544
  20307634.5504  -40501827.29849 -31216576.63347  20307632.9364   20307634.8504
       352.1214        274.3804
  21959945.4104  -20004923.07648 -14960147.66246  21959943.6694   21959948.0284
      1352.3674       1053.7914
  20471149.3504  -30107943.54349 -21403218.65547  20471146.7874   20471152.4134
      2654.5774       2068.5014
  21283364.0074  -32273122.72449 -24789393.67947  21283362.0514   21283366.6004
      -648.8874       -505.6254
  24138461.5014   -5625708.15347  -4203797.97145  24138460.4054   24138464.7014
        46.3974         36.1474
  24312240.6504  -25448154.83746 -19229116.33945  24312235.6314   24312244.4594
     -2286.3194      -1781.5374
 04 12 11  0 33 59.9990000  0  9G17G 4G 5G 2G30G10G24G13G 7
  21156437.0194  -32605761.01849 -24815140.67747  21156434.8284   21156440.5784
      1680.2224       1309.2634
  22380745.1994  -27061405.48548 -21059290.66146  22380743.3684   22380748.3654
     -1560.9884      -1216.3554
  21708056.3294  -24018610.15849 -18380352.60747  21708054.3734   21708059.0214
      -551.1764       -429.4884
  20305657.2254  -40512220.87549 -31224675.51547  20305655.2764   20305657.0814
       341.1194        265.8064
  21952288.3584  -20045160.04448 -14991501.15346  21952287.1604   21952291.4474
      1330.4684       1036.7274
  20456051.7044  -30187277.35349 -21465037.16747  20456049.7894   20456055.6754
      2634.6984       2053.0114
  21287087.5024  -32253552.18749 -24774143.90047  21287086.0274   21287090.7524
      -655.4834       -510.7664
  24138258.0914   -5626785.92747  -4204637.79245  24138256.2254   24138259.8604
        25.7384         20.0494
  24325311.6134  -25379435.86746 -19175569.16644  24325311.3864   24325320.0614
     -2294.4554      -1787.8714
 04 12 11  0 34 29.9990000  0 10G17G 4G 5G 6G 2G30G10G24G13G 7
  21146858.8754  -32656092.98248 -24854360.37047  21146856.8934   21146862.3984
      1675.4784       1305.5664
  22389659.3734  -27014562.61948 -21022789.74146  22389657.8954   22389662.4764
     -1561.5034      -1216.7544
  21711247.4064  -24001841.74949 -18367286.31947  21711245.3564   21711250.2304
      -566.4364       -441.3784
  24629325.3524   -5143602.77747  -3701550.17545  24629323.4964   24629328.8484
      4020.3634       3132.7534
  20303731.8734  -40522341.28349 -31232561.54047  20303729.6224   20303731.3644
       333.8474        260.1404
  21944746.2224  -20084796.53748 -15022386.72246  21944744.5134   21944749.1794
      1312.2894       1022.5624
  20441058.5724  -30266070.58149 -21526434.44947  20441056.1744   20441061.7384
      2618.4654       2040.3614
  21290838.9874  -32233841.40249 -24758784.83647  21290837.1054   21290841.6044
      -658.3184       -512.9764
  24138157.9714   -5627301.09747  -4205039.17445  24138156.5714   24138161.6644
         8.8824          6.9234
  24338427.6204  -25310531.31246 -19121877.35944  24338424.8164   24338428.7354
     -2298.9204      -1791.3504
 04 12 11  0 34 59.9990000  0 10G17G 4G 5G 6G 2G30G10G24G13G 7
  21137310.0154  -32706272.35048 -24893461.16547  21137308.0374   21137313.4764
      1668.8214       1300.3804
  22398578.4624  -26967692.74248 -20986267.76946  22398577.3654   22398581.1154
     -1563.9804      -1218.6854
  21714527.2574  -23984607.10649 -18353856.74347  21714524.7964   21714530.5254
      -583.4854       -454.6654
  24606371.8244   -5264229.65747  -3795545.11445  24606370.0544   24606374.4144
      4020.5254       3132.8744
  20301848.4974  -40532234.04149 -31240270.17547  20301846.6974   20301848.7324
       324.7394        253.0434
  21937308.5984  -20123876.96648 -15052839.01346  21937307.2944   21937312.1794
      1292.1644       1006.8804
  20426159.7884  -30344366.63249 -21587444.32747  20426157.2614   20426162.6204
      2600.3384       2026.2374
  21294607.6454  -32214036.01349 -24743352.06047  21294605.7304   21294610.7524
      -662.9904       -516.6164
  24138158.1254   -5627299.05947  -4205037.60445  24138156.9984   24138162.5634
        -9.9044         -7.7174
  24351567.7004  -25241487.28946 -19068076.73245  24351564.6844   24351570.7214
     -2305.0454      -1796.1374
 04 12 11  0 35 29.9990000  0 10G17G 4G 5G 6G 2G30G10G24G13G 7
  21127796.7834  -32756261.10448 -24932413.42347  21127794.7614   21127800.9844
      1662.0234       1295.0824
  22407509.8994  -26920757.91248 -20949695.16746  22407508.6444   22407512.1824
     -1566.5944      -1220.7234
  21717902.4164  -23966869.75649 -18340035.44347  21717900.2104   21717905.7624
      -600.6854       -468.0664
  24583414.8034   -5384868.55847  -3889549.38545  24583413.6834   24583417.7074
      4020.3824       3132.7624
  20300016.5924  -40541861.13749 -31247771.80347  20300014.7284   20300016.8084
       315.3914        245.7594
  21929985.8744  -20162362.75348 -15082827.92546  21929984.1884   21929988.1804
      1271.9034        991.0934
  20411362.8514  -30422126.28649 -21648036.23347  20411360.2874   20411365.3664
      2581.9774       2011.9304
  21298401.9754  -32194098.13049 -24727816.03847  21298399.8994   21298405.1114
      -667.8864       -520.4314
  24138265.0974   -5626741.83147  -4204603.35845  24138262.0184   24138267.4544
       -28.9334        -22.5504
  24364736.7774  -25172266.33647 -19014138.33745  24364735.4754   24364744.6894
     -2311.3724      -1801.0634
 04 12 11  0 35 59.9990000  0  9G17G 4G 5G 6G 2G30G10G24G13
  21118326.1494  -32806030.19448 -24971194.51847  21118324.0284   21118330.1984
      1655.8844       1290.2984
  22416458.6864  -26873729.43448 -20913049.59546  22416457.4484   22416460.6544
     -1568.5824      -1222.2714
  21721378.6864  -23948602.39349 -18325801.15047  21721376.3404   21721382.0254
      -617.1494       -480.8954
  24560463.2214   -5505488.83746  -3983539.15245  24560458.6294   24560463.0784
      4020.8964       3133.1764
  20298240.4154  -40551193.68849 -31255043.91947  20298238.7094   20298240.7274
       306.7354        239.0144
  21922780.8074  -20200224.41748 -15112330.52046  21922779.4574   21922784.0214
      1252.2324        975.7664
  20396672.9674  -30499318.97249 -21708186.36047  20396670.7164   20396675.7334
      2564.2104       1998.0864
  21302226.9414  -32173999.33949 -24712154.63747  21302224.8534   21302230.2074
      -672.0784       -523.6974
  24138483.8224   -5625599.94847  -4203713.55245  24138482.3764   24138484.5724
       -47.2384        -36.8124
 04 12 11  0 36 29.9990000  0  9G17G 4G 5G 6G 2G30G10G24G13
  21108887.2224  -32855633.30648 -25009846.27847  21108885.0344   21108890.5564
      1650.4324       1286.0494
  22425415.1694  -26826661.32148 -20876373.14246  22425413.9214   22425417.7864
     -1569.8054      -1223.2244
  21724944.9154  -23929860.40249 -18311197.02447  21724943.0334   21724948.3924
      -632.8394       -493.1224
  24537501.4294   -5626142.59746  -4077555.00644  24537498.8484   24537501.9924
      4022.2304       3134.1974
  20296510.5084  -40560285.97149 -31262128.81347  20296508.6334   20296510.6644
       298.8134        232.8414
  21915683.9394  -20237515.10548 -15141388.19846  21915682.4104   21915687.1124
      1233.3184        961.0244
  20382081.7224  -30575997.08549 -21767935.52047  20382079.2624   20382084.2034
      2547.1204       1984.7684
  21306071.9774  -32153793.39249 -24696409.74047  21306070.1064   21306075.3754
      -675.5404       -526.3954
  24138800.6494   -5623927.94347  -4202410.66345  24138800.0764   24138802.8284
       -64.7634        -50.4654
 04 12 11  0 36 59.9990000  0  9G17G 4G 5G 6G 2G30G10G24G13
  21099481.6014  -32905061.35948 -25048361.62747  21099479.4164   21099484.6054
      1644.0794       1281.1014
  22434380.6654  -26779544.75348 -20839658.92546  22434379.4954   22434384.0414
     -1571.9534      -1224.8994
  21728603.1134  -23910636.49449 -18296217.38247  21728601.1704   21728606.3074
      -649.4204       -506.0424
  24514535.8174   -5746818.67846  -4171588.25645  24514537.7644   24514539.3484
      4022.3064       3134.2624
  20294827.3954  -40569128.97049 -31269019.45747  20294825.4854   20294827.6684
       289.9734        225.9524
  21908698.7194  -20274225.26848 -15169993.51746  21908697.1404   21908701.4284
      1213.3974        945.5044
  20367589.7384  -30652149.97249 -21827275.42447  20367587.6814   20367592.7214
      2529.0674       1970.7024
  21309938.5624  -32133471.59149 -24680574.56247  21309937.1814   21309942.1954
      -679.8924       -529.7864
  24139220.8914   -5621716.75347  -4200687.63445  24139218.5744   24139221.9274
       -83.2974        -64.9054
 04 12 11  0 37 29.9990000  0  9G17G 4G 5G 6G 2G30G10G24G13
  21090109.5064  -32954309.25548 -25086736.59747  21090107.5624   21090112.7884
      1638.7494       1276.9464
  22443357.4044  -26732374.86748 -20802903.17346  22443356.0804   22443360.6074
     -1572.9974      -1225.7114
  21732353.6414  -23890926.85449 -18280859.24447  21732351.5084   21732356.7954
      -664.8804       -518.0884
  24491574.0424   -5867510.46147  -4265633.73445  24491570.6824   24491575.7074
      4023.4704       3135.1644
  20293193.0654  -40577717.91749 -31275712.14147  20293191.4074   20293193.2634
       282.2104        219.9034
  21901824.0284  -20310349.49848 -15198142.26346  21901823.0084   21901827.3884
      1194.5694        930.8324
  20353199.3934  -30727771.14449 -21886201.00047  20353197.1124   20353202.6314
      2511.9854       1957.3894
  21313829.3994  -32113029.26349 -24664645.47147  21313827.3344   21313832.4004
      -683.2714       -532.4194
  24139746.4124   -5618961.24847  -4198540.44045  24139744.8634   24139749.0354
      -100.7594        -78.5154
 04 12 11  0 37 59.9990000  0  9G17G 4G 5G 6G 2G30G10G24G13
  21080774.8824  -33003368.30548 -25124964.40847  21080772.3664   21080777.2614
      1632.2774       1271.9044
  22452345.5654  -26685143.30548 -20766099.35946  22452344.4714   22452347.7854
     -1575.2574      -1227.4734
  21736198.2164  -23870724.61249 -18265117.25747  21736196.1884   21736201.5304
      -681.4764       -531.0204
  24468604.6494   -5988207.26947  -4359683.11545  24468600.9874   24468605.8764
      4023.5664       3135.2414
  20291609.1024  -40586043.99449 -31282199.98347  20291606.8884   20291608.5684
       273.2674        212.9344
  21895063.3254  -20345878.49548 -15225827.18246  21895062.3494   21895065.8924
      1174.5444        915.2274
  20338912.5124  -30802850.52149 -21944704.38547  20338910.2794   20338915.6744
      2493.7144       1943.1534
  21317743.2194  -32092458.17549 -24648616.04347  21317741.6314   21317746.5394
      -687.7224       -535.8864
  24140375.1344   -5615652.73447  -4195962.34245  24140373.9074   24140377.1574
      -119.3744        -93.0244
 04 12 11  0 38 29.9990000  0  9G17G 4G 5G 6G 2G30G10G24G13
  21071473.9714  -33052243.55148 -25163049.00547  21071471.6134   21071476.8474
      1626.1914       1267.1624
  22461344.3974  -26637855.24848 -20729251.51446  22461343.3984   22461347.2114
     -1577.0344      -1228.8584
  21740135.1594  -23850036.78149 -18248996.88747  21740133.1544   21740138.4794
      -697.5144       -543.5174
  24445634.6244   -6108912.49547  -4453739.07345  24445633.1014   24445637.9934
      4023.8304       3135.4504
  20290073.4704  -40594112.90949 -31288487.45047  20290071.4924   20290073.0944
       264.7754        206.3184
  21888415.0284  -20380817.17948 -15253052.11646  21888413.5994   21888417.4864
      1154.8954        899.9174
  20324728.4524  -30877391.81249 -22002788.48647  20324725.9774   20324730.9904
      2475.8314       1929.2184
  21321681.7424  -32071763.76349 -24632490.52047  21321679.6614   21321684.4534
      -691.7894       -539.0574
  24141109.8124   -5611796.98347  -4192957.83745  24141108.2354   24141110.7694
      -137.5034       -107.1434
 04 12 11  0 38 59.9990000  0  9G17G 4G 5G 6G 2G30G10G24G13
  21062202.9574  -33100960.11049 -25201009.94947  21062201.0394   21062206.1284
      1621.4874       1263.4954
  22470349.5324  -26590536.04448 -20692379.40346  22470348.1254   22470351.5264
     -1577.5234      -1229.2394
  21744159.3184  -23828890.12149 -18232518.99147  21744157.0194   21744161.9694
      -712.2524       -555.0014
  24422659.6884   -6229649.57647  -4547819.83445  24422657.6204   24422660.2584
      4025.3594       3136.6404
  20288582.0194  -40601950.03249 -31294594.29347  20288580.0334   20288581.5944
       257.6124        200.7364
  21881873.7124  -20415190.01048 -15279836.13546  21881872.3104   21881876.8004
      1136.6164        885.6764
  20310641.3204  -30951418.48649 -22060471.58147  20310639.0644   20310644.3644
      2459.2174       1916.2714
  21325637.5454  -32050971.33949 -24616288.62047  21325635.9464   21325640.7674
      -694.4424       -541.1254
  24141942.9254   -5607419.02847  -4189546.38945  24141940.6124   24141944.5014
      -154.3654       -120.2834
 04 12 11  0 39 29.9990000  0  9G17G 4G 5G 6G 2G30G10G24G13
  21052967.3584  -33149497.20449 -25238831.04747  21052965.2704   21052969.9924
      1614.8224       1258.3014
  22479363.1474  -26543165.25348 -20655467.09546  22479361.4884   22479365.6974
     -1579.9094      -1231.0994
  21748274.3354  -23807265.38649 -18215668.56947  21748272.1244   21748276.1984
      -728.8224       -567.9134
  24399677.9184   -6350395.77047  -4641907.75345  24399678.2994   24399682.7524
      4024.9564       3136.3314
  20287138.5794  -40609534.47449 -31300504.24347  20287136.6324   20287138.1614
       248.5284        193.6584
  21875445.2864  -20448975.89948 -15306162.80446  21875443.7494   21875448.0584
      1116.3554        869.8874
  20296656.6564  -31024908.60049 -22117736.57147  20296654.2924   20296659.8154
      2440.6774       1901.8254
  21329617.3904  -32030060.39349 -24599994.37247  21329615.2344   21329619.7144
      -699.0394       -544.7064
  24142880.3744   -5602498.35947  -4185712.08145  24142879.0514   24142880.3794
      -173.1184       -134.8974
 04 12 11  0 39 59.9990000  0  9G17G 4G 5G 6G 2G30G10G24G13
  21043761.4564  -33197875.90949 -25276528.73247  21043759.2034   21043763.7224
      1609.4834       1254.1434
  22488382.4984  -26495764.13848 -20618531.15946  22488381.1494   22488385.6764
     -1581.0164      -1231.9624
  21752476.1194  -23785185.87049 -18198463.76947  21752474.0024   21752478.8534
      -744.0094       -579.7484
  24376698.1674   -6471170.34947  -4736017.82045  24376696.7774   24376700.1284
      4025.8514       3137.0184
  20285738.9604  -40616887.84649 -31306234.13447  20285737.1454   20285738.6774
       240.7464        187.5944
  21869123.1144  -20482195.95248 -15332048.55446  21869122.0434   21869126.0044
      1097.4704        855.1704
  20282770.2184  -31097882.38249 -22174599.23147  20282767.8034   20282772.9614
      2423.3614       1888.3324
  21333614.9834  -32009052.81849 -24583624.82947  21333612.8274   21333617.1674
      -702.3424       -547.2794
  24143915.1084   -5597056.44647  -4181471.59545  24143913.1054   24143916.6914
      -190.5684       -148.4924
 04 12 11  0 40 29.9990000  0  9G17G 4G 5G 6G 2G30G10G24G13
  21034598.0574  -33246028.52649 -25314050.23847  21034595.8864   21034600.5344
      1600.4624       1247.1134
  22497421.5814  -26448265.08748 -20581518.90446  22497420.2654   22497423.8674
     -1585.7074      -1235.6154
  21756776.2484  -23762585.30149 -18180852.95947  21756774.2454   21756780.3904
      -762.8284       -594.4104
  24353723.4724   -6591903.69647  -4830095.72145  24353721.2794   24353725.7294
      4022.9014       3134.7304
  20284396.8374  -40623942.44849 -31311731.21847  20284394.8344   20284396.3694
       229.3354        178.7024
  21862922.3744  -20514781.72248 -15357440.06446  21862920.7284   21862925.0924
      1074.8164        837.5174
  20268994.6074  -31170270.64049 -22231005.63747  20268992.3484   20268997.6814
      2402.3364       1871.9494
  21337643.4064  -31987880.69349 -24567127.06047  21337641.8104   21337646.3754
      -709.3024       -552.7044
  24145063.1724   -5591025.77547  -4176772.33445  24145060.9784   24145064.7404
      -211.6464       -164.9154
 04 12 11  0 40 59.9990000  0  9G17G 4G 5G 6G 2G30G10G24G13
  21025470.7744  -33293993.38449 -25351425.44447  21025468.6594   21025473.1014
      1597.6014       1244.8844
  22506471.6834  -26400706.98548 -20544460.63146  22506470.5944   22506473.7734
     -1584.3234      -1234.5384
  21761168.8434  -23739504.28949 -18162867.79547  21761166.5804   21761172.5454
      -775.4494       -604.2454
  24330750.3914   -6712632.71147  -4924170.21245  24330747.8484   24330752.7814
      4026.1314       3137.2484
  20283103.1224  -40630737.18749 -31317025.81247  20283101.8034   20283103.3004
       224.0914        174.6184
  21856834.6604  -20546771.80248 -15382367.39746  21856833.2334   21856838.1484
      1058.3144        824.6604
  20255323.9044  -31242110.51849 -22286984.73847  20255321.7874   20255327.1804
      2387.4344       1860.3374
  21341697.1914  -31966582.79649 -24550531.28647  21341695.0114   21341699.8344
      -710.1044       -553.3284
  24146313.8694   -5584445.27347  -4171644.65745  24146313.0344   24146317.4124
      -226.5414       -176.5254
 04 12 11  0 41 29.9990000  0  9G17G 4G 5G 6G 2G30G10G24G13
  21016370.6754  -33341814.81949 -25388688.89747  21016368.4184   21016372.9274
      1590.8034       1239.5864
  22515525.1244  -26353134.03248 -20507390.77446  22515523.6114   22515527.1634
     -1586.8384      -1236.4954
  21765643.3864  -23715988.79949 -18144544.07447  21765641.4124   21765647.1084
      -791.9594       -617.1104
  24307769.5014   -6833399.50947  -5018274.16445  24307766.1924   24307770.5494
      4025.4014       3136.6774
  20281851.8284  -40637316.33149 -31322152.40947  20281849.9554   20281851.3974
       214.8424        167.4094
  21850852.0084  -20578210.04048 -15406864.72846  21850850.7734   21850855.4374
      1037.8994        808.7534
  20241749.4664  -31313444.98249 -22342570.01547  20241747.1394   20241752.1824
      2368.5104       1845.5924
  21345765.6344  -31945203.89749 -24533872.39847  21345763.3224   21345768.3894
      -714.8254       -557.0074
  24147661.2244   -5577359.42547  -4166123.22145  24147660.3244   24147664.2714
      -245.5244       -191.3184
 04 12 11  0 41 59.9990000  0  9G17G 4G 5G 6G 2G30G10G24G13
  21007305.3344  -33389453.67449 -25425810.06847  21007303.0074   21007307.6344
      1583.9084       1234.2124
  22524589.0844  -26305507.61348 -20470279.27246  22524587.0654   22524590.6084
     -1589.3874      -1238.4834
  21770208.1524  -23692001.47249 -18125852.67347  21770206.1084   21770211.8214
      -808.3934       -629.9164
  24284786.4304   -6954163.56947  -5112376.00045  24284785.9044   24284790.6074
      4024.5154       3135.9814
  20280648.2154  -40643640.90349 -31327080.63847  20280646.3614   20280647.9434
       205.5924        160.2024
  21844982.8944  -20609057.12148 -15430901.41446  21844980.9804   21844985.2464
      1017.3984        792.7754
  20228279.4224  -31384233.66849 -22397730.01047  20228276.8004   20228281.3954
      2349.5504       1830.8174
  21349856.0474  -31923705.46949 -24517120.36847  21349854.2104   21349859.7204
      -719.5864       -560.7174
  24149113.7854   -5569729.65647  -4160177.91545  24149113.5454   24149116.5914
      -264.3424       -205.9834
 04 12 11  0 42 29.9990000  0  9G17G 4G 5G 6G 2G30G10G24G13
  20998281.7364  -33436870.07549 -25462757.89947  20998279.6994   20998284.6554
      1577.2644       1229.0374
  22533669.4084  -26257787.94848 -20433095.10946  22533667.4984   22533671.6604
     -1591.6724      -1240.2634
  21774870.2734  -23667504.51249 -18106764.16847  21774867.8334   21774873.3574
      -824.5664       -642.5184
  24261814.3744   -7074882.69247  -5206442.87545  24261814.5354   24261817.5954
      4023.6924       3135.3494
  20279501.2014  -40649671.33949 -31331779.66647  20279499.1484   20279500.7914
       196.5824        153.1814
  21839232.1224  -20639273.03448 -15454446.28146  21839230.9684   21839235.7174
       997.1474        776.9994
  20214920.1364  -31454435.81549 -22452432.96247  20214917.8804   20214922.7094
      2330.7464       1816.1654
  21353977.7424  -31902047.99749 -24500244.41147  21353975.5054   21353980.9494
      -724.0944       -564.2294
  24150676.7844   -5561516.55347  -4153778.08845  24150675.0634   24150679.4254
      -283.0104       -220.5244
 04 12 11  0 42 59.9990000  0  9G17G 4G 5G 6G 2G30G10G24G13
  20989296.2854  -33484090.32349 -25499552.88847  20989294.2634   20989299.0874
      1571.5374       1224.5744
  22542761.3364  -26210001.45848 -20395858.88646  22542760.3004   22542765.2684
     -1593.1254      -1241.3974
  21779623.4504  -23642525.94249 -18087300.37847  21779621.2624   21779626.1374
      -839.8054       -654.3924
  24238848.2804   -7195581.39847  -5300493.79645  24238845.6694   24238850.3404
      4023.7474       3135.3844
  20278404.0714  -40655434.19049 -31336270.18647  20278402.2614   20278404.1854
       188.4184        146.8194
  21833598.0674  -20668883.94248 -15477519.71746  21833596.4354   21833600.3884
       977.7574        761.8894
  20201668.0164  -31524076.41649 -22506698.34247  20201665.6024   20201670.5714
      2312.7904       1802.1744
  21358123.3494  -31880257.83849 -24483265.06247  21358121.9004   21358127.9674
      -727.7374       -567.0674
  24152346.8144   -5552746.57647  -4146944.33345  24152345.1354   24152348.3684
      -300.8134       -234.4064
 04 12 11  0 43 29.9990000  0  9G17G 4G 5G 6G 2G30G10G24G13
  20980342.2234  -33531144.71849 -25536218.63847  20980339.9254   20980345.1514
      1564.0534       1218.7424
  22551861.7634  -26162178.87648 -20358594.55046  22551860.7444   22551865.0234
     -1596.3184      -1243.8844
  21784461.5454  -23617098.18149 -18067486.56247  21784459.9144   21784464.4924
      -856.7054       -667.5614
  24215876.6774   -7316288.20047  -5394550.99645  24215875.2164   24215881.2144
      4022.1404       3134.1264
  20277352.8854  -40660960.16549 -31340576.13147  20277350.9874   20277352.5944
       178.5964        139.1654
  21828072.1044  -20697920.12448 -15500145.30246  21828070.6254   21828075.4644
       956.6764        745.4624
  20188517.2934  -31593184.75749 -22560548.97047  20188514.9574   20188519.8504
      2293.1004       1786.8294
  21362289.4884  -31858365.52449 -24466206.11847  21362287.5634   21362293.0834
      -733.0934       -571.2414
  24154114.7064   -5543450.59447  -4139700.69545  24154113.2604   24154117.8094
      -320.2634       -249.5624
 04 12 11  0 43 59.9990000  0  9G17G 4G 5G 6G 2G30G10G24G13
  20971430.7414  -33577971.20349 -25572706.80547  20971428.7194   20971434.3804
      1558.9754       1214.7854
  22560981.7934  -26114258.23248 -20321253.79346  22560979.6414   22560983.6534
     -1597.0584      -1244.4614
  21789397.4864  -23591161.10048 -18047275.86747  21789395.3444   21789400.2774
      -871.1604       -678.8254
  24192917.8344   -7436939.33247  -5488564.79445  24192916.5804   24192923.5494
      4022.6624       3134.5464
  20276357.7554  -40666187.45449 -31344649.33147  20276356.1704   20276357.8264
       171.1284        133.3464
  21822667.7494  -20726319.37648 -15522274.59246  21822666.5294   21822671.0784
       937.9454        730.8684
  20175479.7834  -31661697.82349 -22613935.74547  20175477.2394   20175482.4614
      2275.7154       1773.2844
  21366486.2604  -31836309.43849 -24449019.55447  21366484.5974   21366490.0934
      -736.0824       -573.5704
  24155994.9844   -5533567.37147  -4131999.49545  24155994.0914   24155999.4004
      -337.3354       -262.8534
 04 12 11  0 44 29.9990000  0  9G17G 4G 5G 6G 2G30G10G24G13
  20962547.8344  -33624652.71449 -25609081.98747  20962545.5864   20962551.1134
      1553.5024       1210.5204
  22570103.2534  -26066322.62848 -20283901.36146  22570101.7794   22570105.2284
     -1598.1674      -1245.3264
  21794414.0164  -23564799.51748 -18026734.39047  21794411.8854   21794416.7624
      -885.8684       -690.2864
  24169956.8454   -7557615.75447  -5582598.33045  24169953.6854   24169958.9274
      4022.9274       3134.7464
  20275404.5804  -40671199.02149 -31348554.44047  20275402.6974   20275404.2284
       163.3574        127.2914
  21817370.2074  -20754164.70048 -15543972.25046  21817368.4094   21817371.7824
       918.8604        715.9944
  20162539.1414  -31729697.25549 -22666922.28547  20162536.7874   20162542.5244
      2257.9564       1759.4454
  21370699.1734  -31814172.71849 -24431770.15747  21370697.4554   21370701.7074
      -739.3324       -576.1034
  24157974.2904   -5523180.22247  -4123905.58045  24157971.8064   24157974.1284
      -354.7134       -276.3994
 04 12 11  0 44 59.9990000  0  9G17G 4G 5G 6G 2G30G10G24G13
  20953694.7604  -33671173.85449 -25645332.20947  20953692.6954   20953698.5154
      1548.1704       1206.3664
  22579230.8634  -26018356.78248 -20246525.36746  22579229.5104   22579232.6354
     -1599.1954      -1246.1284
  21799514.2264  -23537999.94449 -18005851.63147  21799511.7494   21799517.0444
      -900.4374       -701.6384
  24146989.3744   -7678300.30747  -5676638.22445  24146987.8484   24146992.8294
      4023.1374       3134.9104
  20274494.5764  -40675979.82749 -31352279.73347  20274492.8604   20274494.6394
       155.6534        121.2884
  21812178.5944  -20781440.53348 -15565226.13946  21812177.2024   21812181.2254
       899.8894        701.2124
  20149700.1364  -31797166.61549 -22719495.78147  20149697.8724   20149703.8114
      2240.2854       1745.6774
  21374930.0204  -31791940.09049 -24414446.02047  21374927.9554   21374932.4154
      -742.5204       -578.5884
  24160047.8654   -5512274.25147  -4115407.42945  24160046.6514   24160050.9034
      -372.0464       -289.9034
 04 12 11  0 45 29.9990000  0  9G17G 4G 5G 6G 2G30G10G24G13
  20944878.2614  -33717504.51449 -25681434.00747  20944876.3514   20944882.2794
      1540.0934       1200.0714
  22588369.8974  -25970331.02548 -20209102.68946  22588368.4114   22588372.2094
     -1602.8844      -1249.0024
  21804702.4014  -23510734.54249 -17984605.89347  21804699.9624   21804705.9684
      -917.6954       -715.0874
  24124026.4194   -7798960.87247  -5770659.44945  24124025.6934   24124031.1844
      4020.5774       3132.9194
  20273634.7884  -40680499.91049 -31355801.86347  20273632.8554   20273634.5154
       145.2234        113.1594
  21807102.0884  -20808116.95048 -15586012.95546  21807101.0064   21807105.5024
       878.1834        684.2984
  20136968.2724  -31864075.27349 -22771632.37947  20136965.7404   20136971.2314
      2219.8684       1729.7664
  21379185.1634  -31769582.06249 -24397024.16647  21379182.9374   21379186.7794
      -748.4384       -583.1994
  24162228.8744   -5500820.19047  -4106482.16445  24162226.1064   24162229.0764
      -392.0714       -305.5094
 04 12 11  0 45 59.9990000  0  9G17G 4G 5G 6G 2G30G10G24G13
  20936103.6204  -33763614.72349 -25717364.03547  20936101.7594   20936108.0174
      1536.2884       1197.1084
  22597526.3514  -25922215.38348 -20171609.97346  22597524.7364   22597528.9984
     -1602.3744      -1248.6024
  21809984.5634  -23482975.28449 -17962975.33947  21809982.7994   21809988.5534
      -930.5874       -725.1334
  24101076.1254   -7919565.54347  -5864637.09645  24101074.1184   24101079.2094
      4022.1804       3134.1634
  20272829.7394  -40684729.45849 -31359097.60547  20272827.8244   20272829.5694
       139.0564        108.3564
  21802146.2344  -20834163.89948 -15606309.28446  21802144.4994   21802148.5624
       860.6954        670.6714
  20124348.3304  -31930391.87049 -22823307.63047  20124346.0094   20124351.0114
      2203.5954       1717.0864
  21383468.8004  -31747068.96349 -24379481.47447  21383466.8404   21383471.0064
      -750.0924       -584.4874
  24164516.4274   -5488788.09447  -4097106.48145  24164515.0774   24164518.5214
      -407.7514       -317.7264
 04 12 11  0 46 29.9990000  0  9G17G 4G 5G 6G 2G30G10G24G13
  20927355.9084  -33809588.47849 -25753187.72347  20927353.4934   20927359.5554
      1529.0924       1191.5004
  22606683.3244  -25874094.01348 -20134112.80546  22606681.7204   22606686.2484
     -1605.2464      -1250.8424
  21815345.4564  -23454808.17049 -17941026.97347  21815343.2454   21815348.5934
      -946.8024       -737.7664
  24078123.5074   -8040196.56447  -5958635.27445  24078119.6614   24078125.6804
      4020.3274       3132.7214
  20272064.6534  -40688752.88449 -31362232.73547  20272062.3684   20272063.8844
       129.5454        100.9434
  21797292.6164  -20859665.54548 -15626180.70346  21797291.3694   21797296.4104
       839.8914        654.4614
  20111825.3254  -31996199.55549 -22874586.32547  20111823.3414   20111828.2674
      2183.9854       1701.8074
  21387765.6694  -31724485.16949 -24361883.69647  21387764.1404   21387769.1164
      -755.0714       -588.3674
  24166901.8744   -5476262.96147  -4087346.61145  24166899.9474   24166903.1314
      -426.8334       -332.5984
 04 12 11  0 46 59.9990000  0  9G17G 4G 5G 6G 2G30G10G24G13
  20918643.1694  -33855371.69849 -25788862.93347  20918641.0704   20918647.4984
      1523.4824       1187.1284
  22615851.6144  -25825913.27948 -20096569.39846  22615850.1324   22615854.4034
     -1606.4554      -1251.7834
  21820792.8434  -23426181.13449 -17918720.22447  21820790.4744   21820796.2494
      -961.3394       -749.0954
  24055174.6284   -8160798.03547  -6052610.43245  24055171.6264   24055175.8984
      4020.0524       3132.5104
  20271347.6724  -40692516.30849 -31365165.26847  20271345.9544   20271347.8784
       121.6254         94.7724
  21792554.8064  -20884567.95848 -15645585.18647  21792553.2384   21792557.6034
       820.6364        639.4544
  20099410.2294  -32061443.49349 -22925425.73947  20099407.8484   20099412.6884
      2165.9444       1687.7474
  21392087.6054  -31701776.74649 -24344188.81647  21392085.4984   21392090.4994
      -758.4694       -591.0154
  24169389.1734   -5463191.42947  -4077160.99545  24169386.4554   24169389.7494
      -444.3434       -346.2354
 04 12 11  0 47 29.9990000  0  9G17G 4G 5G 6G 2G30G10G24G13
  20909967.1254  -33900964.59449 -25824389.84747  20909965.1374   20909971.5584
      1516.9164       1182.0134
  22625030.9834  -25777673.19848 -20058979.73446  22625029.5904   22625033.6354
     -1608.6324      -1253.4794
  21826327.1154  -23397096.65049 -17896057.01547  21826324.9464   21826330.4514
      -976.7354       -761.0924
  24032229.6954   -8281368.17947  -6146561.19345  24032227.6114   24032232.5824
      4018.8864       3131.6024
  20270681.2324  -40696020.10649 -31367895.49247  20270679.3244   20270681.1574
       112.8124         87.9044
  21787929.4044  -20908871.47348 -15664522.98647  21787928.1844   21787932.7754
       800.5444        623.8014
  20087102.3604  -32126122.69049 -22975825.10147  20087100.2544   20087104.4804
      2146.9094       1672.9164
  21396431.8114  -31678944.05249 -24326397.09847  21396430.2394   21396435.6324
      -762.7974       -594.3884
  24171980.2024   -5449574.30347  -4066550.18945  24171977.9464   24171979.7364
      -462.6454       -360.5024
 04 12 11  0 47 59.9990000  0  9G17G 4G 5G 6G 2G30G10G24G13
  20901318.3474  -33946418.11149 -25859808.16247  20901315.7244   20901321.7994
      1511.1054       1177.4824
  22634212.4984  -25729425.21848 -20021383.90146  22634211.3194   22634214.9504
     -1610.0204      -1254.5624
  21831938.4614  -23367607.83848 -17873078.74647  21831936.1584   21831941.5364
      -991.3554       -772.4854
  24009282.1114   -8401956.10447  -6240525.78045  24009279.3784   24009285.4494
      4018.1394       3131.0224
  20270054.2434  -40699315.55649 -31370463.37047  20270052.1554   20270054.1514
       104.6964         81.5824
  21783408.6944  -20932627.23448 -15683033.98046  21783407.3654   21783411.8884
       781.0484        608.6104
  20074892.2484  -32190287.31449 -23025823.49347  20074890.1094   20074894.1734
      2128.5984       1658.6484
  21400790.4254  -31656038.53949 -24308548.64347  21400788.7994   21400794.8614
      -766.4064       -597.2004
  24174664.3044   -5435463.59047  -4055554.79945  24174663.4704   24174666.1174
      -480.2374       -374.2134
 04 12 11  0 48 29.9990000  0  9G17G 4G 5G 6G 2G30G10G24G13
  20892708.9254  -33991661.18449 -25895062.50747  20892706.7434   20892712.4024
      1505.3994       1173.0394
  22643409.5544  -25681098.26248 -19983726.53246  22643407.6874   22643410.8834
     -1611.3664      -1255.6094
  21837640.1844  -23337645.59248 -17849731.56447  21837637.9304   21837642.8644
     -1005.8214       -783.7564
  23986342.8804   -8522488.85347  -6334447.37545  23986341.6924   23986348.3374
      4017.6634       3130.6404
  20269480.1534  -40702331.82149 -31372813.70747  20269478.3274   20269480.2414
        96.6784         75.3344
  21779006.2744  -20955764.24148 -15701062.82047  21779004.8634   21779009.4474
       761.7164        593.5454
  20062793.8944  -32253865.57049 -23075364.96247  20062791.3754   20062795.7974
      2110.2994       1644.3884
  21405177.0874  -31632989.30949 -24290588.20747  21405175.1004   21405181.0234
      -769.9064       -599.9264
  24177456.1254   -5420788.59647  -4044119.71845  24177455.4934   24177458.4794
      -497.7744       -387.8784
 04 12 11  0 48 59.9990000  0  9G17G 4G 5G 6G 2G30G10G24G13
  20884134.9214  -34036718.62649 -25930172.20347  20884132.6374   20884137.9574
      1498.5254       1167.6814
  22652615.0444  -25632717.22648 -19946027.02546  22652614.1084   22652617.3034
     -1613.8654      -1257.5584
  21843426.5024  -23307236.80048 -17826036.42547  21843424.6364   21843429.2654
     -1021.3474       -795.8554
  23963415.5164   -8642988.99547  -6428343.57745  23963412.9594   23963415.4914
      4015.8254       3129.2194
  20268954.4974  -40705094.00849 -31374966.06247  20268952.5644   20268954.4994
        87.5514         68.2214
  21774716.0554  -20978307.56748 -15718629.05847  21774715.0024   21774719.2964
       741.2754        577.6194
  20050801.4474  -32316881.29249 -23124468.09547  20050799.3684   20050804.5784
      2090.8524       1629.2354
  21409585.3684  -31609821.34149 -24272535.24547  21409584.0134   21409589.3794
      -774.5414       -603.5394
  24180351.7914   -5405574.94347  -4032264.90845  24180350.5004   24180352.4124
      -516.3934       -402.3824
 04 12 11  0 49 29.9990000  0  9G17G 4G 5G 6G 2G30G10G24G13
  20875592.1714  -34081611.24849 -25965153.44947  20875589.9394   20875595.1944
      1493.7984       1163.9974
  22661828.4494  -25584303.24548 -19908301.83246  22661826.4614   22661831.3564
     -1614.1594      -1257.7874
  21849293.7814  -23276404.63348 -17802011.37247  21849292.0064   21849296.8324
     -1034.6294       -806.2044
  23940487.6334   -8763475.91647  -6522229.53745  23940485.4434   23940488.9494
      4016.1684       3129.4784
  20268472.7694  -40707623.05149 -31376936.73947  20268471.0274   20268473.2104
        80.5604         62.7734
  21770535.1334  -21000278.45048 -15735749.22747  21770533.9234   21770538.7804
       722.9724        563.3564
  20038913.2404  -32379354.66249 -23173148.61347  20038910.7554   20038916.4024
      2073.5464       1615.7504
  21414013.4994  -31586555.82249 -24254406.26447  21414011.5064   21414016.7184
      -777.0144       -605.4664
  24183343.5614   -5389844.15347  -4020007.13145  24183342.9814   24183347.7214
      -532.8074       -415.1754
 04 12 11  0 49 59.9990000  0  9G17G 4G 5G 6G 2G30G10G24G13
  20867077.2774  -34126356.84149 -26000020.12147  20867075.0904   20867080.5354
      1488.0734       1159.5374
  22671044.2344  -25535874.29548 -19870564.99646  22671043.1624   22671047.1874
     -1615.5394      -1258.8604
  21855238.6214  -23245168.95649 -17777671.90347  21855236.1534   21855241.8134
     -1048.9144       -817.3354
  23917558.9924   -8883964.75747  -6616116.94845  23917557.1384   23917561.3234
      4015.3624       3128.8534
  20268033.2684  -40709936.98249 -31378739.80147  20268030.9684   20268032.5834
        72.5104         56.5004
  21766459.7394  -21021694.76848 -15752437.27946  21766458.3094   21766462.7934
       703.6504        548.2974
  20027124.8944  -32441302.67749 -23221419.76747  20027122.5214   20027128.2124
      2055.1454       1601.4104
  21418456.1544  -31563210.83049 -24236215.35447  21418454.1194   21418458.6664
      -780.5054       -608.1864
  24186434.1654   -5373615.25947  -4007361.24745  24186432.0634   24186435.8744
      -550.2444       -428.7604
 04 12 11  0 50 29.9990000  0  9G17G 4G 5G 6G 2G30G10G24G13
  20858597.7434  -34170915.79449 -26034741.36047  20858595.6704   20858601.1504
      1483.3554       1155.8604
  22680270.8844  -25487390.79148 -19832785.65446  22680268.6924   22680273.6904
     -1615.8404      -1259.0974
  21861265.9124  -23213492.39849 -17752988.90347  21861263.8594   21861269.5834
     -1062.0394       -827.5614
  23894638.1324   -9004414.58347  -6709973.94045  23894635.2674   23894641.1604
      4015.5064       3128.9694
  20267641.1824  -40711996.51549 -31380344.63047  20267638.8824   20267640.3574
        65.5484         51.0774
  21762497.5894  -21042517.17148 -15768662.53546  21762496.3444   21762500.2324
       685.3854        534.0674
  20015444.6084  -32502684.97149 -23269250.10147  20015442.2144   20015447.6174
      2037.8094       1587.9034
  21422920.8984  -31539746.98349 -24217931.83347  21422918.8994   21422923.2734
      -782.9454       -610.0874
  24189624.6484   -5356849.24647  -3994296.81545  24189623.0944   24189625.5354
      -566.6544       -441.5464
 04 12 11  0 50 59.9990000  0  9G17G 4G 5G 6G 2G30G10G24G13
  20850150.7894  -34215304.03749 -26069329.57247  20850148.8444   20850154.3064
      1476.3704       1150.4174
  22689503.9924  -25438868.97348 -19794976.45046  22689502.4424   22689506.9544
     -1618.3534      -1261.0524
  21867374.3494  -23181393.00749 -17727976.41247  21867372.1904   21867377.8044
     -1077.3734       -839.5114
  23871719.4574   -9124839.44047  -6803811.40345  23871718.0054   23871724.9164
      4013.3934       3127.3174
  20267293.8804  -40713817.55449 -31381763.61847  20267292.3104   20267293.7514
        56.3664         43.9224
  21758645.4164  -21062762.15548 -15784437.86447  21758643.7414   21758648.2244
       664.8744        518.0854
  20003869.1654  -32563516.82949 -23316651.53447  20003866.5234   20003871.7274
      2018.1904       1572.6144
  21427404.8594  -31516180.54849 -24199568.36647  21427403.4174   21427407.5344
      -787.6074       -613.7194
  24192914.1524   -5339562.88947  -3980826.91145  24192911.9624   24192916.0434
      -585.2314       -456.0244
 04 12 11  0 51 29.9990000  0  9G17G 4G 5G 6G 2G30G10G24G13
  20841740.2194  -34259504.74049 -26103771.66747  20841737.7824   20841743.4594
      1469.2744       1144.8894
  22698747.1574  -25390292.18448 -19757124.41446  22698745.9024   22698750.9774
     -1621.0664      -1263.1674
  21873565.5814  -23148856.34348 -17702623.19347  21873563.3654   21873569.5444
     -1092.7634       -851.5024
  23848814.5864   -9245220.53047  -6897614.82945  23848812.4844   23848816.9604
      4011.0484       3125.4884
  20266996.0174  -40715383.98249 -31382984.21047  20266994.2064   20266995.5254
        47.0204         36.6394
  21754905.9004  -21082413.29448 -15799750.45547  21754904.2344   21754909.3644
       644.2064        501.9784
  19992401.4834  -32623780.77349 -23363610.42947  19992398.9534   19992403.9974
      1998.3734       1557.1734
  21431913.0784  -31492494.86149 -24181111.97347  21431910.5234   21431914.9574
      -792.4444       -617.4894
  24196304.6804   -5321740.43247  -3966939.28545  24196304.3934   24196307.2474
      -604.0024       -470.6534
 04 12 11  0 51 59.9990000  0  9G17G 4G 5G 6G 2G30G10G24G13
  20833363.0534  -34303525.47949 -26138073.53747  20833361.0594   20833366.2174
      1465.0954       1141.6334
  22708000.9404  -25341667.92048 -19719235.38446  22707999.2934   22708004.1264
     -1620.7894      -1262.9514
  21879838.4094  -23115891.92148 -17676936.66647  21879836.2504   21879842.0844
     -1105.1834       -861.1794
  23825915.1974   -9365562.96547  -6991388.21645  23825912.6714   23825914.6764
      4011.4354       3125.8044
  20266745.7024  -40716703.14849 -31384012.12347  20266743.3984   20266744.2324
        40.5864         31.6264
  21751277.2184  -21101478.26048 -15814606.28947  21751276.3094   21751280.6084
       626.4734        488.1624
  19981040.4634  -32683483.40549 -23410131.94947  19981037.9324   19981042.5984
      1981.5004       1544.0264
  21436440.7384  -31468697.66449 -24162568.69147  21436438.8184   21436443.7614
      -794.3454       -618.9714
  24199797.9284   -5303389.99247  -3952640.24745  24199796.4864   24199800.2734
      -619.7274       -482.8974
 04 12 11  0 52 29.9990000  0  9G17G 4G 5G 6G 2G30G10G24G13
  20825013.4534  -34347404.50749 -26172264.98747  20825011.1254   20825016.0604
      1460.4374       1138.0024
  22717255.0904  -25293034.70848 -19681339.37746  22717253.1444   22717256.8474
     -1621.0324      -1263.1414
  21886185.4144  -23082540.42748 -17650948.51447  21886183.1324   21886188.1384
     -1117.9614       -871.1384
  23803014.3204   -9485903.42147  -7085160.09245  23803012.4254   23803015.0654
      4011.5184       3125.8564
  20266533.6394  -40717813.88349 -31384877.62247  20266531.7784   20266532.9564
        33.7314         26.2834
  21747754.1884  -21119995.99348 -15829035.69547  21747753.1514   21747756.8744
       608.3484        474.0374
  19969778.7074  -32742662.72349 -23456245.68147  19969776.4204   19969780.9214
      1964.0974       1530.4634
  21440982.8264  -31444827.78449 -24143968.78647  21440980.9244   21440985.8974
      -796.6934       -620.7994
  24203379.6644   -5284551.03247  -3937960.53645  24203380.4964   24203382.3594
      -635.9314       -495.5354
 04 12 11  0 52 59.9990000  0  9G17G 4G 5G 6G 2G30G10G24G13
  20816693.5784  -34391122.62349 -26206331.04347  20816691.6164   20816696.7894
      1453.3584       1132.4874
  22726514.5474  -25244373.55148 -19643421.58746  22726513.5494   22726516.0464
     -1623.7034      -1265.2254
  21892608.6404  -23048784.97848 -17624645.57447  21892606.8454   21892611.6994
     -1133.1024       -882.9364
  23780115.8444   -9606220.79747  -7178913.83545  23780114.7354   23780121.9334
      4008.9384       3123.8464
  20266366.2314  -40718697.00849 -31385565.76747  20266363.7344   20266364.8054
        24.4244         19.0314
  21744338.3334  -21137947.68248 -15843024.03847  21744336.6184   21744341.1374
       587.7854        458.0164
  19958620.5384  -32801298.59849 -23501935.94647  19958617.9444   19958623.0214
      1944.2674       1515.0124
  21445542.9174  -31420866.17749 -24125297.40247  21445541.0194   21445546.5204
      -801.4784       -624.5284
  24207064.0184   -5265205.29747  -3922885.87245  24207062.3994   24207065.7254
      -654.5444       -510.0354
 04 12 11  0 53 29.9990000  0  9G17G 4G 5G 6G 2G30G10G24G13
  20808418.7544  -34434606.57449 -26240214.63547  20808416.6714   20808421.9604
      1446.4464       1127.1004
  22735794.1314  -25195611.50848 -19605425.17646  22735792.9194   22735796.4684
     -1626.1734      -1267.1484
  21899122.7724  -23014554.89948 -17597972.79647  21899120.5904   21899125.8174
     -1147.9814       -894.5294
  23757238.6954   -9726439.91947  -7272590.99345  23757237.6044   23757244.5044
      4006.5514       3121.9854
  20266254.7974  -40719279.62549 -31386019.74447  20266252.9644   20266253.9664
        15.2844         11.9094
  21741043.1524  -21155260.68348 -15856514.70247  21741042.2084   21741046.7534
       567.3404        442.0844
  19947579.3294  -32859317.24149 -23547145.25647  19947576.9774   19947582.3124
      1924.5644       1499.6594
  21450134.7764  -31396739.50649 -24106497.40447  21450132.5484   21450137.8464
      -806.0774       -628.1124
  24210854.9234   -5245280.48947  -3907360.05745  24210853.8554   24210857.4374
      -672.9124       -524.3424
 04 12 11  0 53 59.9990000  0  9G17G 4G 5G 6G 2G30G10G24G13
  20800181.5884  -34477892.00649 -26273943.52347  20800179.6754   20800184.9914
      1438.2434       1120.7094
  22745085.9364  -25146784.01748 -19567377.77946  22745084.7334   22745088.4194
     -1629.9434      -1270.0834
  21905719.4964  -22979887.77648 -17570959.47947  21905717.0794   21905723.1274
     -1164.1394       -907.1204
  23734375.5874   -9846594.07447  -7366217.55645  23734374.8934   23734379.9414
      4002.7454       3119.0234
  20266194.6214  -40719597.54249 -31386267.46747  20266192.4734   20266193.5554
         4.8844          3.8074
  21737862.8444  -21171971.04648 -15869535.77147  21737861.7704   21737866.6174
       545.6864        425.2084
  19936648.7394  -32916753.80649 -23591900.99247  19936646.7454   19936652.2684
      1903.5424       1483.2784
  21454750.7174  -31372483.66649 -24087596.74747  21454748.4954   21454753.4964
      -811.9924       -632.7214
  24214749.3934   -5224813.17747  -3891411.48745  24214748.3104   24214751.1734
      -692.5854       -539.6764
 04 12 11  0 54 29.9990000  0  9G17G 4G 5G 6G 2G30G10G24G13
  20791983.5724  -34520972.21049 -26307512.50247  20791981.4274   20791986.8614
      1432.5024       1116.2354
  22754392.2264  -25097884.78348 -19529274.48746  22754389.9654   22754392.8114
     -1631.2424      -1271.0984
  21912400.3924  -22944779.49248 -17543602.40247  21912398.0844   21912404.1114
     -1177.6624       -917.6564
  23711523.9044   -9966674.99547  -7459787.08545  23711524.4304   23711527.8734
      4001.4474       3118.0014
  20266184.8524  -40719644.59049 -31386304.12347  20266183.4364   20266184.7174
        -3.0284         -2.3604
  21734799.6644  -21188072.75248 -15882082.57447  21734797.8054   21734802.3194
       526.5484        410.2984
  19925831.9454  -32973601.13649 -23636197.59447  19925829.5404   19925834.5754
      1885.0304       1468.8534
  21459391.6644  -31348092.50749 -24068590.64847  21459389.5594   21459394.9474
      -815.3554       -635.3424
  24218749.6834   -5203798.06047  -3875036.04845  24218748.3354   24218750.8764
      -709.6914       -553.0034
 04 12 11  0 54 59.9990000  0  9G17G 4G 5G 6G 2G30G10G24G13
  20783815.0304  -34563899.45949 -26340962.29647  20783812.6954   20783818.0904
      1428.6824       1113.2584
  22763701.3014  -25048966.05848 -19491155.99346  22763698.9674   22763702.6564
     -1630.5514      -1270.5594
  21919154.5144  -22909284.53548 -17515944.01947  21919152.6024   21919158.4624
     -1189.2204       -926.6654
  23688679.4474  -10086732.96547  -7553338.79345  23688676.8394   23688680.4224
      4001.7604       3118.2524
  20266218.5804  -40719472.90049 -31386170.33747  20266216.2874   20266217.4854
        -9.0094         -7.0214
  21731841.1974  -21203618.49648 -15894196.14847  21731839.7664   21731843.8074
       509.3184        396.8724
  19915116.2234  -33029910.91649 -23680075.32047  19915114.2004   19915119.0704
      1868.3894       1455.8864
  21464048.5614  -31323618.38949 -24049519.90947  21464046.7574   21464052.0384
      -816.8254       -636.4874
  24222841.5014   -5182288.55547  -3858275.35045  24222839.8804   24222842.5574
      -724.8774       -564.8344
 04 12 11  0 55 29.9990000  0  9G17G 4G 5G 6G 2G30G10G24G13
  20775673.7954  -34606678.17549 -26374296.35147  20775671.9984   20775677.5334
      1422.3334       1108.3114
  22773011.5434  -25000032.40148 -19453025.88346  22773010.1984   22773015.4354
     -1632.4484      -1272.0364
  21925981.5804  -22873409.50048 -17487989.47247  21925979.6464   21925985.2464
     -1203.2754       -937.6174
  23665835.5454  -10206770.20447  -7646874.26345  23665833.8094   23665838.9534
      3999.7244       3116.6704
  20266291.2934  -40719087.17049 -31385869.76547  20266289.5864   20266290.9714
       -17.5554        -13.6794
  21728987.3414  -21218613.28048 -15905880.40747  21728986.1794   21728990.8944
       489.5324        381.4544
  19904503.0714  -33085687.19249 -23723537.32847  19904500.7654   19904505.3554
      1849.1814       1440.9214
  21468721.5304  -31299066.10749 -24030388.26147  21468719.0354   21468723.9094
      -820.8494       -639.6234
  24227028.8204   -5160289.51647  -3841133.21745  24227026.8664   24227028.7624
      -742.5284       -578.5964
 04 12 11  0 55 59.9990000  0  9G17G 4G 5G 6G 2G30G10G24G13
  20767570.8784  -34649260.37249 -26407477.27347  20767569.0494   20767574.4994
      1417.0284       1104.1774
  22782334.5444  -24951035.96048 -19414846.85146  22782333.2644   22782338.3194
     -1633.2824      -1272.6864
  21932889.3554  -22837108.97248 -17459703.36947  21932887.4314   21932892.9654
     -1216.1464       -947.6454
  23643009.0504  -10326736.96347  -7740354.79745  23643006.3534   23643011.0844
      3998.6384       3115.8234
  20266414.6044  -40718440.04349 -31385365.50547  20266412.5624   20266414.2454
       -25.0304        -19.5044
  21726248.8714  -21233009.94248 -15917098.60047  21726246.9124   21726250.6434
       470.8754        366.9164
  19894000.0544  -33140881.73049 -23766546.03947  19893997.7404   19894002.5864
      1831.0524       1426.7924
  21473416.9024  -31274388.00049 -24011158.55947  21473414.7984   21473419.5214
      -823.7694       -641.8994
  24231315.3354   -5137754.87147  -3823573.74045  24231313.3994   24231317.8854
      -759.1664       -591.5574
 04 12 11  0 56 29.9990000  0  9G17G 4G 5G 6G 2G30G10G24G13
  20759500.4734  -34691672.64449 -26440525.79547  20759498.2494   20759503.3474
      1409.5924       1098.3834
  22791666.1604  -24902003.48948 -19376639.73346  22791664.0654   22791667.4244
     -1636.3114      -1275.0474
  21939872.3234  -22800411.91048 -17431108.27847  21939870.6084   21939876.1834
     -1231.1264       -959.3194
  23620188.7814  -10446657.80347  -7833799.56145  23620186.1594   23620191.2614
      3995.2744       3113.2004
  20266581.9824  -40717557.85849 -31384678.08247  20266580.3934   20266582.2254
       -34.6394        -26.9914
  21723617.5604  -21246835.75748 -15927871.95947  21723616.1134   21723619.8134
       450.0864        350.7164
  19883602.5964  -33195520.44049 -23809121.63847  19883600.3094   19883605.1904
      1810.7074       1410.9404
  21478131.6424  -31249610.54149 -23991851.44147  21478129.5344   21478134.5614
      -828.8764       -645.8784
  24235701.0264   -5114711.94647  -3805618.21845  24235699.8604   24235703.6974
      -777.8704       -606.1304
 04 12 11  0 56 59.9980000  0  9G17G 4G 5G 6G 2G30G10G24G13
  20751470.9094  -34733868.59849 -26473405.75247  20751468.8114   20751473.5694
      1404.9214       1094.7454
  22801011.7354  -24852891.86648 -19338370.92546  22801010.2724   22801013.2374
     -1636.5274      -1275.2154
  21946939.7934  -22763277.00448 -17402172.01047  21946937.2654   21946942.8854
     -1243.2644       -968.7764
  23597385.8294  -10566481.58247  -7927168.72245  23597385.0844   23597390.2944
      3994.5994       3112.6754
  20266803.2674  -40716396.15349 -31383772.84947  20266801.5714   20266803.5604
       -41.4924        -32.3324
  21721103.7554  -21260045.79448 -15938165.50347  21721102.1174   21721106.6524
       432.0474        336.6604
  19873320.1904  -33249556.20749 -23851227.41047  19873317.6644   19873322.3594
      1793.1614       1397.2664
  21482873.9474  -31224689.91949 -23972432.77447  21482872.1984   21482876.5254
      -831.2004       -647.6884
  24240191.4884   -5091117.47047  -3787232.86845  24240189.9074   24240193.4004
      -793.7944       -618.5454
 04 12 11  0 57 29.9980000  0  9G17G 4G 5G 6G 2G30G10G24G13
  20743460.0914  -34775967.47749 -26506210.06647  20743457.5734   20743462.3004
      1400.2494       1091.1044
  22810352.3304  -24803814.16348 -19300128.54746  22810349.7904   22810352.7254
     -1636.6834      -1275.3404
  21954067.0674  -22725820.64848 -17372985.25947  21954064.8294   21954070.5924
     -1255.2574       -978.1204
  23574580.0924  -10686330.96747  -8020557.83845  23574577.1284   23574582.2984
      3993.9764       3112.1884
  20267056.0614  -40715071.48749 -31382740.63847  20267053.7324   20267055.9404
       -48.2814        -37.6214
  21718684.1784  -21272758.13048 -15948071.22947  21718682.8324   21718687.3944
       414.0674        322.6514
  19863128.6854  -33303108.73849 -23892956.62947  19863126.4964   19863131.6344
      1775.5914       1383.5784
  21487621.2114  -31199741.11849 -23952992.13747  21487619.4214   21487624.6494
      -833.5124       -649.4904
  24244763.4634   -5067087.99347  -3768508.60445  24244761.7854   24244765.5394
      -809.6074       -630.8614
 04 12 11  0 57 59.9980000  0  9G17G 4G 5G 6G 2G30G10G24G13
  20735485.1344  -34817872.37749 -26538863.22547  20735483.1364   20735488.0884
      1393.2794       1085.6724
  22819701.4284  -24754676.85148 -19261839.72746  22819699.6184   22819703.4824
     -1639.1684      -1277.2744
  21961273.2954  -22687951.04048 -17343476.50147  21961271.0674   21961276.5924
     -1269.4814       -989.2064
  23551786.6694  -10806104.36147  -8113887.75745  23551785.0914   23551789.5214
      3990.8864       3109.7784
  20267356.6374  -40713488.83449 -31381507.39647  20267354.7394   20267357.0414
       -57.3734        -44.7084
  21716378.5254  -21284877.74448 -15957515.08747  21716377.0824   21716381.3504
       393.8074        306.8624
  19853048.6584  -33356080.27849 -23934233.14247  19853046.2084   19853051.5034
      1755.7284       1368.0994
  21492392.4164  -31174669.57149 -23933455.86547  21492390.7884   21492395.9714
      -838.0514       -653.0264
  24249437.2504   -5042529.76047  -3749372.31845  24249436.4624   24249438.1294
      -827.6734       -644.9464
 04 12 11  0 58 29.9980000  0  9G17G 4G 5G 6G 2G30G10G24G13
  20727546.9254  -34859585.99649 -26571367.33647  20727545.1524   20727550.4134
      1388.7504       1082.1424
  22829062.3014  -24705482.68048 -19223506.60546  22829060.5824   22829066.0564
     -1639.2454      -1277.3344
  21968557.5384  -22649673.51748 -17313649.88447  21968555.3864   21968560.5434
     -1281.1944       -998.3334
  23529008.3354  -10925802.31147  -8207158.90845  23529007.1634   23529012.2744
      3990.0874       3109.1554
  20267706.7754  -40711650.95549 -31380075.28447  20267704.6034   20267706.7354
       -64.0484        -49.9084
  21714183.2694  -21296407.93948 -15966499.66647  21714182.3274   21714187.2004
       376.0434        293.0204
  19843078.1804  -33408473.24449 -23975058.81347  19843075.9004   19843081.2994
      1738.2684       1354.4934
  21497186.2334  -31149478.46649 -23913826.43447  21497184.7484   21497190.1734
      -840.2174       -654.7144
  24254210.2544   -5017447.10847  -3729827.37945  24254207.7374   24254212.3714
      -843.3574       -657.1714
 04 12 11  0 58 59.9980000  0  9G17G 4G 5G 6G 2G30G10G24G13
  20719640.3824  -34901140.47949 -26603747.45347  20719637.8854   20719642.9154
      1381.3984       1076.4144
  22838427.1834  -24656263.98248 -19185154.38246  22838425.9574   22838432.0494
     -1642.1264      -1279.5794
  21975912.5884  -22611022.50048 -17283532.21647  21975910.2544   21975916.0894
     -1295.6364      -1009.5874
  23506239.6554  -11045455.06447  -8300394.79145  23506238.1454   23506244.1994
      3986.5814       3106.4274
  20268098.9724  -40709590.22949 -31378469.51647  20268096.8244   20268098.9774
       -73.4824        -57.2584
  21712096.1024  -21307381.86048 -15975050.78447  21712094.6634   21712099.1224
       355.4794        276.9974
  19833212.4654  -33460319.44549 -24015458.42747  19833209.9284   19833215.4404
      1718.0024       1338.7034
  21501997.0534  -31124200.09049 -23894128.99747  21501995.2114   21502000.2304
      -845.1644       -658.5694
  24259077.6174   -4991873.04047  -3709899.50745  24259074.9784   24259077.6304
      -861.7224       -671.4774
 04 12 11  0 59 29.9980000  0  9G17G 4G 5G 6G 2G30G10G24G13
  20711763.6694  -34942531.25549 -26635999.99547  20711761.6534   20711766.3004
      1376.7304       1072.7764
  22847798.7564  -24607016.45748 -19146779.71746  22847797.5434   22847803.1494
     -1642.2354      -1279.6624
  21983339.2914  -22571995.89848 -17253121.89647  21983337.0214   21983342.9304
     -1307.3484      -1018.7114
  23483479.5554  -11165056.19647  -8393590.44845  23483478.9224   23483485.0774
      3985.5874       3105.6514
  20268534.0694  -40707302.47549 -31376686.84947  20268532.1264   20268534.4324
       -80.2954        -62.5674
  21710113.6194  -21317795.79048 -15983165.54347  21710112.5904   21710116.7684
       337.6004        263.0654
  19823450.9414  -33511614.01549 -24055428.20547  19823448.8524   19823454.1904
      1700.3724       1324.9644
  21506824.9354  -31098830.00349 -23874360.09447  21506822.8784   21506827.9274
      -847.4364       -660.3404
  24264036.8134   -4965804.15247  -3689586.07045  24264036.2164   24264038.6014
      -877.3854       -683.6754
 04 12 11  0 59 59.9980000  0  9G17G 4G 5G 6G 2G30G10G24G13
  20703929.0574  -34983703.49949 -26668082.25647  20703926.8014   20703931.2694
      1370.6584       1068.0454
  22857187.6924  -24557684.81348 -19108339.48746  22857186.6084   22857190.5864
     -1643.8474      -1280.9214
  21990846.4814  -22532541.34048 -17222378.10947  21990844.6054   21990850.8424
     -1320.3254      -1028.8244
  23460741.0334  -11284548.23447  -8486701.11145  23460740.0464   23460746.1994
      3983.1434       3103.7444
  20269022.9984  -40704732.72049 -31374684.43947  20269021.1604   20269023.1464
       -88.4774        -68.9434
  21708249.3464  -21327595.55648 -15990801.73447  21708248.0344   21708251.7714
       318.3424        248.0594
  19813805.9904  -33562301.83149 -24094925.19247  19813803.4594   19813808.5544
      1681.3674       1310.1564
  21511679.8354  -31073313.64549 -23854477.22047  21511678.0954   21511682.8864
      -851.0534       -663.1594
  24269100.9714   -4939187.57047  -3668845.88545  24269100.7794   24269103.4694
      -894.4304       -696.9554
 04 12 11  1  0 29.9980000  0  9G17G 4G 5G 6G 2G30G10G24G13
  20696125.7704  -35024711.77449 -26700036.75147  20696123.2204   20696127.6144
      1362.9524       1062.0394
  22866580.4884  -24508324.32748 -19069876.78346  22866579.2994   22866581.8054
     -1647.0634      -1283.4254
  21998424.6984  -22492716.07248 -17191345.45847  21998423.0194   21998428.9304
     -1334.9494      -1040.2194
  23438015.6284  -11403984.43647  -8579768.29145  23438013.1534   23438017.4134
      3978.9624       3100.4944
  20269555.0444  -40701936.17249 -31372505.30547  20269553.2684   20269555.1824
       -98.2904        -76.5904
  21706490.6744  -21336836.85748 -15998002.74347  21706489.6434   21706493.2544
       297.4914        231.8124
  19804265.4944  -33612437.61049 -24133992.00947  19804263.1404   19804268.0534
      1660.6794       1294.0344
  21516553.6204  -31047705.69049 -23834522.96947  21516551.2874   21516556.3084
      -856.4294       -667.3494
  24274260.7074   -4912078.59447  -3647721.96245  24274259.1394   24274262.3104
      -913.0964       -711.4984
 04 12 11  1  0 59.9980000  0  9G17G 4G 5G 6G 2G30G10G24G13
  20688346.5224  -35065586.59349 -26731887.25247  20688344.8784   20688349.3154
      1359.1144       1059.0494
  22875973.3334  -24458965.56548 -19031415.39946  22875972.2304   22875975.0744
     -1646.3734      -1282.8864
  22006068.2554  -22452553.19248 -17160049.72647  22006066.0704   22006071.6694
     -1345.4984      -1048.4404
  23415291.2804  -11523393.11647  -8672814.00745  23415289.7694   23415294.3694
      3978.7004       3100.2884
  20270125.1664  -40698943.58449 -31370173.41347  20270122.8314   20270124.5844
      -104.1914        -81.1894
  21704832.4394  -21345551.12448 -16004793.09147  21704831.0334   21704835.4324
       280.5854        218.6384
  19794824.0044  -33662051.57449 -24172652.22847  19794821.8614   19794826.7224
      1643.9474       1280.9974
  21521437.5934  -31022036.99149 -23814521.38647  21521435.4934   21521439.8344
      -857.7824       -668.4034
  24279507.8864   -4884509.23947  -3626239.29245  24279505.7054   24279509.5194
      -927.7654       -722.9364
 04 12 11  1  1 29.9980000  0  9G17G 4G 5G 6G 2G30G10G24G13
  20680605.5174  -35106269.85049 -26763588.49147  20680603.2544   20680607.7704
      1353.0054       1054.2914
  22885376.6044  -24409550.19748 -18992909.90146  22885374.6884   22885378.5874
     -1648.0194      -1284.1724
  22013786.0554  -22411997.00548 -17128447.52347  22013783.9214   22013789.0264
     -1358.3494      -1058.4534
  23392586.7544  -11642714.06947  -8765791.35045  23392583.9444   23392587.4244
      3975.9974       3098.1814
  20270742.1654  -40695696.98849 -31367643.59547  20270740.4544   20270742.3164
      -112.3854        -87.5724
  21703285.2114  -21353680.93348 -16011128.01846  21703283.8074   21703287.5864
       261.3904        203.6824
  19785493.6814  -33711085.46549 -24210860.44347  19785491.0244   19785495.8194
      1624.8844       1266.1444
  21526344.5724  -30996249.40249 -23794427.15347  21526342.6594   21526347.1104
      -861.4834       -671.2854
  24284852.3184   -4856423.19847  -3604354.07845  24284849.9674   24284852.7574
      -944.8054       -736.2034
 04 12 11  1  1 59.9980000  0  9G17G 4G 5G 6G 2G30G10G24G13
  20672898.3964  -35146773.30049 -26795149.62147  20672895.7934   20672900.0774
      1347.7084       1050.1634
  22894787.2534  -24360090.35548 -18954369.77246  22894786.5774   22894791.7104
     -1648.7014      -1284.7054
  22021575.2354  -22371061.89348 -17096550.05247  22021573.3074   22021578.9884
     -1370.1674      -1067.6634
  23369896.0494  -11761956.99347  -8858707.93445  23369893.1514   23369896.1324
      3974.0874       3096.6894
  20271405.8654  -40692208.48249 -31364925.27447  20271404.1134   20271406.0194
      -119.6824        -93.2594
  21701846.8954  -21361239.38348 -16017017.73446  21701845.4524   21701850.0654
       243.0804        189.4144
  19776270.3614  -33759551.09949 -24248625.86247  19776268.1664   19776272.9784
      1606.6774       1251.9564
  21531272.5424  -30970355.08349 -23774249.75647  21531270.6194   21531274.8974
      -864.2874       -673.4714
  24290292.1444   -4827833.04447  -3582076.02345  24290290.5804   24290294.1824
      -960.7614       -748.6434
 04 12 11  1  2 29.9980000  0  9G29G17G 4G 5G 6G 2G30G10G24
  24072436.1124    -746611.68146   -256497.83444  24072433.6514   24072439.9274
      4210.6944       3281.0774
  20665221.2654  -35187115.97749 -26826585.46547  20665218.8554   20665223.0654
      1340.8674       1044.8334
  22904204.1804  -24310605.13348 -18915809.87546  22904202.7414   22904209.2074
     -1651.1254      -1286.5904
  22029433.3724  -22329769.41448 -17064374.11447  22029431.0784   22029436.6544
     -1383.5614      -1078.0984
  23347216.1054  -11881139.00047  -8951577.03245  23347214.3754   23347218.0094
      3970.4854       3093.8844
  20272112.5804  -40688497.42149 -31362033.53347  20272110.5294   20272112.0294
      -128.6494       -100.2474
  21700513.2854  -21368246.44848 -16022477.79247  21700511.9094   21700516.9784
       223.1814        173.9084
  19767152.7174  -33807467.21049 -24285963.06347  19767150.1054   19767154.9814
      1586.8204       1236.4824
  21536216.5104  -30944373.34649 -23754004.23447  21536214.5604   21536219.5004
      -868.7494       -676.9474
 04 12 11  1  2 59.9980000  0  9G29G17G 4G 5G 6G 2G30G10G24
  24048397.7214    -872939.38547   -354934.99245  24048397.0034   24048400.7944
      4212.1364       3282.1884
  20657586.5404  -35227233.39549 -26857845.79147  20657584.4434   20657588.9164
      1334.6534       1039.9894
  22913639.8424  -24261030.04848 -18877179.96146  22913638.0444   22913642.4314
     -1652.7564      -1287.8594
  22037371.1264  -22288057.56248 -17031871.38347  22037368.4814   22037374.1584
     -1396.1944      -1087.9444
  23324559.9674  -12000193.28147  -9044346.58445  23324557.8154   23324563.0974
      3967.5244       3091.5804
  20272873.5864  -40684499.47549 -31358918.24847  20272871.3694   20272872.8154
      -136.9104       -106.6844
  21699297.1554  -21374638.38948 -16027458.55647  21699295.7464   21699300.5254
       203.9954        158.9594
  19758150.6344  -33854768.98749 -24322821.56547  19758148.9074   19758153.6074
      1567.6624       1221.5564
  21541189.3624  -30918239.61449 -23733640.28947  21541187.8394   21541193.0094
      -872.4764       -679.8524
 04 12 11  1  3 29.9980000  0  9G29G17G 4G 5G 6G 2G30G10G24
  24024345.7114    -999341.60647   -453430.10545  24024342.5634   24024349.3634
      4214.1444       3283.7444
  20649980.9534  -35267201.57949 -26888989.82047  20649978.5944   20649983.2974
      1329.2894       1035.8094
  22923075.8374  -24211441.36148 -18838539.45046  22923074.0154   22923079.3674
     -1653.5884      -1288.5064
  22045372.9404  -22246005.08748 -16999103.24247  22045370.8144   22045376.4664
     -1407.8924      -1097.0574
  23301915.5534  -12119193.99647  -9137074.37345  23301913.5374   23301919.0464
      3965.3724       3089.9014
  20273674.0444  -40680290.73049 -31355638.69947  20273672.2674   20273673.5604
      -144.3054       -112.4454
  21698183.2544  -21380492.65148 -16032020.33547  21698181.6964   21698186.3094
       185.7184        144.7174
  19749252.0944  -33901532.80949 -24359260.88847  19749249.7614   19749254.7314
      1549.3534       1207.2884
  21546177.5184  -30892030.29249 -23713217.44047  21546175.4724   21546180.5724
      -875.3854       -682.1184
 04 12 11  1  3 59.9980000  0  9G29G17G 4G 5G 6G 2G30G10G24
  24000281.8204   -1125789.04447   -551960.44745  24000280.6384   24000289.4664
      4214.8894       3284.3184
  20642408.9764  -35306993.75649 -26919996.69847  20642406.7454   20642411.1674
      1322.6744       1030.6554
  22932520.7574  -24161812.55148 -18799867.65646  22932518.8544   22932523.1404
     -1655.7154      -1290.1654
  22053444.9424  -22203587.91748 -16966050.91847  22053442.3554   22053448.2884
     -1420.7514      -1107.0784
  23279286.5644  -12238112.35447  -9229738.02045  23279283.9524   23279287.9384
      3961.7744       3087.0964
  20274520.3084  -40675844.96249 -31352174.45847  20274518.1844   20274519.7864
      -152.9424       -119.1764
  21697176.2614  -21385783.57548 -16036143.14947  21697175.0644   21697179.6214
       166.2214        129.5234
  19740460.5264  -33947731.69849 -24395260.00747  19740458.3384   19740463.4944
      1529.7904       1192.0444
  21551183.4704  -30865719.01249 -23692715.14547  21551182.1634   21551187.7424
      -879.5184       -685.3394
 04 12 11  1  4 29.9980000  0  9G29G17G 4G 5G 6G 2G30G10G24
  23976213.9634   -1252259.16947   -650508.51645  23976213.5924   23976220.5514
      4216.7584       3285.7714
  20634874.4024  -35346590.65549 -26950851.41847  20634871.6734   20634875.8614
      1317.3114       1026.4774
  22941975.0754  -24112124.21348 -18761149.49146  22941973.3794   22941977.7874
     -1656.5124      -1290.7894
  22061588.9104  -22160789.46848 -16932701.49647  22061586.7104   22061592.7814
     -1432.2604      -1116.0464
  23256677.0324  -12356926.96747  -9322320.84345  23256674.8394   23256678.0754
      3959.4184       3085.2604
  20275415.5604  -40671143.05749 -31348510.63347  20275413.2234   20275414.5924
      -160.3184       -124.9234
  21696280.4374  -21390492.81248 -16039812.70747  21696279.1214   21696283.4944
       148.0134        115.3354
  19731780.5614  -33993346.63949 -24430804.10947  19731778.3584   19731783.1224
      1511.4504       1177.7534
  21556214.4534  -30839286.18849 -23672118.14247  21556212.2944   21556217.3344
      -882.4344       -687.6124
 04 12 11  1  4 59.9980000  0  9G29G17G 4G 5G 6G 2G30G10G24
  23952138.1334   -1378791.45447   -749105.02145  23952136.0994   23952142.6214
      4219.0104       3287.5504
  20627368.2944  -35386034.59249 -26981586.94447  20627365.7484   20627370.2224
      1312.5214       1022.7434
  22951433.4384  -24062418.81748 -18722418.02446  22951431.8764   22951435.3724
     -1656.8084      -1291.0224
  22069797.7934  -22117654.49848 -16899089.85847  22069795.3094   22069800.8434
     -1443.1334      -1124.5184
  23234078.1464  -12475678.08347  -9414854.20845  23234076.0114   23234079.5824
      3957.5824       3083.8324
  20276350.3044  -40666227.55449 -31344680.36747  20276348.5584   20276350.1874
      -167.1504       -130.2474
  21695486.5484  -21394664.13248 -16043063.10446  21695485.3374   21695489.4074
       130.4364        101.6394
  19723203.5994  -34038420.03449 -24465926.22947  19723201.1954   19723205.7964
      1493.6924       1163.9164
  21561259.1384  -30812774.75449 -23651459.87847  21561256.9864   21561261.9694
      -884.7614       -689.4254
 04 12 11  1  5 29.9980000  0  9G29G17G 4G 5G 6G 2G30G10G24
  23928050.3534   -1505371.86746   -847739.14345  23928046.7874   23928054.3494
      4219.3624       3287.8164
  20619893.2344  -35425314.64049 -27012194.76747  20619890.8634   20619895.3054
      1305.7874       1017.4954
  22960896.7294  -24012685.59848 -18683664.87446  22960894.8504   22960898.5574
     -1659.0074      -1292.7334
  22078071.5414  -22074174.77948 -16865209.57247  22078069.3404   22078074.5814
     -1455.8054      -1134.3924
  23211494.2254  -12594352.77147  -9507327.96445  23211492.3384   23211497.6384
      3953.7834       3080.8684
  20277328.4694  -40661087.63249 -31340675.22947  20277326.6754   20277328.1834
      -175.8524       -137.0284
  21694797.3244  -21398287.44748 -16045886.47946  21694795.4904   21694799.5424
       110.9074         86.4224
  19714731.7714  -34082940.61249 -24500617.57447  19714729.1934   19714733.7004
      1474.0424       1148.6044
  21566320.1804  -30786173.47149 -23630731.60847  21566318.7864   21566323.7614
      -888.9644       -692.7004
 04 12 11  1  5 59.9980000  0  9G29G17G 4G 5G 6G 2G30G10G24
  23903960.1384   -1631966.66047   -946384.43545  23903958.6504   23903962.2264
      4220.8934       3289.0104
  20612455.6264  -35464399.82449 -27042650.75347  20612453.2544   20612457.5674
      1300.4694       1013.3524
  22970373.1554  -23962893.87948 -18644866.13246  22970371.5474   22970374.9404
     -1659.7994      -1293.3464
  22086415.9464  -22030322.38148 -16831038.88547  22086413.7994   22086419.2784
     -1467.0674      -1143.1704
  23188933.0584  -12712918.03148  -9599716.46546  23188931.0914   23188936.4284
      3951.1904       3078.8494
  20278355.6844  -40655693.00949 -31336471.62247  20278353.3494   20278354.7584
      -183.2074       -142.7584
  21694217.7364  -21401333.43748 -16048259.98846  21694215.9164   21694219.8784
        92.8124         72.3224
  19706371.5384  -34126877.66649 -24534854.21847  19706368.6994   19706372.8444
      1455.7354       1134.3394
  21571404.9494  -30759451.96049 -23609909.64947  21571403.4764   21571408.3584
      -891.8284       -694.9294
 04 12 11  1  6 29.9980000  0  9G29G17G 4G 5G 6G 2G30G10G24
  23879861.9634   -1758600.30847  -1045059.97045  23879859.7624   23879866.8594
      4223.2474       3290.8484
  20605049.8454  -35503317.67249 -27072976.34447  20605047.7674   20605051.6884
      1296.0044       1009.8744
  22979854.5564  -23913071.06348 -18606043.16546  22979852.1194   22979856.5754
     -1659.6784      -1293.2554
  22094825.7624  -21986127.15848 -16796601.06947  22094823.8204   22094829.6454
     -1477.2874      -1151.1294
  23166387.0414  -12831398.98748  -9692039.26046  23166385.1064   23166390.0994
      3949.5394       3077.5614
  20279425.1994  -40650071.20349 -31332090.99247  20279423.2904   20279424.7044
      -189.6454       -147.7754
  21693742.2144  -21403830.54348 -16050205.79346  21693740.8644   21693745.7374
        75.7204         59.0034
  19698115.7064  -34170258.95749 -24568657.80947  19698113.4504   19698117.6874
      1438.3354       1120.7814
  21576508.8034  -30732637.88249 -23589015.56247  21576506.6994   21576510.7714
      -893.7794       -696.4514
 04 12 11  1  6 59.9980000  0  9G29G17G 4G 5G 6G 2G30G10G24
  23855751.5374   -1885299.92047  -1143786.86945  23855750.0134   23855756.5564
      4224.5664       3291.8614
  20597669.8784  -35542098.29049 -27103194.99847  20597667.8034   20597671.9914
      1290.4994       1005.5834
  22989334.2314  -23863247.38248 -18567219.51546  22989333.1994   22989337.8744
     -1660.6794      -1294.0394
  22103295.2394  -21941622.08848 -16761921.82347  22103292.8584   22103298.8434
     -1488.5104      -1159.8754
  23143851.3694  -12949824.10647  -9784318.55946  23143849.2824   23143853.9884
      3946.7384       3075.3774
  20280532.7844  -40644252.57549 -31327556.99347  20280530.5134   20280532.0094
      -197.1364       -153.6134
  21693365.2994  -21405810.21448 -16051748.40746  21693364.1024   21693368.9444
        57.4804         44.7904
  19689960.3154  -34213114.88649 -24602052.02547  19689958.0454   19689962.4654
      1419.8644       1106.3874
  21581623.3494  -30705761.55949 -23568072.96447  21581621.3084   21581625.5564
      -896.7994       -698.8044
 04 12 11  1  7 29.9980000  0  9G29G17G 4G 5G 6G 2G30G10G24
  23831638.0694   -2012015.23247  -1242526.04945  23831635.7384   23831643.0884
      4222.4284       3290.1974
  20590325.8254  -35580694.25949 -27133269.77547  20590323.3494   20590327.6114
      1281.8084        998.8104
  22998826.3124  -23813375.46848 -18528358.28646  22998824.1484   22998828.8954
     -1664.7974      -1297.2444
  22111832.4364  -21896762.37348 -16726966.22347  22111829.8834   22111835.0424
     -1502.8434      -1171.0454
  23121335.6824  -13068143.81547  -9876515.73645  23121333.2864   23121337.6624
      3940.6264       3070.6204
  20281686.1214  -40638190.00949 -31322832.91347  20281684.1024   20281685.5594
      -207.8144       -161.9334
  21693095.7974  -21407226.44948 -16052851.98646  21693094.5394   21693099.1424
        36.1854         28.1954
  19681914.4034  -34255397.90449 -24634999.81447  19681911.9484   19681916.2874
      1398.2484       1089.5424
  21586758.4414  -30678775.64849 -23547044.97747  21586756.5754   21586761.4574
      -902.9954       -703.6334
 04 12 11  1  7 59.9980000  0  9G29G17G 4G 5G 6G 2G30G10G24
  23807532.1924   -2138702.17647  -1341243.14745  23807528.7114   23807535.9064
      4222.7744       3290.4684
  20583024.0534  -35619064.47949 -27163168.64847  20583021.5644   20583025.9954
      1275.5844        993.9624
  23008331.9644  -23763414.45248 -18489427.65546  23008330.2194   23008334.8394
     -1666.4124      -1298.5004
  22120442.6194  -21851509.72148 -16691704.42647  22120440.8874   22120446.5414
     -1514.5934      -1180.2034
  23098847.6894  -13186314.83947  -9968597.06045  23098845.7724   23098850.2844
      3936.8574       3067.6804
  20282894.1714  -40631842.77349 -31317887.01347  20282891.9234   20282893.5584
      -215.9734       -168.2914
  21692942.4214  -21408039.44448 -16053485.49747  21692940.4044   21692944.5194
        17.4444         13.5944
  19673984.3324  -34297067.38149 -24667469.51347  19673982.1104   19673986.7564
      1379.0994       1074.6214
  21591922.0374  -30651639.34749 -23525899.80747  21591920.3204   21591925.6044
      -906.6984       -706.5184
 04 12 11  1  8 29.9980000  0  9G29G17G 4G 5G 6G 2G30G10G24
  23783416.3644   -2265429.31047  -1439991.61545  23783413.7474   23783419.1414
      4225.9024       3292.9194
  20575751.8554  -35657280.67349 -27192947.49947  20575749.3354   20575753.7794
      1272.3134        991.4134
  23017841.7654  -23713436.23548 -18450483.61446  23017840.5274   23017845.6834
     -1665.1164      -1297.4914
  22129114.9264  -21805938.57048 -16656194.45147  22129112.8734   22129118.1704
     -1523.2504      -1186.9464
  23076374.4154  -13304406.88847 -10060616.81146  23076373.5684   23076379.2904
      3936.1344       3067.1174
  20284142.3074  -40625282.75449 -31312775.30647  20284140.3054   20284141.7134
      -221.1474       -172.3234
  21692887.4984  -21408322.22048 -16053705.85446  21692886.3184   21692890.4094
         1.6904          1.3184
  19666158.3964  -34338195.11049 -24699517.06847  19666155.6294   19666160.6124
      1362.9654       1062.0504
  21597101.2694  -30624424.47049 -23504693.41247  21597099.1894   21597104.6554
      -907.4044       -707.0684
 04 12 11  1  8 59.9980000  0  9G29G17G 4G 5G 6G 2G30G10G24
  23759297.8354   -2392178.11347  -1538757.02845  23759294.6064   23759298.4014
      4224.2144       3291.6014
  20568511.5154  -35695327.02349 -27222593.99947  20568509.2324   20568514.1054
      1264.2024        985.0934
  23027359.6444  -23663425.00948 -18411513.83946  23027358.2004   23027362.1614
     -1668.7344      -1300.3124
  22137850.4764  -21760035.70948 -16620426.00147  22137848.2074   22137853.4164
     -1536.7364      -1197.4564
  23053922.1374  -13422402.08448 -10152561.07746  23053920.4614   23053926.6404
      3930.4044       3062.6504
  20285434.4034  -40618494.29149 -31307485.59147  20285431.9094   20285433.6204
      -231.2494       -180.1944
  21692937.2484  -21408060.44348 -16053501.88846  21692936.0054   21692939.9884
       -18.9304        -14.7514
  19658437.3154  -34378765.34849 -24731130.21947  19658435.1204   19658440.4404
      1341.8704       1045.6144
  21602297.4194  -30597115.34149 -23483413.57747  21602295.6314   21602301.1164
      -913.0644       -711.4794
 04 12 11  1  9 29.9980000  0  9G29G17G 4G 5G 6G 2G30G10G24
  23735172.8164   -2518941.74147  -1637533.86845  23735171.8704   23735178.3194
      4225.3374       3292.4594
  20561304.8004  -35733199.87149 -27252105.30347  20561302.4614   20561307.2824
      1259.0864        981.1054
  23036884.1654  -23613377.24848 -18372515.59546  23036881.8534   23036886.0614
     -1669.3344      -1300.7784
  22146648.0324  -21713800.46448 -16584398.55446  22146646.0274   22146651.8064
     -1547.1424      -1205.5664
  23031487.5324  -13540294.54748 -10244425.29946  23031486.5544   23031491.3924
      3927.6064       3060.4734
  20286769.4984  -40611474.14449 -31302015.34547  20286767.6964   20286769.6284
      -238.3254       -185.7084
  21693090.8704  -21407251.80248 -16052871.79346  21693089.6114   21693093.6214
       -36.5024        -28.4434
  19650824.1014  -34418774.93449 -24762306.51147  19650821.6644   19650826.8784
      1323.8704       1031.5884
  21607513.3534  -30569708.52949 -23462057.62147  21607511.0834   21607516.0104
      -915.6434       -713.4884
 04 12 11  1  9 59.9980000  0  9G29G17G 4G 5G 6G 2G30G10G24
  23711052.1474   -2645698.34947  -1736305.27345  23711050.5094   23711057.6704
      4225.1074       3292.2904
  20554134.7544  -35770880.05049 -27281466.47147  20554132.2344   20554136.8264
      1252.7764        976.1894
  23046418.6794  -23563273.91048 -18333474.01546  23046416.8214   23046420.9974
     -1671.0174      -1302.0894
  22155513.2704  -21667216.46348 -16548099.35147  22155510.8404   22155516.6284
     -1558.5944      -1214.4904
  23009078.2344  -13658063.30647 -10336193.14946  23009075.7654   23009080.1804
      3923.5764       3057.3314
  20288153.5444  -40604203.56849 -31296349.95647  20288151.2204   20288152.8684
      -246.5294       -192.1014
  21693352.8934  -21405878.52648 -16051801.71646  21693351.3854   21693355.5894
       -55.1474        -42.9724
  19643320.6774  -34458205.18049 -24793031.37547  19643318.1214   19643323.6634
      1304.6904       1016.6424
  21612749.4354  -30542185.05349 -23440610.75847  21612748.0084   21612753.6674
      -919.3894       -716.4074
 04 12 11  1 10 29.9980000  0  9G29G17G 4G 5G 6G 2G30G10G24
  23686931.6284   -2772458.77847  -1835079.62645  23686929.3114   23686936.7164
      4225.3744       3292.4994
  20546998.1484  -35808381.85449 -27310688.65947  20546995.8894   20547000.3564
      1247.0094        971.6964
  23055960.4904  -23513129.33248 -18294400.33246  23055958.8634   23055962.3054
     -1672.1754      -1302.9964
  22164440.8644  -21620300.58248 -16511541.54447  22164438.5254   22164444.5524
     -1569.4154      -1222.9194
  22986686.8344  -13775720.32047 -10427873.91245  22986685.3494   22986689.2384
      3919.9694       3054.5204
  20289581.6314  -40596696.90649 -31290500.60847  20289579.4904   20289581.4244
      -254.2164       -198.0904
  21693718.7284  -21403956.44948 -16050304.00746  21693717.1434   21693721.4904
       -73.2234        -57.0554
  19635924.3664  -34497070.52749 -24823316.04347  19635922.1934   19635928.0134
      1286.0474       1002.1154
  21618007.1934  -30514559.34349 -23419084.23447  21618005.5054   21618009.7484
      -922.6324       -718.9344
 04 12 11  1 10 59.9980000  0  9G29G17G 4G 5G 6G 2G30G10G24
  23662808.5754   -2899224.57347  -1933858.19045  23662807.0284   23662813.0394
      4225.8254       3292.8474
  20539894.6484  -35845709.61149 -27339775.22847  20539892.6204   20539897.2424
      1241.5634        967.4514
  23065508.9404  -23462947.98048 -18255297.99646  23065507.7774   23065512.9394
     -1673.0334      -1303.6624
  22173430.3584  -21573059.98448 -16474730.71147  22173428.2484   22173433.9934
     -1579.8294      -1231.0364
  22964319.8084  -13893267.74947 -10519469.30745  22964317.5234   22964321.4354
      3916.6764       3051.9584
  20291054.1194  -40588958.77249 -31284470.89047  20291052.0974   20291054.0784
      -261.5654       -203.8174
  21694187.7314  -21401491.35348 -16048383.17846  21694186.1034   21694190.3154
       -90.9184        -70.8434
  19628635.8904  -34535375.65149 -24853164.18447  19628633.3454   19628638.8944
      1267.7404        987.8474
  21623282.9174  -30486835.79949 -23397481.46847  21623281.0614   21623285.3494
      -925.5044       -721.1724
 04 12 11  1 11 29.9980000  0  9G29G17G 4G 5G 6G 2G30G10G24
  23638683.8764   -3026000.22447  -2032644.41145  23638681.9164   23638687.7934
      4225.1774       3292.3474
  20532823.5144  -35882870.64649 -27368731.87947  20532821.1894   20532825.8174
      1235.1054        962.4204
  23075064.2984  -23412737.38548 -18216172.86846  23075062.4664   23075067.4554
     -1674.9894      -1305.1874
  22182480.1154  -21525504.84848 -16437674.77546  22182477.6654   22182483.0494
     -1591.2284      -1239.9184
  22941970.8004  -14010710.89648 -10610983.44346  22941969.4674   22941973.3984
      3912.1934       3048.4614
  20292568.6834  -40580996.84149 -31278266.78447  20292566.8784   20292568.9954
      -269.9954       -210.3854
  21694758.4804  -21398492.32848 -16046046.29046  21694756.9254   21694761.1484
      -109.6654        -85.4554
  19621451.4864  -34573128.50149 -24882581.97047  19621449.0324   19621454.7254
      1248.3934        972.7734
  21628576.1874  -30459022.16649 -23375808.50547  21628574.1164   21628578.0814
      -929.4724       -724.2644
 04 12 11  1 11 59.9980000  0  9G29G17G 4G 5G 6G 2G30G10G24
  23614557.4624   -3152776.87647  -2131431.45945  23614556.6064   23614563.1294
      4227.2424       3293.9584
  20525784.5254  -35919859.07449 -27397554.02347  20525782.3504   20525787.0064
      1231.4714        959.5884
  23084624.7174  -23362491.65248 -18177020.38446  23084623.5834   23084627.9464
     -1674.0124      -1304.4234
  22191589.5984  -21477632.18748 -16400371.42046  22191587.4924   22191593.1934
     -1599.6364      -1246.4714
  22919642.9474  -14128042.00548 -10702410.26546  22919641.0704   22919646.2914
      3910.5034       3047.1464
  20294128.1744  -40572805.42649 -31271883.86447  20294125.8094   20294127.7114
      -275.4664       -214.6484
  21695431.2864  -21394954.87748 -16043289.85346  21695429.8204   21695434.6434
      -125.4654        -97.7654
  19614373.6884  -34610323.34349 -24911564.94947  19614371.2764   19614377.0264
      1231.9384        959.9514
  21633887.2544  -30431112.55049 -23354060.74647  21633885.1274   21633889.5974
      -930.5244       -725.0844
 04 12 11  1 12 29.9980000  0  9G29G17G 4G 5G 6G 2G30G10G24
  23590432.5094   -3279559.76147  -2230223.26845  23590430.6564   23590439.1964
      4226.3134       3293.2344
  20518777.0714  -35956683.26549 -27426248.19047  20518774.8044   20518779.4274
      1224.8664        954.4414
  23094190.9944  -23312219.32748 -18137847.17446  23094189.9454   23094195.4944
     -1676.0094      -1305.9804
  22200758.1434  -21429453.15248 -16362829.33046  22200755.8404   22200761.7134
     -1610.9174      -1255.2594
  22897335.2634  -14245267.04948 -10793754.41346  22897333.8394   22897339.4464
      3905.8354       3043.5074
  20295728.2284  -40564393.40649 -31265329.03847  20295726.5364   20295728.6164
      -283.9334       -221.2474
  21696204.9224  -21390888.87748 -16040121.56646  21696203.5594   21696208.4624
      -144.1514       -112.3244
  19607400.3954  -34646969.13549 -24940120.09747  19607397.9184   19607403.4524
      1212.5404        944.8364
  21639215.0954  -30403115.30349 -23332244.70847  21639213.0624   21639217.8434
      -934.5584       -728.2264
 04 12 11  1 12 59.9980000  0  9G29G17G 4G 5G 6G 2G30G10G24
  23566305.6294   -3406356.38147  -2329025.78545  23566303.2324   23566308.5824
      4226.7984       3293.6084
  20511799.0484  -35993353.65549 -27454822.51547  20511796.6894   20511801.1894
      1219.8384        950.5234
  23103762.6944  -23261930.86448 -18098661.38346  23103760.8294   23103765.0034
     -1676.5054      -1306.3664
  22209982.4504  -21380980.92648 -16325058.78946  22209980.4184   22209985.6364
     -1620.5374      -1262.7564
  22875047.6314  -14362394.63748 -10885022.62046  22875045.1934   22875050.7234
      3902.6904       3041.0594
  20297369.3884  -40555771.34949 -31258610.55047  20297367.3384   20297369.5094
      -290.8444       -226.6324
  21697076.8994  -21386306.36948 -16036550.80746  21697075.2984   21697079.9074
      -161.2654       -125.6594
  19600529.6844  -34683076.82049 -24968255.94347  19600526.9874   19600532.4254
      1194.6974        930.9324
  21644556.6384  -30375041.13449 -23310368.72847  21644555.1484   21644560.4624
      -937.0124       -730.1404
 04 12 11  1 13 29.9980000  0  9G29G17G 4G 5G 6G 2G30G10G24
  23542178.1084   -3533142.57647  -2427820.15845  23542175.1304   23542182.5474
      4226.8644       3293.6624
  20504854.3214  -36029849.05549 -27483260.48647  20504851.9754   20504856.6834
      1214.4304        946.3094
  23113337.7264  -23211605.26448 -18059446.64146  23113336.4004   23113340.3244
     -1677.3144      -1306.9994
  22219265.0024  -21332197.27848 -16287045.58547  22219263.1174   22219268.9354
     -1630.4824      -1270.5044
  22852782.3574  -14479401.22748 -10976196.56746  22852780.5174   22852784.5864
      3899.0094       3038.1904
  20299053.7444  -40546918.30249 -31251712.07047  20299051.9694   20299054.1554
      -298.1494       -232.3234
  21698051.0094  -21381187.90348 -16032562.41646  21698049.4994   21698053.8804
      -178.7394       -139.2754
  19593764.4034  -34718625.93349 -24995956.54447  19593761.7554   19593767.6604
      1176.4794        916.7374
  21649918.2134  -30346869.25849 -23288416.61847  21649915.9594   21649921.8284
      -939.8744       -732.3694
 04 12 11  1 13 59.9980000  0  9G29G17G 4G 5G 6G 2G30G10G24
  23518052.5714   -3659920.27447  -2526607.92545  23518051.5054   23518057.7404
      4225.1164       3292.2954
  20497941.4634  -36066174.41549 -27511565.96347  20497939.4534   20497944.2684
      1207.2754        940.7344
  23122921.6554  -23161247.40848 -18020206.75346  23122919.8554   23122923.3514
     -1679.8164      -1308.9494
  22228606.6034  -21283109.95948 -16248795.75246  22228604.0104   22228609.9114
     -1642.0184      -1279.4934
  22830538.6594  -14596289.72047 -11067278.54146  22830537.4304   22830540.1194
      3893.5944       3033.9754
  20300782.2894  -40537839.37549 -31244637.58047  20300779.8264   20300781.7144
      -307.1394       -239.3294
  21699125.5374  -21375539.97148 -16028161.45546  21699124.1504   21699128.2314
      -197.7884       -154.1214
  19587104.6804  -34753621.42049 -25023225.74247  19587102.5104   19587108.1974
      1156.5574        901.2134
  21655296.5004  -30318604.64549 -23266392.25247  21655294.5024   21655299.9584
      -944.4344       -735.9224
 04 12 11  1 14 29.9980000  0  9G29G17G 4G 5G 6G 2G30G10G24
  23493931.6764   -3786674.76847  -2625377.65145  23493930.2744   23493935.9154
      4225.1154       3292.3014
  20491063.6284  -36102317.63149 -27539729.51047  20491061.3704   20491066.3484
      1202.0894        936.6934
  23132512.2664  -23110845.56048 -17980932.58546  23132510.6264   23132513.9184
     -1680.3934      -1309.4004
  22238006.6924  -21233709.97048 -16210302.28746  22238004.4784   22238010.3614
     -1651.4604      -1286.8514
  22808320.9864  -14713046.16248 -11158257.59846  22808319.0164   22808322.6564
      3890.0664       3031.2214
  20302554.8334  -40528522.97649 -31237378.04647  20302552.9354   20302554.4684
      -314.1404       -244.7844
  21700304.1924  -21369352.40348 -16023339.98946  21700302.1714   21700306.1274
      -214.8414       -167.4074
  19580552.4884  -34788052.15949 -25050054.88347  19580550.4274   19580556.2044
      1138.6814        887.2834
  21660694.5274  -30290235.33949 -23244286.30347  21660692.6564   21660698.4004
      -946.9994       -737.9214
 04 12 11  1 14 59.9980000  0  9G29G17G 4G 5G 6G 2G30G10G24
  23469818.5414   -3913400.99647  -2724125.34045  23469816.3444   23469820.0864
      4223.5654       3291.0794
  20484221.2174  -36138276.85549 -27567749.68747  20484218.6444   20484223.6474
      1195.3754        931.4604
  23142112.8054  -23060397.85448 -17941622.71446  23142110.9934   23142115.0324
     -1682.5074      -1311.0424
  22247467.2274  -21183998.11648 -16171565.80646  22247464.8664   22247470.0304
     -1662.4054      -1295.3794
  22786128.6264  -14829666.26448 -11249130.36846  22786126.8244   22786132.4154
      3884.9104       3027.2014
  20304372.7944  -40518967.48149 -31229932.20047  20304371.0724   20304372.8614
      -322.7114       -251.4634
  21701584.2654  -21362624.90948 -16018097.80646  21701582.2304   21701586.3494
      -233.3774       -181.8524
  19574108.9294  -34821916.66348 -25076442.79947  19574106.3264   19574112.0414
      1119.2194        872.1194
  21666113.3674  -30261759.62749 -23222097.44547  21666111.6784   21666117.1904
      -951.1704       -741.1724
 04 12 11  1 15 29.9980000  0  9G29G17G 4G 5G 6G 2G30G10G24
  23445702.8614   -4040125.04147  -2822871.30645  23445701.2314   23445706.6994
      4225.4054       3292.5244
  20477407.7204  -36174081.41549 -27595649.34147  20477405.3154   20477410.2514
      1192.2364        929.0154
  23151715.0744  -23009933.99948 -17902300.25746  23151712.8924   23151717.8114
     -1680.9914      -1309.8634
  22256980.2084  -21134006.86448 -16132611.60146  22256977.7014   22256982.7314
     -1669.6784      -1301.0494
  22763958.0754  -14946177.26348 -11339918.10746  22763955.2254   22763961.1114
      3883.1864       3025.8584
  20306231.2574  -40509202.58149 -31222323.18547  20306229.2484   20306231.1354
      -327.6654       -255.3244
  21702961.0374  -21355388.70748 -16012459.23446  21702959.6334   21702963.7234
      -248.3064       -193.4844
  19567766.5794  -34855245.07648 -25102412.98047  19567764.1514   19567769.7434
      1103.3454        859.7494
  21671546.7384  -30233207.09649 -23199848.72447  21671545.3894   21671549.9144
      -951.6804       -741.5684
 04 12 11  1 15 59.9980000  0  9G29G17G 4G 5G 6G 2G30G10G24
  23421583.5854   -4166871.47947  -2921634.68845  23421580.8164   23421587.2394
      4224.7124       3291.9764
  20470618.4054  -36209758.77849 -27623449.87947  20470616.1714   20470621.1404
      1186.5984        924.6224
  23161316.2674  -22959481.34748 -17862986.52946  23161314.7084   23161319.4634
     -1682.1144      -1310.7414
  22266540.0554  -21083766.28648 -16093463.10846  22266537.7704   22266543.4394
     -1679.3304      -1308.5664
  22741801.9594  -15062604.67148 -11430640.73046  22741799.7584   22741804.8774
      3878.9624       3022.5664
  20308124.3274  -40499255.85549 -31214572.48647  20308122.2634   20308124.0034
      -335.1314       -261.1414
  21704428.4954  -21347672.77848 -16006446.83846  21704427.4574   21704431.9264
      -265.6704       -207.0144
  19561521.0984  -34888065.27148 -25127987.13947  19561518.5144   19561524.2224
      1085.0234        845.4714
  21676990.5604  -30204605.15849 -23177561.49447  21676988.1934   21676992.4724
      -954.7584       -743.9684
 04 12 11  1 16 29.9980000  0  9G29G17G 4G 5G 6G 2G30G10G24
  23397470.7664   -4293580.62047  -3020369.01945  23397469.1994   23397476.4784
      4221.4614       3289.4494
  20463864.3714  -36245252.16049 -27651107.05747  20463861.9384   20463866.6564
      1178.4954        918.3084
  23170925.6054  -22908983.27348 -17823637.41446  23170924.1984   23170928.6894
     -1685.4824      -1313.3614
  22276158.3274  -21033223.02748 -16054078.75746  22276155.8804   22276161.5024
     -1691.3014      -1317.8974
  22719673.1294  -15178889.44348 -11521252.24246  22719672.4604   22719675.9094
      3872.2684       3017.3494
  20310062.4744  -40489071.04549 -31206636.26647  20310060.5644   20310062.2934
      -344.9984       -268.8304
  21705998.8884  -21339422.31448 -16000017.93046  21705997.4074   21706001.9814
      -285.4024       -222.3914
  19555383.0234  -34920321.33848 -25153121.72747  19555380.4944   19555386.2854
      1064.2914        829.3184
  21682453.0244  -30175897.28748 -23155191.72147  21682450.8754   21682455.2344
      -960.2034       -748.2114
 04 12 11  1 16 59.9980000  0  9G29G17G 4G 5G 6G 2G30G10G24
  23373369.9644   -4420238.85347  -3119063.65145  23373366.9894   23373373.0474
      4220.6444       3288.8064
  20457146.8674  -36280550.92549 -27678612.58047  20457144.6864   20457149.5424
      1172.8584        913.9144
  23180545.4774  -22858429.15548 -17784244.61246  23180543.9044   23180548.5094
     -1686.4904      -1314.1464
  22285835.0014  -20982369.11748 -16014452.35546  22285832.9774   22285838.5234
     -1700.7854      -1325.2874
  22697575.6234  -15295018.86648 -11611742.68446  22697573.3174   22697577.8004
      3867.8794       3013.9304
  20312047.1804  -40478637.74049 -31198506.41747  20312045.4354   20312047.6264
      -352.4364       -274.6254
  21707672.9604  -21330628.34348 -15993165.50546  21707671.3714   21707674.8834
      -302.6854       -235.8584
  19549354.3224  -34952003.33648 -25177808.98547  19549352.0114   19549357.0614
      1045.9894        815.0564
  21687938.1164  -30147073.05149 -23132731.26847  21687936.0004   21687940.5024
      -963.2364       -750.5744
 04 12 11  1 17 29.9980000  0  9G29G17G 4G 5G 6G 2G30G10G24
  23349277.8454   -4546840.46047  -3217714.25045  23349275.3634   23349280.1454
      4220.2254       3288.4834
  20450467.6474  -36315652.19749 -27705964.21947  20450465.1904   20450470.1474
      1167.8064        909.9794
  23190176.0804  -22807816.26647 -17744806.04146  23190174.4114   23190179.3754
     -1686.9414      -1314.4964
  22295572.2524  -20931204.71948 -15974584.02846  22295569.5394   22295575.3954
     -1709.5364      -1332.1064
  22675506.9984  -15410988.34748 -11702108.47346  22675504.6064   22675509.4394
      3864.1004       3010.9834
  20314080.8034  -40467953.42949 -31190180.98147  20314078.6534   20314080.9444
      -359.2574       -279.9414
  21709449.5054  -21321290.07048 -15985888.94546  21709448.3614   21709452.3954
      -319.2574       -248.7714
  19543435.3354  -34983109.07648 -25202047.20947  19543432.8474   19543437.7834
      1028.3584        801.3184
  21693445.9114  -30118129.83048 -23110178.11247  21693443.6144   21693448.6384
      -965.6764       -752.4764
 04 12 11  1 17 59.9980000  0  9G29G17G 4G 5G 6G 2G30G10G24
  23325188.6634   -4673420.41547  -3316347.93345  23325188.2164   23325193.5514
      4219.1314       3287.6394
  20443817.8434  -36350594.25849 -27733191.80247  20443815.8874   20443820.8604
      1162.2774        905.6704
  23199812.9384  -22757183.12547 -17705351.66646  23199810.6224   23199813.9434
     -1687.8724      -1315.2204
  22305358.7954  -20879770.80048 -15934505.67346  22305356.7684   22305362.5204
     -1718.7014      -1339.2474
  22653462.2734  -15526833.37748 -11792377.30446  22653460.5374   22653464.8484
      3859.6644       3007.5294
  20316154.2634  -40457056.52349 -31181689.88647  20316152.2764   20316154.2814
      -366.6094       -285.6694
  21711322.6294  -21311447.59148 -15978219.49646  21711321.1164   21711325.9284
      -336.2524       -262.0134
  19537617.8394  -35013677.59548 -25225866.82847  19537615.5874   19537620.6824
      1010.2084        787.1754
  21698968.4174  -30089105.85049 -23087562.02347  21698966.8744   21698972.0744
      -968.5894       -754.7454
 04 12 11  1 18 29.9980000  0  9G29G17G 4G 5G 6G 2G30G10G24
  23301108.4114   -4799972.44447  -3414959.84545  23301106.2114   23301112.1504
      4218.1094       3286.8414
  20437199.7514  -36385373.35949 -27760292.40647  20437197.6864   20437202.5334
      1156.7754        901.3834
  23209452.5204  -22706526.06048 -17665878.63046  23209450.4614   23209453.8354
     -1688.7544      -1315.9104
  22315198.4664  -20828066.79648 -15894216.86546  22315195.9234   22315201.3234
     -1727.7524      -1346.2984
  22631441.5304  -15642548.49848 -11882544.91146  22631439.6484   22631444.4904
      3855.2224       3004.0664
  20318268.9084  -40445943.61649 -31173030.47947  20318266.7964   20318268.6444
      -373.8624       -291.3214
  21713292.1844  -21301099.07248 -15970155.74746  21713290.4934   21713295.4404
      -353.1634       -275.1924
  19531904.3734  -35043705.89748 -25249265.50147  19531901.5484   19531906.3824
       992.1474        773.1014
  21704507.2144  -30059997.76549 -23064880.40547  21704505.6844   21704511.4044
      -971.4574       -756.9794
 04 12 11  1 18 59.9980000  0  9G29G17G 4G 5G 6G 2G30G10G24
  23277039.7564   -4926457.74347  -3513519.72445  23277036.2544   23277043.0474
      4214.6244       3284.1184
  20430619.7654  -36419953.99149 -27787238.35347  20430617.4154   20430622.1984
      1148.8764        895.2284
  23219103.4554  -22655809.68948 -17626359.38946  23219101.5814   23219106.1784
     -1691.9754      -1318.4214
  22325094.5274  -20776060.17848 -15853692.24246  22325092.5484   22325097.7014
     -1739.0184      -1355.0784
  22609452.9724  -15758096.00348 -11972581.90346  22609451.6584   22609457.7364
      3848.3204       2998.6864
  20320431.5614  -40434579.42949 -31164175.26947  20320429.4594   20320431.1724
      -383.4524       -298.7944
  21715362.8054  -21290210.82048 -15961671.42346  21715361.5554   21715367.2654
      -372.3794       -290.1654
  19526299.0274  -35073159.09348 -25272216.02647  19526296.6014   19526301.6534
       971.7694        757.2224
  21710069.5794  -30030769.96849 -23042105.51247  21710067.5004   21710073.5054
      -976.7144       -761.0754
 04 12 11  1 19 29.9980000  0  9G29G17G 4G 5G 6G 2G30G10G24
  23252977.0124   -5052908.80247  -3612052.90645  23252973.8724   23252980.8424
      4215.3624       3284.6934
  20424069.7544  -36454371.58149 -27814057.25047  20424067.5744   20424072.8314
      1145.4684        892.5734
  23228759.3264  -22605069.43848 -17586821.55846  23228757.6364   23228761.7754
     -1690.6884      -1317.4194
  22335042.2764  -20723789.18448 -15812961.61646  22335039.9064   22335044.5904
     -1745.8134      -1360.3744
  22587491.7524  -15873509.09748 -12062514.14046  22587489.3474   22587495.1924
      3845.8024       2996.7314
  20322635.2564  -40422999.73949 -31155152.13547  20322633.1954   20322634.6094
      -388.6264       -302.8254
  21717531.1704  -21278820.28948 -15952795.70846  21717529.8194   21717535.0014
      -387.0384       -301.5894
  19520797.1164  -35102073.42448 -25294746.66347  19520794.6204   19520799.3914
       955.7854        744.7664
  21715647.2914  -30001458.06649 -23019265.08147  21715645.4474   21715651.0804
      -977.5074       -761.6954
 04 12 11  1 19 59.9980000  0  9G29G17G 4G 5G 6G 2G30G10G24
  23228919.6754   -5179323.24047  -3710557.59745  23228918.3664   23228922.9574
      4212.2144       3282.2434
  20417551.3514  -36488626.60449 -27840749.47347  20417549.0714   20417554.4214
      1138.1764        886.8894
  23238417.9144  -22554306.11948 -17547265.75846  23238416.2574   23238421.2124
     -1693.4484      -1319.5704
  22345038.2074  -20671257.42748 -15772027.79846  22345035.9214   22345041.1874
     -1756.3064      -1368.5504
  22565554.3844  -15988786.08548 -12152340.34646  22565553.2344   22565558.4874
      3839.3614       2991.7084
  20324879.1304  -40411205.55149 -31145961.85647  20324877.5694   20324878.6774
      -397.6594       -309.8654
  21719794.3054  -21266929.84048 -15943530.44946  21719792.5944   21719797.6574
      -405.5974       -316.0494
  19515397.5634  -35130450.25348 -25316858.46447  19515394.8164   19515399.1474
       935.9984        729.3494
  21721241.7554  -29972062.69848 -22996359.60847  21721239.2024   21721244.2764
      -982.1984       -765.3484
 04 12 11  1 20 29.9980000  0  9G29G17G 4G 5G 6G 2G30G10G24
  23204869.7534   -5305707.88247  -3809039.11145  23204868.5714   23204871.8904
      4212.4354       3282.4194
  20411061.6704  -36522728.80349 -27867322.61047  20411059.6364   20411064.8144
      1134.2374        883.8194
  23248079.9054  -22503529.35748 -17507699.49046  23248078.5054   23248084.0094
     -1692.6924      -1318.9824
  22355081.5214  -20618477.64048 -15730900.70946  22355079.3024   22355084.6554
     -1763.3724      -1374.0564
  22543643.3744  -16103934.86648 -12242066.66946  22543641.0464   22543645.0314
      3836.2434       2989.2814
  20327163.1564  -40399206.92049 -31136612.26947  20327160.8444   20327161.8884
      -403.2824       -314.2464
  21722148.8354  -21254551.46248 -15933884.99546  21722147.5964   21722152.4384
      -420.6074       -327.7454
  19510096.7924  -35158300.49248 -25338559.93147  19510094.6654   19510099.4664
       919.6604        716.6164
  21726849.3204  -29942594.00848 -22973396.99647  21726847.0104   21726851.6234
      -983.4384       -766.3164
 04 12 11  1 20 59.9980000  0  9G29G17G 4G 5G 6G 2G30G10G24
  23180830.2484   -5432033.20247  -3907474.36145  23180828.7154   23180833.8384
      4210.6864       3281.0444
  20404606.6864  -36556652.16849 -27893756.39947  20404604.4104   20404609.5284
      1128.6714        879.4844
  23257750.8764  -22452713.46948 -17468102.73246  23257748.9794   23257753.6604
     -1693.6274      -1319.7064
  22365177.4574  -20565426.72748 -15689562.36346  22365174.7774   22365180.0994
     -1771.9384      -1380.7324
  22521761.0014  -16218927.27348 -12331671.14346  22521758.4624   22521763.0204
      3831.3614       2985.4784
  20329489.8864  -40386977.76549 -31127083.05347  20329487.8724   20329489.0754
      -410.5644       -319.9204
  21724602.5664  -21241660.89148 -15923840.42346  21724601.1934   21724605.1834
      -437.2614       -340.7224
  19504902.7774  -35185598.74048 -25359831.28647  19504900.2534   19504904.8454
       901.6454        702.5814
  21732475.6674  -29913025.80748 -22950356.83447  21732473.8364   21732477.8794
      -986.3774       -768.6054
 04 12 11  1 21 29.9980000  0  9G29G17G 4G 5G 6G 2G30G10G24
  23156802.3684   -5558307.71747  -4005870.00145  23156799.3444   23156805.6254
      4208.8194       3279.5914
  20398183.4004  -36590407.67049 -27920059.38647  20398180.8734   20398186.0294
      1122.8804        874.9724
  23267426.3564  -22401869.44247 -17428484.04046  23267424.7154   23267427.8694
     -1694.7524      -1320.5864
  22375321.0294  -20512118.79348 -15648023.73446  22375318.9074   22375324.8864
     -1780.6884      -1387.5494
  22499906.5514  -16333771.71748 -12421160.29146  22499904.7824   22499910.1314
      3826.1804       2981.4424
  20331858.7684  -40374529.57549 -31117383.15847  20331856.8804   20331858.1004
      -418.1114       -325.8024
  21727150.8164  -21228271.28748 -15913406.98746  21727149.0804   21727153.3344
      -454.0884       -353.8334
  19499810.4894  -35212357.03248 -25380681.90147  19499808.1604   19499812.8974
       883.4614        688.4104
  21738118.8444  -29883369.38748 -22927247.93247  21738116.9964   21738121.3764
      -989.5234       -771.0554
 04 12 11  1 21 59.9980000  0  9G29G17G 4G 5G 6G 2G30G10G24
  23132785.1944   -5684510.68047  -4104209.88445  23132784.2524   23132789.8314
      4205.3714       3276.9174
  20391794.5394  -36623977.68449 -27946217.83647  20391792.7634   20391798.0674
      1115.6484        869.3364
  23277110.1064  -22350979.73247 -17388829.72446  23277108.8824   23277112.9224
     -1697.2584      -1322.5404
  22385516.6184  -20458539.31548 -15606273.52246  22385514.7154   22385520.8764
     -1790.7024      -1395.3514
  22478083.5494  -16448448.77848 -12510518.98246  22478081.8774   22478087.9884
      3819.5014       2976.2354
  20334272.1434  -40361844.98249 -31107499.05647  20334270.4404   20334272.3824
      -427.0234       -332.7454
  21729796.1624  -21214366.97948 -15902572.48146  21729794.9914   21729798.7184
      -472.2344       -367.9744
  19494824.9034  -35238558.36748 -25401098.52247  19494822.3504   19494826.9904
       863.8894        673.1604
  21743782.3844  -29853607.36748 -22904056.74547  21743780.1164   21743784.9024
      -994.0484       -774.5824
 04 12 11  1 22 29.9980000  0  9G29G17G 4G 5G 6G 2G30G10G24
  23108774.4114   -5810687.34947  -4202529.28845  23108773.6944   23108779.3614
      4204.2674       3276.0524
  20385432.9034  -36657410.49849 -27972269.38047  20385430.7494   20385435.8174
      1110.9794        865.6984
  23286794.0334  -22300093.09648 -17349177.81746  23286793.0494   23286795.9664
     -1697.2474      -1322.5294
  22395754.4264  -20404739.67548 -15564351.74846  22395752.3004   22395758.0254
     -1798.0924      -1401.1104
  22456284.8774  -16563004.61848 -12599783.25146  22456283.8154   22456288.1904
      3815.4494       2973.0764
  20336721.7074  -40348972.81849 -31097468.79747  20336719.9764   20336722.0864
      -433.3274       -337.6574
  21732531.4654  -21199998.56548 -15891376.32246  21732529.7804   21732532.6724
      -487.7834       -380.0914
  19489935.2864  -35264252.46448 -25421119.88647  19489932.7604   19489937.4754
       846.8574        659.8884
  21749456.4584  -29823788.04748 -22880820.91847  21749454.7924   21749459.8424
      -996.0754       -776.1614
 04 12 11  1 22 59.9980000  0  9G29G17G 4G 5G 6G 2G30G10G24
  23084781.4264   -5936778.75047  -4300782.28045  23084778.9504   23084783.6194
      4201.7304       3274.0804
  20379107.9124  -36690649.96649 -27998170.25847  20379105.4854   20379110.5684
      1104.8704        860.9374
  23296487.0314  -22249153.25847 -17309484.43446  23296486.1444   23296490.1524
     -1698.7484      -1323.7004
  22406044.9664  -20350666.62848 -15522216.91546  22406042.6174   22406047.7294
     -1806.8604      -1407.9404
  22434521.0154  -16677380.83348 -12688907.58546  22434518.7044   22434521.7324
      3809.6474       2968.5564
  20339217.7434  -40335857.04949 -31087248.71647  20339215.7194   20339218.3174
      -441.1484       -343.7514
  21735363.6274  -21185111.88648 -15879776.32746  21735362.4794   21735366.0544
      -504.7134       -393.2824
  19485153.0664  -35289383.94048 -25440702.84347  19485150.4784   19485155.1064
       828.4424        645.5384
  21755152.6454  -29793855.44448 -22857496.82047  21755150.8654   21755156.0014
      -999.5504       -778.8714
 04 12 11  1 23 29.9980000  0  9G29G17G 4G 5G 6G 2G30G10G24
  23060795.2654   -6062819.73647  -4398995.97945  23060793.1654   23060799.4134
      4201.4474       3273.8534
  20372811.9164  -36723734.13249 -28023950.12047  20372809.6494   20372815.0374
      1101.1044        858.0024
  23306183.7124  -22198198.28248 -17269779.28146  23306182.1004   23306186.6844
     -1697.7974      -1322.9594
  22416378.5684  -20296361.22448 -15479901.02646  22416376.6084   22416381.6274
     -1813.1484      -1412.8414
  22412782.5544  -16791613.30948 -12777919.88346  22412780.7894   22412784.9604
      3806.2414       2965.9024
  20341752.1574  -40322536.10749 -31076868.76647  20341750.5094   20341753.0884
      -446.5514       -347.9624
  21738287.3824  -21169747.26048 -15867803.91546  21738286.0194   21738290.3074
      -519.2034       -404.5724
  19480470.0414  -35313991.90048 -25459877.86947  19480467.6304   19480472.3714
       812.4334        633.0644
  21760863.7204  -29763847.84948 -22834114.28447  21760861.5094   21760866.7264
     -1000.6254       -779.7094
 04 12 11  1 23 59.9980000  0  9G29G17G 4G 5G 6G 2G30G10G24
  23036820.0504   -6188804.00047  -4497165.46945  23036819.8004   23036825.0864
      4197.8654       3271.0624
  20366546.1284  -36756659.42049 -28049606.17847  20366544.0534   20366549.6484
      1094.1524        852.5884
  23315882.3964  -22147224.78647 -17230059.72746  23315881.2304   23315886.6294
     -1700.0864      -1324.7384
  22426757.0164  -20241823.15448 -15437403.83746  22426754.5214   22426760.4514
     -1822.4674      -1420.1024
  22391073.0324  -16905696.50848 -12866815.85046  22391071.0014   22391075.2234
      3799.6424       2960.7594
  20344327.3694  -40309006.76949 -31066326.43147  20344325.1014   20344327.6464
      -455.1864       -354.6904
  21741302.2144  -21153903.19048 -15855457.90946  21741301.1184   21741305.4144
      -536.8034       -418.2844
  19475887.0124  -35338073.85048 -25478643.01647  19475884.8184   19475889.7794
       793.2754        618.1364
  21766587.6074  -29733761.73248 -22810670.56547  21766586.5014   21766591.6384
     -1004.8834       -783.0254
 04 12 11  1 24 29.9980000  0  9G29G17G 4G 5G 6G 2G30G10G24
  23012861.6244   -6314716.11947  -4595278.75045  23012859.3894   23012865.4094
      4194.7784       3268.6564
  20360313.5274  -36789413.48149 -28075128.81747  20360311.1804   20360316.5464
      1087.8814        847.6994
  23325588.5564  -22096220.77748 -17190316.39546  23325587.5034   23325592.5924
     -1701.7084      -1326.0054
  22437180.3944  -20187043.17948 -15394718.16646  22437178.5514   22437184.6824
     -1831.0964      -1426.8264
  22369394.7724  -17019616.06448 -12955584.32346  22369392.7094   22369396.6694
      3793.5124       2955.9834
  20346943.6734  -40295256.91449 -31055612.26247  20346941.4864   20346944.3204
      -463.0814       -360.8424
  21744410.0164  -21137569.58248 -15842730.44446  21744408.9594   21744413.6494
      -553.6854       -431.4424
  19471407.0604  -35361618.44749 -25496989.44747  19471404.5754   19471409.4274
       774.8064        603.7444
  21772331.0434  -29703585.10648 -22787156.31247  21772329.4384   21772334.4314
     -1008.4954       -785.8414
 04 12 11  1 24 59.9980000  0 10G29G17G 4G 5G 6G 2G30G10G24G26
  22988917.3864   -6440543.85047  -4693326.27645  22988916.3484   22988921.4494
      4191.6644       3266.2294
  20354114.6674  -36821987.03449 -28100510.80447  20354112.6964   20354117.8144
      1081.5514        842.7674
  23335302.2934  -22045177.00348 -17150542.06546  23335301.0624   23335306.2664
     -1703.3864      -1327.3144
  22447652.4924  -20132014.89448 -15351839.01346  22447650.2764   22447655.9454
     -1839.6104      -1433.4604
  22347749.0154  -17133360.20748 -13044216.11446  22347747.8194   22347752.6014
      3787.3404       2951.1744
  20349603.7694  -40281277.69849 -31044719.37047  20349601.5894   20349604.0814
      -471.0334       -367.0394
  21747613.5004  -21120739.34448 -15829615.99646  21747611.8784   21747616.2894
      -570.4554       -444.5114
  19467030.4594  -35384617.39949 -25514910.69847  19467028.0044   19467032.9464
       756.3484        589.3624
  21778093.1764  -29673308.67548 -22763564.29947  21778090.7834   21778095.3604
     -1012.1114       -788.6594
  23906683.7974   -3276094.28547  -1532561.15245  23906681.9524   23906689.5324
      4688.8624       3653.6694
 04 12 11  1 25 29.9980000  0 10G29G17G 4G 5G 6G 2G30G10G24G26
  22964997.3954   -6566247.70447  -4791277.29345  22964994.2064   22964999.3684
      4188.7864       3263.9844
  20347957.5604  -36854343.73449 -28125723.81647  20347955.3454   20347960.7864
      1075.7044        838.2104
  23345030.8734  -21994057.21548 -17110708.49646  23345029.8504   23345032.2894
     -1704.4714      -1328.1614
  22458177.8194  -20076705.06348 -15308740.47046  22458175.9464   22458181.1044
     -1847.5224      -1439.6284
  22326146.6544  -17246890.63348 -13132681.37046  22326144.5104   22326149.2234
      3781.5684       2946.6774
  20352314.6584  -40267033.17149 -31033619.74447  20352312.5104   20352314.4724
      -478.4894       -372.8484
  21750917.1904  -21103378.28248 -15816087.92346  21750915.3914   21750920.2774
      -586.7294       -457.1894
  19462764.4124  -35407035.68349 -25532379.48747  19462761.9614   19462766.7644
       738.3774        575.3584
  21783879.4764  -29642896.09948 -22739866.19347  21783877.4614   21783882.3424
     -1015.2454       -791.1004
  23879909.3304   -3416794.32047  -1642197.60645  23879908.6194   23879915.5404
      4691.0834       3655.3864
 04 12 11  1 25 59.9980000  0 10G29G17G 4G 5G 6G 2G30G10G24G26
  22941082.9634   -6691909.26847  -4889195.35245  22941081.7394   22941086.7864
      4186.9094       3262.5284
  20341825.0954  -36886567.95449 -28150833.59347  20341823.0034   20341828.8254
      1070.8454        834.4244
  23354757.2384  -21942946.08847 -17070881.63546  23354755.1454   23354758.5344
     -1704.6304      -1328.2874
  22468739.4994  -20021201.15748 -15265490.70546  22468737.5444   22468743.0934
     -1854.3964      -1444.9824
  22304565.8984  -17360289.33248 -13221043.99446  22304564.6224   22304568.8494
      3776.7294       2942.9064
  20355059.4514  -40252607.80749 -31022379.19847  20355057.3804   20355059.1534
      -484.9154       -377.8564
  21754304.7744  -21085573.30748 -15802213.95346  21754303.4294   21754308.2754
      -601.9244       -469.0314
  19458592.1984  -35428958.71049 -25549462.35747  19458590.0314   19458594.8374
       721.4794        562.1904
  21789675.9764  -29612432.09048 -22716128.00847  21789674.5484   21789679.4744
     -1017.3794       -792.7634
  23853114.8804   -3557603.05147  -1751918.69845  23853113.2844   23853120.0434
      4694.2924       3657.8894
 04 12 11  1 26 29.9980000  0 10G29G17G 4G 5G 6G 2G30G10G24G26
  22917195.5344   -6817451.39447  -4987020.35745  22917192.1354   22917197.1794
      4183.0364       3259.5034
  20335732.7704  -36918585.64149 -28175782.43747  20335730.4604   20335736.1034
      1064.1434        829.2034
  23364496.3454  -21891769.43747 -17031003.72545  23364494.3984   23364497.9644
     -1706.5964      -1329.8134
  22479352.2014  -19965432.24948 -15222034.44146  22479349.7064   22479355.6074
     -1862.9904      -1451.6794
  22283026.9024  -17473480.44948 -13309244.85946  22283024.9924   22283029.9754
      3769.8864       2937.5744
  20357853.2744  -40237927.96749 -31010940.36047  20357851.2804   20357852.3984
      -493.2234       -384.3304
  21757791.2734  -21067252.39148 -15787937.95446  21757790.0664   21757794.5874
      -618.9274       -482.2784
  19454529.0024  -35450313.74749 -25566102.64247  19454526.4404   19454531.1284
       702.7174        547.5704
  21795496.9824  -29581842.76448 -22692292.17447  21795495.1124   21795500.2424
     -1021.3984       -795.8944
  23826312.7214   -3698443.47247  -1861664.55145  23826311.5394   23826317.5824
      4695.4444       3658.7944
 04 12 11  1 26 59.9980000  0 10G29G17G 4G 5G 6G 2G30G10G24G26
  22893321.6444   -6942904.47147  -5084775.94245  22893319.8254   22893324.4574
      4182.2554       3258.8994
  20329672.5704  -36950430.08349 -28200596.28247  20329670.6804   20329676.2414
      1060.5974        826.4384
  23374238.8394  -21840560.92447 -16991101.00845  23374237.6134   23374242.9034
     -1705.4344      -1328.9114
  22490008.4604  -19909434.54148 -15178399.88146  22490005.8804   22490011.2984
     -1868.3684      -1455.8714
  22261520.8434  -17586495.15848 -13397308.25146  22261518.7284   22261524.4564
      3766.2854       2934.7704
  20360689.3034  -40223027.38449 -30999329.51747  20360686.9244   20360687.5964
      -498.3734       -388.3434
  21761369.1044  -21048451.25348 -15773287.75546  21761367.6234   21761372.5824
      -632.6464       -492.9704
  19450567.0254  -35471135.13949 -25582327.09747  19450564.3844   19450569.0704
       687.1814        535.4654
  21801335.8984  -29551161.39448 -22668384.62047  21801333.9014   21801338.5314
     -1022.2264       -796.5414
  23799501.9264   -3839345.84047  -1971458.59645  23799501.0154   23799506.4554
      4699.6514       3662.0694
 04 12 11  1 27 29.9980000  0 10G29G17G 4G 5G 6G 2G30G10G24G26
  22869460.6074   -7068286.12547  -5182475.87145  22869459.5104   22869465.7654
      4177.4344       3255.1344
  20323642.5594  -36982121.70849 -28225291.05347  20323640.1434   20323645.2924
      1053.0174        820.5334
  23383987.2014  -21789341.15347 -16951189.55045  23383985.1994   23383989.9024
     -1708.2944      -1331.1364
  22500702.4284  -19853232.06348 -15134605.76846  22500700.8004   22500706.5824
     -1877.6044      -1463.0674
  22240045.1474  -17699351.68548 -13485248.39146  22240043.4314   22240047.9514
      3758.4164       2928.6354
  20363562.0344  -40207926.80549 -30987562.82247  20363560.2544   20363561.3244
      -507.5094       -395.4624
  21765033.6904  -21029192.76948 -15758281.16946  21765032.6604   21765037.2714
      -650.3344       -506.7544
  19446701.6734  -35491444.59549 -25598152.64047  19446699.3994   19446704.3904
       667.6474        520.2444
  21807187.5554  -29520408.84848 -22644421.59447  21807186.1994   21807191.0534
     -1027.0804       -800.3234
  23772673.6254   -3980327.95547  -2081314.79845  23772671.6184   23772678.9034
      4699.8424       3662.2074
 04 12 11  1 27 59.9980000  0 10G29G17G 4G 5G 6G 2G30G10G24G26
  22845617.2444   -7193586.04747  -5280112.10545  22845616.3234   22845621.9304
      4175.7654       3253.8424
  20317642.0694  -37013653.75849 -28249861.47447  20317639.6584   20317644.9304
      1048.7814        817.2314
  23393737.1694  -21738103.30047 -16911263.98746  23393735.4064   23393739.9154
     -1707.7884      -1330.7454
  22511438.6454  -19796820.79748 -15090648.97446  22511435.8494   22511441.7394
     -1883.4184      -1467.5974
  22218601.8854  -17812040.95348 -13573058.20546  22218599.4064   22218603.8534
      3753.9704       2925.1744
  20366474.1834  -40192619.70949 -30975635.21047  20366472.8694   20366474.2724
      -513.2844       -399.9614
  21768787.2154  -21009472.20748 -15742914.51746  21768785.6804   21768789.7134
      -664.6194       -517.8824
  19442935.7024  -35511236.36949 -25613574.79347  19442933.3554   19442937.9984
       651.5224        507.6794
  21813054.6994  -29489578.17448 -22620397.69647  21813053.1284   21813058.1884
     -1028.6104       -801.5134
  23745831.1144   -4121379.86147  -2191225.36245  23745830.0614   23745836.7174
      4703.2754       3664.8894
 04 12 11  1 28 29.9980000  0 10G29G17G 4G 5G 6G 2G30G10G24G26
  22821787.5724   -7318822.91947  -5377699.23145  22821784.2054   22821789.7664
      4172.9554       3251.6584
  20311668.1294  -37045046.91849 -28274323.67347  20311665.7864   20311671.2874
      1043.5724        813.1744
  23403488.3374  -21686868.45948 -16871340.76046  23403485.8704   23403489.6504
     -1708.2474      -1331.1014
  22522207.5794  -19740224.90048 -15046548.30046  22522205.5504   22522211.3804
     -1890.1134      -1472.8134
  22197185.1044  -17924581.57548 -13660752.19046  22197183.6804   22197187.9374
      3748.3744       2920.8104
  20369422.8784  -40177127.31649 -30963563.21847  20369420.9654   20369422.3704
      -520.0844       -405.2614
  21772622.7414  -20989312.97148 -15727206.04346  21772621.6314   21772626.3314
      -679.7904       -529.7054
  19439264.0194  -35530532.65849 -25628610.85247  19439261.4324   19439266.1094
       634.4204        494.3544
  21818932.3984  -29458690.50648 -22596329.38447  21818930.9294   21818935.8504
     -1031.0964       -803.4504
  23718972.3124   -4262519.46347  -2301204.27945  23718973.1074   23718978.8104
      4705.5904       3666.7024
 04 12 11  1 28 59.9980000  0 10G29G17G 4G 5G 6G 2G30G10G24G26
  22797972.8714   -7443958.24047  -5475207.25445  22797970.6524   22797975.6704
      4169.0464       3248.5994
  20305727.3074  -37076266.13649 -28298650.33747  20305724.9374   20305730.3054
      1037.2914        808.2794
  23413243.6364  -21635601.61047 -16831392.61646  23413241.2534   23413246.2124
     -1709.8564      -1332.3494
  22533018.7774  -19683412.42448 -15002278.85946  22533016.7014   22533022.2944
     -1897.7924      -1478.7964
  22175804.4454  -18036936.53348 -13748301.49546  22175802.8114   22175807.2574
      3741.6404       2915.5624
  20372412.7974  -40161414.86349 -30951319.74547  20372410.8314   20372412.6534
      -527.8794       -411.3344
  21776549.1254  -20968682.37348 -15711130.29046  21776547.5794   21776552.1244
      -695.9384       -542.2874
  19435692.7714  -35549299.66349 -25643234.48647  19435690.1714   19435694.9104
       616.3254        480.2534
  21824827.7504  -29427710.93548 -22572189.46947  21824825.8344   21824831.5664
     -1034.6364       -806.2094
  23692107.3514   -4403708.93347  -2411222.04745  23692104.9054   23692112.5814
      4706.6684       3667.5314
 04 12 11  1 29 29.9980000  0 10G29G17G 4G 5G 6G 2G30G10G24G26
  22774185.2344   -7568972.14847  -5572620.66645  22774182.0834   22774187.0964
      4164.8454       3245.3364
  20299823.2524  -37107294.48849 -28322828.27347  20299820.6354   20299825.7824
      1030.8364        803.2484
  23423006.5844  -21584285.85347 -16791406.34445  23423005.7944   23423010.5594
     -1711.6014      -1333.7164
  22543873.9564  -19626369.17248 -14957829.59046  22543871.6114   22543877.1354
     -1905.4744      -1484.7864
  22154463.0244  -18149086.73548 -13835691.24446  22154461.2304   22154466.2464
      3734.6824       2910.1414
  20375447.2834  -40145465.51449 -30938891.68147  20375445.6634   20375447.9994
      -535.8184       -417.5214
  21780567.0194  -20947565.75448 -15694675.81646  21780565.9024   21780569.5774
      -712.1544       -554.9234
  19432225.2494  -35567521.83249 -25657433.57547  19432222.6684   19432227.5614
       598.1014        466.0524
  21830743.5644  -29396622.68348 -22547964.87347  21830741.2934   21830747.5124
     -1038.2944       -809.0584
  23665233.0854   -4544928.18347  -2521262.96845  23665231.7984   23665239.2834
      4707.5564       3668.2134
 04 12 11  1 29 59.9970000  0 10G29G17G 4G 5G 6G 2G30G10G24G26
  22750418.0934   -7693863.67647  -5669938.66045  22750415.9324   22750421.9954
      4160.9964       3242.3294
  20293953.0984  -37138137.23949 -28346861.58147  20293951.1394   20293956.5974
      1024.8124        798.5554
  23432780.0404  -21532929.61847 -16751388.53645  23432779.0124   23432782.9544
     -1712.7274      -1334.5904
  22554770.3574  -19569106.65548 -14913209.47546  22554768.0264   22554774.1774
     -1912.6734      -1490.3944
  22133160.9784  -18261032.47748 -13922921.67046  22133158.7704   22133163.1554
      3728.1164       2905.0234
  20378526.3684  -40129286.75049 -30926284.85447  20378524.7344   20378527.2094
      -543.3674       -423.4034
  21784676.8084  -20925972.80148 -15677850.13346  21784675.0254   21784678.7744
      -727.8804       -567.1784
  19428859.4674  -35585206.11549 -25671213.52747  19428857.3294   19428862.0694
       580.3574        452.2264
  21836678.5294  -29365433.00748 -22523661.24447  21836676.5734   21836682.2674
     -1041.6034       -811.6394
  23638355.8154   -4686176.12547  -2631326.27645  23638353.8614   23638360.7204
      4708.7224       3669.1354
 04 12 11  1 30 29.9970000  0 10G29G17G 4G 5G 6G 2G30G10G24G26
  22726665.5324   -7818682.38247  -5767199.90645  22726663.3774   22726669.3094
      4158.2164       3240.1664
  20288110.7344  -37168840.54549 -28370786.22947  20288108.6334   20288114.0344
      1019.9774        794.7884
  23442552.5324  -21481573.76347 -16711371.01845  23442551.6944   23442554.9664
     -1712.9374      -1334.7534
  22565701.0844  -19511668.52248 -14868452.52846  22565698.4184   22565704.2144
     -1918.5834      -1494.9984
  22111888.5794  -18372823.43948 -14010031.52446  22111886.4464   22111889.6174
      3722.5734       2900.7074
  20381640.4034  -40112921.84649 -30913532.98847  20381638.5524   20381641.6544
      -549.7114       -428.3454
  21788867.5754  -20903948.49348 -15660688.34646  21788865.9504   21788870.6724
      -742.3864       -578.4824
  19425588.2184  -35602399.35549 -25684610.85147  19425585.5814   19425590.2744
       563.7904        439.3164
  21842625.5374  -29334184.28948 -22499311.60047  21842623.2334   21842628.0584
     -1043.7374       -813.3004
  23611460.6734   -4827503.22947  -2741451.28145  23611459.5034   23611465.5174
      4711.0494       3670.9454
 04 12 11  1 30 59.9970000  0 10G29G17G 4G 5G 6G 2G30G10G24G26
  22702944.4694   -7943340.19347  -5864335.77145  22702942.0694   22702948.3124
      4152.9804       3236.0864
  20282310.2964  -37199322.29049 -28394538.23147  20282308.0064   20282313.5644
      1012.7934        789.1884
  23452340.9054  -21430138.86447 -16671291.89445  23452339.2684   23452343.6374
     -1715.4114      -1336.6834
  22576679.7164  -19453978.67648 -14823499.42946  22576677.0944   22576682.6744
     -1926.7774      -1501.3834
  22090659.9364  -18484372.19248 -14096952.62446  22090659.0264   22090662.8194
      3714.6434       2894.5264
  20384805.8974  -40096290.55549 -30900573.54947  20384803.6214   20384806.6494
      -558.3974       -435.1154
  21793154.9664  -20881415.01648 -15643129.82746  21793153.9214   21793158.5184
      -759.1294       -591.5294
  19422424.9724  -35619020.80349 -25697562.62147  19422422.5914   19422427.4864
       544.9484        424.6354
  21848597.7884  -29302796.70548 -22474853.74347  21848596.5124   21848600.9514
     -1048.1504       -816.7414
  23584569.1304   -4968820.79147  -2851568.85945  23584567.2034   23584574.5074
      4710.8494       3670.7804
 04 12 11  1 31 29.9970000  0 10G29G17G 4G 5G 6G 2G30G10G24G26
  22679240.4664   -8067906.67247  -5961400.54145  22679238.1074   22679242.7064
      4151.1724       3234.6814
  20276537.8954  -37229654.95749 -28418174.07547  20276536.0494   20276541.3924
      1009.1094        786.3194
  23462130.2404  -21378697.61247 -16631207.83745  23462128.7794   23462132.6664
     -1714.2614      -1335.7894
  22587690.0434  -19396112.64848 -14778409.04046  22587688.4234   22587694.6034
     -1931.2304      -1504.8534
  22069467.1014  -18595749.55548 -14183740.16346  22069464.8104   22069469.2004
      3710.2504       2891.1044
  20388007.2994  -40079465.85749 -30887463.40447  20388005.6954   20388008.0334
      -563.5484       -439.1284
  21797525.3494  -20858447.35348 -15625232.98646  21797523.9234   21797530.0384
      -772.2824       -601.7774
  19419356.7404  -35635144.76449 -25710126.74047  19419354.2434   19419359.1294
       529.7084        412.7594
  21854584.6844  -29271342.91948 -22450344.30047  21854582.4474   21854586.1594
     -1049.0344       -817.4294
  23557666.0474   -5110198.42247  -2961733.21445  23557663.7114   23557671.2674
      4714.1034       3673.3324
 04 12 11  1 31 59.9970000  0 10G29G17G 4G 5G 6G 2G30G10G24G26
  22655554.1284   -8192372.43147  -6058386.77845  22655552.4034   22655557.2474
      4147.6974       3231.9774
  20270795.8964  -37259832.20849 -28441688.80947  20270793.3284   20270798.7094
      1003.9124        782.2704
  23471921.7914  -21327244.06947 -16591114.20846  23471919.7354   23471925.7914
     -1714.6994      -1336.1264
  22598735.8344  -19338067.36048 -14733178.95846  22598733.7254   22598740.1354
     -1937.1984      -1509.5034
  22048304.6664  -18706946.95348 -14270387.45846  22048303.5134   22048308.3164
      3704.1754       2886.3714
  20391246.6294  -40062441.72849 -30874197.85147  20391245.0304   20391247.2964
      -570.2054       -444.3164
  21801979.3624  -20835041.77248 -15606994.90246  21801978.2844   21801984.0684
      -786.8324       -613.1144
  19416384.3674  -35650766.06949 -25722299.18047  19416381.7034   19416386.5684
       512.9714        399.7174
  21860584.3574  -29239816.84848 -22425778.52547  21860581.8274   21860585.8574
     -1051.4874       -819.3394
  23530754.6924   -5251626.78847  -3071937.05545  23530751.9834   23530758.8444
      4715.6684       3674.5474
 04 12 11  1 32 29.9970000  0 10G29G17G 4G 5G 6G 2G30G10G24G26
  22631895.4704   -8316696.21947  -6155262.36545  22631893.5774   22631900.2334
      4141.7564       3227.3444
  20265089.6914  -37289815.60949 -28465052.49247  20265087.5894   20265093.1664
       996.1984        776.2584
  23481720.3224  -21275739.92047 -16550981.15845  23481719.5634   23481724.3714
     -1717.6104      -1338.3934
  22609821.9384  -19279807.55648 -14687781.74346  22609819.7714   22609826.2704
     -1945.5244      -1515.9894
  22027188.3114  -18817923.61548 -14356862.77946  22027186.2464   22027190.1654
      3695.5654       2879.6604
  20394531.8384  -40045180.31749 -30860747.40547  20394529.9044   20394531.7584
      -579.3494       -451.4424
  21806524.8434  -20811162.32148 -15588387.56946  21806522.8294   21806527.6894
      -803.8254       -626.3544
  19413514.1914  -35665848.08649 -25734051.38947  19413511.5144   19413516.6194
       493.7694        384.7554
  21866603.2534  -29208179.97148 -22401126.41347  21866601.5214   21866607.0214
     -1056.3694       -823.1454
  23503837.6474   -5393064.53147  -3182148.20845  23503836.7164   23503844.1144
      4714.7724       3673.8424
 04 12 11  1 32 59.9970000  0 10G29G17G 4G 5G 6G 2G30G10G24G26
  22608263.3024   -8440887.58247  -6252034.75046  22608262.4584   22608268.4274
      4135.3634       3222.3584
  20259418.2204  -37319617.76649 -28488274.94647  20259416.3824   20259422.0254
       988.2564        770.0694
  23491531.6844  -21224197.53447 -16510818.31445  23491529.4524   23491533.0914
     -1720.8354      -1340.9084
  22620946.6534  -19221349.08348 -14642229.71446  22620944.3914   22620950.4274
     -1953.9774      -1522.5804
  22006109.0774  -18928690.17148 -14443174.38246  22006107.9114   22006112.4224
      3686.6034       2872.6784
  20397859.6614  -40027694.19549 -30847121.85747  20397857.5284   20397858.8674
      -588.7504       -458.7674
  21811155.3624  -20786824.17648 -15569422.79346  21811153.6454   21811158.5684
      -820.9734       -639.7194
  19410743.9084  -35680404.59449 -25745394.11547  19410741.5484   19410746.6314
       474.3534        369.6254
  21872642.0824  -29176445.19748 -22376398.02147  21872639.9684   21872646.2164
     -1061.6034       -827.2234
  23476921.8134   -5534521.18047  -3292374.09345  23476919.0204   23476924.9084
      4713.3764       3672.7584
 04 12 11  1 33 29.9970000  0 10G29G17G 4G 5G 6G 2G30G10G24G26
  22584662.1984   -8564919.50747  -6348682.94245  22584659.9544   22584664.8694
      4134.7724       3221.9014
  20253786.6484  -37349214.83449 -28511337.59347  20253784.5074   20253790.1014
       986.1794        768.4504
  23501351.1624  -21172593.61447 -16470607.49445  23501348.8954   23501352.5024
     -1718.1224      -1338.7914
  22632111.9184  -19162671.38348 -14596506.86546  22632110.4844   22632116.0694
     -1956.4964      -1524.5424
  21985075.9954  -19039220.58948 -14529301.96546  21985074.7154   21985079.2434
      3683.4224       2870.1994
  20401233.7664  -40009959.97849 -30833302.98147  20401232.0684   20401233.5174
      -592.2704       -461.5104
  21815878.1644  -20762006.03048 -15550084.01046  21815876.7444   21815881.3894
      -832.2304       -648.4884
  19408077.9154  -35694413.24349 -25756309.94047  19408075.6194   19408080.9494
       460.8564        359.1084
  21878703.3084  -29144588.64748 -22351574.75847  21878701.8074   21878708.2034
     -1060.9224       -826.6904
  23450003.3594   -5675970.06747  -3402593.96845  23450001.4654   23450008.5394
      4717.8194       3676.2204
 04 12 11  1 33 59.9970000  0 10G29G17G 4G 5G 6G 2G30G10G24G26
  22561075.5514   -8688857.42847  -6445257.88645  22561074.1824   22561078.8394
      4129.7284       3217.9684
  20248180.6234  -37378674.63749 -28534293.28147  20248178.5064   20248183.9244
       979.6594        763.3694
  23511166.9034  -21120996.26247 -16430401.76845  23511166.3584   23511170.8244
     -1719.7384      -1340.0554
  22643307.1374  -19103845.56148 -14550668.58346  22643304.9274   22643310.7694
     -1963.3414      -1529.8774
  21964076.1024  -19149580.67548 -14615296.83346  21964073.4134   21964077.8914
      3675.7774       2864.2414
  20404642.5584  -39992046.08649 -30819344.10547  20404640.6954   20404641.9504
      -600.1484       -467.6484
  21820679.3544  -20736778.56248 -15530426.29646  21820677.9104   21820681.9944
      -847.7234       -660.5624
  19405503.6614  -35707943.66849 -25766853.12047  19405501.0354   19405506.1584
       443.0554        345.2384
  21884775.8484  -29112678.33948 -22326709.59947  21884774.2604   21884780.0104
     -1064.5754       -829.5374
  23423072.8324   -5817476.28347  -3512858.47845  23423073.3744   23423079.7694
      4717.7574       3676.1754
 04 12 11  1 34 29.9970000  0 10G29G17G 4G 5G 6G 2G30G10G24G26
  22537517.2154   -8812658.41247  -6541726.14045  22537515.3284   22537520.3604
      4123.0734       3212.7804
  20242608.4504  -37407957.32649 -28557110.95647  20242606.3224   20242611.7074
       971.7664        757.2214
  23520992.9154  -21069365.75347 -16390170.21745  23520992.2704   23520997.1014
     -1722.9154      -1342.5324
  22654536.9904  -19044834.92148 -14504686.27146  22654534.2314   22654540.3874
     -1971.4484      -1536.1924
  21943114.9524  -19259728.46348 -14701126.26546  21943113.1564   21943117.4874
      3666.6564       2857.1354
  20408093.4974  -39973913.14849 -30805214.54347  20408091.4864   20408092.7184
      -609.4674       -474.9094
  21825564.2984  -20711104.54748 -15510420.58346  21825563.0344   21825567.7454
      -864.5864       -673.7034
  19403026.8664  -35720957.34149 -25776993.63747  19403024.4944   19403029.5234
       423.8154        330.2454
  21890866.8604  -29080674.59148 -22301771.62647  21890865.0054   21890869.4814
     -1069.7344       -833.5584
  23396144.0794   -5958996.94647  -3623134.22245  23396142.3994   23396149.8214
      4716.1494       3674.9184
 04 12 11  1 34 59.9970000  0 10G29G17G 4G 5G 6G 2G30G10G24G26
  22513990.9674   -8936291.52647  -6638063.57845  22513989.3844   22513994.3704
      4119.6044       3210.0794
  20237074.9364  -37437034.94849 -28579768.84047  20237072.8984   20237078.3814
       967.1754        753.6434
  23530830.2654  -21017674.14147 -16349891.07945  23530829.3644   23530834.3734
     -1722.6894      -1342.3514
  22665805.4214  -18985614.93748 -14458540.84246  22665803.1144   22665809.1284
     -1976.1824      -1539.8834
  21922200.6754  -19369633.88848 -14786766.85446  21922198.7684   21922203.3914
      3660.7534       2852.5344
  20411590.7344  -39955533.51149 -30790892.74547  20411588.5354   20411590.3844
      -615.4634       -479.5814
  21830539.3984  -20684958.85948 -15490047.35246  21830538.3374   21830543.7044
      -878.0074       -684.1574
  19400654.0584  -35733428.13149 -25786711.13047  19400651.4424   19400656.3534
       407.9704        317.8984
  21896980.1764  -29048549.90448 -22276739.40747  21896978.1924   21896982.6804
     -1071.5244       -834.9554
  23369219.8134   -6100501.01747  -3733397.04845  23369216.5184   23369223.2364
      4717.7704       3676.1854
 04 12 11  1 35 29.9970000  0 10G29G17G 4G 5G 6G 2G30G10G24G26
  22490486.1964   -9059810.52247  -6734312.09146  22490484.7474   22490490.2244
      4114.7404       3206.2894
  20231570.3614  -37465964.17349 -28602311.09047  20231568.1084   20231573.3334
       961.1654        748.9604
  23540666.2614  -20965978.37647 -16309608.71945  23540665.2964   23540670.1854
     -1723.8754      -1343.2744
  22677102.3774  -18926245.08048 -14412278.63746  22677100.4284   22677107.1094
     -1982.1284      -1544.5144
  21901321.9884  -19479351.23548 -14872260.88346  21901320.9714   21901325.1634
      3653.4744       2846.8624
  20415124.5944  -39936963.90649 -30776422.92347  20415122.2824   20415124.3114
      -622.8434       -485.3314
  21835594.1094  -20658400.22048 -15469352.39146  21835592.0644   21835596.9644
      -892.7944       -695.6814
  19398372.5704  -35745413.78149 -25796050.59047  19398370.4024   19398375.6574
       390.7814        304.5054
  21903105.4064  -29016360.87148 -22251657.04747  21903103.5964   21903107.8424
     -1074.7184       -837.4424
  23342284.0264   -6242042.09147  -3843688.69445  23342281.7584   23342288.3004
      4717.9764       3676.3384
 04 12 11  1 35 59.9970000  0 10G29G17G 4G 5G 6G 2G30G10G24G26
  22467010.2064   -9183172.32647  -6830438.02745  22467009.2734   22467014.5604
      4110.3474       3202.8664
  20226100.8344  -37494705.07849 -28624706.59847  20226098.6394   20226104.1144
       955.8354        744.8074
  23550512.4464  -20914238.67247 -16269292.11645  23550511.8604   23550517.4594
     -1724.4174      -1343.7034
  22688435.8254  -18866688.63148 -14365871.04146  22688434.1214   22688440.4754
     -1987.3584      -1548.5874
  21880487.6534  -19588838.40348 -14957575.55746  21880485.6644   21880489.2734
      3646.6714       2841.5614
  20418701.5364  -39918164.85649 -30761774.31747  20418699.9124   20418702.0014
      -629.5374       -490.5494
  21840733.6284  -20631391.91248 -15448306.96246  21840731.8544   21840736.6134
      -906.8014       -706.6004
  19396191.3274  -35756876.31949 -25804982.43647  19396189.0014   19396194.4834
       374.3164        291.6754
  21909250.5734  -28984067.80848 -22226493.62247  21909248.9814   21909253.6014
     -1077.2454       -839.4134
  23315349.8204   -6383577.39747  -3953975.87745  23315348.0424   23315354.4564
      4718.6214       3676.8464
 04 12 11  1 36 29.9970000  0 10G29G17G 4G 5G 6G 2G30G10G24G26
  22443557.5184   -9306415.48847  -6926471.55445  22443556.0634   22443562.3534
      4106.2304       3199.6624
  20220659.5954  -37523298.69349 -28646987.33547  20220657.5184   20220662.9234
       950.7514        740.8444
  23560361.9164  -20862496.52447 -16228973.60245  23560359.4264   23560363.2744
     -1724.6604      -1343.8904
  22699797.6174  -18806990.08048 -14319352.70746  22699795.0144   22699800.2234
     -1992.1714      -1552.3434
  21859689.9334  -19698134.59748 -15042741.41946  21859687.5154   21859691.4334
      3640.0994       2836.4424
  20422315.1764  -39899177.99649 -30746979.36647  20422313.0504   20422315.1904
      -635.9284       -495.5284
  21845950.4584  -20603977.55248 -15426945.14446  21845948.9704   21845953.8974
      -920.4214       -717.2084
  19394101.8004  -35767858.36949 -25813539.87147  19394099.3014   19394104.6654
       358.1664        279.0904
  21915407.3654  -28951711.85448 -22201281.19647  21915405.7874   21915410.7254
     -1079.4844       -841.1554
  23288410.2524   -6525145.07047  -4064288.26045  23288408.3094   23288415.0844
      4719.5234       3677.5444
 04 12 11  1 36 59.9970000  0 10G29G17G 4G 5G 6G 2G30G10G24G26
  22420136.3234   -9429499.70947  -7022381.31345  22420134.8104   22420139.6674
      4101.8674       3196.2574
  20215253.6594  -37551707.84849 -28669124.33547  20215251.3124   20215256.6854
       945.5684        736.8054
  23570213.4964  -20810714.84547 -16188624.29145  23570212.0664   23570217.7314
     -1725.0154      -1344.1634
  22711191.4814  -18747115.62048 -14272697.29546  22711188.9704   22711194.1514
     -1997.0494      -1556.1414
  21838933.1044  -19807200.61548 -15127727.91046  21838932.1304   21838937.5574
      3633.4484       2831.2564
  20425970.5414  -39879966.49249 -30732009.36847  20425968.8074   20425971.1274
      -642.4604       -500.6184
  21851250.8564  -20576122.73348 -15405240.15046  21851249.4034   21851253.7704
      -934.1314       -727.8934
  19392109.9734  -35778324.13649 -25821695.00947  19392107.5154   19392113.0834
       341.9694        266.4694
  21921583.4434  -28919255.96148 -22175990.89947  21921581.7544   21921587.2904
     -1081.8064       -842.9654
  23261470.6574   -6666704.89647  -4174594.54645  23261470.2154   23261476.8804
      4720.1834       3678.0614
 04 12 11  1 37 29.9970000  0 10G29G17G 4G 5G 6G 2G30G10G24G26
  22396737.1594   -9552466.40947  -7118199.50345  22396735.1184   22396739.5604
      4095.2984       3191.1394
  20209874.6174  -37579976.95849 -28691152.21047  20209872.0174   20209877.2814
       938.3494        731.1804
  23580065.3774  -20758938.20647 -16148278.90245  23580064.8394   23580069.1434
     -1727.3774      -1346.0054
  22722608.6484  -18687112.69948 -14225941.79546  22722606.4764   22722613.4244
     -2003.7874      -1561.3904
  21818215.4544  -19916078.42648 -15212567.73546  21818213.8104   21818219.1354
      3624.5404       2824.3174
  20429661.4934  -39860575.10849 -30716899.20647  20429659.2034   20429661.1064
      -650.9634       -507.2444
  21856626.4484  -20547874.59848 -15383228.62646  21856624.9014   21856630.1764
      -949.6914       -740.0184
  19390207.8594  -35788320.02749 -25829484.00947  19390205.5964   19390210.9564
       323.8114        252.3194
  21927769.9754  -28886744.78048 -22150657.53347  21927768.3114   21927773.9574
     -1086.2124       -846.3984
  23234527.6124   -6808298.40647  -4284927.08445  23234526.9094   23234533.0794
      4718.6944       3676.9074
 04 12 11  1 37 59.9970000  0 10G29G17G 4G 5G 6G 2G30G10G24G26
  22373375.6094   -9675225.34147  -7213855.77345  22373374.6484   22373380.0004
      4089.4754       3186.6014
  20204538.2484  -37608018.51549 -28713002.77347  20204535.7334   20204541.0114
       931.9134        726.1664
  23589935.8614  -20707079.27147 -16107869.36745  23589934.0914   23589936.4004
     -1728.8974      -1347.1924
  22734066.3604  -18626896.91648 -14179020.45246  22734064.5874   22734070.9184
     -2009.6764      -1565.9804
  21797549.0574  -20024678.59848 -15297191.25146  21797547.5594   21797552.3354
      3616.4104       2817.9824
  20433402.0224  -39840916.59349 -30701580.88447  20433400.1234   20433402.1104
      -658.7264       -513.2924
  21862092.5674  -20519148.43748 -15360844.64446  21862091.2294   21862096.3604
      -964.4354       -751.5074
  19388411.8304  -35797760.19149 -25836839.97147  19388409.2304   19388414.4834
       306.4264        238.7754
  21933983.8354  -28854091.10248 -22125213.13347  21933982.1274   21933987.9484
     -1089.7914       -849.1874
  23207594.1624   -6949835.12347  -4395215.35745  23207592.1314   23207598.9644
      4717.9104       3676.2864
 04 12 11  1 38 29.9970000  0 10G29G17G 4G 5G 6G 2G30G10G24G26
  22350049.1024   -9797820.04347  -7309384.02645  22350045.9134   22350050.9634
      4083.4514       3181.9104
  20199236.5874  -37635878.71349 -28734712.01847  20199234.3174   20199239.3144
       925.3554        721.0564
  23599808.9714  -20655184.81547 -16067432.14245  23599808.2144   23599812.1154
     -1730.5884      -1348.5054
  22745557.4304  -18566518.12748 -14131972.06946  22745555.2814   22745561.1064
     -2015.5784      -1570.5824
  21776929.4474  -20133045.52148 -15381633.00746  21776926.6784   21776931.2624
      3608.0324       2811.4504
  20437185.0604  -39821038.04649 -30686091.11347  20437182.7414   20437184.5674
      -666.5774       -519.4104
  21867641.1644  -20489993.62448 -15338126.65346  21867639.8614   21867644.5194
      -979.1984       -763.0114
  19386711.6314  -35806692.76949 -25843800.41947  19386709.4394   19386714.6054
       289.0034        225.1974
  21940217.4294  -28821341.19748 -22099693.74147  21940215.0194   21940219.5634
     -1093.5604       -852.1244
  23180664.7794   -7091358.21847  -4505493.03845  23180662.0674   23180667.8954
      4716.8404       3675.4594
 04 12 11  1 38 59.9970000  0 10G29G17G 4G 5G 6G 2G30G10G24G26
  22326751.7864   -9920235.84747  -7404772.94645  22326750.7044   22326755.0514
      4077.8814       3177.5734
  20193971.5354  -37663546.21649 -28756271.11247  20193969.5354   20193974.4644
       919.3514        716.3784
  23609696.4984  -20603243.10847 -16026958.12045  23609693.5714   23609697.1454
     -1731.8714      -1349.5064
  22757080.9714  -18505967.92848 -14084790.10346  22757077.7684   22757083.4564
     -2020.8564      -1574.6914
  21756353.8094  -20241165.00448 -15465881.94446  21756351.7544   21756356.8264
      3600.1834       2805.3364
  20441011.3254  -39800928.09349 -30670421.02347  20441009.5524   20441011.1104
      -673.8724       -525.0964
  21873271.5174  -20460400.98648 -15315067.48146  21873270.1994   21873275.3644
      -993.3414       -774.0314
  19385110.6694  -35815107.62449 -25850357.44347  19385108.1624   19385113.3324
       272.2394        212.1344
  21946468.5594  -28788484.01048 -22074090.74947  21946467.3044   21946472.2884
     -1096.7134       -854.5814
  23153737.6124   -7232853.29547  -4615748.85745  23153736.0974   23153742.5454
      4716.3024       3675.0374
 04 12 11  1 39 29.9970000  0 10G29G17G 4G 5G 6G 2G30G10G24G26
  22303482.9744  -10042518.61847  -7500058.23045  22303480.9064   22303486.2204
      4072.2754       3173.2004
  20188734.2884  -37691069.37649 -28777717.72447  20188731.8444   20188736.8414
       913.4064        711.7454
  23619579.1744  -20551303.35947 -15986485.65245  23619577.1654   23619581.6824
     -1732.8894      -1350.3024
  22768623.8074  -18445298.13548 -14037514.95446  22768622.4444   22768628.0054
     -2025.8574      -1578.5904
  21735816.4814  -20349084.27748 -15549974.88046  21735815.5514   21735819.7124
      3592.3664       2799.2464
  20444873.0974  -39780635.81649 -30654608.86047  20444870.8414   20444872.4034
      -681.0544       -530.6914
  21878976.1644  -20430422.31448 -15291707.49346  21878974.7004   21878980.3174
     -1007.2864       -784.8974
  19383598.1814  -35823055.24749 -25856550.39247  19383595.8274   19383601.1784
       255.5644        199.1414
  21952733.2074  -28755568.30248 -22048442.14747  21952731.0124   21952735.0114
     -1099.7414       -856.9414
  23126808.4304   -7374366.14647  -4726018.55745  23126806.8474   23126813.0934
      4715.6624       3674.5434
 04 12 11  1 39 59.9970000  0 10G29G17G 4G 5G 6G 2G30G10G24G26
  22280253.0034  -10164592.13147  -7595180.39246  22280251.0504   22280256.4824
      4067.4394       3169.4334
  20183537.7994  -37718375.19449 -28798994.98247  20183535.6304   20183540.6724
       908.3684        707.8204
  23629474.5364  -20499292.29247 -15945957.59745  23629473.7194   23629479.4714
     -1733.0124      -1350.3984
  22780206.5994  -18384438.88648 -13990092.18946  22780203.5024   22780210.0284
     -2029.9494      -1581.7754
  21715333.9054  -20456727.42848 -15633852.65946  21715331.9194   21715336.4654
      3585.3494       2793.7804
  20448782.6354  -39760088.24649 -30638597.76747  20448780.9864   20448782.2674
      -687.3464       -535.5944
  21884768.4084  -20399987.02648 -15267991.73246  21884767.1944   21884772.0824
     -1020.2604       -795.0054
  19382189.0434  -35830464.11949 -25862323.53647  19382186.1604   19382191.1164
       239.8244        186.8754
  21959022.0724  -28722520.65548 -22022690.73747  21959019.4424   21959024.4064
     -1101.9594       -858.6704
  23099891.7244   -7515820.22447  -4836242.47145  23099889.7384   23099894.6184
      4715.9544       3674.7714
 04 12 11  1 40 29.9970000  0 10G29G17G 4G 5G 6G 2G30G10G24G26
  22257051.4454  -10286516.30447  -7690186.19646  22257049.7184   22257055.6104
      4061.3444       3164.6814
  20178371.4164  -37745525.89049 -28820151.36547  20178369.2674   20178373.9974
       902.1514        702.9754
  23639375.3474  -20447272.49247 -15905422.74745  23639373.3304   23639377.2604
     -1734.3914      -1351.4734
  22791809.5784  -18323455.76548 -13942572.90246  22791808.0224   22791814.2584
     -2035.0974      -1585.7894
  21694891.6784  -20564154.81948 -15717562.31546  21694889.3104   21694894.1004
      3577.0634       2787.3234
  20452729.3344  -39739348.37249 -30622436.82647  20452727.4534   20452729.0254
      -694.8224       -541.4204
  21890635.1844  -20369160.56748 -15243971.13346  21890633.4874   21890638.3364
     -1034.2904       -805.9394
  19380868.4734  -35837398.63349 -25867727.04447  19380866.1844   19380871.6234
       223.0044        173.7694
  21965322.8744  -28689403.99348 -21996885.55546  21965321.1644   21965326.5654
     -1105.2524       -861.2374
  23072973.0894   -7657275.11547  -4946467.04145  23072970.8214   23072977.5584
      4714.8474       3673.9074
 04 12 11  1 40 59.9970000  0 10G29G17G 4G 5G 6G 2G30G10G24G26
  22233891.2964  -10408227.44547  -7785026.03345  22233889.0394   22233893.4354
      4055.6844       3160.2784
  20173245.8374  -37772461.33649 -28841140.01847  20173243.4284   20173248.4674
       896.4264        698.5134
  23649286.2454  -20395184.34047 -15864834.63945  23649285.6994   23649290.0414
     -1735.2034      -1352.1094
  22803449.4644  -18262291.73648 -13894912.65046  22803447.4194   22803453.7814
     -2039.5684      -1589.2734
  21674501.3194  -20671304.26148 -15801055.37046  21674499.2564   21674504.4784
      3569.2324       2781.2204
  20456724.4914  -39718356.33249 -30606079.39447  20456722.5174   20456723.5754
      -701.7494       -546.8174
  21896585.7784  -20337885.43548 -15219600.91746  21896584.8284   21896589.9814
     -1047.7464       -816.4234
  19379650.8184  -35843800.14649 -25872715.23247  19379648.2884   19379653.3384
       206.7244        161.0834
  21971649.3724  -28656158.10848 -21970979.68546  21971647.4484   21971652.9304
     -1108.1514       -863.4934
  23046067.0014   -7798667.58547  -5056642.95145  23046065.2584   23046071.1144
      4714.1624       3673.3744
 04 12 11  1 41 29.9970000  0 10G29G17G 4G 5G 6G 2G30G10G24G26
  22210757.6594  -10529790.91747  -7879750.79145  22210756.1704   22210760.9024
      4050.0234       3155.8624
  20168147.9874  -37799249.42749 -28862013.85247  20168145.7504   20168150.6314
       890.8374        694.1594
  23659197.3664  -20343095.57747 -15824246.03145  23659196.9374   23659201.3504
     -1735.8434      -1352.6064
  22815109.7144  -18201018.10448 -13847166.98346  22815107.0904   22815113.0224
     -2043.9164      -1592.6614
  21654150.1994  -20778241.59448 -15884383.16346  21654149.4854   21654153.9384
      3561.4104       2775.1244
  20460754.0414  -39697180.25649 -30589578.55447  20460752.0124   20460753.3654
      -708.5914       -552.1504
  21902609.5124  -20306232.49648 -15194936.32046  21902608.0064   21902612.9464
     -1060.9724       -826.7314
  19378520.9364  -35849738.55349 -25877342.55247  19378518.3484   19378523.2024
       190.6034        148.5204
  21977988.0064  -28622851.34348 -21945026.37246  21977985.8864   21977991.1204
     -1110.8914       -865.6284
  23019159.1204   -7940062.43847  -5166820.72845  23019158.1344   23019164.6714
      4713.5364       3672.8814
 04 12 11  1 41 59.9970000  0 10G29G17G 4G 5G 6G 2G30G10G24G26
  22187657.1314  -10651184.76647  -7974343.34445  22187655.0224   22187660.2394
      4042.9624       3150.3654
  20163082.0424  -37825871.02149 -28882757.95047  20163079.9554   20163084.6164
       883.9574        688.7984
  23669114.2334  -20290987.52547 -15783642.37845  23669113.3904   23669118.5674
     -1737.8974      -1354.2024
  22826793.5764  -18139619.16548 -13799323.67746  22826791.8584   22826797.1684
     -2049.3494      -1596.8964
  21633846.9674  -20884945.38148 -15967528.96746  21633844.4984   21633848.9204
      3552.3044       2768.0294
  20464821.9994  -39675801.62749 -30572919.88047  20464820.1334   20464822.0784
      -716.6534       -558.4294
  21908707.6294  -20274185.64448 -15169964.74746  21908705.9984   21908710.8414
     -1075.3874       -837.9644
  19377482.2024  -35855196.47849 -25881595.47547  19377479.8324   19377484.5784
       173.2714        135.0154
  21984340.6054  -28589464.49848 -21919010.66546  21984338.8304   21984344.6704
     -1114.8704       -868.7284
  22992257.7094   -8081437.69747  -5276983.24845  22992255.7794   22992262.1294
      4711.4474       3671.2534
 04 12 11  1 42 29.9970000  0 10G29G17G 4G 5G 6G 2G30G10G24G26
  22164595.1994  -10772369.06747  -8068772.63646  22164594.8704   22164599.8964
      4037.0144       3145.7244
  20158055.1004  -37852289.12849 -28903343.48547  20158052.8254   20158057.3994
       878.2654        684.3614
  23679041.4614  -20238823.31447 -15742994.95345  23679040.2994   23679043.7904
     -1738.7364      -1354.8564
  22838507.2854  -18078060.89448 -13751356.21046  22838505.5304   22838511.7944
     -2053.5234      -1600.1464
  21613592.2884  -20991376.78648 -16050462.53146  21613591.3074   21613595.4624
      3544.2264       2761.7364
  20468935.5634  -39654183.75949 -30556074.79347  20468933.8334   20468936.0824
      -723.5574       -563.8094
  21914887.3814  -20241710.79348 -15144659.70546  21914886.2424   21914891.0114
     -1088.5394       -848.2104
  19376541.9024  -35860138.69849 -25885446.54847  19376539.3574   19376544.1194
       157.2084        122.4994
  21990717.8024  -28555960.86748 -21892903.95447  21990715.4034   21990720.2634
     -1117.7214       -870.9514
  22965366.6794   -8222753.26547  -5387099.24345  22965364.5174   22965369.4724
      4710.5064       3670.5284
 04 12 11  1 42 59.9970000  0 10G29G17G 4G 5G 6G 2G30G10G24G26
  22141572.6374  -10893366.26448  -8163056.11946  22141570.9114   22141576.4194
      4029.5574       3139.9124
  20153061.9084  -37878529.05549 -28923790.17947  20153059.5794   20153064.1534
       871.1164        678.7924
  23688973.4344  -20186628.69147 -15702323.85845  23688971.9924   23688978.5264
     -1740.8344      -1356.4874
  22850246.3574  -18016372.11548 -13703287.05746  22850244.3104   22850249.9834
     -2058.9494      -1604.3794
  21593386.9174  -21097558.89448 -16133201.82846  21593385.5234   21593390.1644
      3534.6714       2754.2884
  20473089.5734  -39632352.46249 -30539063.39847  20473087.9374   20473090.8654
      -731.8434       -570.2674
  21921143.7734  -20208836.32548 -15119043.27246  21921142.4254   21921146.5714
     -1103.0154       -859.4894
  19375694.2334  -35864592.59949 -25888917.11847  19375691.7854   19375696.3074
       139.8004        108.9354
  21997110.3184  -28522365.86648 -21866726.04147  21997108.1634   21997112.9164
     -1121.9164       -874.2204
  22938480.6384   -8364031.45747  -5497186.13045  22938479.3224   22938485.5224
      4708.0554       3668.6154
 04 12 11  1 43 29.9970000  0 10G29G17G 4G 5G 6G 2G30G10G24G26
  22118589.2034  -11014146.22947  -8257170.30846  22118585.6684   22118591.4194
      4023.8254       3135.4474
  20148107.3654  -37904563.43149 -28944076.69647  20148105.4634   20148110.1424
       865.7674        674.6244
  23698917.6094  -20134376.29347 -15661607.77045  23698916.0194   23698920.3724
     -1741.2924      -1356.8524
  22862015.1424  -17954528.66648 -13655097.38846  22862013.0514   22862018.5724
     -2062.6014      -1607.2204
  21573234.8114  -21203462.21148 -16215723.88746  21573232.9634   21573237.2994
      3526.8354       2748.1844
  20477289.3444  -39610280.87849 -30521864.77147  20477287.7804   20477290.8434
      -738.3464       -575.3364
  21927479.1924  -20175537.81948 -15093096.41646  21927478.0584   21927482.8594
     -1115.5224       -869.2394
  19374944.0314  -35868532.97149 -25891987.53747  19374941.5864   19374946.4124
       124.1874         96.7684
  22003525.3384  -28488652.71648 -21840456.06447  22003523.5424   22003528.1374
     -1124.3674       -876.1304
  22911609.0774   -8505241.95047  -5607220.24445  22911608.1344   22911614.1094
      4707.1944       3667.9424
 04 12 11  1 43 59.9970000  0 10G29G17G 4G 5G 6G 2G30G10G24G26
  22095627.7374  -11134792.03947  -8351180.00045  22095627.4674   22095632.5894
      4018.9124       3131.6144
  20143175.9854  -37930478.12549 -28964269.96447  20143173.8894   20143178.4564
       861.4104        671.2294
  23708854.4444  -20082152.55247 -15620914.02345  23708853.4304   23708857.9344
     -1740.6094      -1356.3144
  22873795.6984  -17892619.70448 -13606856.67546  22873793.6544   22873800.1984
     -2065.0774      -1609.1524
  21553119.2604  -21309170.63248 -16298094.08746  21553117.3924   21553121.6304
      3519.9994       2742.8554
  20481519.7934  -39588055.14049 -30504546.02647  20481517.4994   20481520.1004
      -743.8344       -579.6104
  21933879.9494  -20141904.02748 -15066888.30846  21933878.7534   21933884.2244
     -1127.0444       -878.2144
  19374275.6434  -35872047.28449 -25894725.95847  19374273.0234   19374277.4874
       109.6844         85.4674
  22009946.9244  -28454907.18048 -21814160.84646  22009945.1144   22009950.1414
     -1125.8314       -877.2714
  22884735.0574   -8646467.62247  -5717266.16645  22884734.0034   22884740.4334
      4707.3294       3668.0444
 04 12 11  1 44 29.9970000  0 10G29G17G 4G 5G 6G 2G30G10G24G26
  22072707.6614  -11255252.56047  -8445045.31145  22072704.7804   22072709.4034
      4012.0944       3126.3094
  20138276.5204  -37956224.84149 -28984332.34047  20138274.3864   20138278.9154
       855.2634        666.4384
  23718796.1904  -20029909.22747 -15580204.99245  23718794.4404   23718799.8044
     -1741.9044      -1357.3244
  22885598.2004  -17830600.19348 -13558529.80646  22885595.8404   22885602.0784
     -2069.2854      -1612.4314
  21533049.8994  -21414633.63248 -16380273.04246  21533048.2444   21533053.0074
      3511.1954       2735.9954
  20485787.3374  -39565627.60749 -30487070.03447  20485785.4784   20485787.8764
      -751.0884       -585.2644
  21940352.9624  -20107889.81248 -15040383.77746  21940351.4364   21940356.8634
     -1140.2184       -888.4794
  19373695.8014  -35875089.15249 -25897096.24447  19373693.9744   19373698.7714
        93.4364         72.8074
  22016383.1764  -28421080.84748 -21787802.67746  22016381.3264   22016386.3164
     -1129.0054       -879.7444
  22857869.0184   -8787657.09347  -5827283.88545  22857867.1214   22857872.0374
      4705.5954       3666.6964
 04 12 11  1 44 59.9970000  0 10G29G17G 4G 5G 6G 2G30G10G24G26
  22049829.0104  -11375480.68648  -8538729.54946  22049826.8014   22049831.4434
      4004.2584       3120.2014
  20133417.7464  -37981759.39049 -29004229.38747  20133415.3724   20133419.9044
       848.1794        660.9184
  23728751.5534  -19977602.46947 -15539446.52145  23728749.6824   23728753.2904
     -1743.9684      -1358.9354
  22897428.9244  -17768429.33148 -13510085.00346  22897426.4734   22897432.3214
     -2074.2934      -1616.3284
  21513037.3674  -21519805.09248 -16462224.82046  21513035.3414   21513039.4024
      3501.4334       2728.3894
  20490101.4874  -39542954.47149 -30469402.66547  20490099.9664   20490102.2424
      -759.3074       -591.6674
  21946906.2284  -20073453.90648 -15013550.66346  21946904.9904   21946909.4214
     -1154.2774       -899.4354
  19373215.0864  -35877616.50649 -25899065.60547  19373213.0364   19373217.5634
        76.2574         59.4214
  22022844.4074  -28387129.66148 -21761347.22346  22022842.1244   22022847.2274
     -1133.2124       -883.0224
  22831016.5794   -8928763.27647  -5937236.71445  22831013.9604   22831020.1194
      4702.6734       3664.4154
 04 12 11  1 45 29.9970000  0 10G29G17G 4G 5G 6G 2G30G10G24G26
  22026989.7754  -11495497.25948  -8632248.92246  22026987.7364   22026992.7854
      3996.1734       3113.8984
  20128594.0824  -38007105.43649 -29023979.54947  20128592.1534   20128596.7334
       840.9294        655.2704
  23738712.3224  -19925256.00047 -15498657.07445  23738711.6974   23738714.5254
     -1746.2764      -1360.7404
  22909282.1084  -17706134.12148 -13461543.30446  22909280.4434   22909287.5584
     -2079.3484      -1620.2704
  21493074.1784  -21624706.43748 -16543966.12946  21493073.0834   21493077.3584
      3491.3694       2720.5494
  20494459.5054  -39520059.75249 -30451562.62847  20494457.0414   20494458.8194
      -767.6664       -598.1814
  21953534.7454  -20038622.95948 -14986409.67946  21953533.1754   21953537.0614
     -1168.3804       -910.4264
  19372828.1874  -35879654.81349 -25900653.88647  19372825.4034   19372829.9514
        59.0134         45.9854
  22029323.5274  -28353077.88048 -21734813.37646  22029321.9194   22029326.9484
     -1137.5014       -886.3634
  22804175.5964   -9069806.62847  -6047140.55445  22804175.8554   22804181.3054
      4699.5714       3661.9984
 04 12 11  1 45 59.9970000  0 10G29G17G 4G 5G 6G 2G30G10G24G26
  22004186.9154  -11615324.55348  -8725620.78846  22004185.2424   22004191.4524
      3993.0024       3111.4324
  20123802.3974  -38032287.86749 -29043602.22247  20123800.1894   20123804.8274
       838.6124        653.4634
  23748671.1984  -19872895.28047 -15457856.54445  23748672.0064   23748678.5424
     -1743.6974      -1358.7314
  22921155.4714  -17643742.79548 -13412926.70346  22921153.1384   22921159.3524
     -2079.4104      -1620.3184
  21473160.1384  -21729360.73048 -16625514.92046  21473157.9084   21473162.3074
      3486.2824       2716.5834
  20498853.2034  -39496968.91849 -30433569.77747  20498851.2934   20498852.3114
      -771.0554       -600.8224
  21960232.9384  -20003425.18948 -14958982.86346  21960230.9644   21960235.0904
     -1177.3914       -917.4474
  19372527.7674  -35881231.09049 -25901882.15347  19372525.2444   19372529.9684
        46.7784         36.4504
  22035819.1224  -28318950.51848 -21708220.63846  22035816.8184   22035821.2414
     -1136.9274       -885.9174
  22777344.5214   -9210809.28147  -6157012.70145  22777342.5714   22777349.6454
      4701.2764       3663.3294
 04 12 11  1 46 29.9970000  0 10G29G17G 4G 5G 6G 2G30G10G24G26
  21981420.7374  -11734964.54248  -8818846.68746  21981418.8714   21981424.2724
      3983.0564       3103.6784
  20119040.3304  -38057311.61949 -29063101.25247  20119038.3894   20119042.9144
       829.6364        646.4694
  23758640.8084  -19820525.33747 -15417048.81545  23758639.5074   23758643.8784
     -1747.6174      -1361.7784
  22933046.2914  -17581263.38948 -13364241.47646  22933043.7104   22933048.9574
     -2085.8874      -1625.3664
  21453290.9954  -21833770.84948 -16706873.44846  21453289.2164   21453293.2884
      3474.4704       2707.3804
  20503283.0914  -39473687.35249 -30415428.29447  20503281.3924   20503282.5354
      -781.0624       -608.6194
  21966999.0564  -19967868.41448 -14931276.30446  21966996.9474   21967001.4204
     -1192.9494       -929.5704
  19372314.3884  -35882352.35249 -25902755.86147  19372311.7484   19372316.6044
        27.9974         21.8174
  22042326.7524  -28284752.73848 -21681573.01646  22042324.7984   22042329.2434
     -1142.9154       -890.5834
  22750521.1834   -9351773.09547  -6266854.57145  22750518.6514   22750525.0214
      4696.2774       3659.4354
 04 12 11  1 46 59.9970000  0 10G29G17G 4G 5G 6G 2G30G10G24G26
  21958699.6664  -11854364.80848  -8911885.83046  21958697.5214   21958702.0164
      3975.6424       3097.9034
  20114318.0774  -38082126.98149 -29082437.89347  20114316.0264   20114320.7354
       823.3574        641.5774
  23768618.9004  -19768096.82647 -15376195.48545  23768617.6494   23768622.1394
     -1748.8824      -1362.7634
  22944960.9394  -17518649.46248 -13315451.41746  22944958.3634   22944964.3034
     -2089.6734      -1628.3154
  21433478.6374  -21937884.76448 -16788001.17846  21433476.8174   21433481.0924
      3465.2034       2700.1574
  20507759.7064  -39450165.77949 -30397099.79947  20507757.3494   20507758.8534
      -788.4154       -614.3494
  21973841.5724  -19931906.00948 -14903253.67746  21973840.4394   21973845.0664
     -1205.8304       -939.6084
  19372197.0304  -35882970.63649 -25903237.64247  19372194.5664   19372199.1234
        11.8864          9.2624
  22048856.1954  -28250434.91648 -21654831.87146  22048854.7344   22048859.9284
     -1146.2904       -893.2134
  22723712.6974   -9492645.14247  -6376624.91145  22723711.6644   22723717.0604
      4693.8314       3657.5314
 04 12 11  1 47 29.9970000  0 10G29G17G 4G 5G 6G 2G30G10G24G26
  21936019.1644  -11973550.70848  -9004757.94946  21936017.6214   21936021.8224
      3969.8874       3093.4194
  20109630.3674  -38106762.22149 -29101634.18247  20109628.2284   20109632.8984
       818.7734        638.0054
  23778601.8274  -19715638.18547 -15335318.69145  23778599.3094   23778603.5574
     -1748.5064      -1362.4684
  22956894.1194  -17455932.83148 -13266581.34846  22956892.3034   22956898.6054
     -2091.6194      -1629.8324
  21413717.7734  -22041728.87148 -16868918.65246  21413716.1224   21413720.3934
      3457.5044       2694.1594
  20512275.8884  -39426432.71449 -30378606.50647  20512273.5804   20512275.3414
      -794.0494       -618.7404
  21980756.4514  -19895569.50148 -14874939.54946  21980755.4194   21980760.1714
     -1216.8174       -948.1674
  19372169.2584  -35883116.64249 -25903351.40847  19372166.5924   19372170.9514
        -2.4004         -1.8694
  22055404.3464  -28216025.70448 -21628019.51446  22055402.4614   22055407.8834
     -1147.9284       -894.4894
  22696920.0254   -9633450.91247  -6486343.64145  22696917.3794   22696922.3964
      4692.9554       3656.8474
 04 12 11  1 47 59.9970000  0 10G29G17G 4G 5G 6G 2G30G10G24G26
  21913373.9004  -12092552.70048  -9097486.72346  21913372.1134   21913377.6004
      3962.6004       3087.7374
  20104970.5344  -38131250.38549 -29120715.86847  20104968.5054   20104972.9424
       812.7704        633.3284
  23788582.3954  -19663182.82247 -15294444.41645  23788581.8504   23788586.5414
     -1749.4804      -1363.2294
  22968842.1954  -17393149.87248 -13217659.59646  22968839.5964   22968846.2924
     -2094.8714      -1632.3654
  21394002.5424  -22145334.13048 -16949650.01446  21394000.4324   21394005.5154
      3448.5574       2687.1854
  20516824.5474  -39402521.94749 -30359974.74647  20516823.1024   20516825.9864
      -801.0464       -624.1904
  21987735.1784  -19858895.02048 -14846362.06746  21987734.2224   21987739.0324
     -1229.1144       -957.7484
  19372224.0824  -35882825.37149 -25903124.43447  19372222.0574   19372226.6044
       -18.0274        -14.0474
  22061963.6984  -28181558.55148 -21601162.01246  22061961.2024   22061966.3274
     -1150.9134       -896.8144
  22670131.0714   -9774220.26247  -6596033.96645  22670129.3984   22670134.6584
      4690.5814       3654.9944
 04 12 11  1 48 29.9970000  0 10G29G17G 4G 5G 6G 2G30G10G24G26
  21890767.2104  -12211353.37548  -9190058.62846  21890764.9804   21890770.4194
      3956.8334       3083.2424
  20100341.8424  -38155577.00649 -29139671.67947  20100339.3614   20100343.8524
       808.2504        629.8054
  23798565.1574  -19610716.67047 -15253561.73845  23798564.8144   23798570.5304
     -1748.9114      -1362.7834
  22980802.9494  -17330289.35448 -13168677.40246  22980801.4824   22980807.9094
     -2096.5114      -1633.6474
  21374334.8884  -22248683.76948 -17030182.19546  21374333.7004   21374337.8964
      3440.8304       2681.1674
  20521412.1404  -39378419.26949 -30341193.45447  20521410.1724   20521412.4014
      -806.5384       -628.4704
  21994780.8864  -19821871.11548 -14817512.32046  21994779.2304   21994784.6114
     -1239.8124       -966.0854
  19372365.7114  -35882084.42449 -25902547.07047  19372363.1494   19372367.8104
       -32.0714        -24.9914
  22068534.8164  -28147019.11448 -21574248.18146  22068533.2154   22068538.7574
     -1152.4084       -897.9824
  22643352.9034   -9914935.71547  -6705682.30945  22643351.9914   22643357.5834
      4689.7154       3654.3254
 04 12 11  1 48 59.9970000  0 10G29G17G 4G 5G 6G 2G30G10G24G26
  21868203.9114  -12329924.20748  -9282451.41646  21868201.4324   21868206.3174
      3948.9654       3077.1164
  20095747.7224  -38179716.36549 -29158481.56747  20095745.7354   20095750.3884
       801.9424        624.8914
  23808554.8184  -19558213.93747 -15212650.56645  23808555.5924   23808560.8184
     -1750.2244      -1363.8074
  22992785.5914  -17267328.74248 -13119617.22746  22992782.5304   22992789.0374
     -2099.8704      -1636.2584
  21354722.7044  -22351750.27448 -17110493.75346  21354721.5174   21354724.9794
      3431.2854       2673.7274
  20526039.6984  -39354099.57749 -30322243.05447  20526038.1054   20526040.3184
      -813.8274       -634.1504
  22001897.6254  -19784475.34448 -14788372.80046  22001895.7454   22001900.2264
     -1252.1964       -975.7374
  19372597.0674  -35880870.18249 -25901600.90847  19372594.4274   19372598.6084
       -47.9004        -37.3254
  22075126.7924  -28112381.62948 -21547257.95646  22075124.8534   22075129.7334
     -1155.7584       -900.5894
  22616591.0344  -10055568.57247  -6815266.28045  22616590.3784   22616597.1224
      4686.8184       3652.0674
 04 12 11  1 49 29.9970000  0 10G29G17G 4G 5G 6G 2G30G10G24G26
  21845690.5474  -12448237.01448  -9374643.19746  21845687.5154   21845692.0254
      3939.3264       3069.6044
  20091194.9394  -38203642.90749 -29177125.62847  20091192.6374   20091197.1734
       793.8294        618.5674
  23818561.1134  -19505649.85347 -15171691.57845  23818558.6654   23818563.0464
     -1753.3124      -1366.2294
  23004789.5374  -17204246.03648 -13070461.88546  23004787.2654   23004793.6704
     -2104.9264      -1640.2024
  21335169.6294  -22454506.23448 -17190563.31346  21335167.2984   21335171.5514
      3419.8764       2664.8384
  20530713.6574  -39329537.76949 -30303103.98847  20530712.1014   20530713.9704
      -822.9364       -641.2494
  22009087.9974  -19746685.34448 -14758926.06846  22009086.9794   22009092.0504
     -1266.3504       -986.7664
  19372922.2544  -35879159.31149 -25900267.76647  19372919.7604   19372924.2324
       -65.4504        -51.0004
  22081743.1834  -28077620.95948 -21520171.72346  22081740.5674   22081744.6854
     -1160.9344       -904.6274
  22589851.3244  -10196090.15947  -6924763.54145  22589850.6674   22589856.2904
      4681.9494       3648.2694
 04 12 11  1 49 59.9970000  0 10G29G17G 4G 5G 6G 2G30G10G24G26
  21823219.5494  -12566310.55948  -9466648.54246  21823218.8584   21823222.8824
      3933.5024       3065.0654
  20086678.1374  -38227378.05749 -29195620.55147  20086675.8954   20086680.4024
       789.6394        615.3024
  23828571.1074  -19453045.87547 -15130701.49045  23828568.7004   23828573.4474
     -1752.4274      -1365.5234
  23016812.3944  -17141066.05448 -13021230.76146  23016810.4124   23016815.3124
     -2105.8784      -1640.9474
  21315669.9684  -22556970.70448 -17270405.74546  21315668.7784   21315672.6584
      3412.3104       2658.9444
  20535429.5184  -39304755.85449 -30283793.41647  20535427.8544   20535429.7434
      -828.0284       -645.2164
  22016349.7064  -19708525.85148 -14729191.41246  22016348.3224   22016353.6214
     -1276.4094       -994.6034
  19373338.1584  -35876975.31249 -25898565.94647  19373335.5554   19373339.7864
       -78.9724        -61.5374
  22088375.4934  -28042758.87148 -21493006.46446  22088373.9584   22088378.5604
     -1162.0734       -905.5134
  22563128.5384  -10336519.22847  -7034188.71145  22563127.3744   22563133.2464
      4681.0824       3647.5954
 04 12 11  1 50 29.9970000  0 10G29G17G 4G 5G 6G 2G30G10G24G26
  21800794.1054  -12684164.09748  -9558482.40846  21800790.7614   21800796.2214
      3924.3274       3057.9134
  20082193.7454  -38250944.09149 -29213983.69547  20082191.7304   20082196.2664
       782.2264        609.5274
  23838582.4054  -19400424.51347 -15089697.91145  23838581.3494   23838588.0584
     -1754.7954      -1367.3724
  23028848.5834  -17077814.16348 -12971943.60246  23028846.0964   23028852.4614
     -2110.0664      -1644.2064
  21296224.5194  -22659164.02048 -17350036.90646  21296222.2304   21296226.5024
      3401.4614       2650.4914
  20540183.0964  -39279776.36649 -30264328.88047  20540181.5684   20540183.4964
      -836.4174       -651.7534
  22023676.7114  -19670022.09348 -14699188.53246  22023675.4564   22023680.4304
     -1289.6224      -1004.8984
  19373838.5994  -35874342.54149 -25896514.43347  19373836.2524   19373840.7354
       -95.7134        -74.5814
  22095025.4164  -28007817.38248 -21465779.33746  22095023.5714   22095028.6234
     -1166.5284       -908.9824
  22536420.3694  -10476874.75647  -7143556.58345  22536418.4514   22536423.8224
      4676.7174       3644.1964
 04 12 11  1 50 59.9970000  0 10G29G17G 4G 5G 6G 2G30G10G24G26
  21778411.4494  -12801773.54648  -9650126.08546  21778411.4514   21778417.2544
      3916.4984       3051.8194
  20077745.4984  -38274319.39349 -29232198.21947  20077743.5104   20077747.9684
       776.2454        604.8664
  23848604.9894  -19347764.78447 -15048664.39145  23848603.1544   23848608.7424
     -1755.6694      -1368.0504
  23040902.8754  -17014472.16848 -12922586.23846  23040900.0244   23040906.2344
     -2112.5764      -1646.1604
  21276833.1154  -22761062.66248 -17429438.43146  21276831.1894   21276836.3604
      3392.0074       2643.1244
  20544978.7664  -39254578.32049 -30244694.04847  20544976.6064   20544978.0924
      -843.2984       -657.1164
  22031073.1234  -19631155.94748 -14668903.24746  22031071.3294   22031075.5354
     -1301.2504      -1013.9594
  19374428.3284  -35871241.71349 -25894098.19947  19374426.2144   19374430.9104
      -110.8584        -86.3834
  22101692.8334  -27972775.61348 -21438474.08046  22101690.7614   22101696.7904
     -1169.4374       -911.2494
  22509729.9324  -10617132.27647  -7252848.11845  22509728.6064   22509733.6344
      4673.8604       3641.9654
 04 12 11  1 51 29.9970000  0 10G29G17G 4G 5G 6G 2G30G10G24G26
  21756079.5644  -12919142.30448  -9741582.21346  21756077.2894   21756082.7104
      3908.4644       3045.5544
  20073332.5984  -38297510.07149 -29250268.88047  20073330.5004   20073335.0714
       770.0744        600.0584
  23858630.7764  -19295073.04347 -15007605.95445  23858630.7734   23858634.6394
     -1756.7144      -1368.8704
  23052970.4204  -16951049.55448 -12873166.03646  23052968.4764   23052975.3724
     -2115.2074      -1648.2094
  21257497.9184  -22862670.62148 -17508613.46746  21257495.9214   21257500.3224
      3382.2574       2635.5264
  20549813.7544  -39229168.20349 -30224893.95947  20549811.9094   20549813.7924
      -850.4054       -662.6534
  22038536.1634  -19591936.63648 -14638342.77446  22038534.3234   22038538.9254
     -1313.0194      -1023.1284
  19375106.3864  -35867680.95149 -25891323.58047  19375103.7794   19375108.5494
      -126.1804        -98.3224
  22108379.1844  -27937639.93348 -21411095.65346  22108377.1654   22108382.6184
     -1172.5634       -913.6834
  22483058.3544  -10757294.83747  -7362065.65145  22483056.7024   22483061.6014
      4670.5944       3639.4264
 04 12 11  1 51 59.9970000  0 10G29G17G 4G 5G 6G 2G30G10G24G26
  21733799.7384  -13036220.05048  -9832811.60046  21733797.7444   21733802.6314
      3898.5244       3037.8104
  20068963.9494  -38320468.66249 -29268158.69347  20068961.6994   20068966.0674
       762.1994        593.9224
  23868673.4734  -19242302.00447 -14966485.70345  23868672.2714   23868677.5254
     -1759.4864      -1371.0234
  23065063.5774  -16887502.01647 -12823648.50946  23065061.6224   23065067.2914
     -2119.4934      -1651.5534
  21238228.1754  -22963938.44848 -17587523.46446  21238225.7144   21238230.9784
      3370.7134       2626.5284
  20554699.2344  -39203499.14549 -30204892.10147  20554696.8554   20554697.9834
      -859.1644       -669.4784
  22046074.8924  -19552319.93148 -14607472.63646  22046073.3724   22046078.0534
     -1326.3314      -1033.5044
  19375879.9304  -35863615.07249 -25888155.36447  19375877.4314   19375882.5054
      -143.1074       -111.5134
  22115092.6624  -27902362.79948 -21383606.99846  22115090.4964   22115095.9114
     -1177.4584       -917.5004
  22456414.7894  -10897311.65047  -7471169.63745  22456412.0814   22456417.9394
      4665.5504       3635.4924
 04 12 11  1 52 29.9970000  0 10G29G17G 4G 5G 6G 2G30G10G24G26
  21711563.7574  -13153066.38348  -9923860.65346  21711562.0584   21711567.0464
      3891.3274       3032.2004
  20064626.5264  -38343257.43249 -29285916.17547  20064624.9994   20064629.7084
       757.0744        589.9284
  23878718.6194  -19189514.19747 -14925352.41045  23878717.4894   23878722.7144
     -1759.5124      -1371.0484
  23077167.8844  -16823895.14147 -12774084.72946  23077166.0374   23077171.7124
     -2120.8934      -1652.6404
  21219009.8684  -23064926.25648 -17666215.24946  21219008.1784   21219013.0294
      3361.9264       2619.6834
  20559620.1424  -39177633.90749 -30184737.36947  20559618.4044   20559620.2064
      -865.1444       -674.1384
  22053677.1284  -19512371.27148 -14576343.83746  22053675.7064   22053680.2974
     -1336.7794      -1041.6464
  19376737.3514  -35859108.61449 -25884643.84047  19376734.8374   19376739.8824
      -157.2114       -122.5024
  22121820.6524  -27867006.65648 -21356056.77446  22121818.8404   22121823.5824
     -1179.5204       -919.1074
  22429786.2544  -11037242.18647  -7580206.35245  22429783.5254   22429789.9314
      4663.1594       3633.6304
 04 12 11  1 52 59.9970000  0 10G29G17G 4G 5G 6G 2G30G10G24G26
  21689378.2374  -13269660.17448 -10014712.92646  21689375.2774   21689379.7724
      3882.5074       3025.3284
  20060326.2584  -38365857.94449 -29303526.96647  20060324.3094   20060329.0494
       750.4724        584.7844
  23888767.4044  -19136691.70747 -14884192.08745  23888768.9434   23888773.7344
     -1761.0484      -1372.2524
  23089285.1814  -16760214.06848 -12724463.10846  23089283.6104   23089289.4174
     -2123.6684      -1654.8054
  21199849.5734  -23165613.82148 -17744673.09246  21199848.1994   21199852.0724
      3351.4964       2611.5554
  20564582.9674  -39151554.69249 -30164415.90647  20564581.0694   20564583.3754
      -872.6224       -679.9654
  22061345.1464  -19472075.65348 -14544944.66646  22061343.4814   22061348.3504
     -1348.6314      -1050.8804
  19377681.3054  -35854145.43149 -25880776.42947  19377679.1854   19377684.2334
      -172.7724       -134.6274
  22128568.0874  -27831553.51548 -21328430.96546  22128566.0224   22128570.3154
     -1183.1244       -921.9134
  22403178.8284  -11177064.91047  -7689159.09245  22403177.0344   22403182.1374
      4659.2354       3630.5694
 04 12 11  1 53 29.9970000  0 10G29G17G 4G 5G 6G 2G30G10G24G26
  21667232.8674  -13386029.41048 -10105390.22946  21667231.7124   21667236.9944
      3874.2614       3018.9034
  20056055.8274  -38388300.94149 -29321015.02047  20056053.4584   20056058.1004
       744.5294        580.1534
  23898824.6274  -19083865.37747 -14843028.75745  23898822.3844   23898826.1404
     -1761.8624      -1372.8754
  23101411.3384  -16696492.57848 -12674810.01646  23101409.4054   23101415.9904
     -2125.6174      -1656.3204
  21180742.0794  -23266029.80748 -17822919.31046  21180739.6064   21180743.5124
      3341.7334       2603.9484
  20569580.6444  -39125292.52949 -30143951.88747  20569578.3864   20569580.9544
      -879.3854       -685.2354
  22069072.5534  -19431467.08548 -14513301.66646  22069070.6674   22069076.1904
     -1359.7144      -1059.5184
  19378706.7014  -35848758.43449 -25876578.76847  19378704.2934   19378709.2454
      -187.5324       -146.1294
  22135326.6694  -27796034.48448 -21300753.80246  22135324.5864   22135328.8234
     -1186.0134       -924.1674
  22376586.0544  -11316807.54947  -7798049.40545  22376584.8154   22376589.6814
      4655.7624       3627.8664
 04 12 11  1 53 59.9970000  0  9G29G17G 5G 6G 2G30G10G24G26
  21645141.4394  -13502118.47748 -10195849.18746  21645140.3664   21645145.7374
      3864.9814       3011.6724
  20051825.2804  -38410533.41949 -29338339.02947  20051822.8144   20051827.5404
       737.5854        574.7434
  23113554.5344  -16632681.22048 -12625086.90346  23113551.7694   23113558.2324
     -2128.4884      -1658.5634
  21161693.8154  -23366118.97848 -17900910.86546  21161692.9794   21161697.2944
      3330.8684       2595.4814
  20574622.5594  -39098794.88549 -30123304.38447  20574620.9504   20574623.5644
      -887.1854       -691.3124
  22076868.7704  -19390495.74448 -14481375.98346  22076867.5364   22076872.9174
     -1371.6644      -1068.8274
  19379822.1754  -35842896.78149 -25872011.24847  19379819.6514   19379824.5154
      -203.2404       -158.3694
  22142107.4144  -27760396.68448 -21272984.09846  22142105.7964   22142110.8364
     -1189.9174       -927.2104
  22350019.1144  -11456414.04947  -7906833.60345  22350017.7854   22350022.2794
      4651.2384       3624.3414
 04 12 11  1 54 29.9970000  0  9G29G17G 5G 6G 2G30G10G24G26
  21623107.7774  -13617914.34548 -10286079.67846  21623104.6304   21623110.1334
      3854.9414       3003.8494
  20047635.9294  -38432545.24649 -29355491.10247  20047634.1094   20047639.0014
       729.9884        568.8224
  23125715.7274  -16568773.07548 -12575288.38546  23125713.7224   23125720.0694
     -2131.8894      -1661.2144
  21142713.5034  -23465869.41548 -17978638.46946  21142710.6914   21142715.6764
      3319.3414       2586.5004
  20579711.8604  -39072052.11049 -30102465.87147  20579709.9634   20579712.5164
      -895.5674       -697.8444
  22084735.2764  -19349154.89548 -14449162.36646  22084734.0824   22084739.6934
     -1384.1704      -1078.5714
  19381029.9304  -35836552.55049 -25867067.68947  19381027.2454   19381031.4994
      -219.5254       -171.0594
  22148913.7044  -27724629.81048 -21245113.81146  22148911.4934   22148917.2244
     -1194.4264       -930.7204
  22323482.0734  -11595871.09947  -8015501.40745  22323479.4814   22323485.8954
      4645.9744       3620.2384
 04 12 11  1 54 59.9970000  0  9G29G17G 5G 6G 2G30G10G24G26
  21601122.8054  -13733437.47048 -10376097.66746  21601120.9934   21601125.2834
      3847.4084       2997.9834
  20043485.2224  -38454359.03549 -29372488.85847  20043483.0794   20043488.0464
       724.9804        564.9204
  23137890.8604  -16504794.27648 -12525434.79446  23137888.8984   23137894.3154
     -2132.5994      -1661.7644
  21123791.6434  -23565301.94548 -18056118.36746  21123789.7254   21123794.0874
      3310.2974       2579.4534
  20584843.4154  -39045087.68249 -30081454.64147  20584841.1314   20584843.7094
      -901.3294       -702.3334
  22092667.8704  -19307470.66748 -14416681.18746  22092666.6294   22092671.4274
     -1393.9654      -1086.2064
  19382323.2964  -35829750.96249 -25861767.74547  19382321.2694   19382325.9524
      -233.1394       -181.6664
  22155739.4984  -27688757.12948 -21217161.09946  22155737.7144   22155743.6804
     -1196.3424       -932.2134
  22296969.2444  -11735198.89547  -8124068.48846  22296967.4534   22296972.7014
      4643.2394       3618.1084
 04 12 11  1 55 29.9970000  0  9G29G17G 5G 6G 2G30G10G24G26
  21579184.5444  -13848728.63748 -10465934.94846  21579182.5564   21579186.3684
      3839.2984       2991.6614
  20039363.2134  -38476018.80749 -29389366.60847  20039361.3614   20039366.2594
       719.5294        560.6724
  23150070.0914  -16440791.96748 -12475562.88746  23150068.0254   23150073.5174
     -2133.6604      -1662.5954
  21104922.3054  -23664458.30148 -18133383.06546  21104920.5784   21104925.3454
      3300.7404       2572.0054
  20590007.4664  -39017945.88649 -30060305.20147  20590005.8514   20590008.2504
      -907.5874       -707.2114
  22100656.8214  -19265490.16148 -14383969.13446  22100655.5504   22100660.2874
     -1404.1194      -1094.1164
  19383697.0184  -35822538.17949 -25856147.39547  19383694.3984   19383698.0754
      -247.1354       -192.5744
  22162578.4084  -27652822.70948 -21189160.28246  22162576.4854   22162581.9354
     -1198.7104       -934.0584
  22270472.6914  -11874437.92247  -8232566.41446  22270470.9864   22270475.8284
      4639.8474       3615.4664
 04 12 11  1 55 59.9970000  0  9G29G17G 5G 6G 2G30G10G24G26
  21557291.1264  -13963779.77448 -10555585.14546  21557289.1694   21557294.3134
      3830.9094       2985.1234
  20035272.2354  -38497518.91149 -29406119.93747  20035270.1424   20035274.8524
       713.8854        556.2754
  23162254.4274  -16376764.10647 -12425671.06146  23162251.7974   23162258.3084
     -2134.7284      -1663.4254
  21086108.6564  -23763330.81948 -18210426.58846  21086105.9014   21086110.5614
      3290.9164       2564.3494
  20595207.8304  -38990621.47549 -30039013.45747  20595205.7504   20595207.9194
      -913.9474       -712.1674
  22108702.5534  -19223211.08748 -14351024.42646  22108701.0734   22108706.1874
     -1414.3144      -1102.0594
  19385148.0074  -35814910.99749 -25850204.13547  19385145.7454   19385149.7814
      -261.2104       -203.5414
  22169429.3724  -27616821.33748 -21161107.28246  22169427.5714   22169432.9704
     -1201.2584       -936.0454
  22243994.1714  -12013579.46747  -8340988.34546  22243992.6034   22243998.8844
      4636.2904       3612.6894
 04 12 11  1 56 29.9970000  0  9G29G17G 5G 6G 2G30G10G24G26
  21535444.8994  -14078575.37648 -10645036.19546  21535442.9904   21535449.5374
      3822.3064       2978.4174
  20031214.3384  -38518846.34849 -29422738.72247  20031211.7494   20031216.6344
       708.0974        551.7644
  23174445.5524  -16312701.02447 -12375751.79946  23174442.7294   23174448.7224
     -2135.9374      -1664.3704
  21067349.0594  -23861904.94048 -18287237.58846  21067347.6834   21067352.2934
      3280.8894       2556.5374
  20600444.7044  -38963102.17849 -30017569.85747  20600442.5194   20600444.4114
      -920.4994       -717.2714
  22116806.0514  -19180624.03948 -14317839.75146  22116804.9154   22116809.7314
     -1424.6004      -1110.0774
  19386680.8094  -35806859.03049 -25843929.87147  19386678.2094   19386682.0124
      -275.4124       -214.6074
  22176296.7254  -27580740.34748 -21132992.24146  22176294.3704   22176298.6804
     -1203.9684       -938.1554
  22217537.9594  -12152607.64447  -8449321.96345  22217535.9344   22217541.5394
      4632.3924       3609.6634
 04 12 11  1 56 59.9970000  0  9G29G17G 5G 6G 2G30G10G24G26
  21513654.6284  -14193087.20148 -10734266.13646  21513653.1784   21513659.1574
      3811.4584       2969.9654
  20027193.1254  -38539975.59349 -29439203.07047  20027190.8214   20027195.8944
       700.1224        545.5514
  23186646.1784  -16248580.20247 -12325787.53446  23186644.1804   23186651.3844
     -2139.1334      -1666.8564
  21048653.3434  -23960152.77548 -18363794.34246  21048652.0604   21048656.5414
      3268.6444       2546.9964
  20605723.1214  -38935362.86549 -29995954.81747  20605720.8914   20605722.7914
      -929.1984       -724.0504
  22124974.0574  -19137706.69948 -14284397.71046  22124972.3884   22124976.8004
     -1436.9134      -1119.6714
  19388297.4024  -35798358.33949 -25837305.95047  19388295.4794   19388299.9624
      -291.6424       -227.2534
  22183180.7904  -27544554.21948 -21104795.26246  22183179.5474   22183184.8064
     -1208.7714       -941.9004
  22191110.4494  -12291493.60948  -8557544.73946  22191108.6474   22191112.8604
      4626.2374       3604.8604
 04 12 11  1 57 29.9970000  0  9G29G17G 5G 6G 2G30G10G24G26
  21491923.2904  -14307290.24148 -10823255.47946  21491921.0874   21491924.6504
      3802.0934       2962.6704
  20023214.3774  -38560884.17449 -29455495.47547  20023212.2184   20023216.9444
       693.7224        540.5624
  23198863.3994  -16184382.69147 -12275763.54146  23198861.0224   23198866.7744
     -2140.6894      -1668.0714
  21030024.0714  -24058050.01548 -18440077.90046  21030022.6714   21030027.2704
      3257.8454       2538.5814
  20611047.5624  -38907381.88349 -29974151.45847  20611045.6344   20611047.5474
      -936.2634       -729.5554
  22133206.8164  -19094440.09148 -14250683.50046  22133205.2834   22133210.0494
     -1447.4984      -1127.9174
  19390004.8364  -35789389.25949 -25830317.05647  19390002.5774   19390006.8014
      -306.2434       -238.6314
  22190090.9504  -27508241.04648 -21076499.29546  22190089.5744   22190095.3834
     -1212.0964       -944.4924
  22164712.1474  -12430212.17748  -8665637.10346  22164710.3684   22164716.3214
      4621.6014       3601.2434
 04 12 11  1 57 59.9970000  0  9G29G17G 5G 6G 2G30G10G24G26
  21470236.4974  -14421257.63548 -10912061.25246  21470234.3854   21470237.2134
      3793.7984       2956.2044
  20019263.7874  -38581648.02849 -29471675.10747  20019261.0754   20019265.8374
       688.5514        536.5334
  23211078.8924  -16120187.63047 -12225741.43646  23211076.4174   23211082.9974
     -2140.8874      -1668.2234
  21011449.7014  -24155670.74148 -18516146.00746  21011446.7674   21011450.5324
      3248.2764       2531.1254
  20616404.0304  -38879235.42649 -29952219.15947  20616401.8694   20616403.5624
      -942.1224       -734.1204
  22141490.8744  -19050903.33348 -14216758.79746  22141489.7714   22141495.0484
     -1456.8034      -1135.1704
  19391786.0104  -35780030.27349 -25823024.33847  19391783.4764   19391787.8964
      -319.5984       -249.0374
  22197009.8414  -27471876.92648 -21048163.63346  22197008.9744   22197014.8204
     -1214.1714       -946.1064
  22138332.1154  -12568836.19548  -8773655.75746  22138331.1244   22138337.4424
      4618.0374       3598.4654
 04 12 11  1 58 29.9970000  0  9G29G17G 5G 6G 2G30G10G24G26
  21448608.8564  -14534904.00648 -11000616.85246  21448607.8294   21448612.1074
      3783.6024       2948.2604
  20015355.0524  -38602184.41249 -29487677.48947  20015352.8714   20015358.1254
       681.4534        531.0034
  23223310.6954  -16055915.80647 -12175659.48746  23223307.6234   23223313.4514
     -2142.9104      -1669.8024
  20992940.5054  -24252930.15548 -18591932.56647  20992938.4264   20992942.9174
      3236.7054       2522.1064
  20621807.0684  -38850841.33249 -29930093.89647  20621805.1014   20621806.6884
      -949.8844       -740.1694
  22149842.6094  -19007017.29748 -14182561.93846  22149841.1364   22149846.4164
     -1467.8984      -1143.8154
  19393656.4304  -35770200.97149 -25815365.14347  19393653.8394   19393658.4394
      -334.7254       -260.8244
  22203956.0324  -27435379.35348 -21019723.98946  22203954.1444   22203959.5874
     -1218.0614       -949.1394
  22111989.0584  -12707279.83547  -8881533.87045  22111985.9214   22111990.4824
      4612.4444       3594.1104
 04 12 11  1 58 59.9970000  0  9G29G17G 5G 6G 2G30G10G24G26
  21427033.5004  -14648280.31648 -11088961.97246  21427032.1004   21427038.1154
      3776.0504       2942.3734
  20011480.2024  -38622546.53049 -29503544.07547  20011478.1144   20011483.3994
       677.2104        527.6964
  23235544.0074  -15991623.80347 -12125561.83746  23235541.4134   23235547.8524
     -2141.9964      -1669.0854
  20974491.0884  -24349879.50248 -18667477.51647  20974489.5764   20974494.2164
      3227.8714       2515.2264
  20627247.1824  -38822253.43549 -29907817.62147  20627245.3024   20627246.9334
      -954.7884       -743.9904
  22158250.5494  -18962838.71848 -14148137.11246  22158248.7674   22158253.0884
     -1476.0594      -1150.1754
  19395605.5234  -35759956.89649 -25807382.74847  19395603.0424   19395607.9464
      -346.9794       -270.3734
  22210917.5344  -27398801.77948 -20991221.99946  22210915.4564   22210920.6814
     -1219.1774       -950.0074
  22085667.3164  -12845593.14547  -8989310.44646  22085665.5084   22085670.9654
      4609.6744       3591.9484
 04 12 11  1 59 29.9970000  0  9G29G17G 5G 6G 2G30G10G24G26
  21405518.2824  -14761348.73648 -11177067.16946  21405516.1774   21405522.0204
      3764.4734       2933.3534
  20007645.7834  -38642699.60749 -29519247.77647  20007643.2754   20007648.0144
       668.9224        521.2374
  23247789.0774  -15927279.93647 -12075423.78046  23247786.4114   23247792.8234
     -2144.9664      -1671.4004
  20956107.7164  -24446482.07648 -18742752.24446  20956106.3434   20956111.4304
      3214.9704       2505.1724
  20632731.3354  -38793437.33249 -29885363.52047  20632728.9674   20632730.8104
      -963.6784       -750.9174
  22166718.9194  -18918335.98948 -14113459.68246  22166717.4604   22166722.2004
     -1488.1094      -1159.5644
  19397639.5304  -35749265.48349 -25799051.77847  19397637.4364   19397642.5724
      -363.1704       -282.9904
  22217899.6324  -27362109.57148 -20962630.69546  22217897.3044   22217901.6804
     -1224.3454       -954.0344
  22059379.4554  -12983738.56848  -9096956.19646  22059378.4174   22059382.3004
      4602.6664       3586.4924
 04 12 11  1 59 59.9970000  0  9G29G17G 5G 6G 2G30G10G24G26
  21384054.1604  -14874144.87548 -11264960.22646  21384052.1724   21384057.2334
      3755.1754       2926.1084
  20003843.1284  -38662681.56449 -29534818.13347  20003840.7814   20003845.6324
       663.0914        516.6954
  23260034.5304  -15862925.67747 -12025277.64646  23260032.8814   23260038.7594
     -2145.4064      -1671.7434
  20937784.0654  -24542773.98448 -18817784.89847  20937782.7024   20937787.5104
      3204.4184       2496.9504
  20638250.7904  -38764431.72949 -29862761.76347  20638248.4704   20638250.6844
      -970.1734       -755.9784
  22175240.9554  -18873550.63848 -14078562.02946  22175239.2754   22175243.7664
     -1497.6204      -1166.9794
  19399752.0294  -35738167.26249 -25790403.81747  19399749.4374   19399754.4874
      -376.8184       -293.6254
  22224897.6494  -27325341.22748 -20933980.05146  22224895.4484   22224899.7724
     -1227.0124       -956.1104
  22033116.2934  -13121750.88248  -9204498.19346  22033113.9404   22033120.3164
      4598.0194       3582.8684
 04 12 11  2  0 29.9970000  0  9G29G17G 5G 6G 2G30G10G24G26
  21362646.6604  -14986642.54348 -11352620.75846  21362644.4444   21362648.5044
      3743.7304       2917.1944
  20000077.6034  -38682468.81749 -29550236.77147  20000075.4204   20000080.0904
       655.1014        510.4684
  23272287.3674  -15798540.61547 -11975107.46546  23272284.2694   23272289.8914
     -2147.8834      -1673.6744
  20919525.9054  -24638729.65848 -18892555.55647  20919523.5564   20919527.8104
      3191.6994       2487.0384
  20643809.9544  -38735213.49249 -29839994.32647  20643808.2584   20643810.4934
      -978.6884       -762.6154
  22183820.2804  -18828462.49448 -14043428.44946  22183818.7944   22183823.6374
     -1509.1504      -1175.9614
  19401945.0074  -35726641.17049 -25781422.44447  19401942.5674   19401947.6894
      -392.5324       -305.8704
  22231912.8224  -27288473.28448 -20905251.78846  22231910.3554   22231915.2614
     -1231.8224       -959.8624
  22006884.1244  -13259603.28748  -9311915.58746  22006882.4434   22006887.6834
      4591.1664       3577.5334
 04 12 11  2  0 59.9970000  0  9G29G17G 5G 6G 2G30G10G24G26
  21341301.6824  -15098809.15748 -11440023.30446  21341299.8914   21341302.9794
      3734.0574       2909.6594
  19996355.3264  -38702031.24249 -29565480.22547  19996352.8934   19996357.2734
       649.0174        505.7284
  23284549.2634  -15734098.25047 -11924892.69845  23284547.4074   23284554.1504
     -2148.3134      -1674.0114
  20901335.5314  -24734317.10048 -18967039.28047  20901333.7324   20901337.3364
      3180.7984       2478.5444
  20649416.3564  -38705753.12349 -29817038.20547  20649414.2084   20649416.7264
      -985.3544       -767.8084
  22192464.2484  -18783044.88748 -14008038.13746  22192462.2104   22192466.9464
     -1518.6724      -1183.3834
  19404225.4874  -35714659.35849 -25772085.97447  19404222.8074   19404227.6374
      -406.2674       -316.5724
  22238952.9264  -27251475.73448 -20876422.54546  22238951.0954   22238955.7594
     -1234.7254       -962.1224
  21980687.9304  -13397263.01848  -9419182.83546  21980685.7474   21980691.2594
      4586.0854       3573.5704
 04 12 11  2  1 29.9970000  0  9G29G17G 5G 6G 2G30G10G24G26
  21320011.8134  -15210687.77848 -11527201.42346  21320009.6164   21320014.3124
      3724.2524       2902.0134
  19992666.4154  -38721414.59849 -29580584.13747  19992664.1554   19992668.5164
       642.9054        500.9644
  23296813.8454  -15669647.32747 -11874671.19045  23296811.7054   23296818.2374
     -2148.6984      -1674.3094
  20883207.5904  -24829579.96748 -19041270.08647  20883205.8884   20883209.7424
      3169.7794       2469.9594
  20655059.5604  -38676096.80349 -29793929.39947  20655057.5284   20655059.9694
      -992.0294       -773.0074
  22201160.3324  -18737347.04148 -13972429.45646  22201158.3514   22201162.6804
     -1528.0684      -1190.7014
  19406582.5124  -35702270.15349 -25762432.04747  19406580.3634   19406584.8854
      -419.9644       -327.2444
  22246008.5814  -27214394.80148 -20847528.34346  22246006.8424   22246012.4324
     -1237.6284       -964.3834
  21954521.4944  -13534772.36348  -9526332.94746  21954519.7354   21954523.7534
      4580.9104       3569.5394
 04 12 11  2  1 59.9970000  0  9G29G17G 5G 6G 2G30G10G24G26
  21298779.9884  -15322263.78748 -11614143.73146  21298778.0534   21298782.9874
      3713.0924       2893.3184
  19989013.8854  -38740606.85549 -29595539.14347  19989011.9564   19989016.4084
       635.5164        495.2084
  23309080.9164  -15605179.41347 -11824436.47745  23309079.2444   23309085.6484
     -2150.2224      -1675.5014
  20865144.8724  -24924504.44248 -19115237.21246  20865142.2074   20865145.4864
      3157.4374       2460.3414
  20660743.2644  -38646233.13049 -29770659.01447  20660740.7364   20660742.5594
      -999.9604       -779.1904
  22209910.7314  -18691360.35748 -13936595.69746  22209909.2194   22209913.6504
     -1538.6974      -1198.9834
  19409019.7864  -35689464.08449 -25752453.29047  19409017.3454   19409021.7994
      -434.8254       -338.8254
  22253082.1854  -27177218.66248 -20818559.94846  22253080.8244   22253086.9154
     -1241.8324       -967.6584
  21928385.1504  -13672116.44948  -9633354.26646  21928383.7764   21928388.0114
      4574.3304       3564.4154
 04 12 11  2  2 29.9970000  0  9G29G17G 5G 6G 2G30G10G24G26
  21277606.5244  -15433528.22448 -11700843.25846  21277605.2614   21277610.7644
      3704.1154       2886.3214
  19985399.8514  -38759601.51449 -29610340.17847  19985397.5584   19985401.8004
       630.3634        491.1934
  23321353.5734  -15540691.51247 -11774186.18545  23321351.2444   23321358.1384
     -2149.4004      -1674.8524
  20847145.2884  -25019082.17448 -19188934.14346  20847144.0314   20847148.0294
      3147.2994       2452.4414
  20666465.3764  -38616156.13949 -29747222.40447  20666463.9844   20666466.4044
     -1005.6134       -783.5954
  22218717.5584  -18645081.96848 -13900534.66146  22218715.7814   22218720.5334
     -1546.8884      -1205.3644
  19411537.0074  -35676237.04349 -25742146.50747  19411534.5944   19411538.6214
      -447.3794       -348.6074
  22260177.7154  -27139941.11148 -20789512.52746  22260175.3914   22260180.2784
     -1243.7604       -969.1644
  21902282.6734  -13809285.89848  -9740239.50246  21902280.6264   21902287.0854
      4569.8564       3560.9254
 04 12 11  2  2 59.9960000  0  9G29G17G 5G 6G 2G30G10G24G26
  21256491.2984  -15544485.81948 -11787303.68346  21256490.0844   21256495.3164
      3692.7154       2877.4404
  19981820.7784  -38778408.77649 -29624995.18947  19981818.5654   19981822.6664
       622.8544        485.3414
  23333626.5534  -15476199.78647 -11723932.89845  23333623.9844   23333629.1704
     -2150.8024      -1675.9474
  20829212.7774  -25113319.08848 -19262365.49246  20829211.2374   20829216.0854
      3134.7974       2442.7004
  20672227.5484  -38585878.46549 -29723629.41947  20672225.8404   20672227.8684
     -1013.5984       -789.8154
  22227575.6534  -18598527.71848 -13864258.66246  22227574.5134   22227579.0584
     -1557.3594      -1213.5264
  19414131.4544  -35662602.90549 -25731522.49647  19414129.0214   19414133.1194
      -462.1974       -360.1534
  22267286.6884  -27102574.75648 -20760395.90846  22267285.4404   22267290.6954
     -1248.0174       -972.4794
  21876213.7754  -13946283.79148  -9846991.04146  21876211.5144   21876217.0004
      4562.9744       3555.5614
 04 12 11  2  3 29.9960000  0  9G29G17G 5G 6G 2G30G10G24G26
  21235437.9314  -15655120.60848 -11873512.58746  21235436.8404   21235441.0734
      3683.4074       2870.1914
  19978280.5464  -38797008.98449 -29639488.85647  19978278.7294   19978283.1814
       617.5284        481.1904
  23345903.2474  -15411682.18547 -11673659.49445  23345901.2324   23345908.2194
     -2149.9334      -1675.2714
  20811348.0434  -25207198.55848 -19335518.31947  20811347.0764   20811351.8724
      3124.2944       2434.5154
  20678031.6334  -38555377.53649 -29699862.47347  20678030.0394   20678032.0364
     -1019.3904       -794.3314
  22236491.7984  -18551677.06948 -13827751.69646  22236490.1134   22236494.6624
     -1565.5104      -1219.8784
  19416807.5654  -35648542.26549 -25720566.15247  19416804.8844   19416808.6454
      -474.7404       -369.9274
  22274420.0864  -27065096.22948 -20731191.87846  22274418.0294   22274422.4834
     -1250.1314       -974.1294
  21850178.7534  -14083095.44948  -9953597.51146  21850176.7604   21850180.9674
      4558.1604       3551.8114
 04 12 11  2  3 59.9960000  0  9G29G17G 5G 6G 2G30G10G24G26
  21214442.9814  -15765452.81848 -11959485.72846  21214440.8024   21214444.9774
      3672.1064       2861.3794
  19974776.4004  -38815428.13549 -29653841.44347  19974773.9264   19974778.2594
       610.3474        475.5954
  23358179.3924  -15347170.69847 -11623390.84845  23358176.9444   23358183.5804
     -2150.8924      -1676.0204
  20793548.9114  -25300742.10648 -19408409.38747  20793546.4174   20793551.3764
      3111.9304       2424.8804
  20683872.9564  -38524681.53049 -29675943.51847  20683870.9994   20683873.2944
     -1027.0404       -800.2914
  22245457.1964  -18504561.71948 -13791038.46546  22245455.7094   22245460.5014
     -1575.4644      -1227.6344
  19419558.2544  -35634084.81349 -25709300.60447  19419555.8074   19419559.7354
      -489.0934       -381.1114
  22281566.4654  -27027533.69748 -20701922.38046  22281565.0114   22281571.0154
     -1254.0544       -977.1844
  21824175.4684  -14219739.59548 -10060073.46546  21824174.1034   21824178.8494
      4551.3824       3546.5294
 04 12 11  2  4 29.9960000  0  9G29G17G 5G 6G 2G30G10G24G26
  21193508.3824  -15875463.14948 -12045208.06346  21193506.9134   21193511.4894
      3661.5744       2853.1774
  19971309.1184  -38833649.19049 -29668039.67247  19971306.5694   19971310.6154
       603.9824        470.6354
  23370454.9954  -15282651.61147 -11573116.25345  23370454.6684   23370460.7784
     -2150.7834      -1675.9364
  20775814.8584  -25393930.97048 -19481024.08147  20775813.2464   20775817.9884
      3100.3044       2415.8214
  20689754.6344  -38493774.09149 -29651859.81347  20689752.7474   20689754.7954
     -1033.8404       -805.5914
  22254475.0474  -18457168.30748 -13754108.56246  22254473.9714   22254479.3934
     -1584.4344      -1234.6214
  19422387.8394  -35619216.20849 -25697714.67547  19422385.3174   19422389.3044
      -502.5064       -391.5644
  22288733.4654  -26989870.55448 -20672574.50346  22288732.0024   22288737.8434
     -1257.1684       -979.6114
  21798208.0174  -14356196.48948 -10166403.50646  21798207.1214   21798212.2164
      4545.3204       3541.8054
 04 12 11  2  4 59.9960000  0  9G29G17G 5G 6G 2G30G10G24G26
  21172633.6124  -15985159.70548 -12130685.88046  21172632.3544   21172638.0254
      3650.7164       2844.7114
  19967876.9904  -38851682.99549 -29682091.98947  19967874.9404   19967878.9444
       597.3914        465.4994
  23382734.5684  -15218139.50747 -11522847.09545  23382731.0574   23382738.1264
     -2150.8754      -1676.0054
  20758147.6624  -25486774.41248 -19553369.61047  20758146.0964   20758150.4894
      3088.3834       2406.5334
  20695674.3834  -38462666.77449 -29627620.35247  20695672.3054   20695674.7764
     -1040.8614       -811.0604
  22263543.9684  -18409511.15148 -13716973.15646  22263543.2024   22263548.3754
     -1593.5204      -1241.7004
  19425292.4094  -35603949.76649 -25685818.74547  19425290.0304   19425294.4894
      -516.1154       -402.1674
  22295919.0684  -26952117.90648 -20643156.88546  22295916.8894   22295921.4944
     -1260.5244       -982.2244
  21772277.2274  -14492473.92448 -10272593.67046  21772274.6764   21772280.2844
      4538.9274       3536.8274
 04 12 11  2  5 29.9960000  0  9G29G17G 5G 6G 2G30G10G24G26
  21151817.5504  -16094550.70448 -12215925.57246  21151816.0484   21151821.5994
      3640.7444       2836.9464
  19964479.0114  -38869540.10949 -29696006.62247  19964476.5914   19964480.9494
       591.7474        461.1034
  23395007.2004  -15153648.05447 -11472594.02345  23395004.1184   23395008.8774
     -2149.8704      -1675.2224
  20740544.3424  -25579280.82548 -19625452.52247  20740542.0974   20740546.6284
      3077.4384       2398.0034
  20701628.8224  -38431370.45949 -29603233.63047  20701627.6164   20701630.0894
     -1046.8894       -815.7584
  22272661.1584  -18361604.17348 -13679643.07746  22272659.8794   22272664.2894
     -1601.5374      -1247.9544
  19428270.9854  -35588298.38649 -25673622.86247  19428268.3914   19428272.8044
      -528.6384       -411.9254
  22303118.3374  -26914286.43448 -20613677.85146  22303115.4454   22303121.4174
     -1262.8704       -984.0544
  21746376.1174  -14628578.95248 -10378649.51446  21746374.7474   21746380.2214
      4533.3734       3532.4954
 04 12 11  2  5 59.9960000  0  9G29G17G 5G 6G 2G30G10G24G26
  21131070.0444  -16203580.66048 -12300883.94946  21131068.0534   21131073.3004
      3628.4304       2827.3494
  19961124.6854  -38887167.34549 -29709742.13447  19961122.4654   19961126.7364
       583.8754        454.9684
  23407282.7594  -15089127.35347 -11422318.15445  23407281.2024   23407286.7744
     -2150.9884      -1676.0914
  20723014.7394  -25671394.91448 -19697229.72647  20723012.9434   20723017.5674
      3064.0944       2387.6054
  20707631.6114  -38399832.71049 -29578658.77347  20707629.1114   20707631.4364
     -1055.1884       -822.2244
  22281834.9234  -18313397.93748 -13642079.77746  22281833.3724   22281837.5304
     -1611.6624      -1255.8404
  19431332.1054  -35572211.63449 -25661087.72847  19431329.5024   19431334.2684
      -543.2994       -423.3514
  22310341.5304  -26876323.34248 -20584096.25046  22310339.9674   22310345.4244
     -1267.4334       -987.6084
  21720519.5064  -14764455.93848 -10484527.64146  21720518.3524   21720523.3054
      4525.5074       3526.3684
 04 12 11  2  6 29.9960000  0  9G29G17G 5G 6G 2G30G10G24G26
  21110379.0604  -16312308.51048 -12385606.92146  21110378.4094   21110382.6084
      3621.0774       2821.6194
  19957802.0554  -38904626.12749 -29723346.37847  19957799.9874   19957804.4144
       580.9424        452.6824
  23419554.5874  -15024642.18847 -11372069.99145  23419553.1034   23419558.1984
     -2147.0774      -1673.0484
  20705549.2394  -25763176.77748 -19768748.04946  20705547.5544   20705551.8364
      3055.6624       2381.0374
  20713667.4244  -38368115.80649 -29553944.32347  20713664.9744   20713666.8734
     -1058.4244       -824.7444
  22291052.6064  -18264957.42648 -13604333.92346  22291051.2214   22291056.4944
     -1616.7244      -1259.7864
  19434463.3224  -35555753.46549 -25648263.18547  19434461.1434   19434466.6584
      -552.9654       -430.8814
  22317579.7854  -26838290.81148 -20554460.55246  22317577.3394   22317582.7464
     -1267.1214       -987.3664
  21694695.8614  -14900163.32148 -10590273.64146  21694693.2544   21694698.2134
      4522.5144       3524.0334
 04 12 11  2  6 59.9960000  0 10G29G17G 5G 6G 2G30G10G24G26G21
  21089751.5504  -16420710.77148 -12470076.19046  21089749.5864   21089754.0554
      3606.4244       2810.2004
  19954516.1344  -38921895.44749 -29736802.99347  19954513.7724   19954518.3344
       570.9144        444.8684
  23431821.2534  -14960174.85947 -11321835.70645  23431819.3914   23431826.5164
     -2150.1454      -1675.4394
  20688151.4724  -25854603.36748 -19839989.55047  20688149.9714   20688154.1634
      3040.0844       2368.8974
  20719740.1074  -38336199.00049 -29529074.09747  20719738.2334   20719740.1454
     -1068.7744       -832.8104
  22300317.5574  -18216265.22448 -13566391.97746  22300316.5074   22300322.8274
     -1628.7704      -1269.1714
  19437669.7544  -35538905.23849 -25635134.69747  19437667.3054   19437672.6764
      -569.6234       -443.8634
  22324833.5634  -26800167.79148 -20524754.32646  22324832.0284   22324837.1194
     -1273.8274       -992.5904
  21668908.4044  -15035676.71548 -10695868.48446  21668906.2484   21668911.1254
      4512.3134       3516.0844
  23932571.0464   -7342663.70547  -4712699.19745  23932570.3294   23932575.0144
      3493.8674       2722.4904
 04 12 11  2  7 29.9960000  0 10G29G17G 5G 6G 2G30G10G24G26G21
  21069198.7344  -16528714.47048 -12554234.88146  21069197.4214   21069202.1394
      3595.1204       2801.3904
  19951279.1914  -38938904.77549 -29750057.01847  19951277.1254   19951281.7094
       564.2324        439.6614
  23444099.3044  -14895658.33047 -11271563.07445  23444097.3274   23444103.6554
     -2149.7494      -1675.1294
  20670834.9064  -25945602.58048 -19910898.02847  20670833.4744   20670837.5544
      3027.8334       2359.3514
  20725864.8944  -38304012.40449 -29503993.64147  20725863.2064   20725865.2754
     -1075.7934       -838.2794
  22309644.9194  -18167254.32648 -13528201.70946  22309643.6024   22309648.1384
     -1637.3244      -1275.8364
  19440963.1574  -35521599.27649 -25621649.53547  19440960.8484   19440966.0514
      -582.8524       -454.1714
  22332119.0444  -26761884.15648 -20494922.95446  22332117.2484   22332122.4264
     -1277.1744       -995.2014
  21643171.9154  -15170922.58648 -10801254.83446  21643170.4364   21643175.3944
      4505.3034       3510.6274
  23912628.1174   -7447473.84247  -4794369.46245  23912626.1694   23912629.3704
      3494.7534       2723.1844
 04 12 11  2  7 59.9960000  0 10G29G17G 5G 6G 2G30G10G24G26G21
  21048702.3424  -16636424.68648 -12638164.87946  21048700.5914   21048706.0694
      3586.9564       2795.0294
  19948071.1324  -38955761.60349 -29763192.21147  19948069.2644   19948073.9444
       560.7984        436.9864
  23456364.7794  -14831203.06747 -11221338.23845  23456363.0524   23456369.0254
     -2145.9354      -1672.1634
  20653580.2474  -26036279.64248 -19981555.47147  20653578.3584   20653582.6304
      3018.6784       2352.2174
  20732021.7804  -38271664.27349 -29478787.32247  20732018.9624   20732020.9484
     -1079.5154       -841.1794
  22319010.2584  -18118035.78148 -13489849.63146  22319009.0954   22319014.4654
     -1642.5304      -1279.8924
  19444322.7124  -35503945.78149 -25607893.57147  19444320.2144   19444325.4784
      -592.7484       -461.8824
  22339414.6324  -26723547.50948 -20465050.26146  22339412.2014   22339417.7044
     -1277.2664       -995.2734
  21617465.6044  -15306005.57248 -10906514.27146  21617464.1104   21617469.9864
      4501.4744       3507.6404
  23892668.1024   -7552359.07947  -4876098.18145  23892666.4504   23892669.1304
      3498.9014       2726.4124
 04 12 11  2  8 29.9960000  0 10G29G17G 5G 6G 2G30G10G24G26G21
  21028269.1554  -16743803.38248 -12721836.54546  21028266.9124   21028272.4194
      3573.3394       2784.4204
  19944899.3654  -38972430.33549 -29776180.83547  19944897.3004   19944902.1744
       552.0794        430.1914
  23468624.2924  -14766776.76047 -11171135.94745  23468622.3474   23468628.6674
     -2147.4404      -1673.3314
  20636393.2604  -26126597.15448 -20051932.74947  20636391.6724   20636395.8244
      3004.1524       2340.8974
  20738214.3814  -38239119.29049 -29453427.60647  20738212.3194   20738214.5794
     -1088.5334       -848.2074
  22328421.9134  -18068577.44548 -13451310.68746  22328420.8354   22328425.6664
     -1652.9794      -1288.0344
  19447754.7634  -35485911.41549 -25593840.82447  19447752.3474   19447757.3214
      -607.8484       -473.6464
  22346725.4494  -26685122.58048 -20435108.79146  22346723.8334   22346729.9334
     -1282.7094       -999.5134
  21591798.3484  -15440886.72448 -11011616.43446  21591797.0604   21591802.6714
      4492.2184       3500.4294
  23872703.6984   -7657283.82547  -4957857.65145  23872700.7084   23872704.8354
      3497.7994       2725.5524
 04 12 11  2  8 59.9960000  0 10G29G17G 5G 6G 2G30G10G24G26G21
  21007907.4094  -16850805.89848 -12805215.09746  21007905.1984   21007910.1314
      3560.7844       2774.6354
  19941771.6594  -38988868.50349 -29788989.80047  19941769.1884   19941774.2314
       544.4234        424.2274
  23480886.9614  -14702340.74547 -11120926.13345  23480884.7344   23480889.8884
     -2147.6864      -1673.5184
  20619282.0244  -26216511.50748 -20121995.87647  20619280.9364   20619285.4134
      2990.7744       2330.4734
  20744451.6024  -38206335.92549 -29427882.13847  20744450.2154   20744452.5914
     -1096.4564       -854.3804
  22337887.5264  -18018840.74748 -13412554.83946  22337885.9824   22337890.8284
     -1662.0984      -1295.1414
  19451266.1974  -35467456.59549 -25579460.44947  19451264.0804   19451268.7804
      -621.8264       -484.5404
  22354062.8594  -26646567.62248 -20405065.99946  22354060.9084   22354066.2624
     -1287.0084      -1002.8614
  21566179.1854  -15575521.07048 -11116526.30246  21566177.7844   21566181.3684
      4483.9914       3494.0224
  23852737.1214   -7762206.47447  -5039615.49245  23852734.3984   23852738.3004
      3497.7534       2725.5264
 04 12 11  2  9 29.9960000  0 10G29G17G 5G 6G 2G30G10G24G26G21
  20987612.7104  -16957452.18648 -12888316.07946  20987611.1254   20987615.8874
      3549.8334       2766.1044
  19938682.1934  -39005098.59249 -29801636.62247  19938680.4904   19938685.6884
       538.3954        419.5284
  23493144.0344  -14637920.25947 -11070728.38845  23493142.7654   23493149.8214
     -2146.2054      -1672.3664
  20602246.1004  -26306042.77448 -20191760.48047  20602244.0874   20602248.9114
      2978.9124       2321.2304
  20750732.4134  -38173337.32949 -29402168.96147  20750729.7574   20750732.3144
     -1102.6484       -859.2054
  22347400.1624  -17968851.64248 -13373602.29846  22347398.5234   22347403.0414
     -1669.5674      -1300.9584
  19454854.0124  -35448606.38249 -25564771.97247  19454851.2674   19454855.4304
      -634.0084       -494.0324
  22361420.9594  -26607905.08148 -20374939.37046  22361419.0594   22361422.7814
     -1289.6714      -1004.9384
  21540603.6794  -15709927.73648 -11221258.77746  21540601.1784   21540605.6824
      4477.2874       3488.7964
  23832765.4564   -7867149.77346  -5121389.45944  23832761.7684   23832765.8214
      3499.2504       2726.6804
 04 12 11  2  9 59.9960000  0 10G29G17G 5G 6G 2G30G10G24G26G21
  20967388.9964  -17063731.38148 -12971131.00446  20967386.8864   20967391.5694
      3536.2404       2755.5124
  19935635.8074  -39021111.94749 -29814114.56647  19935633.7314   19935638.6014
       529.8414        412.8634
  23505403.6684  -14573510.21947 -11020538.78045  23505400.3234   23505406.1044
     -2147.0934      -1673.0584
  20585283.2964  -26395181.03048 -20261218.85447  20585281.1484   20585285.7114
      2964.4374       2309.9514
  20757053.4424  -38140115.50349 -29376281.83947  20757051.4654   20757054.1914
     -1111.4444       -866.0594
  22356961.0844  -17918605.25648 -13334449.29246  22356959.9564   22356964.8984
     -1679.4314      -1308.6474
  19458517.6724  -35429354.90649 -25549770.82147  19458514.8094   19458518.4264
      -648.6804       -505.4654
  22368800.2134  -26569126.92648 -20344722.64246  22368797.6144   22368803.1484
     -1294.8394      -1008.9654
  21515070.1394  -15844095.34248 -11325804.91246  21515068.9064   21515074.6874
      4467.9424       3481.5084
  23812791.9494   -7972105.49347  -5203173.14545  23812790.8124   23812794.0234
      3498.4884       2726.0854
 04 12 11  2 10 29.9960000  0 10G29G17G 5G 6G 2G30G10G24G26G21
  20947233.2104  -17169648.65948 -13053663.92646  20947231.2124   20947236.5094
      3524.3864       2746.2744
  19932629.3044  -39036915.91649 -29826429.35147  19932626.4074   19932631.1124
       523.2224        407.7054
  23517655.3654  -14509121.36247 -10970365.66745  23517653.1774   23517659.1444
     -2146.0284      -1672.2294
  20568394.1544  -26483931.81348 -20330375.30347  20568392.6104   20568397.0954
      2951.8404       2300.1374
  20763416.6544  -38106678.17549 -29350226.79947  20763414.6734   20763417.4324
     -1118.2894       -871.3934
  22366569.6904  -17868112.52548 -13295104.32546  22366567.7004   22366573.3494
     -1687.2214      -1314.7174
  19462254.9754  -35409712.21749 -25534464.82447  19462252.4944   19462255.7694
      -661.3364       -515.3274
  22376199.6564  -26530240.61548 -20314421.64946  22376197.5964   22376202.3344
     -1298.1314      -1011.5294
  21489584.0194  -15978028.22248 -11430168.14346  21489582.6004   21489588.2014
      4460.4064       3475.6414
  23792819.8044   -8077081.56547  -5284972.55645  23792815.3704   23792819.8744
      3499.5024       2726.8784
 04 12 11  2 10 59.9960000  0 10G29G17G 5G 6G 2G30G10G24G26G21
  20927144.0674  -17275218.81148 -13135926.34546  20927142.5464   20927147.3894
      3513.2844       2737.6214
  19929657.4264  -39052528.02949 -29838594.63447  19929655.4164   19929660.2774
       517.2324        403.0384
  23529900.7994  -14444774.34247 -10920225.16445  23529898.1974   23529904.3784
     -2144.1264      -1670.7464
  20551576.6184  -26572310.40448 -20399241.74447  20551575.0414   20551579.7034
      2939.8224       2290.7704
  20769816.5984  -38073043.55749 -29324018.02047  20769815.0544   20769817.5804
     -1124.3784       -876.1394
  22376220.2554  -17817394.46248 -13255583.80446  22376219.0244   22376224.1994
     -1694.2414      -1320.1834
  19466063.2314  -35389698.17949 -25518869.46547  19466060.9154   19466064.5834
      -673.2224       -524.5884
  22383615.8324  -26491263.75248 -20284050.09846  22383613.9084   22383620.6674
     -1300.7414      -1013.5604
  21464141.1264  -16111740.56748 -11534359.57746  21464138.3624   21464143.2164
      4453.4374       3470.2114
  23772834.0334   -8182095.20747  -5366801.30545  23772833.0874   23772836.6054
      3501.1164       2728.1434
 04 12 11  2 11 29.9960000  0 10G29G17G 5G 6G 2G30G10G24G26G21
  20907125.3324  -17380415.27948 -13217897.59546  20907123.7914   20907129.0074
      3500.2604       2727.4744
  19926728.5594  -39067923.86249 -29850591.39147  19926725.8914   19926730.6504
       509.5254        397.0324
  23542140.0374  -14380448.30547 -10870101.04145  23542137.9124   23542146.0034
     -2143.8414      -1670.5244
  20534835.0324  -26660290.94548 -20467798.00547  20534832.9084   20534837.2384
      2925.9904       2279.9924
  20776259.6374  -38039188.01149 -29297637.09147  20776257.7914   20776260.3994
     -1132.2914       -882.3044
  22385919.4694  -17766430.34148 -13215871.53146  22385918.3944   22385922.1324
     -1702.8594      -1326.9014
  19469946.2784  -35369291.08349 -25502967.83147  19469943.9104   19469947.7524
      -686.8174       -535.1834
  22391055.1804  -26452172.71148 -20253589.57646  22391053.3614   22391058.5074
     -1304.9714      -1016.8604
  21438741.6834  -16245205.11848 -11638357.93346  21438741.2114   21438744.7194
      4444.5794       3463.3064
  23752847.2664   -8287122.90947  -5448641.10545  23752846.0364   23752848.7664
      3501.1154       2728.1484
 04 12 11  2 11 59.9960000  0 10G29G17G 5G 6G 2G30G10G24G26G21
  20887167.2844  -17485296.19748 -13299622.94746  20887165.3624   20887170.4734
      3491.8744       2720.9404
  19923827.8164  -39083163.85349 -29862466.70947  19923825.9324   19923830.5654
       506.5084        394.6824
  23554364.9954  -14316206.89847 -10820042.85145  23554363.3754   23554368.7684
     -2138.8354      -1666.6224
  20518156.7694  -26747932.36948 -20536090.03247  20518155.4284   20518160.4824
      2916.8824       2272.8944
  20782732.5154  -38005172.53949 -29271131.54447  20782730.5044   20782732.9784
     -1135.3934       -884.7214
  22395652.0114  -17715284.19348 -13176017.40146  22395651.0144   22395655.0304
     -1706.6724      -1329.8764
  19473892.4664  -35348553.96549 -25486809.03747  19473890.2294   19473894.1164
      -695.5644       -541.9984
  22398505.1834  -26413028.41048 -20223087.56146  22398502.3714   22398507.8364
     -1304.5634      -1016.5384
  21413379.6904  -16378479.43048 -11742208.01246  21413378.4984   21413384.2094
      4440.4164       3460.0644
  23732846.6254   -8392225.35947  -5530538.96445  23732844.8204   23732849.0084
      3505.7864       2731.7754
 04 12 11  2 12 29.9960000  0 10G29G17G 5G 6G 2G30G10G24G26G21
  20867275.2494  -17589828.27848 -13381076.47746  20867274.0304   20867278.4744
      3477.9814       2710.1144
  19920963.5064  -39098216.95749 -29874196.40047  19920961.3034   19920965.8654
       498.0564        388.0964
  23566579.8134  -14252022.05447 -10770028.69545  23566577.5634   23566583.6864
     -2139.1034      -1666.8314
  20501549.2854  -26835201.51848 -20604091.96047  20501547.7464   20501553.3934
      2902.1954       2261.4504
  20789242.1004  -37970966.64748 -29244477.62447  20789240.0624   20789241.9714
     -1143.9674       -891.4024
  22405424.9854  -17663928.61848 -13136000.08346  22405423.3524   22405428.6834
     -1715.8874      -1337.0544
  19477906.3614  -35327458.71649 -25470371.18147  19477904.2394   19477909.0754
      -709.6954       -553.0094
  22405968.8534  -26373800.00448 -20192520.01246  22405966.9424   22405972.5424
     -1309.6124      -1020.4774
  21388063.0414  -16511529.17248 -11845883.08446  21388061.0424   21388066.2734
      4430.6074       3452.4224
  23712838.8144   -8497371.62547  -5612471.09245  23712837.1094   23712842.6104
      3505.0434       2731.2074
 04 12 11  2 12 59.9960000  0 10G29G17G 5G 6G 2G30G10G24G26G21
  20847458.4334  -17693968.40248 -13462224.60546  20847456.7564   20847460.5644
      3465.7124       2700.5534
  19918142.0764  -39113042.26449 -29885748.58647  19918139.8734   19918144.8024
       491.2904        382.8234
  23578789.2004  -14187856.40447 -10720029.50345  23578787.6814   23578793.5084
     -2137.6154      -1665.6764
  20485021.9444  -26922055.97748 -20671770.76347  20485020.1344   20485024.9094
      2889.1464       2251.2814
  20795794.5104  -37936530.36348 -29217644.16647  20795792.6704   20795794.8264
     -1150.7854       -896.7164
  22415244.0844  -17612326.48748 -13095790.65346  22415242.8634   22415248.6874
     -1723.1824      -1342.7394
  19481996.5764  -35305967.30649 -25453624.63047  19481994.2894   19481998.9004
      -722.0434       -562.6314
  22413456.3944  -26334446.73748 -20161855.14046  22413455.5164   22413461.3834
     -1312.9414      -1023.0744
  21362795.3474  -16644310.70448 -11949349.17846  21362794.2974   21362799.5134
      4422.4474       3446.0634
  23692827.7634   -8602521.74447  -5694406.28145  23692825.0034   23692829.2634
      3506.0114       2731.9554
 04 12 11  2 13 29.9960000  0 10G29G17G 5G 6G 2G30G10G24G26G21
  20827710.9444  -17797747.00148 -13543091.01346  20827708.4034   20827712.6714
      3452.7684       2690.4674
  19915358.0454  -39127672.49949 -29897148.77247  19915355.9914   19915360.5884
       483.9074        377.0704
  23590991.3124  -14123745.87747 -10670073.27445  23590987.4144   23590994.1504
     -2136.5824      -1664.8674
  20468566.9064  -27008526.70548 -20739150.54947  20468565.6424   20468569.8324
      2875.4834       2240.6364
  20802384.8014  -37901896.89948 -29190657.06647  20802382.9774   20802385.4014
     -1158.2184       -902.5074
  22425102.2514  -17560514.08148 -13055417.37946  22425101.4114   22425106.8814
     -1731.0284      -1348.8524
  19486154.9604  -35284114.81349 -25436596.71647  19486152.7434   19486157.4274
      -734.8884       -572.6404
  22420963.2924  -26295001.80648 -20131118.85946  22420961.7964   22420967.1874
     -1316.8494      -1026.1124
  21337572.5554  -16776853.64948 -12052629.37546  21337571.4874   21337576.0674
      4413.5984       3439.1654
  23672812.6014   -8707708.28047  -5776369.75045  23672810.1334   23672813.0804
      3506.3424       2732.2084
 04 12 11  2 13 59.9960000  0 10G29G17G 5G 6G 2G30G10G24G26G21
  20808041.7994  -17901103.92048 -13623628.80946  20808040.5654   20808045.4234
      3437.5924       2678.6424
  19912621.9834  -39142049.92849 -29908351.96247  19912619.8894   19912624.7054
       474.3994        369.6624
  23603188.8734  -14059636.10647 -10620117.64745  23603186.7244   23603193.7664
     -2137.5344      -1665.6134
  20452196.5644  -27094554.44948 -20806185.15547  20452195.0204   20452199.5034
      2859.6074       2228.2644
  20809024.2964  -37867009.23548 -29163471.88147  20809021.9424   20809024.8504
     -1167.7864       -909.9634
  22435013.7684  -17508437.31148 -13014838.09846  22435011.7004   22435016.5524
     -1740.8384      -1356.4984
  19490393.2164  -35261846.14749 -25419244.50947  19490390.5694   19490395.2104
      -749.7974       -584.2574
  22428497.9724  -26255407.82348 -20100266.42946  22428496.4454   22428501.7604
     -1322.9054      -1030.8334
  21312407.4304  -16909097.37448 -12155676.40946  21312405.7254   21312410.0174
      4402.4524       3430.4814
  23652801.4074   -8812874.06847  -5858317.09045  23652799.7434   23652801.5714
      3504.6004       2730.8594
 04 12 11  2 14 29.9960000  0 10G29G17G 5G 6G 2G30G10G24G26G21
  20788447.5514  -18004071.83848 -13703863.49146  20788445.8414   20788451.5154
      3425.9694       2669.5854
  19909927.4854  -39156209.39949 -29919385.31747  19909925.3174   19909930.2644
       468.4944        365.0604
  23615381.8544  -13995565.09347 -10570192.25845  23615379.5444   23615386.2564
     -2134.8864      -1663.5464
  20435904.5454  -27180172.00748 -20872900.14047  20435903.0624   20435907.0714
      2847.2814       2218.6614
  20815704.1984  -37831902.63748 -29136116.10247  20815702.6384   20815705.4544
     -1173.7114       -914.5804
  22444965.5264  -17456134.78748 -12974082.89146  22444964.7844   22444970.1524
     -1746.9594      -1361.2684
  19494702.8314  -35239198.86549 -25401597.28147  19494700.3614   19494704.6404
      -761.0294       -593.0104
  22436054.2054  -26215699.76248 -20069325.12346  22436052.5534   22436058.2914
     -1325.3054      -1032.7044
  21287292.8184  -17041073.58548 -12258514.98746  21287291.6244   21287296.5214
      4394.8754       3424.5764
  23632785.7384   -8918054.49847  -5940275.88545  23632782.0114   23632787.1174
      3506.4204       2732.2724
 04 12 11  2 14 59.9960000  0 10G29G17G 5G 6G 2G30G10G24G26G21
  20768924.4364  -18106666.50748 -13783807.35146  20768922.5654   20768927.9284
      3413.4454       2659.8274
  19907271.3324  -39170168.63849 -29930262.64547  19907269.0474   19907273.9804
       461.8054        359.8484
  23627562.9344  -13931553.80047 -10520313.38345  23627560.0674   23627567.5414
     -2132.9334      -1662.0184
  20419687.5814  -27265395.81848 -20939308.30947  20419685.7524   20419690.0024
      2834.0514       2208.3524
  20822423.4194  -37796595.90948 -29108604.38647  20822421.5024   20822424.2244
     -1180.3834       -919.7794
  22454958.8494  -17403627.98248 -12933168.52246  22454956.9964   22454961.6364
     -1753.7424      -1366.5534
  19499080.1034  -35216193.70449 -25383671.18347  19499077.9104   19499082.3624
      -772.9184       -602.2734
  22443629.5884  -26175896.04548 -20038309.28946  22443627.5654   22443631.9024
     -1328.5424      -1035.2264
  21262227.4794  -17172797.30048 -12361156.80646  21262226.0644   21262231.2034
      4386.3784       3417.9564
  23612762.9224   -9023267.91847  -6022260.24345  23612761.0124   23612766.1074
      3507.5044       2733.1084
