     2.10           OBSERVATION DATA    G (GPS)             RINEX VERSION / TYPE
teqc  2003Apr29                         20031029 00:18:20UTCPGM / RUN BY / DATE
Solaris 2.7|Ultra 2|cc SC5.0|=+-|*Sparc                     COMMENT
Linux 2.0.36|Pentium II|gcc -static|Linux|486/DX+           COMMENT
BIT 2 OF LLI FLAGS DATA COLLECTED UNDER A/S CONDITION       COMMENT
KOUR                                                        MARKER NAME
97301M210                                                   MARKER NUMBER
AUTOMATIC           ESA/ESOC                                OBSERVER / AGENCY
LP019995005         ASHTECH Z-XII3      CD00                REC # / TYPE / VERS
CR520014804         ASH701945C_M    NONE                    ANT # / TYPE
  3839591.4332 -5059567.5514   579956.9164                  APPROX POSITION XYZ
        0.0450        0.0000        0.0000                  ANTENNA: DELTA H/E/N
     1     1                                                WAVELENGTH FACT L1/2
     9    L1    L2    C1    P2    P1    D1    D2    S1    S2# / TYPES OF OBSERV
    30.0000                                                 INTERVAL
 SNR is mapped to RINEX snr flag value [1-9]                COMMENT
  L1: 1 -> 1;  90 -> 5; 210 -> 9                            COMMENT
  L2: 1 -> 1; 150 -> 5; 250 -> 9                            COMMENT
pseudorange smoothing corrections applied                   COMMENT
Checked by ROCK 1.0 [28.10.03-00:27]; status 2: file fixed  COMMENT
  2003    10    28     0     0    0.000000                  TIME OF FIRST OBS
    28                                                      # OF SATELLITES
   G01  1243  1243  1244  1174  1186  1243  1243  1243  1243PRN / # OF OBS
   G02  1138  1138  1138  1127  1130  1138  1138  1138  1138PRN / # OF OBS
   G03   818   817   816   800   802   818   817   818   817PRN / # OF OBS
   G04  1185  1185  1186  1107  1124  1185  1185  1185  1185PRN / # OF OBS
   G05   614   614   614   611   614   614   614   614   614PRN / # OF OBS
   G06   572   572   572   557   559   572   572   572   572PRN / # OF OBS
   G07   679   671   669   633   637   679   671   679   671PRN / # OF OBS
   G08  1259  1259  1260  1141  1154  1259  1259  1259  1259PRN / # OF OBS
   G09   656   655   655   644   649   656   655   656   655PRN / # OF OBS
   G10  1067  1067  1066  1012  1023  1067  1067  1067  1067PRN / # OF OBS
   G11   732   732   727   651   649   732   732   732   732PRN / # OF OBS
   G13  1231  1231  1231  1220  1223  1231  1231  1231  1231PRN / # OF OBS
   G14   656   656   656   644   647   656   656   656   656PRN / # OF OBS
   G15  1136  1136  1137  1120  1122  1136  1136  1136  1136PRN / # OF OBS
   G16  1062  1062  1063  1021  1022  1062  1062  1062  1062PRN / # OF OBS
   G17   575   575   574   546   547   575   575   575   575PRN / # OF OBS
   G18   627   627   627   611   612   627   627   627   627PRN / # OF OBS
   G20  1115  1115  1117  1025  1051  1115  1115  1115  1115PRN / # OF OBS
   G21   899   893   889   749   749   899   893   899   893PRN / # OF OBS
   G23   635   635   636   608   613   635   635   635   635PRN / # OF OBS
   G24   645   640   633   629   625   645   640   645   640PRN / # OF OBS
   G25   936   936   935   912   910   936   936   936   936PRN / # OF OBS
   G26   919   919   921   851   866   919   919   919   919PRN / # OF OBS
   G27  1222  1222  1220  1092  1139  1222  1222  1222  1222PRN / # OF OBS
   G28   767   767   767   679   703   767   767   767   767PRN / # OF OBS
   G29   709   709   710   694   698   709   709   709   709PRN / # OF OBS
   G30   626   626   626   626   626   626   626   626   626PRN / # OF OBS
   G31   860   859   859   817   827   860   859   860   859PRN / # OF OBS
Checked by ROCK 1.0 [29.10.03-00:19]; status 0: file OK     COMMENT
                                                            END OF HEADER
 03 10 28  0  0  0.0000000  0  8G27G 1G 8G13G 4G20G11G28
  -8444973.92048   2038917.98446  21554540.5664   21554551.0134   21554540.4344
     -1708.9994      -1331.6974        166.0004        175.0004
   3707689.21146   -522229.93845  24088296.1204   24088300.6974   24088295.4524
       549.2364        427.9794        124.0004        141.0004
  -5729271.73048    338752.20746  21811631.0794   21811645.0154   21811630.5964
      -647.7204       -504.7344        170.0004        187.0004
   4159354.73946   3245694.66445  24231247.3944   24231252.6144   24231247.4794
       843.6594        657.3934        123.0004        140.0004
  -3452950.74047   -113006.51145  23171301.6944   23171306.9084   23171277.5234
      1462.3234       1139.4794        137.0004        150.0004
 -10202927.40348  -7932344.20247  21244370.4964   21244376.4454   21244370.1164
      -652.1104       -508.1214        184.0004        200.0004
    519062.78946   4942143.14145  23455125.3494   23455139.1904   23455125.8534
     -2516.2274      -1960.7044        131.0004        138.0004
  -3185937.10247  -1406750.81146  22627115.9764   22627134.8314   22627115.7264
      3152.2924       2456.3354        148.0004        163.0004
 03 10 28  0  0 30.0000000  0  8G27G 1G 8G13G 4G20G11G28
  -8393599.06748   2078950.84046  21564316.8434   21564327.3644   21564316.6964
     -1716.0724      -1337.2094        165.0004        178.0004
   3691142.79546   -535123.23345  24085147.2334   24085152.0384   24085146.8924
       553.8624        431.5814        121.0004        138.0004
  -5709638.81648    354050.70346  21815367.0394   21815381.3544   21815366.5804
      -661.1074       -515.2024        168.0004        181.0004
   4133923.32446   3225878.10845  24226407.9974   24226413.0814   24226407.9484
       851.7754        663.7154        130.0004        146.0004
  -3496622.85846   -147036.99845  23162991.2364   23163003.7924   23162991.0374
      1449.0804       1129.1454        130.0004        149.0004
 -10183093.21648  -7916888.98847  21248144.7144   21248150.6034   21248144.3204
      -670.2084       -522.2314        183.0004        192.0004
    594506.66646   5000930.55445  23469481.8854   23469495.7174   23469482.1004
     -2513.3584      -1958.4854        129.0004        145.0004
  -3280421.04447  -1480374.67646  22609136.4054   22609154.4924   22609136.0484
      3146.6194       2451.9234        153.0004        170.0004
 03 10 28  0  1  0.0000000  0  8G27G 1G 8G13G 4G20G11G28
  -8342009.26647   2119151.34246  21574133.9574   21574144.5464   21574133.8104
     -1723.2124      -1342.7924        164.0004        178.0004
   3674456.37346   -548125.71945  24081971.7714   24081977.0164   24081971.5344
       558.5704        435.2474        121.0004        139.0004
  -5689606.42248    369661.16646  21819178.9414   21819193.5284   21819178.4444
      -674.2564       -525.4064        166.0004        176.0004
   4108247.48846   3205870.98645  24221521.8834   24221527.3024   24221521.9634
       859.9614        670.0934        126.0004        138.0004
  -3539898.15947   -180757.46146  23154756.3054   23154767.2614   23154756.4814
      1436.0104       1118.9584        150.0004        173.0004
 -10162720.90448  -7901014.58446  21252021.3654   21252027.2294   21252020.9874
      -688.1724       -536.2374        183.0004        187.0004
    669866.49547   5059652.57245  23483822.5914   23483836.8474   23483822.3844
     -2510.5434      -1956.2494        136.0004        148.0004
  -3374733.98447  -1553865.67346  22591189.3034   22591207.6884   22591188.9684
      3140.7654       2447.3454        152.0004        168.0004
 03 10 28  0  1 30.0000000  0  8G27G 1G 8G13G 4G20G11G28
  -8290208.16847   2159516.53346  21583991.1364   21584001.8864   21583990.9804
     -1730.3514      -1348.3474        164.0004        175.0004
   3657631.77146   -561235.83145  24078770.1354   24078775.1824   24078770.0504
       563.0554        438.7404        120.0004        138.0004
  -5669177.27348    385580.75446  21823066.1974   21823080.7074   21823065.7394
      -687.6114       -535.8634        167.0004        179.0004
   4082328.38046   3185674.39345  24216589.4564   24216594.6294   24216589.4504
       867.9004        676.2774        120.0004        135.0004
  -3582779.78947   -214171.54545  23146596.0974   23146609.6324   23146596.1134
      1422.9514       1108.7824        145.0004        161.0004
 -10141810.50348  -7884720.78347  21256000.4704   21256006.2084   21256000.0434
      -706.0274       -550.1684        184.0004        189.0004
    745141.12946   5118307.76845  23498146.8664   23498162.1974   23498146.7074
     -2507.6964      -1954.0394        132.0004        148.0004
  -3468872.21247  -1627220.11946  22573275.4674   22573293.0434   22573275.1484
      3135.0444       2442.8924        154.0004        170.0004
 03 10 28  0  2  0.0000000  0  8G27G 1G 8G13G 4G20G11G28
  -8238198.34047   2200044.31746  21593888.0644   21593898.6104   21593887.8574
     -1737.0944      -1353.5984        164.0004        174.0004
   3640670.85446   -574452.07545  24075542.7274   24075547.3664   24075542.5484
       567.6264        442.2994        123.0004        141.0004
  -5648351.79547    401810.72046  21827028.7094   21827043.3684   21827028.2574
      -700.3654       -545.8034        164.0004        173.0004
   4056166.90646   3165288.96145  24211610.9214   24211616.2014   24211610.9094
       876.1634        682.7204        125.0004        144.0004
  -3625267.44547   -247278.65546  23138510.8834   23138523.9394   23138510.9784
      1409.7594       1098.5264        149.0004        166.0004
 -10120361.91748  -7868007.54147  21260081.9524   21260087.6924   21260081.5544
      -723.8244       -564.0214        184.0004        200.0004
    820328.57946   5176895.14545  23512454.6344   23512470.4524   23512454.4824
     -2504.6774      -1951.6724        127.0004        134.0004
  -3562833.18847  -1700436.66546  22555395.2874   22555413.3134   22555395.1984
      3129.1424       2438.2844        153.0004        170.0004
 03 10 28  0  2 30.0000000  0  8G27G 1G 8G13G 4G20G11G28
  -8185983.14747   2240732.01546  21603823.9224   21603834.6034   21603823.7104
     -1743.6504      -1358.6984        164.0004        177.0004
   3623574.86246   -587773.67145  24072289.4164   24072294.2814   24072289.1364
       572.2184        445.8934        120.0004        137.0004
  -5627135.80847    418343.59946  21831065.2044   21831081.9384   21831064.9154
      -713.4424       -555.9464        164.0004        179.0004
   4029763.31546   3144714.72645  24206586.3794   24206592.0654   24206586.3404
       884.2904        689.0584        121.0004        139.0004
  -3667359.44347   -280077.55645  23130501.0634   23130514.4894   23130501.1224
      1396.6564       1088.2864        143.0004        145.0004
 -10098376.01948  -7850875.79947  21264265.7064   21264271.4704   21264265.3134
      -741.6644       -577.9224        184.0004        198.0004
    895428.45247   5235414.20946  23526745.7934   23526761.8614   23526745.8544
     -2501.6594      -1949.3454        156.0004        181.0004
  -3656613.98147  -1773512.52046  22537549.4664   22537566.8074   22537549.3384
      3123.1644       2433.6384        155.0004        169.0004
 03 10 28  0  3  0.0000000  0  8G27G 1G 8G13G 4G20G11G28
  -8133564.21447   2281578.54646  21613798.5184   21613808.9964   21613798.3154
     -1750.6444      -1364.1704        162.0004        174.0004
   3606345.96346   -601198.80545  24069010.7904   24069015.7524   24069010.5394
       576.4904        449.2084        118.0004        136.0004
  -5605530.26148    435180.19246  21835175.8984   21835192.0814   21835175.5484
      -726.5624       -566.1564        167.0004        181.0004
   4003119.42846   3123953.28945  24201516.3144   24201521.7044   24201516.1284
       892.1554        695.1824        131.0004        149.0004
  -3709058.68846   -312570.53145  23122565.8024   23122578.6974   23122566.1374
      1383.4334       1078.0114        133.0004        152.0004
 -10075851.82448  -7833324.41947  21268551.8934   21268557.6574   21268551.5224
      -759.6534       -591.9384        185.0004        205.0004
    970437.92047   5293862.93845  23541019.8494   23541034.9304   23541019.8584
     -2498.8004      -1947.1104        147.0004        156.0004
  -3750210.45547  -1846444.63246  22519738.7094   22519755.8494   22519738.5454
      3116.8314       2428.6744        153.0004        169.0004
 03 10 28  0  3 30.0000000  0  8G27G 1G 8G13G 4G20G11G28
  -8080945.46047   2322580.91946  21623811.0964   21623821.6184   21623810.9224
     -1757.3724      -1369.4064        163.0004        177.0004
   3588985.29946   -614726.60345  24065707.2064   24065711.7314   24065707.1624
       580.7304        452.5164        122.0004        140.0004
  -5583539.20948    452316.34946  21839359.9374   21839375.5434   21839359.5944
      -739.5864       -576.3074        168.0004        184.0004
   3976235.49246   3103004.88945  24196400.2364   24196405.4954   24196400.1164
       900.1264        701.3844        122.0004        134.0004
  -3750363.98046   -344756.37244  23114705.6004   23114717.8224   23114705.9714
      1370.2424       1067.7264        123.0004        131.0004
 -10052790.29648  -7815354.32447  21272940.3094   21272946.1324   21272939.9744
      -777.7804       -606.0724        184.0004        198.0004
   1045355.69946   5352240.05845  23555276.4994   23555291.1574   23555276.5204
     -2495.7814      -1944.7464        134.0004        151.0004
  -3843621.30647  -1919231.80646  22501963.2204   22501980.1454   22501962.9764
      3110.5674       2423.8044        157.0004        172.0004
 03 10 28  0  4  0.0000000  0  8G27G 1G 8G13G 4G20G11G28
  -8028129.05647   2363737.28446  21633861.2294   21633871.6564   21633861.0694
     -1763.7694      -1374.3704        163.0004        177.0004
   3571495.01746   -628355.53445  24062379.0424   24062383.9534   24062379.0084
       585.1264        455.9474        123.0004        142.0004
  -5561162.01348    469753.85046  21843617.6364   21843632.4894   21843617.2404
      -752.2774       -586.2184        167.0004        186.0004
   3949112.42446   3081870.00645  24191238.8614   24191244.3064   24191238.7204
       908.0214        707.5584        116.0004        133.0004
  -3791276.12446   -376636.23945  23106920.3024   23106933.2244   23106920.7474
      1357.2234       1057.6114        127.0004        149.0004
 -10029191.65448  -7796966.00347  21277431.0154   21277436.7544   21277430.6464
      -795.5704       -619.8814        185.0004        202.0004
   1120180.92346   5410545.02445  23569515.2894   23569529.8204   23569515.1764
     -2492.5844      -1942.2654        134.0004        143.0004
  -3936840.99647  -1991869.72545  22484223.9414   22484240.4844   22484223.7234
      3103.8844       2418.5764        150.0004        161.0004
 03 10 28  0  4 30.0000000  0  8G27G 1G 8G13G 4G20G11G28
  -7975119.28447   2405043.66846  21643948.2854   21643958.8814   21643948.1384
     -1770.2434      -1379.4194        162.0004        174.0004
   3553876.75446   -642084.06645  24059026.5994   24059031.1634   24059026.4444
       589.3964        459.2734        124.0004        142.0004
  -5538403.62348    487487.64447  21847947.9354   21847962.3004   21847947.5684
      -764.9674       -596.1214        167.0004        188.0004
   3921751.42546   3060549.79645  24186032.1644   24186037.2994   24186032.1984
       915.9764        713.7344        118.0004        139.0004
  -3831793.91446   -408208.72745  23099210.0364   23099221.9984   23099210.6424
      1344.0074       1047.2724        130.0004        154.0004
 -10005056.10848  -7778159.27246  21282023.8974   21282029.6034   21282023.5084
      -813.5514       -633.9024        183.0004        186.0004
   1194911.01146   5468775.66544  23583736.1064   23583751.5954   23583736.2604
     -2489.5144      -1939.8664        118.0004        128.0004
  -4029867.14846  -2064356.27645  22466521.1264   22466528.2174   22466521.1634
      3097.6884       2413.7264        127.0004        145.0004
 03 10 28  0  5  0.0000000  0  8G27G 1G 8G13G 4G20G11G28
  -7921917.89047   2446499.18946  21654071.8644   21654082.4234   21654071.7194
     -1776.4944      -1384.2864        161.0004        175.0004
   3536132.51446   -655910.74845  24055649.9054   24055654.4994   24055649.5974
       593.6094        462.5504        121.0004        139.0004
  -5515263.32948    505519.73746  21852351.0124   21852365.1494   21852350.6244
      -777.4374       -605.8094        167.0004        184.0004
   3894153.82546   3039045.21445  24180780.5574   24180785.6694   24180780.5384
       924.0344        720.0264        122.0004        137.0004
  -3871918.57246   -439474.59745  23091574.5564   23091586.4994   23091574.9624
      1330.9104       1037.0944        124.0004        134.0004
  -9980382.84248  -7758933.38447  21286719.1184   21286724.7484   21286718.7464
      -831.2744       -647.7654        183.0004        205.0004
   1269545.13846   5526931.38045  23597938.7794   23597953.9624   23597938.9994
     -2486.1354      -1937.2184        131.0004        140.0004
  -4122698.27445  -2136690.58944  22448855.1134                   22448851.7604
      3091.1754       2408.6564         98.0004        110.0004
 03 10 28  0  5 30.0000000  0  8G27G 1G 8G13G 4G20G11G28
  -7868527.30247   2488102.51846  21664231.5414   21664241.5954   21664231.4544
     -1782.9054      -1389.2864        162.0004        177.0004
   3518263.47246   -669834.75445  24052249.6194   24052254.2624   24052249.2874
       597.6094        465.6774        122.0004        140.0004
  -5491744.94747    523846.31646  21856825.9164   21856840.0364   21856825.5094
      -790.3514       -615.8874        164.0004        174.0004
   3866319.71946   3017356.18945  24175483.8354   24175489.2034   24175484.0304
       931.6614        725.9774        118.0004        134.0004
  -3911651.25047   -470435.68545  23084013.6894   23084027.7614   23084013.6274
      1317.8274       1026.9224        137.0004        159.0004
  -9955172.85348  -7739289.06747  21291516.5024   21291522.2074   21291516.0864
      -849.4104       -661.8834        183.0004        198.0004
   1344082.80946   5585012.25745  23612123.2754   23612137.4084   23612123.7134
     -2483.1184      -1934.8834        134.0004        145.0004
  -4215331.33244  -2208870.45144  22431226.5464                   22431210.1284
      3084.3274       2403.3014         73.0004        107.0004
 03 10 28  0  6  0.0000000  0  8G27G 1G 8G13G 4G20G11G28
  -7814951.07447   2529850.32546  21674426.5594   21674436.5974   21674426.4604
     -1788.9074      -1393.9524        163.0004        177.0004
   3500271.60246   -683854.42845  24048825.9594   24048830.7134   24048825.7424
       601.7034        468.8594        123.0004        141.0004
  -5467851.21548    542465.44546  21861372.3044   21861386.2824   21861371.8504
      -802.8074       -625.5674        166.0004        177.0004
   3838251.05646   2995484.56845  24170142.3444   24170147.2624   24170142.9664
       939.4874        732.0644        116.0004        135.0004
  -3950989.41756   -501089.04944  23076528.1654   23076534.5814   23076528.2004
      1304.2344       1016.2984        121.0004        121.0004
  -9929426.41548  -7719226.62347  21296415.8564   21296421.6924   21296415.4534
      -867.0704       -675.6484        184.0004        205.0004
   1418519.85746   5643014.53345  23626288.4994   23626303.5654   23626288.1484
     -2479.5784      -1932.1354        124.0004        145.0004
  -4307763.26844  -2280893.53544  22413636.0084
      3077.6814       2398.0924         65.0004        106.0004
 03 10 28  0  6 30.0000000  0  8G27G 1G 8G13G 4G20G11G28
  -7761192.28947   2571739.82246  21684656.4104   21684666.4874   21684656.2854
     -1795.0344      -1398.7074        163.0004        176.0004
   3482158.91246   -697968.30145  24045379.2904   24045383.7894   24045378.8154
       605.7814        472.0454        120.0004        136.0004
  -5443583.59448    561375.73946  21865989.8224   21866003.1464   21865989.4384
      -815.1144       -635.1404        166.0004        184.0004
   3809949.04246   2973431.25045  24164756.5634   24164761.4994   24164757.2154
       947.2614        738.1154        126.0004        143.0004
  -3989935.94546   -531437.77345  23069116.8144   23069119.2354   23069117.8774
      1291.5564       1006.4224        120.0004        141.0004
  -9903144.67848  -7698747.69647  21301417.0344   21301422.9064   21301416.6444
      -884.8654       -689.4574        184.0004        199.0004
   1492857.75046   5700939.70844  23640435.1074   23640448.7524   23640434.6964
     -2476.3024      -1929.5774        116.0004        131.0004
  -4399991.49244    -25710.43743  22396084.1624
      3070.7684       2392.8064         74.0004         74.0004
 03 10 28  0  7  0.0000000  0  8G27G 1G 8G13G 4G20G11G28
  -7707252.70447   2613770.37946  21694920.7984   21694930.4244   21694920.6804
     -1801.0724      -1403.4314        161.0004        173.0004
   3463927.03046   -712175.01345  24041910.0654   24041914.3884   24041909.6414
       609.6974        475.0924        125.0004        141.0004
  -5418945.88348    580573.94346  21870677.8134   21870691.1124   21870677.4354
      -827.3944       -644.7184        165.0004        176.0004
   3781413.57446   2951195.79445  24159326.3784   24159331.9324   24159326.9724
       955.0914        744.2384        117.0004        133.0004
  -4028490.60345   -561480.80644  23061780.1524                   23061779.7404
      1278.7234        996.4264         88.0004        108.0004
  -9876327.93948  -7677852.23247  21306520.1864   21306525.9454   21306519.8074
      -902.8734       -703.5244        182.0004        189.0004
   1567093.17347   5758785.08945  23654562.0644   23654576.3784   23654561.8174
     -2472.6564      -1926.7344        139.0004        156.0004
  -4492012.11744    -97406.86144  22378571.6154
      3064.0094       2387.0174         74.0004        106.0004
 03 10 28  0  7 30.0000000  0  8G27G 1G 8G13G 4G20G11G28
  -7653135.23047   2655939.61246  21705219.1134   21705228.7154   21705218.9274
     -1806.7794      -1407.8904        162.0004        176.0004
   3445577.87146   -726473.08145  24038418.3014   24038422.7314   24038418.0854
       613.6104        478.1384        123.0004        140.0004
  -5393939.08348    600059.95746  21875436.1984   21875449.1574   21875435.7554
      -839.4714       -654.1914        166.0004        184.0004
   3752646.75146   2928780.13045  24153852.2934   24153857.2684   24153852.7544
       962.8914        750.2934        120.0004        138.0004
  -4066652.49846   -591217.61245  23054518.1904   23054508.1724   23054515.9914
      1265.6474        986.2094        121.0004        149.0004
  -9848975.61148  -7656539.43846  21311725.3654   21311731.0404   21311724.9864
      -920.6714       -717.3994        181.0004        178.0004
   1641225.22546   5816549.54645  23668669.2874   23668684.7424   23668669.0254
     -2469.2014      -1924.0314        129.0004        142.0004
  -4583824.60144   -168933.60644  22361098.4764
      3056.8534       2381.4474         74.0004        109.0004
 03 10 28  0  8  0.0000000  0  8G27G 1G 8G13G 4G20G11G28
  -7598843.39247   2698244.87346  21715550.4784   21715560.0734   21715550.3444
     -1812.7434      -1412.5214        162.0004        175.0004
   3427112.78346   -740861.47245  24034904.4764   24034908.9804   24034904.3734
       617.2794        480.9964        125.0004        143.0004
  -5368567.39047    619829.81146  21880264.0994   21880278.0074   21880263.6954
      -852.0394       -663.9214        162.0004        175.0004
   3723648.27646   2906183.97745  24148334.0224   24148339.1914   24148334.4374
       970.3504        756.1114        120.0004        134.0004
  -4104423.96146   -620649.91845  23047330.5854   23047326.8864   23047329.2824
      1252.3664        975.8484        128.0004        144.0004
  -9821088.58348  -7634809.87746  21317032.3574   21317038.0614   21317031.9594
      -938.5744       -731.3114        182.0004        186.0004
   1715252.12746   5874232.20445  23682756.4464   23682771.2914   23682756.6294
     -2465.9244      -1921.4794        126.0004        138.0004
  -4675424.01744    -19648.29343  22343665.9124
      3049.6544       2376.3534         74.0004         74.0004
 03 10 28  0  8 30.0000000  0  8G27G 1G 8G13G 4G20G11G28
  -7544379.33447   2740684.18046  21725914.6764   21725924.5474   21725914.6004
     -1818.3444      -1416.8774        162.0004        175.0004
   3408533.95146   -755338.48945  24031369.0694   24031373.5494   24031368.9774
       621.2424        484.0884        125.0004        140.0004
  -5342831.14947    639883.96946  21885161.3684   21885174.8164   21885160.9814
      -864.0394       -673.2734        164.0004        178.0004
   3694420.46746   2883409.03545  24142772.2424   24142777.3274   24142772.4664
       978.1124        762.1684        133.0004        154.0004
  -4141803.59447   -649776.48546  23040217.4214   23040217.3584   23040216.5444
      1239.5284        965.8574        143.0004        163.0004
  -9792666.38648  -7612663.30147  21322441.2374   21322447.0394   21322440.8394
      -956.2624       -745.1204        182.0004        201.0004
   1789172.99746   5931832.38744  23696823.4864   23696837.9534   23696823.5804
     -2462.2154      -1918.5864        118.0004        127.0004
  -4766810.66544    -90845.65644  22326273.9804
      3042.6454       2370.1724         74.0004        108.0004
 03 10 28  0  9  0.0000000  0  8G27G 1G 8G13G 4G20G11G28
  -7489746.54847   2783255.01446  21736311.0344   21736320.7294   21736310.9284
     -1823.8464      -1421.1784        163.0004        179.0004
   3389842.50746   -769903.28345  24027812.2684   24027816.9474   24027812.0034
       624.9374        486.9634        127.0004        146.0004
  -5316734.24348    660219.27946  21890127.3854   21890140.6544   21890126.9664
      -875.5974       -682.2654        167.0004        181.0004
   3664963.11546   2860455.30445  24137166.7034   24137171.5614   24137166.9814
       985.7284        768.0994        126.0004        140.0004
  -4178793.92147   -678600.18245  23033178.2094   23033183.2614   23033177.7564
      1226.4524        955.6784        143.0004        161.0004
  -9763709.21648  -7590099.18147  21327951.9424   21327957.8414   21327951.5084
      -974.0974       -759.0464        182.0004        195.0004
   1862985.64546   5989348.18144  23710870.0794   23710885.0994   23710869.9034
     -2458.7034      -1915.8574        111.0004        122.0004
  -4857979.32344   -161864.48744  22308923.7384
      3035.3464       2364.4684         74.0004        107.0004
 03 10 28  0  9 30.0000000  0  8G27G 1G 8G13G 4G20G11G28
  -7434947.58947   2825955.21346  21746739.0034   21746748.8874   21746738.9664
     -1829.3964      -1425.4844        161.0004        174.0004
   3371041.01146   -784553.85445  24024234.5024   24024239.0954   24024234.2224
       628.5964        489.8174        125.0004        141.0004
  -5290278.08747    680834.17546  21895161.7354   21895175.4174   21895161.2104
      -887.6884       -691.6604        163.0004        169.0004
   3635278.89446   2837324.79445  24131517.9384   24131522.7514   24131518.3234
       993.3934        774.0694        128.0004        145.0004
  -4215393.84047   -707119.63445  23026213.4584   23026220.5554   23026213.1584
      1213.6944        945.7514        146.0004        158.0004
  -9734217.74548  -7567118.45747  21333564.1394   21333570.2404   21333563.7064
      -991.9054       -772.9124        181.0004        191.0004
   1936690.46546   6046780.12745  23724895.9494   23724911.4424   23724895.5344
     -2454.9324      -1912.9304        126.0004        146.0004
  -4948926.36544    -13557.78943  22291615.9244
      3027.6284       2359.1904         74.0004         74.0004
 03 10 28  0 10  0.0000000  0  8G27G 1G 8G13G 4G20G11G28
  -7379984.26347   2868783.67246  21757198.3114   21757208.0224   21757198.3024
     -1834.8734      -1429.7744        162.0004        176.0004
   3352131.31446   -799288.76645  24020636.1224   24020640.7244   24020635.8964
       632.0914        492.5414        125.0004        140.0004
  -5263465.55247    701726.50546  21900264.0424   21900279.7234   21900263.6524
      -899.6144       -701.0104        160.0004        184.0004
   3605368.34146   2814018.02345  24125826.1244   24125830.9294   24125826.4044
      1000.8954        779.9194        130.0004        144.0004
  -4251603.62447   -735335.18445  23019322.9434   23019332.1774   23019322.7964
      1200.5254        935.4674        137.0004        147.0004
  -9704193.11848  -7543722.51747  21339277.7074   21339283.8834   21339277.2844
     -1009.6364       -786.7444        182.0004        199.0004
   2010283.95646   6104125.16345  23738900.7774   23738916.4054   23738900.2034
     -2451.0504      -1909.8744        128.0004        139.0004
  -5039646.92944    -84247.88345  22274351.3304
      3020.3954       2353.4464         74.0004        136.0004
 03 10 28  0 10 30.0000000  0  8G27G 1G 8G13G 4G20G11G28
  -7324860.41747   2911737.25746  21767688.2564   21767697.9104   21767688.1444
     -1840.3034      -1434.0154        160.0004        172.0004
   3333114.72146   -814106.97845  24017017.3214   24017022.2164   24017017.2464
       635.4874        495.1874        128.0004        144.0004
  -5236298.37947    722895.80846  21905433.9754   21905448.4014   21905433.5854
      -911.6054       -710.3514        164.0004        176.0004
   3575232.39947   2790535.44745  24120091.2984   24120096.6914   24120091.6404
      1008.1204        785.5464        137.0004        156.0004
  -4287422.88046   -763245.81944  23012506.8134                   23012506.4064
      1187.4654        925.2154        111.0004        119.0004
  -9673636.21448  -7519911.92447  21345092.5064   21345098.7574   21345092.0834
     -1027.6384       -800.7754        182.0004        195.0004
   2083765.67446   6161382.89445  23752884.1894   23752901.4904   23752883.7224
     -2447.6504      -1907.2494        115.0004        133.0004
  -5130140.26444   -154758.64844  22257129.8714
      3012.4644       2347.2424         64.0004        106.0004
 03 10 28  0 11  0.0000000  0  8G27G 1G 8G13G 4G20G11G28
  -7269578.01047   2954814.85846  21778208.1984   21778217.7554   21778208.0714
     -1845.4754      -1438.0464        161.0004        176.0004
   3313993.48646   -829006.68645  24013378.8024   24013383.5254   24013378.6704
       638.9774        497.9054        129.0004        145.0004
  -5208777.59147    744341.31846  21910671.0334   21910684.7634   21910670.6004
      -923.1844       -719.4444        162.0004        175.0004
   3544871.88346   2766877.90345  24114313.9324   24114319.1894   24114314.1614
      1015.6904        791.4374        131.0004        147.0004
  -4322853.04445   -790853.08244  23005764.4954                   23005766.0754
      1174.3774        915.0734         92.0004        119.0004
  -9642547.07348  -7495686.63047  21351008.5744   21351014.8674   21351008.1424
     -1045.0724       -814.3314        183.0004        197.0004
   2157134.60846   6218553.35245  23766846.3074   23766861.9194   23766845.8424
     -2443.8904      -1904.3244        125.0004        139.0004
  -5220403.26144   -225089.88844  22239952.0994
      3004.9104       2341.3704         65.0004        110.0004
 03 10 28  0 11 30.0000000  0  8G27G 1G 8G13G 4G20G11G28
  -7214141.13147   2998012.50146  21788757.4664   21788767.3334   21788757.3354
     -1850.2914      -1441.7924        161.0004        175.0004
   3294769.23246   -843986.64045  24009720.5524   24009725.2554   24009720.4194
       642.7014        500.8144        127.0004        141.0004
  -5180909.24347    766057.41146  21915974.0344   21915988.7564   21915973.6044
      -934.5944       -728.2664        161.0004        178.0004
   3514288.16546   2743046.37445  24108493.9114   24108499.3444   24108494.1904
      1023.2354        797.3294        133.0004        147.0004
  -4357895.48446   -818157.71144  22999095.8994   22999091.7684   22999097.3164
      1161.7824        905.2674        110.0004        130.0004
  -9610926.76348  -7471047.54347  21357025.7684   21357032.0334   21357025.3264
     -1062.6734       -828.0374        183.0004        195.0004
   2230388.11346   6275633.56444  23780786.3064   23780803.1974   23780786.3254
     -2439.6654      -1901.0034        114.0004        125.0004
  -5310432.62546   -295239.97745  22222818.6694   22222868.6834
      2997.2674       2335.4684        125.0004        155.0004
 03 10 28  0 12  0.0000000  0  8G27G 1G 8G13G 4G20G11G28
  -7158552.32347   3041328.48346  21799335.6224   21799345.5644   21799335.4574
     -1855.4334      -1445.7864        161.0004        175.0004
   3275444.00246   -859045.25645  24006043.1824   24006047.6864   24006042.9574
       645.8404        503.2484        127.0004        142.0004
  -5152694.35947    788043.22046  21921342.9404   21921357.7014   21921342.5174
      -946.1704       -737.3064        164.0004        183.0004
   3483482.45647   2719041.72845  24102631.8334   24102637.3504   24102632.0574
      1030.5134        802.9994        135.0004        151.0004
  -4392550.95145   -845161.16644  22992500.9624                   22992499.0074
      1148.8354        895.1934         87.0004        113.0004
  -9578775.95548  -7445995.25747  21363143.9144   21363150.1124   21363143.5214
     -1080.4464       -841.8924        183.0004        200.0004
   2303526.08446   6332623.60844  23794704.3164   23794721.8814   23794704.8624
     -2435.9394      -1898.1214        106.0004        122.0004
  -5400226.20847   -365207.13846  22205730.0684   22205755.8344   22205745.0534
      2989.0774       2329.1054        156.0004        179.0004
 03 10 28  0 12 30.0000000  0  8G27G 1G 8G13G 4G20G11G28
  -7102814.33647   3084760.33946  21809942.3194   21809952.4094   21809942.1064
     -1860.3644      -1449.6334        160.0004        173.0004
   3256019.58446   -874181.06345  24002346.6954   24002351.2004   24002346.5184
       649.1654        505.8414        127.0004        142.0004
  -5124135.37347    810297.60446  21926777.3114   21926790.6644   21926776.9014
      -957.4594       -746.0734        161.0004        176.0004
   3452455.74246   2694864.92845  24096727.6304   24096732.8344   24096727.8684
      1037.9444        808.7934        131.0004        144.0004
  -4426819.43545   -871863.12844  22985979.4884
      1135.7704        884.9854         80.0004        113.0004
  -9546094.26148  -7420529.11547  21369363.1314   21369369.4264   21369362.7414
     -1098.1944       -855.7254        181.0004        196.0004
   2376545.80146   6389521.72145  23808599.7084   23808616.1664   23808599.5964
     -2431.9254      -1895.0164        124.0004        147.0004
  -5489781.43547   -434988.82346  22188686.8804   22188691.3184   22188682.1454
      2981.2614       2323.0184        161.0004        176.0004
 03 10 28  0 13  0.0000000  0  8G27G 1G 8G13G 4G20G11G28
  -7046928.91147   3128307.56846  21820576.9514   21820586.5564   21820576.7274
     -1865.5204      -1453.6554        160.0004        174.0004
   3236498.08846   -889392.60245  23998631.7764   23998636.5504   23998631.5694
       652.0764        508.1054        128.0004        143.0004
  -5095234.42847    832818.20545  21932276.8134   21932293.9904   21932276.3564
      -969.1704       -755.2174        150.0004        135.0004
   3421209.97246   2670517.71045  24090781.9154   24090786.4164   24090782.4414
      1044.9214        814.2084        132.0004        150.0004
  -4460700.05744   -898262.99144  22979531.7984
      1122.8034        874.8984         62.0004        108.0004
  -9512882.98848  -7394650.47647  21375683.1414   21375689.4304   21375682.7354
     -1116.0544       -869.6374        181.0004        197.0004
   2449447.80646   6446328.46445  23822472.8804   23822488.5204   23822472.5664
     -2428.2804      -1892.1574        122.0004        134.0004
  -5579094.10147   -504581.86446  22171690.0154   22171696.2984   22171686.2784
      2972.8424       2316.4184        158.0004        170.0004
 03 10 28  0 13 30.0000000  0  8G27G 1G 8G13G 4G20G11G28
  -6990899.83747   3171966.67646  21831238.8354   21831248.6794   21831238.6744
     -1869.7294      -1456.9494        160.0004        176.0004
   3216880.73146   -904678.80645  23994898.7294   23994903.3514   23994898.3384
       655.7794        510.9924        129.0004        146.0004
  -5065995.32747    855601.71446  21937840.6144   21937859.1394   21937840.3184
      -979.9754       -763.6184        156.0004        174.0004
   3389745.11746   2645999.68245  24084794.4214   24084799.4214   24084794.8404
      1052.7954        820.3584        127.0004        140.0004
  -4494195.56744    -14980.11843  22973157.4694
      1110.2964        865.1654         74.0004         74.0004
  -9479143.67848  -7368360.67747  21382103.6834   21382109.9844   21382103.2534
     -1133.2014       -882.9994        180.0004        193.0004
   2522227.99246   6503039.80345  23836322.8434   23836339.8814   23836322.5684
     -2423.6924      -1888.5534        127.0004        148.0004
  -5668161.72847   -573983.28346  22154739.6754   22154745.5404   22154736.6154
      2965.2404       2310.5024        156.0004        166.0004
 03 10 28  0 14  0.0000000  0  8G27G 1G 8G13G 4G20G11G28
  -6934728.20047   3215737.42646  21841927.8584   21841937.2574   21841927.7184
     -1874.4254      -1460.6184        158.0004        170.0004
   3197170.29946   -920037.54345  23991148.0844   23991152.6324   23991147.6154
       658.8054        513.3494        128.0004        143.0004
  -5036419.13747    878648.38046  21943468.6274   21943485.0344   21943468.2764
      -991.1774       -772.3424        157.0004        172.0004
   3358063.89247   2621312.81445  24078765.6714   24078771.0444   24078766.1314
      1059.9324        825.9234        140.0004        160.0004
  -4527303.31844    -40777.80745  22966856.7814
      1097.5474        855.2084         74.0004        159.0004
  -9444874.37148  -7341657.49447  21388625.0544   21388631.4514   21388624.6514
     -1150.8484       -896.7954        180.0004        198.0004
   2594888.83345   6559657.89544  23850150.1134                   23850147.7754
     -2419.7004      -1885.4414         97.0004        110.0004
  -5756980.88147   -643191.10446  22137836.6464   22137843.5014   22137834.1044
      2956.7384       2303.9074        161.0004        177.0004
 03 10 28  0 14 30.0000000  0  8G27G 1G 8G13G 4G20G11G28
  -6878418.62447   3259615.82746  21852643.0814   21852652.5984   21852642.8864
     -1879.1834      -1464.3204        160.0004        174.0004
   3177367.85646   -935467.90345  23987379.7574   23987384.3344   23987379.3534
       661.6554        515.5704        131.0004        147.0004
  -5006509.52347    901954.17446  21949160.2204   21949175.6414   21949159.6724
     -1002.5224       -781.2174        157.0004        174.0004
   3326166.28447   2596457.47145  24072695.8014   24072700.8974   24072696.2134
      1066.9394        831.3794        140.0004        155.0004
  -4560027.88747    -66277.11346  22960629.2134   22960666.3144   22960689.8454
      1084.5374        845.0854        148.0004        167.0004
  -9410078.38548  -7314544.04146  21395246.7534   21395253.1784   21395246.3294
     -1168.6014       -910.5714        180.0004        187.0004
   2667426.71344   6616180.20744  23863953.9394                   23863943.8844
     -2415.7544      -1882.3994         78.0004        109.0004
  -5845548.74347   -712203.39346  22120981.4224   22120988.7594   22120979.4754
      2948.0404       2297.0864        160.0004        175.0004
                            4  1
RINEX FILE SPLICE; other post-header comments skipped       COMMENT
 03 10 28  0 15  0.0000000  0  8G27G 1G 8G13G 4G20G11G28
  -6821973.85647   3303599.25446  21863383.9454   21863393.8044   21863383.7094
     -1883.6334      -1467.7814        159.0004        173.0004
   3157475.69646   -950968.15245  23983594.3874   23983599.0044   23983594.0104
       664.5944        517.8604        134.0004        150.0004
  -4976268.41747    925519.06646  21954914.7854   21954931.3414   21954914.2774
     -1013.3604       -789.6184        152.0004        174.0004
   3294053.97147   2571434.85145  24066585.1264   24066590.1294   24066585.4834
      1074.0304        836.9014        140.0004        151.0004
  -4592368.52447    -91477.42345  22954474.8624   22954488.7434   22954536.7504
      1071.5364        834.9634        145.0004        156.0004
  -9374755.10248  -7287019.80747  21401968.7684   21401975.2394   21401968.3434
     -1186.1544       -924.2484        181.0004        191.0004
   2739840.06144   6672605.44144  23877734.0954
     -2411.5924      -1879.1454         72.0004        109.0004
  -5933864.30447   -781018.67045  22104174.1294   22104183.6834   22104172.5904
      2939.7544       2290.6554        150.0004        149.0004
 03 10 28  0 15 30.0000000  0  8G27G 1G 8G13G 4G20G11G28
  -6765395.61747   3347686.71046  21874150.1134   21874159.9874   21874149.8714
     -1888.3464      -1471.4694        158.0004        172.0004
   3137495.78346   -966536.85545  23979792.2844   23979797.0024   23979791.9134
       667.3344        519.9984        133.0004        147.0004
  -4945698.32747    949339.71446  21960731.9454   21960746.8234   21960731.5304
     -1024.3814       -798.2244        162.0004        182.0004
   3261728.20947   2546246.00345  24060433.7064   24060438.7364   24060434.0844
      1080.9944        842.3394        140.0004        155.0004
  -4624324.12947   -116377.43145  22948393.7144   22948402.8864   22948393.5354
      1058.8234        825.0464        143.0004        160.0004
  -9338904.87948  -7259084.65847  21408791.0744   21408797.5914   21408790.6604
     -1203.8404       -938.0694        182.0004        202.0004
   2812128.75444     17375.84843  23891490.4564
     -2407.4864      -1875.9644         74.0004         74.0004
  -6021923.99046   -849634.99544  22087415.7944                   22087412.6834
      2930.9804       2283.8234        115.0004        106.0004
 03 10 28  0 16  0.0000000  0  8G27G 1G 8G13G 4G20G11G28
  -6708687.04047   3391876.35546  21884940.9374   21884950.2464   21884940.7634
     -1892.4304      -1474.6644        156.0004        172.0004
   3117429.86846   -982172.65145  23975973.8154   23975978.5464   23975973.2944
       670.2464        522.2704        130.0004        145.0004
  -4914802.82247    973413.83646  21966611.2134   21966625.6354   21966610.7304
     -1035.3374       -806.7364        160.0004        170.0004
   3229190.44247   2520891.88545  24054242.0764   24054247.1964   24054242.5264
      1088.0574        847.8334        137.0004        151.0004
  -4655897.73547   -140979.99645  22942385.1674   22942396.4714   22942384.8574
      1045.8944        814.9724        145.0004        161.0004
  -9302529.22548  -7230740.02647  21415713.3134   21415719.9474   21415712.9114
     -1221.3624       -951.7234        181.0004        189.0004
   2884290.91144     73606.16844  23905222.9134
     -2403.3364      -1872.7324         74.0004        106.0004
  -6109724.91246   -918050.21745  22070707.0304   22070730.1644   22070701.4244
      2922.1504       2276.9464        133.0004        162.0004
 03 10 28  0 16 30.0000000  0  8G27G 1G 8G13G 4G20G11G28
  -6651852.24247   3436163.93444  21895755.7944   21895770.7264   21895755.4954
     -1896.6864      -1477.9584        138.0004        126.0004
   3097279.97446   -997873.81145  23972139.4354   23972144.0374   23972138.9864
       672.9804        524.3964        130.0004        146.0004
  -4883582.88847    997740.92846  21972552.1364   21972565.6084   21972551.7434
     -1045.9714       -815.0174        164.0004        179.0004
   3196441.65247   2495373.37245  24048010.0714   24048015.1284   24048010.5434
      1095.1464        853.3624        137.0004        152.0004
  -4687089.05047   -165285.08345  22936449.6774   22936461.8894   22936448.9964
      1033.3074        805.1614        136.0004        160.0004
  -9265628.72748  -7201986.21047  21422735.3684   21422742.0964   21422734.9294
     -1238.7214       -965.2344        181.0004        192.0004
   2956324.99044    129736.62944  23918930.8884
     -2398.9744      -1869.3024         74.0004        107.0004
  -6197265.85946   -986263.38444  22054048.0684                   22054045.7444
      2913.7274       2270.4134        111.0004        109.0004
 03 10 28  0 17  0.0000000  0  8G27G 1G 8G13G 4G20G11G28
  -6594893.20046   3480548.23944  21906594.3734                   21906591.6394
     -1900.7854      -1481.1704        106.0004        112.0004
   3077047.93546  -1013638.89745  23968289.2604   23968293.8324   23968288.9874
       675.6014        526.4394        131.0004        147.0004
  -4852041.07147   1022319.03046  21978554.4354   21978567.4864   21978554.0034
     -1056.9724       -823.6594        163.0004        178.0004
   3163483.21846   2469691.45945  24041738.3924   24041743.6404   24041738.8234
      1101.9904        858.6854        133.0004        147.0004
  -4717898.44847   -189292.13245  22930586.6704   22930597.9424   22930586.2724
      1020.3674        795.0894        135.0004        146.0004
  -9228205.02748  -7172825.00947  21429856.8824   21429863.6584   21429856.4774
     -1256.3274       -978.9634        180.0004        190.0004
   3028231.64144     12579.74543  23932614.5374
     -2394.6464      -1865.9604         74.0004         74.0004
  -6284543.55645  -1054271.52144  22037439.7554                   22037443.8614
      2904.9194       2263.5724         82.0004         99.0004
 03 10 28  0 17 30.0000000  0  8G27G 1G 8G13G 4G20G11G28
  -6537812.69845   3525027.43944  21917456.0064                   21917452.6194
     -1904.5244      -1484.0844         88.0004        114.0004
   3056736.12746  -1029466.20945  23964424.0304   23964428.7824   23964423.7724
       678.5084        528.7074        132.0004        147.0004
  -4820179.94947   1047146.66346  21984617.3044   21984629.8124   21984616.8674
     -1067.1594       -831.5894        164.0004        178.0004
   3130316.47246   2443847.30045  24035426.9704   24035432.2534   24035427.4764
      1109.1364        864.2724        129.0004        139.0004
  -4748325.92147   -213001.22946  22924796.2264   22924807.3894   22924795.9794
      1008.1344        785.5434        153.0004        163.0004
  -9190257.55548  -7143255.43547  21437078.1134   21437084.8994   21437077.6954
     -1273.4804       -992.3134        180.0004        191.0004
   3100008.09644     68510.14444  23946273.1454
     -2390.4064      -1862.7374         74.0004        107.0004
  -6371550.79645  -1122069.18844  22020883.3304
      2896.0284       2256.6304         88.0004        116.0004
 03 10 28  0 18  0.0000000  0  8G27G 1G 8G13G 4G20G11G28
  -6480614.68144   3569598.34144  21928340.1194
     -1908.6354      -1487.2864         69.0004        110.0004
   3036345.93046  -1045354.63145  23960543.9184   23960548.5904   23960543.5784
       680.9764        530.6324        132.0004        148.0004
  -4788004.70447   1072218.43546  21990739.8974   21990753.5044   21990739.5334
     -1077.5714       -839.6664        161.0004        173.0004
   3096942.49946   2417841.44345  24029076.1494   24029081.8914   24029076.4704
      1115.9584        869.5774        123.0004        142.0004
  -4778373.78947   -236414.82846  22919078.0044   22919089.7734   22919078.1794
       995.4324        775.6534        161.0004        172.0004
  -9151787.80548  -7113278.68147  21444398.6534   21444405.5124   21444398.2474
     -1291.0114      -1005.9894        180.0004        191.0004
   3171655.51744    124341.14744  23959907.1584
     -2385.8364      -1859.1684         74.0004        113.0004
  -6458286.04644    -15188.03643  22004379.0744
      2886.9104       2249.5394         74.0004         74.0004
 03 10 28  0 18 30.0000000  0  8G27G 1G 8G13G 4G20G11G28
  -6423299.64544     30892.76543  21939246.6014
     -1912.4824      -1490.2464         74.0004         74.0004
   3015879.62546  -1061302.36445  23956649.2104   23956654.0154   23956648.9544
       683.3174        532.4604        130.0004        145.0004
  -4755516.09747   1097533.79146  21996922.1724   21996937.4894   21996921.6174
     -1088.1524       -847.8674        158.0004        174.0004
   3063362.75046   2391675.36945  24022686.1274   24022691.6554   24022686.5324
      1122.6784        874.8284        127.0004        143.0004
  -4808042.91146   -259533.43744  22913432.0084                   22913431.4514
       982.5434        765.6324        124.0004        113.0004
  -9112797.24748  -7082896.26847  21451818.2474   21451825.1364   21451817.8224
     -1308.3834      -1019.5144        181.0004        189.0004
   3243167.41644      7915.31943  23973515.1594
     -2381.5944      -1855.7884         74.0004         74.0004
  -6544743.81344    -82559.51645  21987927.7464   21987830.5714
      2876.9674       2241.8974         64.0004        139.0004
 03 10 28  0 19  0.0000000  0  8G27G 1G 8G13G 4G20G11G28
  -6365872.23647     75641.51246  21950174.6674   21950121.9774
     -1916.1194      -1493.0654        135.0004        169.0004
   2995338.87346  -1077308.13645  23952740.4464   23952745.0304   23952740.2574
       685.9644        534.5154        131.0004        147.0004
  -4722715.20447   1123092.94944  22003163.9794   22003173.6824   22003163.3364
     -1098.4104       -855.9194        145.0004        128.0004
   3029578.76046   2365350.16445  24016257.3204   24016262.8104   24016257.6144
      1129.4924        880.1224        125.0004        140.0004
  -4837331.74945   -282355.77144  22907858.2494                   22907856.1924
       970.1044        755.9154         93.0004        109.0004
  -9073286.35548  -7052108.41446  21459336.8404   21459343.7084   21459336.4364
     -1325.8104      -1033.1634        179.0004        187.0004
   3314546.31644     63529.08944  23987098.1244
     -2377.3054      -1851.7584         74.0004        101.0004
  -6630925.10844   -149717.54444  21971528.7854
      2868.4914       2235.3164         67.0004        112.0004
 03 10 28  0 19 30.0000000  0  8G27G 1G 8G13G 4G20G11G28
  -6308334.30447    120475.96346  21961123.7864   21961071.2464   21961114.7784
     -1919.7064      -1495.8704        154.0004        171.0004
   2974725.54846  -1093370.47145  23948817.8774   23948822.4484   23948817.6604
       688.3474        536.3774        132.0004        148.0004
  -4689606.41847   1148892.68346  22009464.1014   22009460.5454   22009459.7134
     -1108.5814       -863.8444        143.0004        173.0004
   2995591.24246   2338866.33945  24009789.7674   24009795.2334   24009789.9354
      1136.2944        885.4244        126.0004        142.0004
  -4866244.10044   -304884.70144  22902356.1804                   22902349.4344
       957.5704        746.1514         74.0004        109.0004
  -9033256.61048  -7020915.93947  21466954.1434   21466961.0174   21466953.7364
     -1342.9254      -1046.4594        180.0004        199.0004
   3385788.07644    119021.90144  24000654.8564
     -2372.5504      -1848.0894         74.0004        121.0004
  -6716827.51944   -216658.32944  21955182.9364
      2858.8694       2227.7904         62.0004        105.0004
 03 10 28  0 20  0.0000000  0  8G27G 1G 8G13G 4G20G11G28
  -6250688.31547    165394.64646  21972093.5634   21972102.5794   21972084.5704
     -1923.4144      -1498.7664        156.0004        171.0004
   2954042.03546  -1109487.59345  23944881.7484   23944886.6324   23944881.5444
       690.5344        538.0804        133.0004        149.0004
  -4656192.40447   1174930.22446  22015822.2384   22015824.2594   22015819.2884
     -1118.9084       -871.8874        157.0004        180.0004
   2961401.71846   2312224.98345  24003283.8234   24003289.4714   24003283.7704
      1142.9364        890.6144        130.0004        141.0004
  -4894778.97544     -1672.44143  22896925.9924
       944.8884        736.3184         74.0004         74.0004
  -8992708.41448  -6989319.61647  21474670.0394   21474676.9284   21474669.6214
     -1360.2954      -1059.9984        180.0004        194.0004
   3456896.65744      3210.21343  24014186.2564
     -2368.1144      -1845.2594         74.0004         74.0004
  -6802443.61644   -283376.07644  21938891.7794
      2849.1744       2220.2504         74.0004        115.0004
 03 10 28  0 20 30.0000000  0  7G27G 1G 8G13G 4G20G28
  -6192936.61847    210395.95246  21983083.3364   21983091.6144   21983082.9834
     -1926.8334      -1501.4004        154.0004        166.0004
   2933290.61946  -1125657.59645  23940932.8174   23940937.8004   23940932.5834
       692.7674        539.8194        134.0004        150.0004
  -4622476.35047   1201202.59646  22022237.8304   22022242.7924   22022235.6204
     -1129.0104       -879.7514        163.0004        177.0004
   2927012.70746   2285428.12145  23996739.7164   23996745.5094   23996739.9484
      1149.5254        895.7344        122.0004        134.0004
  -4922936.58644    -23613.57645  22891567.6734
       932.2824        726.4574         74.0004        143.0004
  -8951643.15148  -6957320.79247  21482484.3334   21482491.1954   21482483.9574
     -1377.5354      -1073.4304        180.0004        200.0004
  -6887770.55244    -49344.99845  21922655.3244
      2839.3724       2212.5104         74.0004        152.0004
 03 10 28  0 21  0.0000000  0  8G27G 1G 8G13G 4G20G11G28
  -6135082.30747    255476.98646  21994092.6894   21994101.8374   21994092.5014
     -1930.2594      -1504.1134        154.0004        167.0004
   2912472.99947  -1141879.19745  23936971.4134   23936976.2824   23936971.2384
       695.0294        541.5824        136.0004        152.0004
  -4588459.37547   1227709.88446  22028710.7604   22028717.1554   22028709.0634
     -1138.9014       -887.4944        163.0004        182.0004
   2892424.70746   2258476.56545  23990158.0884   23990162.9524   23990158.3664
      1156.1754        900.9134        125.0004        142.0004
  -4950718.98846    -45262.22445  22886280.7034   22886362.8094
       919.8624        716.7654        116.0004        153.0004
  -8910060.94048  -6924918.76847  21490397.0854   21490403.9194   21490396.6564
     -1394.6204      -1086.7194        182.0004        204.0004
     40562.97644     14271.652 3                  24038307.120
     -2359.7914      -1838.798          74.0004         74.000
  -6972809.96844   -115607.78844  21906473.2924
      2829.7984       2204.9744         74.0004        114.0004
 03 10 28  0 21 30.0000000  0  8G27G 1G 8G13G 4G20G11G28
  -6077128.59847    300635.65746  22005120.9174   22005129.7974   22005120.8464
     -1933.3654      -1506.5174        156.0004        170.0004
   2891591.15647  -1158150.81745  23932997.7494   23933002.5154   23932997.6164
       697.1524        543.2374        135.0004        150.0004
  -4554147.27847   1254446.24146  22035239.8964   22035248.3434   22035238.4634
     -1148.5484       -894.9504        164.0004        183.0004
   2857639.03846   2231370.85745  23983538.6894   23983543.7284   23983538.9314
      1162.7874        906.0714        126.0004        143.0004
  -4978127.15147    -66619.10345  22881065.0314   22881145.9734   22881083.7954
       907.2714        706.9594        141.0004        158.0004
  -8867963.90448  -6892115.62046  21498407.7694   21498414.8674   21498407.3934
     -1411.8384      -1100.1514        176.0004        182.0004
    119525.47144     75800.358 5                  24053281.161
     -2354.6804      -1834.633          74.0004        134.000
  -7057555.55844   -181641.50144  21890347.1254
      2819.9394       2197.3004         74.0004        110.0004
 03 10 28  0 22  0.0000000  0  8G27G 1G 8G13G 4G20G11G28
  -6019077.41947    345870.56246  22016167.6864   22016176.2484   22016167.5514
     -1936.6944      -1509.1184        152.0004        163.0004
   2870646.92646  -1174471.04645  23929012.2604   23929016.9684   23929012.1204
       699.2604        544.8814        133.0004        148.0004
  -4519539.79647   1281413.27246  22041825.2954   22041833.2164   22041824.2854
     -1158.2794       -902.5494        162.0004        183.0004
   2822657.17146   2204112.18045  23976881.8264   23976887.0314   23976882.0714
      1169.3854        911.2114        129.0004        146.0004
  -5005161.31047    -87684.62646  22875920.4434   22875931.4354   22875939.6964
       895.0214        697.4134        146.0004        166.0004
  -8825354.06648  -6858913.36647  21506516.0934   21506522.9914   21506515.6754
     -1428.7264      -1113.2454        179.0004        205.0004
    181865.74344    124376.771 4                  24065103.778
     -2350.4924      -1831.525          72.0004        115.000
  -7142004.61544   -247444.08344  21874277.2314
      2810.1484       2189.6614         65.0004        113.0004
 03 10 28  0 22 30.0000000  0  7G27G 1G 8G13G 4G20G28
  -5960931.56447    391179.49846  22027232.4054   22027240.8764   22027232.3054
     -1939.7844      -1511.5314        155.0004        170.0004
   2849642.87846  -1190837.89045  23925015.3614   23925020.0664   23925015.1564
       700.9874        546.2244        133.0004        148.0004
  -4484640.25547   1308607.56546  22048466.3884   22048475.7404   22048465.5204
     -1168.1734       -910.3384        161.0004        180.0004
   2787480.74846   2176701.98645  23970187.8624   23970193.1234   23970188.0724
      1175.7754        916.1964        134.0004        151.0004
  -5031822.45647   -108459.72245  22870847.0244   22870859.8834   22870847.8774
       882.5564        687.6864        135.0004        151.0004
  -8782231.33448  -6825311.76147  21514722.0604   21514728.8984   21514721.6654
     -1445.8244      -1126.6374        178.0004        190.0004
  -7226158.53344     -1647.41543  21858263.3834
      2800.2864       2182.0374         74.0004         74.0004
 03 10 28  0 23  0.0000000  0  8G27G 1G 8G13G 4G20G11G28
  -5902694.66747    436559.09546  22038314.4404   22038323.4174   22038314.2674
     -1942.8144      -1513.8874        155.0004        169.0004
   2828580.57646  -1207250.04345  23921007.4764   23921011.8474   23921007.0844
       703.0034        547.7924        134.0004        150.0004
  -4449451.91947   1336027.09446  22055162.3874   22055172.0054   22055161.6754
     -1177.8804       -917.8234        162.0004        172.0004
   2752111.05846   2149141.22445  23963457.2204   23963462.3614   23963457.6094
      1182.1174        921.1214        134.0004        152.0004
  -5058112.46647   -128945.57845  22865844.2224   22865856.2274   22865844.8844
       869.5284        677.5624        142.0004        145.0004
  -8738596.09848  -6791310.46046  21523025.6314   21523032.4014   21523025.2174
     -1463.0614      -1140.0534        178.0004        187.0004
     29640.80344     11441.042 3                  24091212.264
     -2341.0504      -1824.203          74.0004         74.000
  -7310014.63244    -66990.71846  21842306.3374
      2789.8084       2173.9364         74.0004        171.0004
 03 10 28  0 23 30.0000000  0  8G27G 1G 8G13G 4G20G11G28
  -5844368.82147    482007.73646  22049413.4354   22049422.6884   22049413.2004
     -1945.7224      -1516.1494        153.0004        167.0004
   2807462.86647  -1223705.35645  23916988.9094   23916993.4054   23916988.5714
       704.8714        549.2534        135.0004        151.0004
  -4413974.01747   1363673.32346  22061913.4304   22061923.9214   22061912.8274
     -1187.2194       -925.1424        161.0004        177.0004
   2716550.21446   2121431.57345  23956690.1444   23956695.3314   23956690.6024
      1188.5844        926.1704        131.0004        147.0004
  -5084029.28647   -149140.07745  22860912.4804   22860923.8594   22860912.9264
       857.8234        668.4254        140.0004        157.0004
  -8694449.19848  -6756910.16746  21531426.4494   21531433.4784   21531426.0774
     -1479.9204      -1153.0984        179.0004        183.0004
     29640.80344     11441.042 3                  24091212.264
     -2341.0504      -1824.203          74.0004         74.000
  -7393563.96147   -132096.32646  21826407.9844   21826330.4944
      2780.2394       2166.5514        149.0004        179.0004
 03 10 28  0 24  0.0000000  0  8G27G 1G 8G13G 4G20G11G28
  -5785956.17047    527524.53846  22060528.8944   22060537.4174   22060528.6984
     -1948.2744      -1518.1424        152.0004        167.0004
   2786290.52646  -1240203.36545  23912959.8844   23912964.6894   23912959.6564
       706.7274        550.7074        133.0004        149.0004
  -4378212.76647   1391540.14246  22068718.2454   22068728.9454   22068717.7874
     -1196.5424       -932.3704        162.0004        181.0004
   2680798.45146   2093573.04745  23949886.6884   23949892.3634   23949887.1384
      1194.9654        931.1474        133.0004        148.0004
  -5109576.27947   -169046.64445  22856051.0164   22856062.7914   22856051.4324
       845.5774        658.8804        149.0004        160.0004
  -8649792.63348  -6722112.63647  21539924.3544   21539931.3644   21539923.9414
     -1496.5704      -1166.1714        179.0004        192.0004
     29640.80345     11441.042 3                  24091212.264
     -2341.0504      -1824.203          92.0004         74.000
  -7476806.20447   -196962.09446  21810568.2794   21810489.4544   21810463.2964
      2769.4994       2158.0854        152.0004        178.0004
 03 10 28  0 24 30.0000000  0  8G27G 1G 8G13G 4G20G11G28
  -5727460.41947    573105.67445  22071659.9944   22071669.7974   22071659.9234
     -1951.2504      -1520.4544        147.0004        160.0004
   2765066.57147  -1256741.55945  23908921.1464   23908925.8994   23908920.8384
       708.3224        551.9404        136.0004        151.0004
  -4342169.17347   1419627.02346  22075576.7144   22075586.9114   22075576.3724
     -1206.1674       -939.9304        158.0004        171.0004
   2644857.97046   2065567.33045  23943047.4994   23943053.2014   23943047.6684
      1201.1244        935.9484        128.0004        140.0004
  -5134754.04347   -188665.60945  22851259.6824   22851271.2614   22851260.1984
       833.0944        649.1704        139.0004        156.0004
  -8604628.06548  -6686919.87747  21548518.9444   21548527.3694   21548518.4584
     -1513.9784      -1179.7224        174.0004        192.0004
    258289.45445    189609.67044  24134758.7864                   24134771.8674
     -2325.1804      -1811.8364         93.0004        115.0004
  -7559739.16747   -261586.82246  21794787.3194   21794812.3644   21794787.9084
      2759.1844       2150.0734        157.0004        177.0004
 03 10 28  0 25  0.0000000  0  8G27G 1G 8G13G 4G20G11G28
  -5668883.21747    618750.37945  22082806.8094   22082816.3114   22082806.6874
     -1953.9414      -1522.5844        147.0004        162.0004
   2743793.01046  -1273318.43145  23904872.9094   23904877.6094   23904872.5234
       710.0144        553.2604        133.0004        148.0004
  -4305847.89147   1447930.45645  22082487.7974   22082499.7084   22082487.3694
     -1215.5334       -947.1814        149.0004        160.0004
   2608730.43646   2037415.89945  23936172.6764   23936178.3454   23936173.0654
      1207.3524        940.7994        121.0004        135.0004
  -5159563.63047   -207997.99045  22846538.5474   22846550.2474   22846539.0644
       820.8814        639.6514        145.0004        155.0004
  -8558956.29348  -6651331.95946  21557210.1044   21557218.0504   21557209.6454
     -1530.6884      -1192.7574        178.0004        187.0004
    327971.11745    243907.26844  24148020.0894   24148035.3874   24148020.3544
     -2320.2304      -1807.9784         99.0004        125.0004
  -7642359.30147   -325967.90446  21779066.0984   21779085.2784   21779067.1464
      2748.6874       2141.8944        159.0004        172.0004
 03 10 28  0 25 30.0000000  0  8G27G 1G 8G13G 4G20G11G28
  -5610228.67747    664455.43746  22093968.4014   22093977.4364   22093968.1484
     -1956.3714      -1524.4404        151.0004        164.0004
   2722471.68246  -1289932.38445  23900815.6474   23900819.9784   23900815.2494
       711.5764        554.4724        134.0004        149.0004
  -4269250.62747   1476448.57946  22089451.3954   22089464.1624   22089451.1384
     -1224.2234       -954.0294        154.0004        173.0004
   2572417.09046   2009119.75445  23929262.5964   23929268.1104   23929263.0154
      1213.5764        945.6444        125.0004        143.0004
  -5184005.49847   -227043.65045  22841887.5374   22841898.8764   22841887.7804
       808.6604        630.1214        142.0004        158.0004
  -8512778.54148  -6615349.58047  21565997.5594   21566005.4104   21565997.0634
     -1547.4024      -1205.7114        179.0004        198.0004
    397503.41845    298087.88044  24161253.0464                   24161254.1004
     -2315.0264      -1803.9144         94.0004        114.0004
  -7724661.62247   -390101.49746  21763405.3164   21763423.2664   21763406.4614
      2755.7464       2147.3874        157.0004        178.0004
 03 10 28  0 26  0.0000000  0  8G27G 1G 8G13G 4G20G11G28
  -5551498.97847    710218.93146  22105144.2084   22105153.2174   22105144.0244
     -1958.9454      -1526.4484        154.0004        170.0004
   2701103.88647  -1306582.57345  23896749.5444   23896753.9134   23896749.1254
       712.8584        555.4764        135.0004        148.0004
  -4232382.37647   1505177.95845  22096466.5834   22096483.1784   22096466.0824
     -1233.7724       -961.4074        147.0004        135.0004
   2535918.89946   1980679.53345  23922317.2604   23922322.6934   23922317.5754
      1219.4804        950.2424        119.0004        134.0004
  -5208081.22347   -245803.60145  22837306.0154   22837316.9024   22837306.4054
       796.2604        620.4594        144.0004        162.0004
  -8466096.06648  -6578973.72347  21574881.1014   21574888.4734   21574880.7024
     -1564.5824      -1219.1554        176.0004        197.0004
    466887.39744    352153.04944  24174457.1164
     -2310.3064      -1800.2534         67.0004        104.0004
  -7806645.06947   -453984.69246  21747805.2284   21747819.9454   21747806.0504
      2727.4524       2125.2854        153.0004        167.0004
 03 10 28  0 26 30.0000000  0  8G27G 1G 8G13G 4G20G11G28
  -5492696.74447    756038.49246  22116333.9624   22116344.8284   22116333.6544
     -1961.4864      -1528.4234        147.0004        163.0004
   2679692.83847  -1323266.51045  23892675.1494   23892679.6044   23892674.8774
       714.3914        556.6674        136.0004        151.0004
  -4195243.71646   1534118.15744  22103533.4254                   22103531.4384
     -1242.4184       -968.1394        115.0004        109.0004
   2499238.15046   1952097.08745  23915337.1824   23915342.6294   23915337.6684
      1225.6774        955.0734        127.0004        147.0004
  -5231791.30747   -264278.78646  22832794.0684   22832805.3874   22832794.5044
       784.1554        611.0184        148.0004        164.0004
  -8418911.02748  -6542206.87546  21583860.2834   21583867.9444   21583859.8914
     -1581.3284      -1232.1104        174.0004        180.0004
    536122.84444    406102.32444  24187632.4254
     -2305.3254      -1796.3364         70.0004        111.0004
  -7888307.13246   -517617.71744  21732266.1604                   21732267.4634
      2716.7764       2116.9724        120.0004        114.0004
 03 10 28  0 27  0.0000000  0  8G27G 1G 8G13G 4G20G11G28
  -5433823.29147    801914.03046  22127537.1624   22127546.5294   22127536.8834
     -1963.6884      -1530.1684        148.0004        163.0004
   2658240.39647  -1339982.69745  23888592.8894   23888597.3694   23888592.6244
       715.7134        557.6984        137.0004        151.0004
  -4157835.91445   1563267.97944  22110651.4694                   22110644.7224
     -1251.0874       -974.8944         90.0004        106.0004
   2462376.17346   1923373.29545  23908322.5574   23908328.6724   23908322.9024
      1231.6764        959.7504        121.0004        138.0004
  -5255137.08347   -282470.45045  22828351.3794   22828363.3904   22828351.6964
       772.0864        601.6264        142.0004        154.0004
  -8371223.63748  -6505048.71046  21592935.1324   21592943.2484   21592934.6224
     -1598.0784      -1245.2474        172.0004        175.0004
    605203.78444      4050.20043  24200778.4044
     -2300.2624      -1792.3814         74.0004         74.0004
  -7969644.75145   -580997.55144  21716788.8764                   21716790.7904
      2705.9294       2108.5114         92.0004        111.0004
 03 10 28  0 27 30.0000000  0  8G27G 1G 8G13G 4G20G11G28
  -5374882.69347    847842.18046  22138753.1254   22138761.8834   22138752.8674
     -1965.8214      -1531.8144        150.0004        165.0004
   2636748.25947  -1356729.84245  23884503.0424   23884507.5004   23884502.9144
       717.0404        558.7294        137.0004        154.0004
  -4120165.48144   1592622.53444  22117819.6604
     -1260.1154       -981.9594         76.0004        115.0004
   2425334.26846   1894509.24845  23901273.7524   23901280.0894   23901274.2534
      1237.7284        964.4614        116.0004        134.0004
  -5278119.05047   -300377.92546  22823978.0284   22823988.9474   22823978.1954
       760.0274        592.2104        150.0004        166.0004
  -8323034.14348  -6467498.51447  21602105.6044   21602113.5304   21602105.0904
     -1614.5044      -1258.0024        176.0004        196.0004
    674140.62944     57767.92444  24213896.9944
     -2295.1384      -1788.5134         74.0004        115.0004
  -8050655.81647   -644123.41346  21701373.7444   21701397.1054   21701374.8534
      2694.7154       2099.8084        153.0004        182.0004
 03 10 28  0 28  0.0000000  0  8G27G 1G 8G13G 4G20G11G28
  -5315877.23547    893820.42946  22149981.3844   22149990.7944   22149981.0944
     -1968.0064      -1533.5154        150.0004        164.0004
   2615218.46047  -1373506.40045  23880406.1084   23880410.6844   23880405.8964
       718.0954        559.5664        137.0004        152.0004
  -4082233.03244     19470.60043  22125037.7854
     -1268.8144       -988.6864         74.0004         74.0004
   2388114.30546   1865506.53145  23894191.1494   23894197.1684   23894191.6344
      1243.5094        968.9764        120.0004        139.0004
  -5300739.87147   -318004.62045  22819673.1824   22819686.9924   22819673.4784
       747.9374        582.8114        139.0004        145.0004
  -8274345.18448  -6429559.22547  21611371.0854   21611378.8294   21611370.5874
     -1631.3414      -1271.1564        177.0004        200.0004
    742917.33844    111363.05444  24226984.9434
     -2289.8724      -1784.4044         74.0004        117.0004
  -8131334.66947   -706990.54646  21686021.7294   21686041.8044   21686022.5574
      2683.5904       2091.0964        159.0004        165.0004
 03 10 28  0 28 30.0000000  0  8G27G 1G 8G13G 4G20G11G28
  -5256809.23947    939847.54446  22161221.5254   22161230.6454   22161221.3144
     -1969.7834      -1534.9024        152.0004        166.0004
   2593653.76647  -1390310.21845  23876302.5734   23876307.1414   23876302.3594
       719.4624        560.6254        136.0004        152.0004
  -4044039.50044     49229.75244  22132305.6764
     -1277.5754       -995.4404         74.0004        112.0004
   2350718.35046   1836366.83545  23887074.8774   23887080.6204   23887075.2634
      1249.4924        973.6284        127.0004        144.0004
  -5322998.13747   -335348.73746  22815437.5814   22815455.6534   22815437.4554
       736.0214        573.5164        140.0004        164.0004
  -8225158.62748  -6391232.74346  21620731.1794   21620739.3504   21620730.7354
     -1647.9944      -1284.1624        172.0004        181.0004
                                  24240043.523

  -8211679.56548   -769596.84347  21670733.1174   21670751.0384   21670733.6714
      2672.6534       2082.5874        168.0004        190.0004
 03 10 28  0 29  0.0000000  0  8G27G 1G 8G13G 4G20G11G28
  -5197681.57447    985921.14146  22172472.9704   22172482.0144   22172472.8324
     -1971.9234      -1536.5554        152.0004        166.0004
   2572056.25947  -1407139.52245  23872192.8114   23872197.3264   23872192.5044
       720.3834        561.3394        137.0004        150.0004
  -4005589.10344     79188.91344  22139622.3884   22139698.8724
     -1286.0414      -1002.0514         73.0004        120.0004
   2313147.67846   1807090.84145  23879925.5914   23879931.3744   23879925.9664
      1255.2034        978.0804        128.0004        144.0004
  -5344896.36047   -352412.34745  22811270.4424   22811286.0424   22811270.4084
       723.9114        564.0914        146.0004        155.0004
  -8175475.17848  -6352519.09947  21630185.9244   21630193.9044   21630185.5774
     -1664.3404      -1296.8264        176.0004        190.0004
    880010.70844     52890.37044  24253073.0704
     -2279.8194      -1776.5424         74.0004        104.0004
  -8291688.98248   -831942.30546  21655508.3394   21655524.8614   21655508.6764
      2661.3774       2073.8324        170.0004        186.0004
 03 10 28  0 29 30.0000000  0  8G27G 1G 8G13G 4G20G11G28
  -5138497.49247   1032038.68446  22183735.2264   22183744.1894   22183735.0984
     -1973.8244      -1538.0664        151.0004        165.0004
   2550426.86747  -1423993.74645  23868076.8514   23868081.5004   23868076.5354
       721.4734        562.1904        135.0004        147.0004
  -3966885.07846    109345.49445  22146987.3614                   22147060.0604
     -1294.2814      -1008.4644        111.0004        137.0004
   2275403.09046   1777679.58245  23872742.9934   23872748.4824   23872743.0154
      1260.9924        982.5774        124.0004        141.0004
  -5366436.70347   -369196.69945  22807171.3294   22807185.3624   22807171.3204
       712.0524        554.8454        144.0004        158.0004
  -8125297.09248  -6313420.10246  21639734.9184   21639743.1084   21639734.5084
     -1680.8484      -1309.7034        171.0004        178.0004
    948320.43144    106121.63744  24266071.7674
     -2274.4034      -1772.3724         74.0004        109.0004
  -8371359.77048   -894023.97847  21640347.9104   21640363.5424   21640348.1774
      2650.0134       2064.9444        169.0004        188.0004
                            4  1
RINEX FILE SPLICE; other post-header comments skipped       COMMENT
 03 10 28  0 30  0.0000000  0  8G27G 1G 8G13G 4G20G11G28
  -5079257.72547   1078199.94646  22195008.1394   22195016.5494   22195007.9554
     -1975.5134      -1539.3694        153.0004        169.0004
   2528769.98147  -1440869.24045  23863955.6284   23863960.2164   23863955.4504
       722.3884        562.8984        137.0004        153.0004
  -3927929.26345    139698.75744  22154400.0294
     -1302.5634      -1014.9244         81.0004        106.0004
   2237487.56346   1748135.12545  23865527.7824   23865533.1924   23865528.1394
      1266.7434        987.0774        117.0004        132.0004
  -5387618.09447   -385701.72346  22803140.5294   22803154.6554   22803140.4364
       700.0584        545.5074        155.0004        177.0004
  -8074623.09248  -6273934.09146  21649378.3154   21649386.4414   21649377.8554
     -1697.3564      -1322.5674        170.0004        172.0004
   1016475.10144    159232.30544  24279041.3304
     -2269.0694      -1768.2134         74.0004        111.0004
  -8450689.06448   -955839.99046  21625252.4904   21625268.8284   21625252.6254
      2638.5644       2056.0704        169.0004        187.0004
 03 10 28  0 30 30.0000000  0  8G27G 1G 8G13G 4G20G11G28
  -5019966.45647   1124401.36946  22206290.7334   22206299.1974   22206290.5564
     -1977.2044      -1540.7034        152.0004        166.0004
   2507085.55547  -1457766.23145  23859829.2604   23859834.0554   23859829.2054
       723.3314        563.6304        136.0004        149.0004
  -3888725.59344    170244.90744  22161859.9094
     -1310.9124      -1021.4174         64.0004        110.0004
   2199401.34346   1718457.43945  23858280.2864   23858285.8784   23858280.7684
      1272.3624        991.4564        120.0004        136.0004
  -5408443.92547   -401929.91645  22799177.3374   22799191.0394   22799177.4994
       688.3044        536.3544        148.0004        152.0004
  -8023455.80147  -6234062.49344  21659115.3634   21659125.8474   21659115.3044
     -1713.5834      -1335.3214        156.0004        125.0004
   1084469.95544     48127.41343  24291980.3984
     -2263.7404      -1762.7784         74.0004         88.0004
  -8529673.03748  -1017386.43846  21610222.8614   21610238.5314   21610222.8894
      2627.0314       2047.0744        167.0004        182.0004
 03 10 28  0 31  0.0000000  0  8G27G 1G 8G13G 4G20G11G28
  -4960625.59547   1170641.87946  22217582.6664   22217590.7214   22217582.5394
     -1978.9214      -1542.0334        152.0004        166.0004
   2485376.68747  -1474682.25945  23855698.2454   23855703.0734   23855698.2014
       723.9394        564.1084        138.0004        153.0004
  -3849276.07844    200982.95244  22169366.3654
     -1319.1244      -1027.8284         59.0004        105.0004
   2161146.73646   1688648.67245  23851000.8374   23851006.2624   23851001.1604
      1277.8384        995.7184        123.0004        141.0004
  -5428913.84647   -417880.58646  22795282.0214   22795294.9224   22795282.2944
       676.3344        527.0224        155.0004        171.0004
  -7971798.95646  -6193809.74444  21668945.6144                   21668945.2764
     -1730.1824      -1348.2054        123.0004        108.0004
   1152306.54244    100951.55444  24304889.6864
     -2258.6904      -1758.8584         74.0004        114.0004
  -8608309.88548  -1078662.60246  21595259.2424   21595275.2744   21595259.1224
      2615.1274       2037.7994        166.0004        164.0004
 03 10 28  0 31 30.0000000  0  8G27G 1G 8G13G 4G20G11G28
  -4901238.18647   1216918.26246  22228883.3774   22228892.0564   22228883.2654
     -1980.3864      -1543.1694        151.0004        164.0004
   2463645.76047  -1491615.52245  23851562.9584   23851567.8554   23851562.9364
       724.7474        564.7444        136.0004        150.0004
  -3809583.49244     19347.50943  22176919.1864
     -1326.6704      -1033.7704         74.0004         74.0004
   2122725.88446   1658710.46345  23843689.6174   23843695.0354   23843690.0644
      1283.4224       1000.0694        132.0004        148.0004
  -5449029.53547   -433555.56545  22791454.3334   22791468.1914   22791454.4114
       664.5824        517.8684        141.0004        152.0004
  -7919653.26347  -6153177.73246  21678868.9454   21678887.7914   21678868.1794
     -1746.3784      -1360.7274        159.0004        174.0004
   1219982.98044    153650.86544  24317768.1534
     -2253.0944      -1754.4674         74.0004        115.0004
  -8686594.76748  -1139663.90046  21580362.5674   21580378.4604   21580362.5324
      2603.6194       2028.8264        166.0004        170.0004
 03 10 28  0 32  0.0000000  0  8G27G 1G 8G13G 4G20G11G28
  -4841807.38447   1263228.18846  22240192.3664   22240201.3694   22240192.3534
     -1981.8814      -1544.3414        150.0004        166.0004
   2441894.14847  -1508564.90345  23847423.8454   23847428.6324   23847423.7144
       725.2444        565.1294        138.0004        152.0004
  -3769654.72344     50461.59044  22184517.0054
     -1335.0794      -1040.3664         74.0004        111.0004
   2084139.48446   1628643.17945  23836346.8564   23836352.3734   23836347.1404
      1288.8174       1004.2734        129.0004        145.0004
  -5468792.03047   -448955.18646  22787693.7784   22787706.6174   22787693.8954
       652.7314        508.6324        152.0004        166.0004
  -7867018.54148  -6112164.09547  21688885.3964   21688901.3954   21688884.7284
     -1762.6354      -1373.4274        171.0004        191.0004
   1287497.99744     43366.75043  24330616.3614
     -2247.9244      -1751.6304         74.0004         74.0004
  -8764527.27748  -1200391.13946  21565532.8584   21565548.5534   21565532.7844
      2591.6824       2019.5084        166.0004        171.0004
 03 10 28  0 32 30.0000000  0  8G27G 1G 8G13G 4G20G11G28
  -4782334.76247   1309570.98046  22251509.4224   22251517.7484   22251509.3524
     -1983.1524      -1545.3264        151.0004        166.0004
   2420124.60047  -1525528.20045  23843281.3044   23843286.1344   23843281.3194
       725.8284        565.5684        135.0004        150.0004
  -3729486.96544     81762.38144  22192160.6194
     -1342.7994      -1046.3784         74.0004        107.0004
   2045389.62946   1598448.38845  23828972.8914   23828978.6794   23828973.1334
      1294.2954       1008.5434        128.0004        142.0004
  -5488202.33247   -464080.47246  22784000.3124   22784012.8084   22784000.4414
       641.0924        499.5554        151.0004        165.0004
  -7813897.86648  -6070772.23246  21698994.3834   21699008.5624   21698993.7284
     -1778.8724      -1386.0844        169.0004        180.0004
   1354851.32244     95849.37144  24343433.6574
     -2242.3884      -1747.2874         74.0004        131.0004
  -8842102.82748  -1260839.99746  21550771.0994   21550786.5214   21550771.0514
      2579.9094       2010.3604        172.0004        184.0004
 03 10 28  0 33  0.0000000  0  8G27G 1G 8G13G 4G20G11G28
  -4722822.97747   1355944.41145  22262833.8824   22262841.8824   22262833.7894
     -1984.4724      -1546.3624        149.0004        162.0004
   2398339.05147  -1542503.88345  23839135.7034   23839140.4754   23839135.6754
       726.3924        566.0214        136.0004        150.0004
  -3689087.07744     17094.34043  22199848.5764
     -1350.6434      -1052.4494         74.0004         74.0004
   2006477.70546   1568127.34145  23821568.3234   23821574.0284   23821568.6954
      1299.7164       1012.7694        127.0004        138.0004
  -5507261.50047   -478931.95746  22780373.5744   22780385.7084   22780373.7474
       629.4444        490.4844        156.0004        171.0004
  -7760291.20148  -6029001.31446  21709195.8554   21709208.5924   21709195.1914
     -1794.9064      -1398.6244        170.0004        181.0004
   1422039.58544    148203.11844  24356219.5774
     -2236.9484      -1743.0514         67.0004        109.0004
  -8919319.98248  -1321009.77746  21536077.5344   21536092.3824   21536077.4364
      2567.8004       2000.8934        174.0004        185.0004
 03 10 28  0 33 30.0000000  0  8G27G 1G 8G13G 4G20G11G28
  -4663274.23947   1402346.90146  22274165.2024   22274172.8764   22274165.0234
     -1985.5914      -1547.2434        150.0004        164.0004
   2376539.84946  -1559490.32045  23834987.3934   23834992.4554   23834987.2844
       726.7994        566.3414        133.0004        146.0004
  -3648454.12544     48755.67746  22207581.0944
     -1358.2644      -1058.3524         74.0004        177.0004
   1967406.29546   1537682.10645  23814133.1924   23814139.0424   23814133.8164
      1304.9694       1016.8504        126.0004        143.0004
  -5525971.03547   -493510.91545  22776813.4884   22776825.1794   22776813.6924
       617.8234        481.4314        147.0004        159.0004
  -7706201.77148  -5986854.75346  21719489.1304   21719501.0184   21719488.5994
     -1810.9954      -1411.1614        166.0004        183.0004
   1489067.67344    200432.06744  24368975.0104
     -2231.5684      -1738.8634         72.0004        111.0004
  -8996174.73148  -1380896.94047  21521452.9324   21521467.6524   21521452.7854
      2555.6674       1991.3934        172.0004        194.0004
 03 10 28  0 34  0.0000000  0  8G27G 1G 8G13G 4G20G11G28
  -4603693.01247   1448774.11845  22285502.6524   22285511.3744   22285502.4714
     -1986.5294      -1547.9394        145.0004        161.0004
   2354729.15046  -1576485.59945  23830836.8134   23830841.9434   23830836.7754
       727.2234        566.6644        134.0004        150.0004
  -3607592.29647     80595.54446  22215357.1244   22215516.8804   22215430.6414
     -1365.7914      -1064.2204        154.0004        177.0004
   1928176.54446   1507113.59345  23806668.0404   23806673.7534   23806668.5684
      1310.3044       1021.0164        134.0004        151.0004
  -5544332.08547   -507818.40446  22773319.6014   22773331.2644   22773319.8074
       606.2964        472.4464        157.0004        176.0004
  -7651630.03948  -5944332.03547  21729874.3274   21729885.4524   21729873.8024
     -1827.0474      -1423.7124        166.0004        188.0004
   1555931.11344    252532.66444  24381699.3094
     -2226.0154      -1734.5334         65.0004        107.0004
  -9072665.46848  -1440500.58846  21506897.5694   21506912.0794   21506897.4154
      2543.6994       1982.1474        174.0004        185.0004
 03 10 28  0 34 30.0000000  0  8G27G 1G 8G13G 4G20G11G28
  -4544081.15747   1495224.73845  22296846.1094   22296854.8904   22296845.9264
     -1987.5044      -1548.6894        147.0004        161.0004
   2332909.23046  -1593488.01945  23826684.6624   23826689.6484   23826684.5884
       727.3664        566.7734        134.0004        150.0004
  -3566502.78747    112613.36546  22223176.5744   22223181.5764   22223249.3344
     -1373.3004      -1070.1244        155.0004        174.0004
   1888790.11146   1476422.89845  23799173.0594   23799178.8564   23799173.7034
      1315.4004       1024.9874        130.0004        145.0004
  -5562346.24247   -521855.60245  22769891.7694   22769903.5944   22769891.9184
       594.6644        463.3774        148.0004        153.0004
  -7596577.20448  -5901434.30046  21740351.0734   21740361.7604   21740350.5324
     -1843.3324      -1436.3334        167.0004        170.0004
   1622629.01944     24696.72843  24394392.1864
     -2220.6594      -1730.3844         74.0004         74.0004
  -9148787.36148  -1499816.26746  21492412.3414   21492426.7474   21492412.1724
      2531.2244       1972.4154        175.0004        186.0004
 03 10 28  0 35  0.0000000  0  8G27G 1G 8G13G 4G20G11G28
  -4484440.04647   1541698.05645  22308195.3064   22308203.6664   22308195.1274
     -1988.6254      -1549.5704        146.0004        157.0004
   2311082.54946  -1610495.68045  23822531.1684   23822536.0574   23822531.0254
       727.6754        567.0114        132.0004        146.0004
  -3525190.52047    144804.65946  22231038.2164   22231047.4734   22231038.2934
     -1380.7374      -1075.8714        157.0004        171.0004
   1849249.32747   1445612.07645  23791648.7174   23791654.3684   23791649.3004
      1320.6834       1029.1024        135.0004        155.0004
  -5580013.54247   -535622.47746  22766529.9844   22766542.1084   22766530.1254
       583.1424        454.3964        149.0004        163.0004
  -7541044.54748  -5858161.84446  21750918.9334   21750929.7194   21750918.3354
     -1859.0654      -1448.6044        168.0004        185.0004
   1689162.58644     76540.44445  24407053.6834
     -2215.0284      -1726.0014         74.0004        134.0004
  -9224538.24648  -1558842.84547  21477997.6924   21478011.9414   21477997.5034
      2518.8644       1962.7334        176.0004        196.0004
 03 10 28  0 35 30.0000000  0  8G27G 1G 8G13G 4G20G11G28
  -4424773.21147   1588191.51345  22319549.4104   22319557.6734   22319549.2534
     -1989.3124      -1550.1154        145.0004        161.0004
   2289250.27646  -1627507.82445  23818376.5944   23818381.7364   23818376.5944
       727.7954        567.1104        133.0004        148.0004
  -3483659.55347    177165.70545  22238941.5034   22238956.1894   22238941.3824
     -1387.8154      -1081.3864        145.0004        151.0004
   1809554.64346   1414681.13645  23784095.1114   23784100.9994   23784095.6154
      1325.7554       1033.0554        134.0004        146.0004
  -5597336.12447   -549120.30645  22763233.6594   22763245.0334   22763233.8734
       571.6024        445.3814        144.0004        153.0004
  -7485035.67748  -5814518.95947  21761577.4474   21761587.6294   21761576.9124
     -1874.9674      -1461.0704        169.0004        188.0004
   1755528.40146    128253.61845  24419682.9124   24419881.8874
     -2209.3314      -1721.5414        114.0004        141.0004
  -9299917.30948  -1617580.02647  21463653.7404   21463667.8634   21463653.5174
      2506.3924       1953.0384        176.0004        188.0004
 03 10 28  0 36  0.0000000  0  8G27G 1G 8G13G 4G20G11G28
  -4365082.57147   1634703.68746  22330908.1204   22330915.8694   22330907.9574
     -1989.9634      -1550.6144        147.0004        163.0004
   2267415.34846  -1644522.04045  23814221.3794   23814226.4974   23814221.2574
       727.8744        567.1824        130.0004        142.0004
  -3441910.41747    209696.34346  22246886.5194   22246904.8704   22246886.7394
     -1394.8414      -1086.8384        149.0004        173.0004
   1769708.99347   1383632.68245  23776512.6694   23776518.3044   23776513.1124
      1330.7684       1036.9544        136.0004        153.0004
  -5614315.40447   -562350.55346  22760002.5714   22760013.6634   22760002.8364
       560.3584        436.6474        154.0004        172.0004
  -7428550.78348  -5770504.66047  21772326.4254   21772336.4754   21772325.8974
     -1890.4874      -1473.1384        175.0004        197.0004
   1821726.35046    179835.60745  24432280.4194   24432479.7664   24432316.2014
     -2203.7124      -1717.1444        122.0004        136.0004
  -9374919.69348  -1676023.34647  21449381.3604   21449395.5044   21449381.1784
      2493.8994       1943.2964        177.0004        189.0004
 03 10 28  0 36 30.0000000  0  8G27G 1G 8G13G 4G20G11G28
  -4305370.43947   1681232.52945  22342270.9844   22342278.7744   22342270.7404
     -1990.7884      -1551.2924        144.0004        159.0004
   2245579.51346  -1661536.94345  23810066.1614   23810071.1524   23810066.0614
       727.7654        567.0844        131.0004        146.0004
  -3399944.88747    242395.83046  22254872.7074                   22254872.5094
     -1402.2594      -1092.6484        142.0004        167.0004
   1729712.49846   1352466.31145  23768901.5654   23768907.9664   23768901.9674
      1335.6244       1040.7624        131.0004        144.0004
  -5630953.03347   -575314.77946  22756836.4504   22756848.2034   22756836.9694
       548.8694        427.6844        153.0004        178.0004
  -7371592.13348  -5726121.17746  21783165.5284   21783175.3584   21783165.0354
     -1906.5614      -1485.6234        171.0004        184.0004
   1887756.56746    231287.23845  24444846.3524   24444863.0974   24444881.1114
     -2198.1614      -1712.8314        128.0004        148.0004
  -9449544.05948  -1734172.19647  21435181.0054   21435194.9744   21435180.7554
      2481.0774       1933.3064        177.0004        188.0004
 03 10 28  0 37  0.0000000  0  8G27G 1G 8G13G 4G20G11G28
  -4245639.99547   1727775.80045  22353637.2964   22353644.7944   22353637.0854
     -1991.2694      -1551.6384        147.0004        161.0004
   2223745.51746  -1678550.33545  23805911.4654   23805916.1674   23805911.2294
       727.8894        567.1814        132.0004        148.0004
  -3357766.92147    275261.70045  22262899.1424   22262903.5984   22262898.8924
     -1409.4494      -1098.2684        135.0004        139.0004
   1689569.09247   1321185.54445  23761262.6304   23761268.6984   23761263.0614
      1340.5944       1044.6164        136.0004        152.0004
  -5647250.35847   -588014.07745  22753735.0954   22753747.5854   22753735.7204
       537.5824        418.8944        143.0004        149.0004
  -7314160.02548  -5681368.35346  21794094.5614   21794104.2854   21794094.0534
     -1922.3134      -1497.9024        169.0004        178.0004
   1953617.52546    282606.79945  24457379.6194   24457397.3134   24457379.4794
     -2192.4924      -1708.4104        128.0004        148.0004
  -9523786.22248  -1792023.07547  21421053.2194   21421067.1864   21421052.9744
      2468.4164       1923.4264        177.0004        190.0004
 03 10 28  0 37 30.0000000  0  8G27G 1G 8G13G 4G20G11G28
  -4185892.93347   1774331.83045  22365006.8154   22365014.4664   22365006.5064
     -1991.8764      -1552.1084        149.0004        162.0004
   2201915.33646  -1695560.85645  23801757.2354   23801762.2484   23801756.9424
       727.5804        566.9514        131.0004        145.0004
  -3315379.42845    308290.62344  22270965.2904                   22270962.1074
     -1416.2724      -1103.5464         98.0004        102.0004
   1649279.95346   1289791.41845  23753595.9274   23753601.5754   23753596.4544
      1345.3454       1048.3234        134.0004        147.0004
  -5663207.38247   -600447.72645  22750698.5234   22750709.1914   22750699.0644
       526.3084        410.1074        135.0004        142.0004
  -7256258.30148  -5636249.98446  21805112.7864   21805124.2844   21805112.1474
     -1937.9074      -1510.0514        167.0004        185.0004
   2019308.78046    333794.11745  24469880.6714   24469898.5724   24469880.8324
     -2186.9314      -1704.0944        126.0004        139.0004
  -9597644.27248  -1849574.71847  21406998.4744   21407012.4374   21406998.2564
      2455.5134       1913.3764        177.0004        191.0004
 03 10 28  0 38  0.0000000  0  8G27G 1G 8G13G 4G20G11G28
  -4126131.97747   1820898.85645  22376378.9464   22376386.2804   22376378.6524
     -1992.3984      -1552.5234        147.0004        159.0004
   2180090.61046  -1712567.36245  23797603.9834   23797609.4084   23797603.9134
       727.3464        566.7694        130.0004        144.0004
  -3272786.40345    341479.66444  22279070.5084                   22279050.9194
     -1423.2234      -1109.0074         92.0004        117.0004
   1608846.38347   1258284.64245  23745901.6504   23745907.5084   23745902.2774
      1350.1044       1052.0364        135.0004        148.0004
  -5678827.69947   -612619.57245  22747725.9974   22747738.1664   22747726.2794
       514.9704        401.2844        148.0004        154.0004
  -7197888.15348  -5590766.46547  21816220.2324   21816231.4124   21816219.6134
     -1953.4624      -1522.2254        172.0004        203.0004
   2084830.01146    384849.26945  24482349.4554   24482366.9404   24482349.4094
     -2181.2724      -1699.6874        123.0004        136.0004
  -9671115.36848  -1906824.74747  21393017.3724   21393031.3194   21393017.1454
      2442.4924       1903.2224        178.0004        191.0004
 03 10 28  0 38 30.0000000  0  8G27G 1G 8G13G 4G20G11G28
  -4066359.28647   1867475.43445  22387753.1994   22387760.2944   22387753.0544
     -1992.6354      -1552.7264        146.0004        162.0004
   2158274.48546  -1729566.93845  23793452.4784   23793457.4424   23793452.4404
       727.0124        566.5004        130.0004        146.0004
  -3229990.20345    374827.41144  22287214.3964
     -1429.7634      -1114.1024         81.0004        115.0004
   1568270.51247   1226666.93545  23738180.3574   23738186.2164   23738180.9124
      1354.8054       1055.6904        136.0004        151.0004
  -5694110.60147   -624528.14546  22744817.6294   22744829.1604   22744817.7814
       503.8474        392.6104        162.0004        183.0004
  -7139052.74347  -5544920.11844  21827416.2504                   21827408.6634
     -1968.8804      -1534.1884        139.0004        118.0004
   2150178.97546    435770.13145  24494785.2784   24494803.5184   24494785.3074
     -2175.5414      -1695.2074        124.0004        142.0004
  -9744197.09948  -1963771.49247  21379110.3564   21379124.3304   21379110.1164
      2429.4964       1893.1064        178.0004        188.0004
 03 10 28  0 39  0.0000000  0  8G27G 1G 8G13G 4G20G11G28
  -4006577.87447   1914058.77845  22399129.0214   22399136.2994   22399128.8434
     -1992.9434      -1552.9344        146.0004        160.0004
   2136469.17046  -1746558.12145  23789303.2914   23789308.0564   23789303.2294
       726.4664        566.0794        131.0004        147.0004
  -3186993.44544     19300.26343  22295396.5944
     -1436.7154      -1119.5184         74.0004         74.0004
   1527554.50147   1194940.11745  23730432.5424   23730438.3434   23730433.1144
      1359.3604       1059.2444        138.0004        155.0004
  -5709059.01447   -636176.59346  22741972.9434   22741984.9994   22741973.2224
       492.5384        383.8164        158.0004        168.0004
  -7079751.42546  -5498711.83644  21838700.9884                   21838673.8444
     -1984.6424      -1546.4254        113.0004        117.0004
   2215355.88746    486556.42644  24507188.4544   24507208.0274   24507188.2344
     -2170.0434      -1690.9114        108.0004        122.0004
  -9816885.70748  -2020411.85347  21365278.1394   21365292.0434   21365277.9014
      2416.2094       1882.7484        178.0004        192.0004
 03 10 28  0 39 30.0000000  0  8G27G 1G 8G13G 4G20G11G28
  -3946790.54147   1960646.08945  22410506.0344   22410515.4404   22410505.8514
     -1993.0974      -1553.0744        142.0004        160.0004
   2114676.16546  -1763539.72045  23785156.1854   23785161.1274   23785156.2214
       726.1494        565.8324        131.0004        146.0004
  -3143798.66744     52958.87744  22303616.4214
     -1443.1884      -1124.5604         74.0004        111.0004
   1486699.19347   1163104.78445  23722658.1834   23722664.0204   23722658.5974
      1364.0524       1062.9004        136.0004        148.0004
  -5723673.35347   -647564.41546  22739192.0124   22739203.6284   22739192.2464
       481.5384        375.2214        161.0004        182.0004
  -7019987.76145  -5452143.51644  21850073.8624   21850046.0684   21850030.4774
     -1999.8974      -1558.3324        103.0004        127.0004
   2280360.10546    537208.54044  24519558.7354   24519577.4874   24519557.8154
     -2164.0454      -1686.2694        108.0004        128.0004
  -9889179.80448  -2076744.94247  21351520.9424   21351534.8744   21351520.7114
      2403.1184       1872.5544        178.0004        190.0004
 03 10 28  0 40  0.0000000  0  8G27G 1G 8G13G 4G20G11G28
  -3886998.64547   2007237.52746  22421884.0034   22421891.8974   22421883.7664
     -1993.2164      -1553.1654        147.0004        163.0004
   2092898.37646  -1780509.49145  23781011.8804   23781016.8404   23781011.9824
       725.5254        565.3474        131.0004        144.0004
  -3100404.67044     86772.60844  22311874.1824
     -1449.8094      -1129.7334         74.0004        111.0004
   1445707.27147   1131163.00745  23714857.6404   23714863.6294   23714857.9984
      1368.5554       1066.4084        135.0004        147.0004
  -5737954.69547   -658692.53745  22736474.3294   22736485.8374   22736474.6264
       470.2634        366.4264        153.0004        157.0004
  -6959760.95845  -5405213.32244  21861534.8794                   21861480.3794
     -2015.2764      -1570.3164         95.0004        120.0004
   2345190.47646    587725.10044  24531895.9464   24531915.6224   24531895.5954
     -2158.3294      -1681.7974        109.0004        124.0004
  -9961075.40348  -2132767.37047  21337839.6954   21337853.5574   21337839.4084
      2389.7374       1862.1324        179.0004        190.0004
 03 10 28  0 40 30.0000000  0  8G27G 1G 8G13G 4G20G11G28
  -3827205.88447   2053829.27946  22433262.1174   22433270.3154   22433261.8934
     -1992.9954      -1552.9874        147.0004        163.0004
   2071137.70746  -1797465.84745  23776871.1034   23776875.8124   23776871.2014
       725.0064        564.9394        133.0004        149.0004
  -3056817.33544     16712.04843  22320168.3294
     -1455.9904      -1134.5384         74.0004         74.0004
   1404580.72647   1099116.41445  23707031.4894   23707037.4504   23707031.8554
      1373.0684       1069.9264        136.0004        150.0004
  -5751904.77347   -669562.09045  22733819.5504   22733831.0704   22733819.7804
       459.6374        358.1564        153.0004        162.0004
  -6899075.99644  -5357927.05244  21873083.0444                   21873013.7374
     -2030.6254      -1582.2914         78.0004        109.0004
   2409847.33646    638106.19944  24544199.9554   24544220.9934   24544200.2614
     -2152.4504      -1677.1994        105.0004        122.0004
 -10032570.90848  -2188478.13147  21324234.4784   21324248.4064   21324234.1984
      2376.3944       1851.7424        179.0004        192.0004
 03 10 28  0 41  0.0000000  0  8G27G 1G 8G13G 4G20G11G28
  -3767413.43447   2100420.79145  22444640.2604   22444648.0854   22444640.0504
     -1993.2174      -1553.1644        147.0004        160.0004
   2049396.83746  -1814406.81945  23772734.0894   23772738.8694   23772733.9984
       724.2774        564.3664        131.0004        146.0004
  -3013040.62444     50825.97645  22328498.1804
     -1462.6214      -1139.8674         74.0004        135.0004
   1363321.27347   1066966.15145  23699180.1404   23699186.2584   23699180.5154
      1377.4634       1073.3504        137.0004        154.0004
  -5765525.43947   -680175.64646  22731227.4354   22731240.3814   22731227.6744
       448.5234        349.4924        148.0004        163.0004
  -6837933.18744  -5310282.97244  21884718.3924
     -2045.6424      -1594.0194         65.0004        111.0004
   2474330.52646    688352.67044  24556471.2084   24556490.1374   24556471.1564
     -2146.5574      -1672.6664        107.0004        126.0004
 -10103662.75448  -2243874.38247  21310706.1514   21310720.0494   21310705.8554
      2362.9034       1841.2074        179.0004        188.0004
 03 10 28  0 41 30.0000000  0  8G27G 1G 8G13G 4G20G11G28
  -3707623.59347   2147010.94745  22456017.8044   22456024.5794   22456017.6944
     -1992.9244      -1552.9504        144.0004        160.0004
   2027677.59946  -1831330.89445  23768601.0294   23768605.8344   23768600.9684
       723.6544        563.8884        131.0004        145.0004
  -2969076.06344     85087.48444  22336863.5344   22337102.4914
     -1468.4544      -1144.3684         67.0004        116.0004
   1321929.87247   1034713.04645  23691303.6674   23691309.5954   23691304.0524
      1382.0374       1076.9194        139.0004        151.0004
  -5778817.84147   -690532.81345  22728697.9034   22728709.2494   22728698.1724
       437.7014        341.0374        141.0004        156.0004
  -6776334.79844     16470.57343  21896440.4934
     -2060.6954      -1605.7374         74.0004         74.0004
   2538636.71046    738461.14645  24568708.6554   24568727.2594   24568708.9984
     -2140.6094      -1667.9924        111.0004        133.0004
 -10174348.77948  -2298954.29047  21297255.0364   21297268.8484   21297254.7204
      2349.4674       1830.7554        180.0004        193.0004
 03 10 28  0 42  0.0000000  0  8G27G 1G 8G13G 4G20G11G28
  -3647839.82247   2193596.27045  22467394.1094   22467401.1604   22467393.9174
     -1992.7434      -1552.7894        143.0004        156.0004
   2005982.65346  -1848236.06145  23764472.5094   23764477.5984   23764472.4664
       722.6354        563.0934        131.0004        146.0004
  -2924930.75644    119489.73944  22345263.1124
     -1474.9204      -1149.3924         67.0004        110.0004
   1280409.47247   1002359.34745  23683402.6284   23683408.4854   23683403.0784
      1386.0824       1080.0634        139.0004        155.0004
  -5791783.55747   -700635.55846  22726230.4584   22726242.2284   22726230.7334
       426.7114        332.4904        146.0004        166.0004
  -6714282.41944     64821.44344  21908249.1624
     -2076.0284      -1617.6284         74.0004        113.0004
   2602768.18846    788433.57745  24580913.1274   24580931.6544   24580913.0224
     -2134.8734      -1663.5324        114.0004        133.0004
 -10244625.70548  -2353715.43147  21283881.7884   21283895.5584   21283881.4594
      2335.6094       1819.9524        180.0004        189.0004
 03 10 28  0 42 30.0000000  0  8G27G 1G 8G13G 4G20G11G28
  -3588064.55747   2240174.40845  22478768.6794   22478777.1544   22478768.6054
     -1992.4154      -1552.5404        144.0004        161.0004
   1984313.60946  -1865120.97745  23760349.1444   23760353.8994   23760349.1114
       721.7174        562.3764        132.0004        147.0004
  -2880604.38944    154032.98644  22353697.2474
     -1480.6504      -1153.8634         72.0004        112.0004
   1238762.40047    969907.15845  23675477.5254   23675483.1334   23675477.9724
      1390.2664       1083.3114        137.0004        154.0004
  -5804425.15747   -710486.16546  22723824.7164   22723836.7664   22723824.9694
       415.9934        324.1564        162.0004        179.0004
  -6651777.98847    113525.14146  21920143.8574   21920171.8274   21920540.5204
     -2091.0714      -1629.3524        151.0004        165.0004
   2666722.29946    838267.64945  24593083.3124   24593102.4174   24593083.4064
     -2128.9854      -1658.9384        116.0004        134.0004
 -10314491.64848  -2408156.35747  21270586.5964   21270600.4174   21270586.3374
      2321.8714       1809.2444        180.0004        192.0004
 03 10 28  0 43  0.0000000  0  8G27G 1G 8G13G 4G20G11G28
  -3528299.84947   2286744.56046  22490141.2544   22490149.0974   22490141.1084
     -1991.9334      -1552.1664        146.0004        163.0004
   1962672.93946  -1881983.78145  23756231.1214   23756235.9184   23756231.0774
       720.8684        561.7154        132.0004        148.0004
  -2836100.85044    188714.27944  22362165.1494
     -1486.1604      -1158.1704         72.0004        109.0004
   1196988.83747    937356.37745  23667528.2904   23667533.9314   23667528.7294
      1394.4874       1086.6184        137.0004        152.0004
  -5816743.12447   -720084.61146  22721480.5314   22721493.0264   22721480.7714
       405.2844        315.8134        154.0004        172.0004
  -6588821.76248    162581.44147  21932124.6014   21932138.1284   21932125.8404
     -2106.0574      -1641.0824        169.0004        196.0004
   2730499.35746    887963.92945  24605219.9524   24605239.2314   24605219.9104
     -2122.9764      -1654.2594        123.0004        139.0004
 -10383943.80048  -2462274.83847  21257370.3444   21257384.0474   21257370.0314
      2308.1384       1798.5434        181.0004        192.0004
 03 10 28  0 43 30.0000000  0  8G27G 1G 8G13G 4G20G11G28
  -3468548.50847   2333304.04045  22501511.3654   22501519.4844   22501511.2374
     -1991.4714      -1551.7894        143.0004        158.0004
   1941062.84946  -1898822.81645  23752118.8744   23752123.6544   23752118.7754
       719.7904        560.8674        131.0004        145.0004
  -2791419.63044     32204.52845  22370667.1454
     -1491.8564      -1162.5974         74.0004        154.0004
   1155092.03046    904709.52345  23659555.6484   23659561.2274   23659555.9444
      1398.6314       1089.8434        132.0004        146.0004
  -5828739.27447   -729432.60045  22719197.6504   22719210.3014   22719197.9804
       394.5714        307.4784        147.0004        161.0004
  -6525418.07148    211986.18146  21944190.4694   21944204.8094   21944191.2694
     -2120.9374      -1652.6644        165.0004        170.0004
   2794098.09446    937521.18445  24617322.6714   24617342.3934   24617322.5714
     -2116.9744      -1649.5864        124.0004        141.0004
 -10452979.47548  -2516068.85447  21244233.2584   21244246.8994   21244232.9334
      2294.2404       1787.7224        181.0004        193.0004
 03 10 28  0 44  0.0000000  0  8G27G 1G 8G13G 4G20G11G28
  -3408811.20247   2379852.88546  22512878.8804   22512886.4454   22512878.7814
     -1990.8194      -1551.3034        145.0004        163.0004
   1919486.52646  -1915635.40745  23748013.1424   23748017.5354   23748012.9254
       718.7834        560.0914        130.0004        145.0004
  -2746568.20844     67157.45444  22379201.3014
     -1497.7964      -1167.2414         74.0004        117.0004
   1113074.08746    871968.27445  23651559.8194   23651565.6334   23651559.9934
      1402.7604       1093.0614        134.0004        149.0004
  -5840415.14647   -738531.26645  22716975.9284   22716988.6594   22716976.2174
       384.0034        299.2344        145.0004        157.0004
  -6461567.21848    261739.70246  21956341.3274   21956354.3284   21956341.9594
     -2135.6554      -1664.1314        169.0004        184.0004
   2857518.15946    986939.03945  24629391.3654   24629411.7034   24629391.4834
     -2110.9004      -1644.8444        124.0004        142.0004
 -10521595.47448  -2569535.97347  21231175.9724   21231189.6464   21231175.7554
      2280.3074       1776.8554        181.0004        192.0004
 03 10 28  0 44 30.0000000  0  8G27G 1G 8G13G 4G20G11G28
  -3349092.68647   2426386.81545  22524242.7124   22524250.3274   22524242.7024
     -1990.3844      -1550.9484        144.0004        159.0004
   1897945.08146  -1932420.86745  23743913.9624   23743918.5404   23743913.6624
       717.3734        558.9924        131.0004        146.0004
  -2701548.83844    102241.43244  22387767.8244
     -1503.5344      -1171.7234         74.0004        110.0004
   1070935.93247    839133.28045  23643541.1844   23643547.2634   23643541.2914
      1406.4934       1095.9704        135.0004        150.0004
  -5851771.95347   -747380.95045  22714814.8904   22714825.8754   22714815.1284
       373.1634        290.7874        142.0004        156.0004
  -6397272.11248    311839.17446  21968576.7194   21968589.0834   21968577.0764
     -2150.7964      -1675.9494        165.0004        174.0004
   2920758.39446   1036216.71145  24641426.0444   24641446.3734   24641425.6264
     -2105.0914      -1640.3184        115.0004        132.0004
 -10589789.87548  -2622674.41947  21218199.0004   21218212.6804   21218198.7814
      2265.9644       1765.6844        181.0004        193.0004
                            4  1
RINEX FILE SPLICE; other post-header comments skipped       COMMENT
 03 10 28  0 45  0.0000000  0  8G27G 1G 8G13G 4G20G11G28
  -3289393.54047   2472905.95145  22535602.9344   22535610.0084   22535602.9994
     -1989.8554      -1550.5314        141.0004        157.0004
   1876441.39146  -1949176.94245  23739821.8914   23739826.5224   23739821.5144
       716.0194        557.9324        131.0004        147.0004
  -2656361.42244     30218.11743  22396366.5384
     -1509.1404      -1176.1934         74.0004         76.0004
   1028680.28047    806206.65145  23635500.1894   23635506.4264   23635500.5154
      1410.2484       1098.8954        137.0004        153.0004
  -5862811.24747   -755983.43145  22712714.4244   22712726.5584   22712714.6104
       362.3784        282.3824        150.0004        161.0004
  -6332533.86048    362284.46746  21980896.4534   21980908.3044   21980896.6114
     -2165.4444      -1687.3404        165.0004        176.0004
   2983818.74746   1085354.12844  24653426.1944   24653446.7224   24653426.2344
     -2099.2754      -1635.7834        110.0004        129.0004
 -10657559.70248  -2675481.98447  21205302.8304   21205316.4874   21205302.5524
      2251.7414       1754.5994        181.0004        192.0004
 03 10 28  0 45 30.0000000  0  8G27G 1G 8G13G 4G20G11G28
  -3229716.83646   2519407.50944  22546958.9124                   22546959.1334
     -1988.9254      -1549.8204        109.0004        112.0004
   1854977.77646  -1965901.68845  23735737.5064   23735741.9464   23735737.1254
       714.7064        556.9064        130.0004        146.0004
  -2611009.70844     65562.64144  22404996.5334
     -1514.5594      -1180.3734         74.0004        107.0004
    986309.61947    773190.66045  23627437.3424   23627443.0284   23627437.6304
      1414.2674       1102.0204        138.0004        155.0004
  -5873534.37547   -764339.72446  22710674.1724   22710686.6654   22710674.3484
       352.1974        274.4584        153.0004        173.0004
  -6267355.04748    413072.99146  21993299.8824   21993311.4614   21993299.8774
     -2179.9314      -1698.6244        171.0004        185.0004
   3046699.20746   1134351.54944  24665392.0624   24665412.3914   24665392.1124
     -2093.0424      -1630.9334        107.0004        127.0004
 -10724902.17248  -2727956.59947  21192487.8524   21192501.5714   21192487.6244
      2237.5634       1743.5484        181.0004        194.0004
 03 10 28  0 46  0.0000000  0  8G27G 1G 8G13G 4G20G11G28
  -3170063.99245   2565890.53544  22558310.3974                   22558313.2874
     -1988.0024      -1549.1064         86.0004        111.0004
   1833555.93146  -1982593.90045  23731661.0574   23731665.6154   23731660.4184
       713.4014        555.9004        131.0004        147.0004
  -2565499.71544    101030.48344  22413657.0314
     -1519.9884      -1184.5754         74.0004        107.0004
    943824.76047    740085.54945  23619352.6884   23619358.6374   23619352.9744
      1417.9814       1104.9274        138.0004        154.0004
  -5883943.49647   -772451.49845  22708693.6394   22708706.2224   22708693.9094
       341.7434        266.3164        149.0004        156.0004
  -6201737.91848    464202.95446  22005786.7084   22005798.3774   22005786.5884
     -2194.5784      -1710.0354        168.0004        178.0004
   3109399.06946   1183208.41945  24677323.7384   24677343.9554   24677323.5074
     -2086.9734      -1626.2044        115.0004        137.0004
 -10791815.18848  -2780096.63847  21179754.7134   21179768.3814   21179754.5014
      2223.2464       1732.4124        181.0004        194.0004
 03 10 28  0 46 30.0000000  0  8G27G 1G 8G13G 4G20G11G28
  -3110438.63444   2612352.10344  22569656.7064
     -1987.3284      -1548.5604         69.0004        109.0004
   1812178.67846  -1999251.61445  23727592.9634   23727597.8304   23727592.3364
       711.7134        554.5834        130.0004        146.0004
  -2519831.24844     27612.62143  22422347.9614
     -1524.9944      -1188.3084         74.0004         74.0004
    901228.62747    706893.66545  23611247.0094   23611252.8614   23611247.3194
      1421.5714       1107.7164        138.0004        153.0004
  -5894039.30447   -780319.01545  22706772.7634   22706785.1214   22706773.2294
       331.3024        258.1714        147.0004        158.0004
  -6135682.89248    515674.41446  22018356.7684   22018368.1524   22018356.5884
     -2209.3284      -1721.5884        168.0004        179.0004
   3171916.69046   1231922.87644  24689220.9284   24689242.4344   24689221.0984
     -2081.0964      -1621.6194        108.0004        130.0004
 -10858295.72448  -2831899.66047  21167103.9364   21167117.5444   21167103.6824
      2208.6604       1721.0274        182.0004        194.0004
 03 10 28  0 47  0.0000000  0  8G27G 1G 8G13G 4G20G11G28
  -3050841.82444      9703.28443  22580997.5304
     -1986.1384      -1547.6384         74.0004         74.0004
   1790847.41246  -2015873.49245  23723533.7144   23723538.4254   23723533.0794
       710.1234        553.3374        130.0004        146.0004
  -2474006.10444     63319.40946  22431069.0134
     -1530.1154      -1192.2434         74.0004        170.0004
    858522.30047    673615.95745  23603120.3854   23603126.2004   23603120.5834
      1425.2904       1110.6284        137.0004        149.0004
  -5903824.45447   -787944.29045  22704911.0354   22704922.6674   22704911.4904
       320.8894        250.0554        135.0004        147.0004
  -6069195.19048    567482.92746  22031009.1094   22031020.6384   22031008.8914
     -2223.5684      -1732.6624        168.0004        182.0004
   3234251.92846   1280495.41344  24701083.2174   24701103.5864   24701083.0244
     -2074.9324      -1616.8204        110.0004        128.0004
 -10924342.09648  -2883364.37947  21154535.6484   21154549.3014   21154535.4314
      2194.1794       1709.7494        182.0004        194.0004
 03 10 28  0 47 30.0000000  0  8G27G 1G 8G13G 4G20G11G28
  -2991275.55144     56118.58345  22592332.4224
     -1984.9054      -1546.7014         74.0004        157.0004
   1769565.37646  -2032456.98445  23719484.0234   23719488.4594   23719483.3954
       708.5874        552.1524        132.0004        147.0004
  -2428027.71047     99145.50646  22439819.2134   22440013.2554
     -1534.9914      -1196.0504        135.0004        163.0004
    815708.08547    640253.78945  23594973.2214   23594979.6414   23594973.4524
      1428.9074       1113.4454        139.0004        154.0004
  -5913299.03146   -795327.13045  22703108.5164   22703119.8324   22703108.7824
       310.6584        242.0764        134.0004        150.0004
  -6002273.10847    619630.33645  22043744.1334   22043755.3124   22043743.8664
     -2238.0464      -1743.9614        160.0004        160.0004
   3296404.68946   1328925.46144  24712910.4864   24712931.8214   24712911.1474
     -2068.5944      -1611.8754        106.0004        130.0004
 -10989950.87048  -2934488.11147  21142050.7804   21142064.3884   21142050.5264
      2179.6514       1698.4354        182.0004        194.0004
 03 10 28  0 48  0.0000000  0  8G27G 1G 8G13G 4G20G11G28
  -2931742.32845    102509.08945  22603661.0814   22603534.1354
     -1983.9284      -1545.9614         97.0004        154.0004
   1748334.92146  -2049000.19345  23715443.9844   23715448.3584   23715443.3804
       706.7794        550.7394        131.0004        146.0004
  -2381898.66045    135088.90344  22448598.2984                   22448763.0784
     -1539.8874      -1199.8654        104.0004        115.0004
    772788.97047    606810.39345  23586805.9684   23586811.2734   23586806.3324
      1432.3324       1116.0884        135.0004        155.0004
  -5922465.66547   -802470.13345  22701364.3244   22701375.8554   22701364.6764
       300.5124        234.1984        142.0004        162.0004
  -5934919.06947    672116.24045  22056561.0114   22056568.1534   22056560.7224
     -2252.1814      -1755.0304        153.0004        158.0004
   3358375.79445   1377214.32944  24724703.6734                   24724701.8304
     -2062.3234      -1607.0054         81.0004        109.0004
 -11055119.70448  -2985269.04947  21129649.5204   21129663.1914   21129649.2884
      2164.9274       1686.9584        182.0004        194.0004
 03 10 28  0 48 30.0000000  0  8G27G 1G 8G13G 4G20G11G28
  -2872244.64946    148872.16345  22614982.6724   22614860.3294   22614958.9944
     -1982.7704      -1545.0574        133.0004        152.0004
   1727158.12646  -2065501.60745  23711414.1104   23711418.7284   23711413.6154
       704.8524        549.2304        129.0004        145.0004
  -2335621.04545    171148.23444  22457405.5014                   22457400.0574
     -1545.4984      -1204.2354         79.0004        106.0004
    729765.85347    573285.84645  23578618.9764   23578624.7034   23578619.2334
      1435.6974       1118.7254        135.0004        151.0004
  -5931327.07647   -809376.10145  22699678.3164   22699692.9134   22699678.5394
       290.1534        226.1274        144.0004        152.0004
  -5867139.02846    724934.05544  22069458.8294                   22069458.6744
     -2266.7714      -1766.3654        119.0004        112.0004
   3420163.74444   1425360.43044  24736461.8324
     -2056.7204      -1602.6324         69.0004        111.0004
 -11119846.03048  -3035705.12247  21117332.4514   21117346.2034   21117332.2414
      2150.0424       1675.3534        182.0004        194.0004
 03 10 28  0 49  0.0000000  0  8G27G 1G 8G13G 4G20G11G28
  -2812784.87446    195205.94645  22626296.9434   22626290.6574   22626271.6484
     -1981.2504      -1543.8934        132.0004        148.0004
   1706037.23746  -2081959.37345  23707394.8714   23707399.4204   23707394.4344
       703.1154        547.8854        131.0004        148.0004
  -2289198.65744    207320.19644  22466240.2514
     -1549.3114      -1207.2044         73.0004        111.0004
    686641.80047    539682.79945  23570412.8584   23570418.2524   23570413.0824
      1439.2134       1121.4584        139.0004        157.0004
  -5939885.00946   -816045.53244  22698050.3794                   22698050.6994
       280.2944        218.4514        111.0004        111.0004
  -5798934.44945    778082.81544  22082437.5164                   22082421.8764
     -2280.5164      -1777.0614         94.0004        118.0004
   3481767.13244   1473362.68744  24748184.5104
     -2050.3554      -1597.6614         67.0004        109.0004
 -11184127.51048  -3085794.53447  21105100.0534   21105113.8754   21105099.8894
      2135.3394       1663.8984        182.0004        195.0004
 03 10 28  0 49 30.0000000  0  8G27G 1G 8G13G 4G20G11G28
  -2753368.20746    241505.86044  22637602.9224   22637622.6694   22637600.7444
     -1979.7804      -1542.7294        115.0004        119.0004
   1684974.47746  -2098371.87345  23703386.8704   23703391.1234   23703386.3964
       701.1054        546.3134        133.0004        150.0004
  -2242632.15944      4535.58343  22475102.1374
     -1554.6244      -1211.4064         74.0004         74.0004
    643418.25147    506002.36345  23562187.5354   23562193.1964   23562187.8704
      1442.5374       1124.0504        139.0004        154.0004
  -5948138.49845   -822477.79544  22696480.4614                   22696483.6504
       270.0784        210.4894         87.0004        111.0004
  -5730307.44944    831560.28544  22095496.7864                   22095478.8194
     -2294.6334      -1788.0674         74.0004        109.0004
   3543186.15544     21893.63443  24759871.7284
     -2044.1704      -1592.8614         74.0004         74.0004
 -11247961.56748  -3135535.17947  21092952.9004   21092966.6184   21092952.6504
      2120.3474       1652.2144        183.0004        195.0004
 03 10 28  0 50  0.0000000  0  8G27G 1G 8G13G 4G20G11G28
  -2693993.57945    287773.09644  22648901.0624                   22648904.0124
     -1978.4544      -1541.6834         90.0004        110.0004
   1663972.48946  -2114737.04345  23699390.3184   23699394.6944   23699389.7664
       699.0734        544.7344        132.0004        148.0004
  -2195925.44244     40931.19646  22483990.3314
     -1559.1824      -1215.0214         74.0004        165.0004
    600097.33147    472245.89445  23553943.8344   23553949.8114   23553944.1714
      1445.6054       1126.4454        140.0004        155.0004
  -5956088.32954   -828673.41344  22694968.0634
       260.7384        203.1974         74.0004        108.0004
  -5661255.91744     31865.30543  22108637.0134
     -2308.5934      -1798.9044         74.0004         74.0004
   3604417.47344     69696.40644  24771523.6344
     -2038.0654      -1592.9824         74.0004        106.0004
 -11311345.50048  -3184925.04147  21080891.2094   21080905.0274   21080891.0004
      2105.3044       1640.4934        183.0004        195.0004
 03 10 28  0 50 30.0000000  0  7G27G 1G 8G13G 4G20G28
  -2634663.20745    334006.18445  22660190.7634
     -1976.8244      -1540.4294        100.0004        138.0004
   1643033.80946  -2131052.99745  23695405.7014   23695410.3784   23695405.2424
       696.9544        543.0844        134.0004        150.0004
  -2149080.79246     77435.20846  22492904.4274   22493071.4144
     -1563.3944      -1218.2744        121.0004        169.0004
    556681.69046    438415.46645  23545682.0234   23545688.3574   23545682.3314
      1448.8104       1128.9214        133.0004        149.0004
  -5963738.55344     -1322.46443  22693512.6254
       250.0894        194.8764         74.0004         74.0004
  -5591784.74947     85998.85646  22121857.0414   22121973.4294
     -2322.5934      -1809.8274        150.0004        172.0004
 -11374276.41748  -3233961.92047  21068915.7444   21068929.5554   21068915.5574
      2090.1814       1628.7044        183.0004        195.0004
 03 10 28  0 51  0.0000000  0  7G27G 1G 8G13G 4G20G28
  -2575382.76545    380200.12344  22671471.0084                   22671468.1644
     -1975.1654      -1539.1174         88.0004        111.0004
   1622159.61446  -2147318.73945  23691433.3994   23691438.1844   23691432.9834
       694.7844        541.3944        132.0004        147.0004
  -2102105.06846    114040.92544  22501843.3754   22502048.1934   22501867.0494
     -1567.9664      -1221.8354        111.0004        126.0004
    513172.00647    404511.87645  23537402.5064   23537408.4214   23537402.8134
      1451.9184       1131.3794        138.0004        154.0004
  -5971092.31144     -7052.33644  22692113.6854
       240.2364        187.1684         74.0004        103.0004
  -5521897.09747    140456.26946  22135156.2434   22135170.3134   22135368.1264
     -2336.3174      -1820.4804        162.0004        173.0004
 -11436753.12248  -3282644.90047  21057026.7844   21057040.4844   21057026.5504
      2074.9944       1616.8784        183.0004        195.0004
 03 10 28  0 51 30.0000000  0  7G27G 1G 8G13G 4G20G28
  -2516151.54044    426355.78744  22682742.2564
     -1973.3804      -1537.7384         72.0004        107.0004
   1601353.25746  -2163531.47745  23687474.0524   23687478.5994   23687473.7144
       692.4464        539.5664        133.0004        150.0004
  -2055001.77745    150746.17744  22510806.4934                   22510831.9904
     -1572.1244      -1225.0694         88.0004        111.0004
    469570.92546    370536.53345  23529105.6864   23529112.6034   23529105.8654
      1454.9704       1133.7484        134.0004        151.0004
  -5978149.55744    -12550.66744  22690771.3144
       230.3484        179.4554         74.0004        107.0004
  -5451594.66647    195237.71446  22148534.5634   22148543.5004   22148533.2424
     -2350.3154      -1831.4404        153.0004        166.0004
 -11498772.59148  -3330971.54647  21045224.6984   21045238.4224   21045224.4874
      2059.6914       1604.9444        183.0004        195.0004
 03 10 28  0 52  0.0000000  0  7G27G 1G 8G13G 4G20G28
  -2456971.55244    472471.48144  22694003.7654
     -1971.7814      -1536.4954         73.0004        108.0004
   1580616.20246  -2179690.25045  23683527.9214   23683532.4814   23683527.5724
       690.1274        537.7604        133.0004        147.0004
  -2007770.44044    187551.11344  22519794.2124
     -1576.3844      -1228.3844         73.0004        105.0004
    425880.79647    336492.04245  23520791.7834   23520797.8884   23520791.8244
      1457.9044       1136.0404        139.0004        155.0004
  -5984912.39244      -737.91243  22689484.8344
       220.5674        171.8704         74.0004         74.0004
  -5380878.01947    250341.38944  22161991.8514                   22161990.6854
     -2364.0434      -1842.1024        143.0004        111.0004
 -11560332.54248  -3378940.09747  21033510.1494   21033523.8134   21033509.9354
      2044.3614       1592.9994        183.0004        195.0004
 03 10 28  0 52 30.0000000  0  7G27G 1G 8G13G 4G20G28
  -2397845.68944     12711.66443  22705255.1834
     -1970.0014      -1535.0664         74.0004         74.0004
   1559950.69346  -2195793.46645  23679595.4414   23679600.3984   23679595.0944
       687.6224        535.8144        133.0004        147.0004
  -1960413.32245    224453.82345  22528806.0124
     -1580.5104      -1231.5514         95.0004        136.0004
    382103.41347    302379.31245  23512461.3094   23512468.0014   23512461.5074
      1460.7534       1138.2634        143.0004        162.0004
  -5991382.15244     -5779.68245  22688254.2884
       210.8244        164.3124         74.0004        159.0004
  -5309750.51346    305765.41744  22175527.1984
     -2377.7494      -1852.8104        109.0004        114.0004
 -11621430.20748  -3426548.32047  21021883.5004   21021897.1414   21021883.2974
      2028.8204       1580.8814        184.0004        196.0004
 03 10 28  0 53  0.0000000  0  7G27G 1G 8G13G 4G20G28
  -2338776.06244     58738.38444  22716495.9624
     -1967.9734      -1533.3794         74.0004        103.0004
   1539359.87746  -2211838.43945  23675677.2514   23675682.1074   23675676.9144
       685.1124        533.8594        134.0004        148.0004
  -1912936.13944     20672.83343  22537840.6154
     -1584.5494      -1234.7144         74.0004         74.0004
    338241.43647    268200.61245  23504114.7944   23504121.8234   23504114.9504
      1463.4344       1140.3614        135.0004        146.0004
  -5997559.57744    -10593.66346  22687079.3954
       201.1504        156.7544         74.0004        164.0004
  -5238215.36545    361507.03144  22189140.1464                   22189136.6404
     -2391.4514      -1863.4654         87.0004        116.0004
 -11682062.25248  -3473793.10647  21010345.3964   21010359.0634   21010345.1674
      2013.3434       1568.8264        184.0004        196.0004
 03 10 28  0 53 30.0000000  0  7G27G 1G 8G13G 4G20G28
  -2279763.13244    104720.22144  22727726.0464
     -1966.1184      -1531.9634         74.0004        113.0004
   1518846.02547  -2227823.06445  23671773.5744   23671777.9894   23671773.2014
       682.5754        531.8724        135.0004        150.0004
  -1865338.69144     57761.27345  22546898.3744
     -1588.2334      -1237.5544         74.0004        157.0004
    294296.52947    233957.26245  23495752.6094   23495759.6014   23495752.5774
      1466.2864       1142.5844        143.0004        159.0004
  -6003446.81447    -15181.11845  22685959.6184   22685751.9524   22685943.5074
       191.4374        149.1714        137.0004        160.0004
  -5166273.20946    417565.70744  22202830.6004                   22202824.5244
     -2404.8934      -1873.9504        115.0004        109.0004
 -11742228.11248  -3520674.75347  20998895.8594   20998909.5194   20998895.6484
      1997.7934       1556.7064        184.0004        196.0004
 03 10 28  0 54  0.0000000  0  7G27G 1G 8G13G 4G20G28
  -2220809.83744      8809.12543  22738944.7844
     -1964.0654      -1530.4454         74.0004         74.0004
   1498411.47947  -2243745.99845  23667884.9674   23667889.7474   23667884.7264
       679.8914        529.7864        135.0004        148.0004
  -1817624.08146     94940.54845  22555978.5674   22556150.9084
     -1592.5264      -1240.8824        125.0004        160.0004
    250272.48247    199652.47645  23487375.3834   23487381.7944   23487375.3974
      1468.8884       1144.5904        135.0004        151.0004
  -6009044.98847    -19543.20545  22684894.5844   22684922.0754   22684879.1594
       181.8894        141.7014        139.0004        148.0004
  -5093926.05245    473939.45644  22216598.1494                   22216573.5984
     -2418.1614      -1884.2594         98.0004        119.0004
 -11801924.55948  -3567190.92447  20987535.6034   20987549.1784   20987535.4004
      1982.1084       1544.4814        184.0004        196.0004
 03 10 28  0 54 30.0000000  0  7G27G 1G 8G13G 4G20G28
  -2161919.13244     54698.32945  22750151.5154
     -1962.0484      -1528.8454         74.0004        142.0004
   1478057.61246  -2259606.34345  23664011.7754   23664017.1214   23664011.5264
       677.0394        527.5684        133.0004        147.0004
  -1769797.72545    132206.63144  22565080.1964                   22565070.3264
     -1596.3044      -1243.8094         95.0004        112.0004
    206170.11747    165286.80645  23478983.1334   23478989.7014   23478983.1944
      1471.2074       1146.4014        136.0004        149.0004
  -6014358.03447    -23683.19745  22683883.7164   22683902.2704   22683883.3514
       172.3654        134.3514        138.0004        145.0004
  -5021176.61445    530626.80244  22230442.2324                   22230394.3964
     -2431.6424      -1894.7454         94.0004        116.0004
 -11861150.13948  -3613340.35947  20976264.9714   20976278.3504   20976264.7864
      1966.2874       1532.1644        184.0004        194.0004
 03 10 28  0 55  0.0000000  0  7G27G 1G 8G13G 4G20G28
  -2103092.29745    100537.00145  22761346.1424   22761520.0754
     -1959.7904      -1527.1014         85.0004        148.0004
   1457788.15846  -2275400.76045  23660154.6394   23660159.6814   23660154.4374
       674.2594        525.3964        133.0004        148.0004
  -1721855.96145    169562.78844  22574203.6694
     -1599.6004      -1246.3984         82.0004        113.0004
    161992.70547    130862.52445  23470576.8314   23470583.3944   23470577.0544
      1473.9044       1148.4994        137.0004        149.0004
  -6019385.78746    -27601.12645  22682927.1764   22682944.2844   22682927.5564
       163.0314        127.0334        122.0004        132.0004
  -4948026.97944      4342.71943  22244362.5234
     -2444.8934      -1905.0914         74.0004         74.0004
 -11919900.75848  -3659119.36247  20965084.7584   20965097.9934   20965084.5304
      1950.5214       1519.8614        184.0004        195.0004
 03 10 28  0 55 30.0000000  0  7G27G 1G 8G13G 4G20G28
  -2044332.24847    146324.13245  22772528.0304   22772699.6424   22772578.7194
     -1957.5874      -1525.3804        135.0004        154.0004
   1437604.07747  -2291128.63645  23656313.8704   23656318.9094   23656313.5814
       671.3414        523.1294        135.0004        150.0004
  -1673806.53744    207002.86544  22583347.4794
     -1603.4284      -1249.3604         67.0004        109.0004
    117740.92547     96380.58345  23462156.3174   23462162.1584   23462156.4384
      1476.3354       1150.3934        140.0004        154.0004
  -6024131.93346    -31299.38145  22682024.2184   22682040.2244   22682025.6694
       153.5034        119.6274        126.0004        144.0004
  -4874480.09544     61652.32746  22258358.3364
     -2458.1324      -1915.4484         74.0004        183.0004
 -11978175.29748  -3704527.14647  20953995.0204   20954008.2204   20953994.7914
      1934.5644       1507.4474        185.0004        196.0004
 03 10 28  0 56  0.0000000  0  7G27G 1G 8G13G 4G20G28
  -1985641.36047    192056.89745  22783696.7064   22783705.2264   22783747.5244
     -1955.1824      -1523.5044        139.0004        154.0004
   1417508.15247  -2306788.03445  23652489.8994   23652495.0524   23652489.6374
       668.4584        520.8834        136.0004        149.0004
  -1625651.54844      7203.60743  22592511.3134
     -1606.9164      -1252.1394         74.0004         74.0004
     73417.96147     61843.26945  23453722.0934   23453728.0014   23453722.0644
      1478.7224       1152.2414        139.0004        156.0004
  -6028597.32346    -34779.13345  22681174.5724   22681191.0354   22681175.6724
       144.0564        112.2274        129.0004        147.0004
  -4800538.00644    119269.37044  22272429.2664
     -2471.3594      -1925.7394         77.0004        113.0004
 -12035972.14148  -3749563.00247  20942996.1184   20943009.2204   20942995.9144
      1918.6844       1495.0704        184.0004        197.0004
 03 10 28  0 56 30.0000000  0  7G27G 1G 8G13G 4G20G28
  -1927019.58146    237736.19944  22794852.3084   22794854.2554   22794853.1294
     -1952.8374      -1521.6924        126.0004        131.0004
   1397503.18447  -2322376.30445  23648683.0474   23648688.0674   23648682.8374
       665.3054        518.4144        137.0004        153.0004
  -1577394.23644     44805.98545  22601694.4494
     -1610.1244      -1254.6064         74.0004        147.0004
     29024.67647     27251.07245  23445274.3994   23445280.7294   23445274.5124
      1480.9154       1153.9734        137.0004        149.0004
  -6032784.40446    -38041.93045  22680377.9914   22680396.2204   22680379.0094
       135.0824        105.3054        124.0004        136.0004
  -4726202.71444    177193.04044  22286574.9204
     -2484.2704      -1935.8044         74.0004        110.0004
 -12093287.95348  -3794223.89447  20932088.7884   20932101.7714   20932088.5714
      1902.3614       1482.3344        184.0004        191.0004
 03 10 28  0 57  0.0000000  0  7G27G 1G 8G13G 4G20G28
  -1868470.13746    283358.95245  22805993.7324                   22805993.9894
     -1950.4524      -1519.8304        110.0004        137.0004
   1377590.90147  -2337892.38945  23644893.8624   23644899.0704   23644893.6604
       662.1644        515.9824        136.0004        147.0004
  -1529034.64544     82489.06944  22610897.0564
     -1613.5504      -1257.3164         74.0004        107.0004
    -15435.10847     -7393.01245  23436814.1114   23436820.5564   23436814.3384
      1483.1764       1155.7154        138.0004        155.0004
  -6036694.77247    -41089.57745  22679633.9704   22679651.9884   22679634.9974
       125.9304         98.1614        146.0004        162.0004
  -4651477.78644    235420.45744  22300794.6584
     -2497.2844      -1945.9504         78.0004        110.0004
 -12150121.11048  -3838508.75947  20921273.2514   20921286.1674   20921273.0444
      1886.5084       1470.0244        184.0004        197.0004
 03 10 28  0 57 30.0000000  0  7G27G 1G 8G13G 4G20G28
  -1809994.04345    328925.04844  22817121.2264                   22817120.8644
     -1948.0934      -1518.0134        102.0004        116.0004
   1357774.21747  -2353334.25445  23641123.0884   23641128.3524   23641122.7914
       658.9344        513.4774        137.0004        151.0004
  -1480577.44844      4131.99343  22620118.1194
     -1616.9754      -1259.9854         74.0004         74.0004
    -59959.64547    -42087.44745  23428341.4504   23428347.8474   23428341.6344
      1485.2804       1157.3684        138.0004        150.0004
  -6040328.81847    -43922.19245  22678942.7864   22678961.6664   22678943.5614
       116.4094         90.7274        140.0004        153.0004
                                  22315088.456

 -12206470.51448  -3882417.80147  20910549.8774   20910562.5254   20910549.6974
      1870.0974       1457.1604        183.0004        202.0004
 03 10 28  0 58  0.0000000  0  7G27G 1G 8G13G 4G20G28
  -1751595.07546    374431.47945  22828233.9804   22828214.5404   22828233.9824
     -1945.3724      -1515.9154        124.0004        147.0004
   1338054.84247  -2368700.39345  23637370.6274   23637375.9314   23637370.5374
       655.5994        510.8664        137.0004        150.0004
  -1432026.67354     41963.90345  22629356.8684
     -1619.8254      -1262.1914         74.0004        146.0004
   -104546.26547    -76830.11745  23419856.9944   23419863.3574   23419857.1544
      1487.2344       1158.8854        137.0004        150.0004
  -6043688.39647    -46539.96845  22678303.7224   22678317.4164   22678304.8074
       107.4014         83.6904        139.0004        157.0004
  -4500864.11644     57422.83645  22329455.9134
     -2523.0014      -1966.0024         74.0004        156.0004
 -12262332.44348  -3925946.63847  20899919.4734   20899931.9084   20899919.2524
      1853.9504       1444.6364        183.0004        199.0004
 03 10 28  0 58 30.0000000  0  7G27G 1G 8G13G 4G20G28
  -1693274.77147    419877.09645  22839331.5614   22839318.4804   22839331.4144
     -1942.7014      -1513.8284        136.0004        153.0004
   1318436.01447  -2383987.75245  23633637.4004   23633642.1034   23633637.2134
       652.3404        508.3284        137.0004        154.0004
  -1383381.62344     79868.83545  22638613.3834
     -1622.8594      -1264.5404         74.0004        148.0004
   -149193.92447   -111620.50445  23411360.9044   23411367.5114   23411361.1094
      1489.3024       1160.4954        138.0004        152.0004
  -6046774.88547    -48944.62645  22677716.5514   22677731.2614   22677717.3374
        98.5174         76.7554        142.0004        162.0004
  -4424980.89444    116552.83445  22343896.0794   22344003.5054
     -2535.7324      -1975.9054         77.0004        144.0004
 -12317704.72748  -3969094.24847  20889382.3394   20889394.6284   20889382.1264
      1837.4084       1431.7054        182.0004        190.0004
 03 10 28  0 59  0.0000000  0  7G27G 1G 8G13G 4G20G28
  -1635036.67246    465258.51344  22850413.4904   22850409.5684   22850413.5454
     -1939.9804      -1511.7044        127.0004        130.0004
   1298919.84347  -2399195.20045  23629923.8514   23629928.5044   23629923.6934
       648.7954        505.5464        137.0004        153.0004
  -1334649.80846    117841.88745  22647886.2844   22648051.2094
     -1625.9554      -1266.9754        134.0004        160.0004
   -193900.25747   -146456.84645  23402853.5644   23402860.4384   23402853.7954
      1491.1164       1161.9214        136.0004        148.0004
  -6049593.04646    -51140.66544  22677180.4464   22677202.9684   22677180.7394
        89.2814         69.5644        118.0004        119.0004
  -4348715.82944    175980.25544  22358409.0384
     -2548.6864      -1986.0064         73.0004        115.0004
 -12372583.66448  -4011856.42847  20878939.1724   20878951.3494   20878938.9424
      1820.8994       1418.8294        181.0004        195.0004
 03 10 28  0 59 30.0000000  0  7G27G 1G 8G13G 4G20G28
  -1576882.45245    510574.56644  22861479.4644                   22861479.7304
     -1937.0404      -1509.4324         99.0004        112.0004
   1279507.75047  -2414321.60045  23626229.9064   23626234.9364   23626229.6814
       645.4104        502.9184        138.0004        155.0004
  -1285830.71347    155883.25745  22657175.7794   22657336.2014   22657168.5704
     -1628.7514      -1269.2284        138.0004        158.0004
   -238662.18147   -181336.54945  23394335.5524   23394342.4684   23394335.8414
      1492.9874       1163.3714        135.0004        150.0004
  -6052142.22545    -53126.93044  22676695.6124                   22676694.4704
        80.5894         62.8034         94.0004        112.0004
  -4272073.37142    235701.78943  22372993.8514
     -2561.0944      -1995.6294         17.0004         57.0004
 -12426968.85348  -4054234.11146  20868589.7984   20868603.3904   20868589.5694
      1804.4564       1406.0644        176.0004        177.0004
                            4  1
RINEX FILE SPLICE; other post-header comments skipped       COMMENT
 03 10 28  1  0  0.0000000  0  7G27G 1G 8G13G 4G20G28
  -1518813.40745    555824.18344  22872529.5254                   22872526.0494
     -1934.2264      -1507.2114         82.0004        111.0004
   1260202.70947  -2429364.63745  23622556.3184   23622561.4594   23622556.0964
       641.6564        499.9994        139.0004        154.0004
  -1236926.87547    193991.45945  22666481.3754   22666481.0474   22666478.3964
     -1631.4744      -1271.3244        142.0004        161.0004
   -283477.14747   -216256.98045  23385807.5024   23385813.5584   23385807.9134
      1494.7694       1164.7474        138.0004        155.0004
  -6054425.25545    -54905.74944  22676261.2454
        71.6934         55.8754         82.0004        115.0004
  -4195053.21844    295717.75644  22387650.4934
     -2573.4794      -2005.3244         62.0004        106.0004
 -12480857.93248  -4096225.28146  20858334.7474   20858348.0274   20858334.5564
      1787.8934       1393.1224        181.0004        183.0004
 03 10 28  1  0 30.0000000  0  7G27G 1G 8G13G 4G20G28
  -1460830.20244    601007.00744  22883563.1484
     -1931.3184      -1504.9574         73.0004        109.0004
   1241007.19547  -2444322.22545  23618903.6374   23618908.6984   23618903.3874
       638.1194        497.2384        140.0004        157.0004
  -1187943.59146    232161.10044  22675802.0754   22675824.1394   22675801.8884
     -1634.2254      -1273.4584        119.0004        118.0004
   -328343.57947   -251217.81845  23377269.7364   23377276.4854   23377270.1214
      1496.4614       1166.0754        143.0004        160.0004
  -6056444.70944    -56479.16944  22675876.9704
        63.0994         49.1684         73.0004        110.0004
  -4117658.56344     31718.11843  22402378.3674
     -2585.9674      -2015.0404         74.0004         74.0004
 -12534249.35048  -4137828.23444  20848174.4804   20848191.9824   20848174.0674
      1771.7504       1380.6264        171.0004        119.0004
 03 10 28  1  1  0.0000000  0  7G27G 1G 8G13G 4G20G28
  -1402935.18744     24465.33943  22894579.9124
     -1928.4424      -1502.6824         74.0004         74.0004
   1221922.40447  -2459193.75845  23615271.9994   23615277.3574   23615271.9504
       634.3464        494.3094        138.0004        151.0004
  -1138881.66845    270392.16744  22685137.8174                   22685140.9064
     -1636.6264      -1275.3224         92.0004        111.0004
   -373260.26046   -286218.23045  23368722.5234   23368732.1054   23368722.8424
      1498.0624       1167.3454        130.0004        146.0004
  -6058200.83244     -1066.25843  22675542.8534
        54.1604         42.2024         74.0004         74.0004
  -4039893.41944     92314.89744  22417176.6724
     -2598.2684      -2024.6234         74.0004        114.0004
 -12587141.58948  -4179043.69247  20838109.2704   20838125.4984   20838108.3264
      1754.8604       1367.4774        175.0004        189.0004
 03 10 28  1  1 30.0000000  0  7G27G 1G 8G13G 4G20G28
  -1345131.31944     69507.33445  22905579.1904
     -1925.0784      -1500.0584         74.0004        146.0004
   1202952.34546  -2473975.76145  23611662.0894   23611667.2734   23611662.0594
       630.5434        491.3374        134.0004        147.0004
  -1089747.13344    308679.92344  22694487.5904
     -1639.0164      -1277.1964         77.0004        107.0004
   -418223.79547   -321255.17545  23360166.3914   23360175.0264   23360166.5704
      1499.8294       1168.7154        139.0004        154.0004
  -6059696.62644     -2232.38846  22675258.3044
        45.6754         35.5924         74.0004        170.0004
  -3961759.67244    153198.35644  22432045.2424
     -2610.4894      -2034.1324         74.0004        110.0004
 -12639531.47248  -4219867.90647  20828139.7694   20828154.9864   20828139.0194
      1737.8974       1354.1934        178.0004        191.0004
 03 10 28  1  2  0.0000000  0  7G27G 1G 8G13G 4G20G28
  -1287421.01846    114476.40645  22916560.7594   22916583.6544
     -1922.1754      -1497.8004        107.0004        148.0004
   1184097.80747  -2488667.75245  23608074.3604   23608079.7004   23608074.2814
       626.4404        488.1424        137.0004        153.0004
  -1040537.61244    347025.96944  22703851.6954
     -1641.4434      -1279.0824         59.0004        106.0004
   -463232.16647   -356327.25445  23351601.6804   23351610.3294   23351601.9194
      1500.8134       1169.4694        138.0004        151.0004
  -6060934.85847     -3197.69945  22675022.8854   22674920.8134
        36.9824         28.8444        136.0004        154.0004
  -3883256.99944     27112.46943  22446983.9374
     -2622.8964      -2043.8164         74.0004         74.0004
 -12691416.90048  -4260298.54847  20818266.4664   20818280.3374   20818265.8284
      1721.0484       1340.9634        179.0004        200.0004
 03 10 28  1  2 30.0000000  0  7G27G 1G 8G13G 4G20G28
  -1229805.30646    159371.93045  22927524.4174   22927542.5464   22927516.3494
     -1918.9914      -1495.3214        133.0004        150.0004
   1165361.98847  -2503267.28745  23604509.1524   23604514.7194   23604509.0594
       622.4734        485.0504        137.0004        151.0004
   -991257.25044     33628.62344  22713229.2324
     -1643.8784      -1280.9974         74.0004        109.0004
   -508282.09147   -391431.54445  23343029.2564   23343037.2074   23343029.3734
      1502.3334       1170.6604        138.0004        154.0004
  -6061916.32247     -3962.90145  22674836.1494   22674850.3034   22674840.1004
        28.8964         22.5354        145.0004        162.0004
  -3804391.28544     88565.88046  22461991.8424
     -2635.0214      -2053.2514         74.0004        174.0004
 -12742796.55448  -4300335.43047  20808489.4464   20808503.1264   20808489.0184
      1704.3254       1328.1214        181.0004        200.0004
 03 10 28  1  3  0.0000000  0  7G27G 1G 8G13G 4G20G28
  -1172286.37147    204192.26845  22938469.7094   22938473.0194   22938462.5064
     -1915.8584      -1492.8794        137.0004        152.0004
   1146747.40847  -2517772.08545  23600967.0294   23600972.1554   23600966.8654
       618.2314        481.7314        135.0004        147.0004
   -941910.18644     72081.86945  22722619.4204
     -1645.9354      -1282.5734         74.0004        158.0004
   -553371.95847   -426566.80745  23334449.1514   23334456.5864   23334449.3794
      1503.4054       1171.4874        139.0004        153.0004
  -6062641.36047     -4527.57846  22674698.4564   22674708.6114   22674699.4904
        19.8284         15.4404        141.0004        163.0004
  -3725164.53046    150300.85445  22477068.3074   22477161.4704
     -2647.2644      -2062.7914        114.0004        157.0004
 -12793666.61748  -4339974.75947  20798809.4694   20798822.7864   20798809.0884
      1687.0524       1314.6024        184.0004        203.0004
 03 10 28  1  3 30.0000000  0  7G27G 1G 8G13G 4G20G28
  -1114866.76047    248934.62245  22949396.1904   22949402.8414   22949395.8504
     -1912.4704      -1490.2344        135.0004        149.0004
   1128255.95647  -2532180.79445  23597448.3134   23597453.3464   23597448.0834
       614.3144        478.6854        138.0004        154.0004
   -892499.65245    110584.35044  22732021.6794
     -1648.0584      -1284.2114         83.0004        115.0004
   -598499.37047   -461731.20545  23325861.8714   23325869.1504   23325862.2484
      1504.8304       1172.6084        142.0004        156.0004
  -6063113.88847     -4895.84845  22674608.5164   22674622.3704   22674609.1934
        11.5544          9.0104        143.0004        158.0004
  -3645577.02146    212317.01245  22492213.5174                   22492299.6104
     -2658.9014      -2071.8824        131.0004        160.0004
 -12844026.17548  -4379216.31247  20789226.6824   20789239.5744   20789226.3104
      1670.1914       1301.4724        185.0004        208.0004
 03 10 28  1  4  0.0000000  0  7G27G 1G 8G13G 4G20G28
  -1057547.91847    293598.57645  22960303.6154   22960309.1404   22960303.3044
     -1908.9104      -1487.4614        140.0004        154.0004
   1109889.24947  -2546492.70645  23593953.4454   23593958.8144   23593953.1014
       610.1554        475.4494        136.0004        150.0004
   -843028.24445    149134.32844  22741435.6964
     -1649.9554      -1285.7104         80.0004        117.0004
   -643662.20547   -496923.43845  23317267.8814   23317275.3644   23317268.2194
      1506.0924       1173.5834        141.0004        158.0004
  -6063335.38847     -5068.58045  22674566.5844   22674580.7344   22674566.9604
         3.2014          2.4894        140.0004        149.0004
  -3565635.16056    274608.87345  22507426.0104   22507462.3044   22507511.8564
     -2670.8154      -2081.1994        129.0004        137.0004
 -12893873.29848  -4418058.56047  20779741.3944   20779754.0964   20779741.0554
      1653.0164       1288.0684        185.0004        205.0004
 03 10 28  1  4 30.0000000  0  7G27G 1G 8G13G 4G20G28
  -1000331.26047    338182.81345  22971191.5074   22971196.9154   22971191.1614
     -1905.4844      -1484.7774        141.0004        160.0004
   1091651.18147  -2560704.11545  23590482.8304   23590487.7824   23590482.5454
       605.8074        472.0534        136.0004        150.0004
   -793496.60144    187731.14044  22750861.1634
     -1652.1474      -1287.4324         74.0004        109.0004
   -688856.73147   -532139.98245  23308667.8074   23308674.6654   23308668.1364
      1507.0844       1174.3434        144.0004        162.0004
  -6063308.04347     -5047.37045  22674571.9194   22674586.9464   22674572.3764
        -4.8894         -3.8034        148.0004        152.0004
  -3485336.39246    337179.38045  22522706.6024                   22522706.5934
     -2682.4784      -2090.2504        123.0004        145.0004
 -12943205.83248  -4456500.19147  20770354.0154   20770367.2224   20770353.7164
      1635.8144       1274.6474        183.0004        193.0004
 03 10 28  1  5  0.0000000  0  7G27G 1G 8G13G 4G20G28
   -943219.37446    382684.83045  22982059.6314   22982065.9324   22982059.2774
     -1902.1114      -1482.1444        134.0004        151.0004
   1073543.72847  -2574813.60245  23587036.9014   23587042.0204   23587036.7994
       601.2584        468.5084        138.0004        155.0004
   -743906.81144       973.01443  22760297.7764
     -1654.5004      -1289.2204         74.0004         74.0004
   -734081.85447   -567380.64045  23300061.9744   23300069.4264   23300062.4044
      1507.8854       1174.9934        145.0004        159.0004
  -6063033.93646     -4834.01344  22674624.3204                   22674626.1764
       -13.2504        -10.3174        115.0004        112.0004
  -3404685.27046    400024.82144  22538054.0974                   22538053.5694
     -2694.1664      -2099.3594        108.0004        113.0004
 -12992020.69748  -4494538.02247  20761065.1744   20761078.1904   20761064.8984
      1618.2684       1261.0194        184.0004        192.0004
 03 10 28  1  5 30.0000000  0  7G27G 1G 8G13G 4G20G28
   -886214.42347    427103.35645  22992907.5634   22992913.3174   22992907.2294
     -1898.4364      -1479.2594        136.0004        154.0004
   1055568.37747  -2588820.16345  23583616.3634   23583621.5774   23583616.3144
       596.8714        465.0844        139.0004        156.0004
   -694263.68944     39655.89345  22769744.5074
     -1655.9904      -1290.3764         74.0004        135.0004
   -779335.35147   -602643.46645  23291450.8034   23291458.0654   23291451.1854
      1508.7444       1175.6594        143.0004        158.0004
  -6062514.82545     -4429.83544  22674723.4984                   22674725.5574
       -21.8534        -17.0054         88.0004        113.0004
  -3323684.30947    463143.11746  22553468.2214   22553443.2184   22553467.6204
     -2706.0064      -2108.5854        139.0004        166.0004
 -13040316.08448  -4532170.36047  20751875.1184   20751887.9504   20751874.8304
      1601.0254       1247.5374        186.0004        198.0004
 03 10 28  1  6  0.0000000  0  7G27G 1G 8G13G 4G20G28
   -829318.58846    471436.17645  23003734.8784   23003742.3864   23003734.3404
     -1894.7814      -1476.3914        127.0004        142.0004
   1037727.15647  -2602722.51445  23580221.4024   23580227.0104   23580221.2894
       592.3624        461.5834        138.0004        154.0004
   -644569.15644     78379.02046  22779200.9374
     -1657.1464      -1291.2644         74.0004        168.0004
   -824614.24047   -637925.99045  23282834.7534   23282841.8274   23282835.1024
      1509.7224       1176.4144        143.0004        154.0004
  -6061750.02444     -3834.10944  22674869.3864                   22674867.1484
       -29.5884        -23.0444         74.0004        109.0004
  -3242336.01646    526531.60244  22568948.2924   22568954.7444   22568947.1094
     -2717.5014      -2117.5434        116.0004        119.0004
 -13088088.78548  -4569394.30847  20742784.2854   20742797.1484   20742783.9924
      1583.6864       1233.9484        186.0004        201.0004
 03 10 28  1  6 30.0000000  0  7G27G 1G 8G13G 4G20G28
   -772533.33046    515682.47445  23014541.3544   23014549.6154   23014540.7594
     -1890.8624      -1473.3264        122.0004        133.0004
   1020023.67247  -2616517.24945  23576852.4434   23576857.4984   23576852.3064
       587.8044        458.0244        135.0004        149.0004
   -594827.42444    117138.57644  22788666.5144
     -1658.7154      -1292.4904         65.0004        113.0004
   -869916.26047   -673226.41045  23274214.3434   23274221.3534   23274214.5594
      1510.4644       1176.9924        144.0004        158.0004
  -6060744.16144       192.66743  22675060.9414
       -37.4754        -29.2014         74.0004         74.0004
  -3160644.76345    590187.33744  22584493.7414                   22584490.2134
     -2728.7484      -2126.3084         89.0004        110.0004
 -13135338.00348  -4606209.73347  20733792.6264   20733805.8144   20733792.3144
      1566.2524       1220.4074        186.0004        196.0004
 03 10 28  1  7  0.0000000  0  7G27G 1G 8G13G 4G20G28
   -715857.84946    559843.77444  23025327.1394   23025333.6564   23025326.5124
     -1887.3424      -1470.6104        118.0004        126.0004
   1002459.44347  -2630203.63445  23573509.8114   23573515.5224   23573509.6794
       583.1604        454.4154        135.0004        151.0004
   -545038.47744    155934.89144  22798141.2154
     -1660.4784      -1293.8544         70.0004        111.0004
   -915239.00747   -708542.91445  23265589.8744   23265596.7504   23265590.1554
      1511.0774       1177.4694        142.0004        155.0004
  -6059498.34044      1163.89745  22675298.0344
       -45.6524        -35.6064         74.0004        144.0004
  -3078609.09446    654111.87245  22600104.5854
     -2739.4824      -2134.7084        108.0004        143.0004
 -13182065.53748  -4642619.94247  20724900.0444   20724913.0044   20724899.7624
      1548.7684       1206.8054        186.0004        196.0004
 03 10 28  1  7 30.0000000  0  7G27G 1G 8G13G 4G20G28
   -659295.36146    603917.08645  23036091.1814                   23036090.4104
     -1883.6134      -1467.7214        111.0004        141.0004
    985035.96047  -2643780.68645  23570194.3544   23570200.4054   23570194.3204
       578.3034        450.6324        135.0004        151.0004
   -495205.38545    194765.66644  22807624.2104
     -1661.8914      -1294.9834         79.0004        120.0004
   -960580.22747   -743873.55945  23256961.7104   23256968.5084   23256962.0524
      1511.5764       1177.8494        143.0004        157.0004
  -6058015.57144      2320.34544  22675580.1584
       -53.4004        -41.6534         74.0004        114.0004
  -2996237.06847    718298.83646  22615779.5314   22615789.2884   22615776.9914
     -2751.2894      -2143.8934        142.0004        172.0004
 -13228266.87748  -4678619.72747  20716107.6164   20716120.3404   20716107.2964
      1531.2004       1193.1364        186.0004        198.0004
 03 10 28  1  8  0.0000000  0  7G27G 1G 8G13G 4G20G28
   -602846.75945    647902.19644  23046833.6174                   23046833.2984
     -1879.5584      -1464.5754         93.0004        110.0004
    967757.26947  -2657244.64745  23566906.3644   23566911.7614   23566906.3694
       573.5744        446.9544        135.0004        152.0004
   -445331.74947    233628.65846  22817114.8334   22817057.0124   22817120.6844
     -1662.9714      -1295.8154        143.0004        165.0004
  -1005936.61747   -779216.00046  23248330.6744   23248337.7174   23248331.1304
      1512.1824       1178.3144        147.0004        164.0004
  -6056296.06647      3660.68945  22675907.4114   22675957.2714
       -61.1554        -47.6554        137.0004        161.0004
  -2913526.52846    782749.41044  22631518.8914                   22631516.4114
     -2762.5234      -2152.6574        108.0004        113.0004
 -13273940.28648  -4714208.54747  20707415.5384   20707427.9854   20707415.2704
      1513.7154       1179.4934        186.0004        200.0004
 03 10 28  1  8 30.0000000  0  7G27G 1G 8G13G 4G20G28
   -546515.47046    691796.04645  23057553.5864   23057536.5194   23057552.9154
     -1875.7244      -1461.5874        120.0004        144.0004
    950624.92447  -2670594.74045  23563646.1894   23563651.9444   23563646.2294
       568.6564        443.1174        135.0004        150.0004
   -395420.85647    272519.96546  22826612.5414   22826627.5574   22826616.4404
     -1664.1874      -1296.7574        147.0004        163.0004
  -1051307.80247   -814570.47945  23239696.8854   23239705.1564   23239697.3144
      1512.5674       1178.6334        139.0004        150.0004
  -6054342.88647      5183.10446  22676278.9224   22676329.7894   22676279.2564
       -68.9264        -53.7064        144.0004        166.0004
  -2830482.55945    847459.94044  22647321.7534                   22647316.7574
     -2773.9004      -2161.5074         83.0004        107.0004
 -13319085.84348  -4749386.94347  20698824.0294   20698836.0874   20698823.7954
      1495.9034       1165.6194        186.0004        198.0004
 03 10 28  1  9  0.0000000  0  7G27G 1G 8G13G 4G20G28
   -490302.36645    735598.45844  23068251.0424                   23068250.5744
     -1871.7874      -1458.5474         99.0004        116.0004
    933640.56046  -2683829.86745  23560414.1624   23560420.4894   23560414.2494
       563.6174        439.2064        129.0004        142.0004
   -345473.89047    311439.55945  22836117.0834   22836127.6764   22836115.2754
     -1665.3754      -1297.6514        136.0004        153.0004
  -1096689.44747   -849932.98745  23231061.1754   23231068.9894   23231061.4534
      1512.8124       1178.8154        139.0004        156.0004
  -6052157.78357      6886.23445  22676694.5384   22676709.0344   22676693.9134
       -76.5634        -59.6664        151.0004        162.0004
  -2747106.46344    912429.14644  22663187.6614
     -2784.8264      -2170.0264         72.0004        111.0004
 -13363701.38348  -4784153.09147  20690333.6114   20690345.2564   20690333.3674
      1478.3224       1151.9454        185.0004        197.0004
 03 10 28  1  9 30.0000000  0  7G27G 1G 8G13G 4G20G28
   -434208.96045    779307.56644  23078925.6124
     -1867.6954      -1455.3434         82.0004        110.0004
    916808.51446  -2696945.76945  23557211.3834   23557216.6614   23557211.2754
       558.5494        435.2244        129.0004        147.0004
   -295495.08147    350383.25245  22845627.8734   22845643.7734   22845626.9764
     -1666.5184      -1298.5534        138.0004        158.0004
  -1142079.82247   -885302.12045  23222423.6834   23222431.1704   23222424.0074
      1513.1714       1179.0994        141.0004        155.0004
  -6049744.13847      8767.11045  22677153.5924   22677171.3034   22677153.4604
       -84.1164        -65.5574        143.0004        160.0004
  -2663402.25044      4953.95343  22679116.1794
     -2795.4654      -2178.2264         74.0004         74.0004
 -13407782.58048  -4818502.40447  20681945.0474   20681956.5344   20681944.8404
      1460.5214       1138.0574        186.0004        203.0004
 03 10 28  1 10  0.0000000  0  7G27G 1G 8G13G 4G20G28
   -378238.74246    822920.93845  23089576.5134   23089549.0144   23089574.9104
     -1863.5224      -1452.0924        121.0004        145.0004
    900128.63546  -2709943.25645  23554037.5444   23554043.2534   23554037.2614
       553.4964        431.2974        132.0004        148.0004
   -245485.74847    389351.05746  22855144.6084   22855157.9624   22855144.1914
     -1667.4134      -1299.2784        147.0004        167.0004
  -1187476.68847   -920676.40445  23213784.9814   23213792.7364   23213785.3384
      1513.2914       1179.1844        145.0004        161.0004
  -6047104.35247     10823.52745  22677655.8394   22677675.7824   22677656.0584
       -91.5594        -71.3234        140.0004        155.0004
  -2579370.18944     70433.03545  22695107.3234
     -2806.5804      -2186.9494         74.0004        149.0004
 -13451329.92848  -4852436.00647  20673658.2924   20673669.6094   20673658.0654
      1442.7164       1124.2274        186.0004        205.0004
 03 10 28  1 10 30.0000000  0  7G27G 1G 8G13G 4G20G28
   -322393.29746    866436.49545  23100203.5294   23100186.3194   23100202.3034
     -1859.4354      -1448.8854        122.0004        144.0004
    883604.20846  -2722819.66845  23550893.1284   23550899.0534   23550892.8844
       548.1914        427.1704        131.0004        146.0004
   -195449.25347    428339.92745  22864666.4904   22864679.1934   22864666.0724
     -1668.5704      -1300.1664        147.0004        162.0004
  -1232877.57747   -956053.71245  23205145.6364   23205153.1524   23205145.9304
      1513.4234       1179.2924        144.0004        158.0004
  -6044238.37547     13056.23845  22678201.3724   22678221.5824   22678201.6854
       -99.3284        -77.3994        140.0004        160.0004
  -2495014.30054    136164.57545  22711159.9074
     -2816.7844      -2194.8884         74.0004        145.0004
 -13494340.25548  -4885951.12947  20665473.8304   20665485.1174   20665473.6034
      1424.5604       1109.9684        184.0004        194.0004
 03 10 28  1 11  0.0000000  0  7G27G 1G 8G13G 4G20G28
   -266673.76856    909853.53645  23110806.7144   23110796.9144   23110805.5024
     -1854.2354      -1444.8344        122.0004        142.0004
    867237.60446  -2735573.13845  23547778.6844   23547784.3284   23547778.6404
       542.7814        422.9584        131.0004        146.0004
   -145386.87247    467349.28546  22874193.2824   22874205.0194   22874192.9734
     -1669.1334      -1300.5894        150.0004        170.0004
  -1278279.31747   -991431.52845  23196506.0524   23196513.2414   23196506.4094
      1513.2614       1179.1614        143.0004        157.0004
  -6041148.46247     15463.89546  22678789.4344   22678807.6384   22678789.6384
      -106.7934        -83.2004        146.0004        165.0004
  -2410336.48246    202147.40545  22727273.7914   22727384.0224   22727286.3544
     -2828.0754      -2203.6604        111.0004        133.0004
 -13536812.18248  -4919046.62547  20657391.8514   20657403.1404   20657391.6194
      1406.6194       1096.0494        185.0004        200.0004
 03 10 28  1 11 30.0000000  0  7G27G 1G 8G13G 4G20G28
   -211080.55746    953172.76645  23121386.0824   23121378.8494   23121384.7194
     -1851.0344      -1442.3574        119.0004        140.0004
    851031.67346  -2748201.31645  23544694.9704   23544700.4344   23544694.9404
       537.4204        418.7824        133.0004        149.0004
    -95304.17146    506374.21344  22883724.1074                   22883722.0024
     -1669.9034      -1301.1994        117.0004        114.0004
  -1323680.44147  -1026809.11645  23187866.4434   23187874.2804   23187866.8644
      1513.2914       1179.2094        142.0004        155.0004
  -6037836.81047     18043.95546  22679419.7814   22679438.3534   22679419.9044
      -114.0614        -88.8834        146.0004        163.0004
  -2325339.76945    268378.48344  22743448.4274                   22743456.5234
     -2838.1044      -2211.5164         89.0004        105.0004
 -13578744.24848  -4951721.73847  20649412.7084   20649423.9664   20649412.4814
      1388.6284       1082.0674        186.0004        196.0004
 03 10 28  1 12  0.0000000  0  7G27G 1G 8G13G 4G20G28
   -155616.10346    996391.73645  23131940.9874   23131937.3614   23131939.7844
     -1846.8414      -1439.1294        124.0004        142.0004
    834987.73946  -2760703.40645  23541642.1604   23541648.1854   23541641.9584
       531.9764        414.5334        131.0004        147.0004
    -45200.89845    545415.29844  22893259.0174                   22893252.3704
     -1670.5774      -1301.7404         89.0004        113.0004
  -1369078.13447  -1062184.41045  23179227.6734   23179236.2814   23179228.1524
      1513.0914       1179.0484        143.0004        158.0004
  -6034303.63846     20797.45844  22680092.0884   22680107.3994   22680092.4384
      -121.4884        -94.6834        121.0004        125.0004
  -2240027.36544    334855.34944  22759683.1374
     -2849.1854      -2220.1184         77.0004        113.0004
 -13620134.13148  -4983973.95547  20641536.7884   20641548.0624   20641536.5714
      1370.6044       1068.0554        186.0004        204.0004
 03 10 28  1 12 30.0000000  0  7G27G 1G 8G13G 4G20G28
   -100282.92146   1039508.57245  23142470.7184   23142469.7204   23142469.7444
     -1842.4464      -1435.6664        124.0004        136.0004
    819108.42846  -2773077.27645  23538620.6424   23538626.6244   23538620.3814
       526.5654        410.3264        132.0004        148.0004
      4922.11545    584471.73744  22902797.8484
     -1671.2444      -1302.2494         80.0004        112.0004
  -1414469.83847  -1097554.83045  23170590.0534   23170598.1464   23170590.5444
      1512.9534       1178.9354        144.0004        155.0004
  -6030553.56347     23719.88745  22680805.5804   22680821.0634   22680806.0674
      -128.5544       -100.1994        144.0004        162.0004
  -2154400.92844    401576.94144  22775977.5814
     -2859.2584      -2227.9774         70.0004        112.0004
 -13660980.51048  -5015802.82647  20633764.2964   20633775.7994   20633764.0844
      1352.5284       1053.9504        186.0004        199.0004
 03 10 28  1 13  0.0000000  0  7G27G 1G 8G13G 4G20G28
    -45082.15346   1082522.35645  23152975.1734   23152976.8234   23152973.9124
     -1837.8284      -1432.0604        125.0004        139.0004
    803396.16046  -2785320.78245  23535630.7914   23535636.5224   23535630.7364
       520.9584        405.9454        133.0004        150.0004
                                  22912338.802

  -1459853.00447  -1132918.59846  23161954.0034   23161962.0404   23161954.4614
      1512.5604       1178.6244        147.0004        163.0004
  -6026589.14047     26809.37245  22681559.8614   22681576.4084   22681560.6434
      -135.7484       -105.7764        141.0004        141.0004
  -2068463.59144     30732.92243  22792331.1754
     -2869.7344      -2236.1574         74.0004         74.0004
 -13701281.77748  -5047206.70947  20626095.5254   20626107.0954   20626095.3264
      1334.2174       1039.6304        186.0004        202.0004
 03 10 28  1 13 30.0000000  0  7G27G 1G 8G13G 4G20G28
      9984.35246   1125430.98345  23163454.1214   23163458.3964   23163452.9424
     -1833.4164      -1428.6144        127.0004        143.0004
    787853.99846  -2797431.61545  23532673.4634   23532679.0294   23532673.1164
       515.1214        401.3994        130.0004        144.0004
    105206.08144     37456.01544  22921882.2504
     -1671.9334      -1302.8104         74.0004        125.0004
  -1505224.99947  -1168273.68745  23153320.1214   23153328.1724   23153320.6124
      1512.1014       1178.2744        145.0004        158.0004
  -6022411.82746     30064.49344  22682354.7754                   22682355.7804
      -142.9754       -111.4234        110.0004        110.0004
  -1982217.13044     97936.67944  22808743.5414
     -2880.0384      -2244.1094         74.0004        127.0004
 -13741035.50148  -5078183.53347  20618530.8974   20618542.5574   20618530.7074
      1315.9074       1025.3864        187.0004        201.0004
 03 10 28  1 14  0.0000000  0  7G27G 1G 8G13G 4G20G28
     64916.02346   1168234.86745  23173907.4664   23173911.8434   23173906.3694
     -1828.7584      -1425.0214        121.0004        137.0004
    772483.19046  -2809408.79245  23529748.6224   23529754.0964   23529748.2604
       509.6074        397.0984        133.0004        150.0004
    155364.54444     76540.53145  22931427.4964
     -1671.8524      -1302.7344         74.0004        153.0004
  -1550583.17347  -1203617.84046  23144689.0094   23144696.6284   23144689.4464
      1511.7764       1178.0114        146.0004        164.0004
  -6018021.68545     33485.50044  22683190.3254                   22683189.1934
      -149.8014       -116.7374         85.0004        106.0004
  -1895665.58244    165376.87644  22825214.1314   22825268.4634
     -2890.0304      -2251.8954         69.0004        123.0004
 -13780241.38748  -5108733.47747  20611070.4794   20611082.2034   20611070.2804
      1297.7544       1011.2204        187.0004        199.0004
 03 10 28  1 14 30.0000000  0  7G27G 1G 8G13G 4G20G28
    119709.42246   1210931.12545  23184334.2984   23184340.0604   23184333.5064
     -1824.1174      -1421.3884        128.0004        150.0004
    757286.21346  -2821250.66645  23526856.7414   23526862.5464   23526856.4734
       503.7044        392.4974        132.0004        148.0004
    205530.25544    115630.59144  22940974.2424
     -1672.2244      -1303.0234         74.0004        112.0004
  -1595925.82047  -1238950.17945  23136060.7574   23136069.1744   23136061.1734
      1511.1424       1177.5204        143.0004        159.0004
  -6013421.66944     37069.96544  22684065.6564
      -156.7584       -122.1474         74.0004        109.0004
  -1808808.83344    233055.31644  22841742.6574
     -2900.1054      -2259.7504         74.0004        109.0004
 -13818895.68348  -5138852.70047  20603714.7664   20603726.7844   20603714.5364
      1279.3284        996.8864        187.0004        195.0004
                            4  1
RINEX FILE SPLICE; other post-header comments skipped       COMMENT
 03 10 28  1 15  0.0000000  0  7G27G 1G 8G13G 4G20G28
    174364.68246   1253520.14145  23194734.7914   23194740.1734   23194734.4774
     -1819.6444      -1417.9134        115.0004        134.0004
    742265.21046  -2832955.20145  23523998.3534   23524003.6304   23523998.0764
       497.5834        387.7404        128.0004        141.0004
    255703.53144    154726.55144  22950522.3774
     -1672.6044      -1303.3144         73.0004        110.0004
  -1641249.15947  -1274267.08946  23127436.1434   23127444.0994   23127436.5634
      1510.3824       1176.9234        147.0004        163.0004
  -6008614.73444      1049.55743  22684980.5384
      -163.6914       -127.5514         74.0004         74.0004
  -1721654.00944    300965.99244  22858327.9134
     -2909.9484      -2267.4164         72.0004        111.0004
 -13857001.03848  -5168545.34147  20596463.4374   20596475.4134   20596463.2434
      1260.8764        982.4954        187.0004        199.0004
 03 10 28  1 15 30.0000000  0  7G27G 1G 8G13G 4G20G28
    228881.83945   1296001.84144  23205109.0214   23205112.2164   23205108.8744
     -1814.8214      -1414.1644        103.0004        117.0004
    727422.51546  -2844520.90145  23521173.9174   23521179.3434   23521173.4934
       491.6664        383.1114        130.0004        145.0004
    305876.49144    193822.14444  22960070.1914
     -1672.6684      -1303.3634         72.0004        111.0004
  -1686551.59747  -1309567.89945  23118815.5914   23118823.6294   23118815.9444
      1509.6674       1176.3694        145.0004        159.0004
  -6003602.42844      4955.18845  22685934.5314
      -170.5604       -132.9104         74.0004        136.0004
  -1634200.34045    369110.27445  22874970.1874
     -2919.9104      -2275.2184         96.0004        140.0004
 -13894553.15848  -5197806.45647  20589317.4374   20589329.4354   20589317.2274
      1242.4704        968.1804        187.0004        199.0004
 03 10 28  1 16  0.0000000  0  7G27G 1G 8G13G 4G20G28
    283254.79146   1338370.45245  23215455.4824                   23215455.9904
     -1810.2124      -1410.5554        108.0004        134.0004
    712760.79046  -2855945.50345  23518383.8434   23518389.5904   23518383.6444
       485.6854        378.4524        129.0004        142.0004
    356046.84644     11408.71243  22969617.5604
     -1672.2484      -1303.0514         74.0004         74.0004
  -1731829.90647  -1344849.82246  23110199.5454   23110207.5044   23110199.9264
      1508.8584       1175.7284        147.0004        165.0004
  -5998386.41045      9019.75645  22686927.1214   22686820.4694
      -177.1534       -138.0324        101.0004        153.0004
  -1546451.25044     56414.99043  22891668.7504
     -2929.8494      -2283.0004         74.0004         74.0004
 -13931551.26748  -5226636.09047  20582276.8794   20582288.7884   20582276.6484
      1224.0214        953.8134        187.0004        199.0004
 03 10 28  1 16 30.0000000  0  7G27G 1G 8G13G 4G20G28
    337485.24846   1380628.13145  23225774.7614                   23225774.9394
     -1805.1724      -1406.6454        119.0004        145.0004
    698281.93646  -2867227.32445  23515628.5204   23515634.0304   23515628.5784
       479.7504        373.8254        132.0004        146.0004
    406214.74844     50500.72045  22979164.5854
     -1672.0824      -1302.9034         74.0004        137.0004
  -1777082.24247  -1380111.43245  23101588.3204   23101596.3954   23101588.6094
      1508.1974       1175.2174        145.0004        158.0004
  -5992969.02247     13241.02046  22687958.0234   22687844.8244   22687975.8514
      -183.6874       -143.1274        157.0004        184.0004
  -1458409.49744    125020.42444  22908422.9734
     -2939.4074      -2290.5014         74.0004        109.0004
 -13967994.25748  -5255033.38047  20575341.9564   20575353.8184   20575341.7534
      1205.5654        939.3954        186.0004        195.0004
 03 10 28  1 17  0.0000000  0  7G27G 1G 8G13G 4G20G28
    391568.55846   1422771.51745  23236065.8934   23236064.1754   23236066.0594
     -1800.2044      -1402.7724        124.0004        144.0004
    683987.73946  -2878365.58545  23512908.5104   23512914.4554   23512908.5794
       473.5284        368.9864        132.0004        146.0004
    456376.63344     89587.31444  22988710.6954
     -1671.8104      -1302.7064         74.0004        111.0004
  -1822306.67547  -1415351.46645  23092982.5244   23092990.9474   23092982.8824
      1507.1524       1174.4264        144.0004        157.0004
  -5987352.82147     17617.08245  22689026.8254   22689042.5464   22689044.2164
      -190.4724       -148.4034        146.0004        147.0004
  -1370076.66644    193852.78544  22925232.4444
     -2949.0324      -2298.0004         74.0004        110.0004
 -14003879.42048  -5282995.45747  20568513.2214   20568525.0014   20568512.9954
      1186.9564        924.8584        186.0004        200.0004
 03 10 28  1 17 30.0000000  0  7G27G 1G 8G13G 4G20G28
    445503.55046   1464798.73245  23246328.9064   23246330.5474   23246329.3664
     -1795.4924      -1399.0824        125.0004        140.0004
    669881.18946  -2889357.38945  23510223.9944   23510229.7664   23510223.8454
       466.9534        363.8534        132.0004        147.0004
    506530.90544      8173.11743  22998255.3914
     -1671.7224      -1302.6394         74.0004         74.0004
  -1867499.50447  -1450567.12145  23084382.8504   23084391.6804   23084383.0854
      1505.8084       1173.3584        144.0004        158.0004
  -5981537.99447     22148.83545  22690133.2634                   22690131.6854
      -196.9814       -153.5164        140.0004        155.0004
  -1281457.47844     51293.25343  22942096.5944
     -2958.8824      -2305.6234         74.0004         74.0004
 -14039203.41848  -5310518.62847  20561791.0964   20561803.0424   20561790.8254
      1168.1034        910.1564        187.0004        204.0004
 03 10 28  1 18  0.0000000  0  7G27G 1G 8G13G 4G20G28
    499289.66246   1506709.40245  23256564.1284   23256569.5244   23256564.9714
     -1790.4564      -1395.1384        124.0004        139.0004
    655963.74346  -2900201.99745  23507575.5034   23507581.4854   23507575.3814
       460.7374        359.0214        132.0004        146.0004
    556675.39444     47225.21344  23007798.2004
     -1671.1724      -1301.1344         74.0004        124.0004
  -1912657.56547  -1485754.79245  23075789.6014   23075795.1494   23075789.9194
      1504.7604       1172.5294        136.0004        155.0004
  -5975529.95546     26831.39844  22691276.5384   22691290.7904   22691275.3514
      -203.3844       -158.5124        115.0004        118.0004
  -1192552.75244    120569.56946  22959015.1674
     -2968.1954      -2312.8824         74.0004        168.0004
 -14073966.41348  -5337604.28547  20555175.2594   20555187.4894   20555174.9894
      1149.3554        895.4564        186.0004        201.0004
 03 10 28  1 18 30.0000000  0  7G27G 1G 8G13G 4G20G28
    552928.06446   1548504.95745  23266771.1814                   23266771.7874
     -1785.3284      -1391.1594        116.0004        137.0004
    642237.97146  -2910897.28845  23504963.5034   23504969.3974   23504963.2464
       454.3614        354.0484        131.0004        146.0004
    606807.20844     86259.74944  23017338.6914
     -1670.7594      -1300.9874         74.0004        131.0004
  -1957779.07847  -1520914.06245  23067203.1854   23067210.1234   23067203.6404
      1503.4184       1171.4804        143.0004        160.0004
  -5969329.30245     31663.45744  22692456.5084                   22692456.6764
      -209.6594       -163.3714         83.0004        106.0004
  -1103366.08046    190065.38145  22975987.1564   22976066.4914
     -2977.7034      -2320.2804        131.0004        159.0004
 -14108168.19548  -5364252.23947  20548665.8044   20548678.3034   20548665.5464
      1130.7174        881.0124        186.0004        199.0004
 03 10 28  1 19  0.0000000  0  7G27G 1G 8G13G 4G20G28
    606414.38646   1590182.83645  23276949.0034   23276952.3564   23276949.5614
     -1780.4214      -1387.3494        122.0004        143.0004
    628707.31146  -2921440.33245  23502388.5794   23502394.1584   23502388.2904
       447.7644        348.8814        130.0004        147.0004
    656924.90444      4887.90943  23026876.3984
     -1670.3274      -1301.5654         74.0004         74.0004
  -2002862.26347  -1556043.89745  23058624.1474   23058633.5514   23058624.6374
      1502.0924       1170.4754        140.0004        156.0004
  -5962935.75244     36646.08944  22693673.2084
      -216.2124       -168.5004         73.0004        113.0004
  -1013901.02246    259777.79144  22993012.2124                   22993018.5874
     -2986.9724      -2327.5024        108.0004        115.0004
 -14141807.02248  -5390461.49547  20542263.2604   20542275.4624   20542262.9954
      1111.9254        866.3484        186.0004        200.0004
 03 10 28  1 19 30.0000000  0  7G27G 1G 8G13G 4G20G28
    659747.02547   1631740.85545  23287097.6434   23287102.2134   23287097.6944
     -1775.1954      -1383.2724        135.0004        153.0004
    615371.79846  -2931831.23545  23499850.7344   23499856.3264   23499850.4494
       441.2214        343.8094        133.0004        148.0004
    707022.54644     43925.02345  23036410.2314
     -1669.6814      -1301.0284         74.0004        155.0004
  -2047904.27647  -1591141.73246  23050053.0534   23050061.9444   23050053.4474
      1500.7494       1169.4164        147.0004        164.0004
  -5956353.71644     41775.63144  22694925.6754
      -222.5264       -173.4284         74.0004        111.0004
   -924158.09945    329706.76944  23010090.0684                   23010082.5814
     -2995.9584      -2334.4964         84.0004        105.0004
 -14174885.09148  -5416235.00547  20535967.3284   20535979.2824   20535967.0874
      1093.2524        851.8604        185.0004        202.0004
 03 10 28  1 20  0.0000000  0  7G27G 1G 8G13G 4G20G28
    712926.87146   1673180.19045  23297217.3744   23297220.6674   23297217.3094
     -1769.9514      -1379.2104        122.0004        134.0004
    602234.42246  -2942068.33345  23497350.5964   23497357.3674   23497350.4634
       434.6594        338.7064        132.0004        149.0004
    757102.26344     82947.26445  23045940.4564
     -1668.6974      -1300.2604         74.0004        157.0004
  -2092902.61247  -1626205.73045  23041490.2664   23041499.5534   23041490.5594
      1499.3264       1168.3164        144.0004        158.0004
  -5949585.08144      4627.93944  22696213.6274
      -228.5744       -178.1024         74.0004        109.0004
   -834141.90244    399848.61344  23027219.9534
     -3005.0024      -2341.5284         65.0004        109.0004
 -14207399.67848  -5441570.40547  20529778.7754   20529789.9254   20529778.5624
      1074.4174        837.0914        185.0004        198.0004
 03 10 28  1 20 30.0000000  0  7G27G 1G 8G13G 4G20G28
    765949.27346   1714496.75945  23307306.9544   23307311.1134   23307306.9184
     -1764.8554      -1375.2094        126.0004        142.0004
    589297.39046  -2952149.39445  23494888.7334   23494895.3724   23494888.4754
       427.8374        333.4004        132.0004        148.0004
    807157.80545    121951.47844  23055465.8934   23055393.9954
     -1668.0694      -1299.7754        104.0004        128.0004
  -2137853.76247  -1661232.68045  23032936.3584   23032945.0824   23032936.6894
      1497.6014       1166.9804        145.0004        160.0004
  -5942631.97144     10045.85245  22697536.7234
      -234.8174       -182.9744         74.0004        157.0004
                                  23044401.687

 -14239348.22748  -5466464.32047  20523698.0924   20523710.0204   20523697.8944
      1055.5654        822.5924        183.0004        204.0004
 03 10 28  1 21  0.0000000  0  7G27G 1G 8G13G 4G20G28
    818814.51746   1755690.36045  23317366.5574   23317374.2184   23317366.4924
     -1759.5314      -1371.0784        124.0004        146.0004
    576562.44646  -2962073.39245  23492465.3994   23492472.4964   23492465.1284
       421.0834        328.1354        130.0004        144.0004
    857190.00346    160937.26845  23064987.0154   23064911.1084   23064979.0954
     -1667.2484      -1299.1644        124.0004        151.0004
  -2182755.88347  -1696221.92246  23024391.9584   23024401.5734   23024392.3044
      1495.8894       1165.6394        144.0004        163.0004
  -5935494.71846     15607.62645  22698894.7694   22698753.0964
      -240.9424       -187.7404        114.0004        143.0004
   -653297.26544     69982.48643  23061634.3804
     -3023.0124      -2354.3824         74.0004         92.0004
 -14270732.80448  -5490921.01447  20517724.9814   20517736.1934   20517724.8364
      1036.6034        807.7724        184.0004        206.0004
 03 10 28  1 21 30.0000000  0  7G27G 1G 8G13G 4G20G28
    871522.31946   1796761.89045  23327396.3614   23327402.3934   23327396.5304
     -1754.5474      -1367.2124        119.0004        138.0004
    564032.52146  -2971837.44045  23490081.0604   23490087.5504   23490080.8644
       414.0994        322.6964        129.0004        141.0004
    907193.63146    199901.64845  23074502.6594   23074521.2204   23074501.2544
     -1666.5944      -1298.6564        127.0004        137.0004
  -2227606.17547  -1731170.51445  23015857.4254   23015866.2754   23015857.8074
      1493.9124       1164.0764        144.0004        159.0004
  -5928178.47147     21309.27645  22700286.8454   22700156.3524   22700293.1344
      -246.9774       -192.4654        138.0004        142.0004
   -562474.53444    140717.05644  23078917.6364
     -3032.0124      -2361.4124         74.0004        105.0004
 -14301548.00848  -5514932.38646  20511860.5914   20511866.3034   20511860.9124
      1016.8554        792.3414        172.0004        185.0004
 03 10 28  1 22  0.0000000  0  7G27G 1G 8G13G 4G20G28
    924070.07046   1837709.53545  23337395.5574                   23337395.5684
     -1749.0214      -1362.9604        120.0004        151.0004
    551710.05846  -2981439.85345  23487736.4544   23487742.4754   23487736.1034
       407.2024        317.3124        132.0004        148.0004
    957168.81246    238843.63945  23084012.8484   23084033.2014   23084011.2044
     -1665.2784      -1297.6234        132.0004        156.0004
  -2272401.73247  -1766076.06745  23007333.2624   23007341.4694   23007333.5514
      1492.1054       1162.6814        145.0004        159.0004
  -5920683.56546     27149.12645  22701713.0354   22701589.4944   22701714.0004
      -252.8704       -197.0294        117.0004        134.0004
   -471387.93244    211657.34944  23096251.0454
     -3040.6894      -2368.1374         74.0004        111.0004
 -14331795.00148  -5538502.01246  20506104.5604   20506111.7074   20506104.6694
       998.9334        778.4304        179.0004        186.0004
 03 10 28  1 22 30.0000000  0  7G27G 1G 8G13G 4G20G28
    976454.76046   1878529.64344  23347363.6524   23347372.0264   23347363.4564
     -1743.6194      -1358.6934        113.0004        127.0004
    539596.91546  -2990879.33645  23485431.5584   23485438.0744   23485431.3294
       400.0144        311.7134        130.0004        146.0004
   1007110.31646    277759.48544  23093516.4224   23093540.0294   23093513.8814
     -1664.2264      -1296.8194        120.0004        121.0004
  -2317139.71047  -1800936.92045  22998819.9984   22998828.5994   22998820.3634
      1490.1124       1161.1294        145.0004        157.0004
  -5913011.22047     33127.58245  22703173.1324   22703180.8644   22703173.4644
      -258.7904       -201.6974        139.0004        158.0004
   -380040.69744     65847.09543  23113634.0564
     -3049.4194      -2376.0914         74.0004         94.0004
 -14361471.25148  -5561626.42547  20500457.3944                   20500457.3174
       980.8054        764.2184        172.0004        194.0004
 03 10 28  1 23  0.0000000  0  7G27G 1G 8G13G 4G20G28
   1028677.27345   1919223.37544  23357300.9244                   23357299.3724
     -1737.9174      -1354.2504         89.0004        111.0004
    527695.76346  -3000153.57345  23483167.0204   23483173.2464   23483166.7934
       393.2304        306.4224        132.0004        147.0004
   1057016.47645    316647.76444  23103013.2984                   23103009.2224
     -1663.0184      -1295.8844         91.0004        112.0004
  -2361817.80147  -1835751.09045  22990318.1774   22990326.9524   22990318.3574
      1488.2514       1159.6794        144.0004        157.0004
  -5905164.74147     39242.14545  22704666.2204   22704676.4294   22704666.4874
      -264.2804       -205.9434        142.0004        146.0004
   -288435.67544    137225.96144  23131066.1314
     -3057.5304      -2382.4294         74.0004        119.0004
 -14390576.23648  -5584306.87246  20494919.3634   20494929.8514   20494919.2544
       960.2604        748.2804        165.0004        184.0004
 03 10 28  1 23 30.0000000  0  7G27G 1G 8G13G 4G20G28
   1080734.69144   1959788.42644  23367206.8104
     -1732.4234      -1349.9874         74.0004        111.0004
    516009.29746  -3009260.13045  23480943.6264   23480949.4154   23480943.2444
       386.0984        300.8404        130.0004        145.0004
   1106884.83444    355506.66344  23112503.0714
     -1661.5514      -1294.7284         77.0004        109.0004
  -2406433.67947  -1870516.71945  22981828.1314   22981836.7484   22981828.2694
      1486.3354       1158.1874        146.0004        160.0004
  -5897146.24247     45490.51645  22706191.9024   22706204.1544   22706191.8594
      -269.8924       -210.3144        149.0004        159.0004
   -196574.81144    208804.67844  23148546.9934
     -3066.0924      -2389.1024         70.0004        114.0004
 -14419105.60047  -5606537.07544  20489490.8844                   20489490.0654
       941.7604        733.7424        156.0004        122.0004
 03 10 28  1 24  0.0000000  0  7G27G 1G 8G13G 4G20G28
   1132626.46744   2000224.52244  23377081.2434
     -1727.0364      -1345.7644         76.0004        114.0004
    504538.90346  -3018198.01745  23478761.2114   23478766.7984   23478760.9414
       378.6584        295.0604        133.0004        149.0004
   1156715.02644    394335.83544  23121985.6694
     -1660.4544      -1293.8724         62.0004        107.0004
  -2450985.04047  -1905232.40945  22973350.3884   22973359.2404   22973350.5644
      1483.7954       1156.2224        147.0004        161.0004
  -5888957.84346     51870.65144  22707750.1434   22707766.8804   22707749.9174
      -275.8904       -214.9694        121.0004        130.0004
   -104462.57944    280579.16744  23166075.6114
     -3074.6094      -2395.7424         69.0004        110.0004
 -14447059.66648  -5628319.36847  20484171.7834   20484184.8074   20484170.9594
       922.2974        718.6754        178.0004        212.0004
 03 10 28  1 24 30.0000000  0  8G27G 1G 8G13G 4G20G 7G28
   1184349.83344     29206.62643  23386923.6354
     -1721.4884      -1341.4204         74.0004         74.0004
    493287.80046  -3026964.76345  23476620.2754   23476624.6684   23476619.8314
       371.2004        289.2384        124.0004        140.0004
   1206503.27544     29411.15043  23131460.2244
     -1658.8814      -1292.6354         74.0004         74.0004
  -2495467.95347  -1939894.58045  22964885.6764   22964894.1584   22964885.9324
      1481.4654       1154.3914        147.0004        160.0004
  -5880600.79747     58382.81346  22709340.5624   22709355.8774   22709340.5694
      -281.4424       -219.3134        156.0004        178.0004
    -12099.99946    352549.77945  23183651.7844   23183730.5904
     -3082.9464      -2402.3004        132.0004        161.0004
   -147822.36946   -106958.24345  23279959.4264   23279977.0844
      2208.3694       1720.7974        116.0004        161.0004
 -14474439.91147  -5649652.94944  20478961.8194                   20478959.3984
       903.0214        703.5314        143.0004        113.0004
 03 10 28  1 25  0.0000000  0  8G27G 1G 8G13G 4G20G 7G28
   1235905.92244     69381.02145  23396734.2994
     -1715.6924      -1336.9104         74.0004        145.0004
    482255.69446  -3035561.18745  23474521.0984   23474526.7524   23474520.6544
       364.0284        283.6764        131.0004        147.0004
   1256246.41544     68170.98444  23140926.1604
     -1657.3164      -1291.3944         74.0004        120.0004
  -2539880.81647  -1974501.84445  22956434.1964   22956442.4744   22956434.5014
      1479.2514       1152.6534        147.0004        162.0004
  -5872078.85047     65023.32245  22710962.0884   22710978.0824   22710962.0704
      -286.8054       -223.4814        154.0004        161.0004
     80508.75647    424712.26345  23201274.7314   23201364.1884   23201286.5284
     -3091.0064      -2408.5674        140.0004        156.0004
   -214139.30547   -158633.77045  23267340.0934   23267356.4114   23267338.7474
      2212.6314       1724.1264        141.0004        160.0004
 -14501244.20547  -5670538.18944  20473861.4904
       883.7614        688.5804        146.0004        112.0004
 03 10 28  1 25 30.0000000  0  8G27G 1G 8G13G 4G20G 7G28
   1287292.25546    109422.71145  23406512.5954   23406597.4264
     -1710.0044      -1332.4764        115.0004        140.0004
    471446.32646  -3043984.39045  23472464.2114   23472471.2544   23472463.5524
       356.5914        277.8594        130.0004        147.0004
   1305942.94144    106894.58645  23150383.3564
     -1655.7744      -1290.1974         74.0004        152.0004
  -2584220.48047  -2009052.06945  22947996.7994   22948005.2504   22947997.0404
      1476.7434       1150.7004        147.0004        161.0004
  -5863392.08847     71792.18046  22712615.0264   22712630.8884   22712615.1094
      -292.2754       -227.7524        148.0004        164.0004
    173363.37947    497066.41845  23218944.5514   23218962.9584   23218945.2004
     -3099.1484      -2414.9364        137.0004        159.0004
   -280577.77947   -210403.87045  23254696.4854   23254712.6934   23254695.8404
      2216.6284       1727.2354        146.0004        161.0004
 -14527475.70048  -5690979.37647  20468870.3364   20468884.5894   20468868.9174
       864.5314        673.6664        171.0004        194.0004
 03 10 28  1 26  0.0000000  0  8G27G 1G 8G13G 4G20G 7G28
   1338506.47146    149329.86445  23416258.1914   23416264.7174   23416303.1954
     -1704.1374      -1327.8874        119.0004        136.0004
    460861.47746  -3052232.38045  23470449.9994   23470456.3734   23470449.5274
       349.2384        272.1444        133.0004        151.0004
   1355590.89846    145581.09545  23159831.2224   23159672.2394   23159835.5274
     -1653.9374      -1288.7974        131.0004        154.0004
  -2628485.33947  -2043544.35445  22939573.5114   22939582.5444   22939573.6564
      1474.3654       1148.8614        146.0004        162.0004
  -5854543.51447     78687.48845  22714298.9114   22714314.1694   22714298.9664
      -297.4644       -231.7964        144.0004        154.0004
    266458.51247    569607.85545  23236660.0854   23236677.2564   23236660.1254
     -3107.0404      -2421.0554        136.0004        149.0004
   -347137.26147   -262268.22445  23242030.3944   23242047.2344   23242029.5854
      2220.7654       1730.4624        147.0004        160.0004
 -14553123.13748  -5710963.83346  20463990.4574   20464007.8424   20463989.1164
       845.4374        658.9194        170.0004        179.0004
 03 10 28  1 26 30.0000000  0  8G27G 1G 8G13G 4G20G 7G28
   1389549.17646    189103.42045  23425970.9814   23425974.8364   23425970.5234
     -1698.7224      -1323.6864        122.0004        139.0004
    450502.86646  -3060304.46745  23468478.9174   23468486.5274   23468478.5984
       341.3274        265.9844        126.0004        138.0004
   1405187.01147    184227.25845  23169269.2394   23169292.3354   23169273.5644
     -1652.2614      -1287.4534        136.0004        155.0004
  -2672671.87247  -2077975.64445  22931165.1104   22931174.0554   22931165.3494
      1471.5624       1146.6864        147.0004        161.0004
  -5845535.68847     85706.43946  22716012.8644   22716028.7424   22716013.0124
      -302.9124       -236.0254        153.0004        171.0004
    359793.02747    642335.79645  23254421.2324   23254438.4884   23254420.8824
     -3115.1624      -2427.3954        138.0004        148.0004
   -413815.81947   -314225.36245  23229341.9274   23229358.9094   23229341.3384
      2224.5804       1733.4324        148.0004        161.0004
 -14578190.42148  -5730496.80647  20459220.6634   20459232.9584   20459219.5084
       826.1174        643.6634        172.0004        200.0004
 03 10 28  1 27  0.0000000  0  8G27G 1G 8G13G 4G20G 7G28
   1440418.35146    228742.35945  23435650.8224   23435653.1984   23435649.3564
     -1692.8364      -1319.1174        122.0004        142.0004
    440373.12246  -3068198.31445  23466551.5064   23466559.1744   23466550.9784
       333.7624        260.0824        129.0004        142.0004
   1454729.04547    222830.59445  23178697.0234   23178723.8924   23178697.6154
     -1650.5154      -1286.0934        136.0004        157.0004
  -2716777.63647  -2112344.05946  22922772.1484   22922781.1104   22922772.3564
      1468.7774       1144.5054        148.0004        163.0004
  -5836370.33547     92848.17245  22717756.7844   22717772.4034   22717757.0404
      -308.1754       -240.1404        151.0004        160.0004
    453364.17447    715248.35446  23272227.3554   23272243.9394   23272226.8504
     -3122.9914      -2433.5144        146.0004        166.0004
   -480612.19647   -366274.30545  23216630.9394   23216647.8234   23216630.3494
      2228.3864       1736.4004        148.0004        161.0004
 -14602681.07548  -5749581.13246  20454560.3444   20454573.8284   20454559.4224
       806.4264        628.4114        174.0004        185.0004
 03 10 28  1 27 30.0000000  0  8G27G 1G 8G13G 4G20G 7G28
   1491111.88946    268244.01945  23445297.2404   23445301.2864   23445296.5794
     -1686.9754      -1314.5384        123.0004        137.0004
    430474.28746  -3075912.16745  23464668.0084   23464674.8954   23464667.8064
       326.0164        254.0604        129.0004        142.0004
   1504215.57147    261391.17445  23188114.3194   23188133.4884   23188114.7554
     -1648.6114      -1284.6264        139.0004        156.0004
  -2760800.15447  -2146647.50345  22914395.1304   22914403.7654   22914395.2594
      1466.0374       1142.3664        148.0004        162.0004
  -5827048.48847    100112.42745  22719530.7204                   22719530.8454
      -313.2904       -244.1514        137.0004        160.0004
    547167.72747    788341.81945  23290077.7964   23290095.1314   23290077.4024
     -3130.6864      -2439.4854        137.0004        151.0004
   -547524.85447   -418413.86345  23203897.7644   23203914.6804   23203897.1634
      2232.3494       1739.4884        147.0004        160.0004
 -14626588.30648  -5768209.37447  20450011.0984   20450024.5864   20450010.3574
       787.0524        613.2394        177.0004        199.0004
 03 10 28  1 28  0.0000000  0  8G27G 1G 8G13G 4G20G 7G28
   1541629.52346    307608.82445  23454910.1134   23454914.2854   23454909.7034
     -1680.8624      -1309.7784        127.0004        146.0004
    420808.60846  -3083444.36445  23462829.0074   23462835.5844   23462828.6834
       318.3554        248.0884        132.0004        151.0004
   1553644.53947    299907.38445  23197520.6394   23197537.0364   23197520.9374
     -1646.5944      -1283.0644        142.0004        158.0004
  -2804736.56947  -2180883.82446  22906034.4354   22906043.0944   22906034.5884
      1463.0864       1140.0644        148.0004        163.0004
  -5817573.76847    107495.82646  22721333.7274   22721348.2564   22721333.8954
      -318.1614       -247.9314        157.0004        172.0004
    641203.00047    861616.07645  23307972.1054   23307988.5624   23307971.6574
     -3138.2634      -2445.4174        135.0004        156.0004
   -614552.27147   -470642.82145  23191142.7374   23191159.6594   23191142.2094
      2236.1794       1742.4704        147.0004        160.0004
 -14649916.20748  -5786387.25647  20445571.9214   20445585.6654   20445571.4694
       767.7354        598.1904        178.0004        193.0004
 03 10 28  1 28 30.0000000  0  8G27G 1G 8G13G 4G20G 7G28
   1591969.36646    346835.18545  23464489.1524   23464493.5234   23464488.7754
     -1675.0874      -1305.2624        131.0004        148.0004
    411378.18346  -3090793.38545  23461034.7594   23461041.5864   23461034.4074
       310.2344        241.7524        133.0004        150.0004
   1603012.47947    338375.64545  23206915.3434   23206931.3814   23206915.3734
     -1644.7154      -1281.5854        141.0004        156.0004
  -2848584.06547  -2215050.85045  22897690.5504   22897699.8404   22897690.8014
      1459.9414       1137.6204        148.0004        162.0004
  -5807948.63946    114996.15444  22723165.0994                   22723164.6394
      -323.3934       -252.0024        121.0004        114.0004
    735465.51846    935067.31345  23325909.5504   23325928.0944   23325909.0744
     -3145.8144      -2451.2764        133.0004        149.0004
   -681692.35247   -522959.56345  23178366.2344   23178383.0724   23178365.7554
      2239.7704       1745.2724        147.0004        160.0004
 -14672663.81948  -5804113.87147  20441243.3304   20441256.8524   20441242.9364
       748.3114        583.1234        179.0004        194.0004
 03 10 28  1 29  0.0000000  0  8G27G 1G 8G13G 4G20G 7G28
   1642129.52046    385920.89045  23474034.0344   23474040.0674   23474033.7754
     -1669.0764      -1300.5684        126.0004        144.0004
    402184.38746  -3097958.08745  23459285.6484   23459292.7714   23459285.5934
       302.4134        235.6764        126.0004        137.0004
   1652317.80247    376795.23945  23216297.9934   23216313.1884   23216297.9264
     -1642.5544      -1279.9064        142.0004        156.0004
  -2892340.11547  -2249146.73646  22889364.2174   22889373.4814   22889364.5014
      1456.9034       1135.2494        150.0004        164.0004
  -5798173.84745    122613.12844  22725025.0784                   22725020.7604
      -328.3584       -255.8654         92.0004        111.0004
    829952.81647   1008693.21245  23343890.0304   23343909.3954   23343889.3874
     -3153.3384      -2457.1314        139.0004        158.0004
   -748944.13947   -575363.37845  23165568.6274   23165585.3284   23165568.0604
      2243.4974       1748.1724        147.0004        161.0004
 -14694826.71448  -5821384.23646  20437026.1224   20437035.8804   20437025.5094
       728.6704        567.7484        171.0004        183.0004
 03 10 28  1 29 30.0000000  0  8G27G 1G 8G13G 4G20G 7G28
   1692110.02346    424866.57745  23483544.8654   23483550.8184   23483544.6874
     -1662.9664      -1295.8204        122.0004        140.0004
    393232.58945  -3104933.68644  23457582.5184                   23457582.8874
       294.4634        229.4614        103.0004        111.0004
   1701558.14947    415164.19345  23225668.2714   23225683.0074   23225668.0624
     -1640.1914      -1278.0734        144.0004        160.0004
  -2936002.45447  -2283169.77446  22881055.7184   22881065.0754   22881055.9514
      1453.8454       1132.8804        151.0004        164.0004
  -5788251.29544    130345.27444  22726913.3114
      -333.1024       -259.5684         76.0004        111.0004
    924663.83547   1082493.90546  23361913.2654   23361930.7704   23361912.9074
     -3160.6454      -2462.8474        141.0004        165.0004
   -816305.48047   -627852.53645  23152750.0004   23152766.5844   23152749.4224
      2247.2544       1751.0994        147.0004        160.0004
 -14716406.99948  -5838200.05047  20432919.9074   20432930.0234   20432919.3704
       709.5894        552.9614        175.0004        194.0004
                            4  1
RINEX FILE SPLICE; other post-header comments skipped       COMMENT
 03 10 28  1 30  0.0000000  0  8G27G 1G 8G13G 4G20G 7G28
   1741909.90646    463672.07745  23493021.1634   23493025.9664   23493020.9554
     -1656.9574      -1291.1524        126.0004        147.0004
    384520.90946  -3111723.03245  23455924.8434                   23455925.4094
       286.3234        223.1364        118.0004        142.0004
   1750731.19147    453480.81745  23235025.6884   23235039.9024   23235025.4674
     -1637.9174      -1276.2934        143.0004        157.0004
  -2979567.67147  -2317117.08046  22872765.7654   22872774.8544   22872765.9934
      1450.5484       1130.3114        151.0004        164.0004
  -5778184.50144        69.17943  22728828.7634
      -337.8124       -263.2244         74.0004         74.0004
   1019593.91247   1156465.23945  23379978.0694   23379995.6774   23379977.6414
     -3168.0124      -2468.5684        141.0004        149.0004
   -883774.88847   -680425.89345  23139910.7874   23139927.4724   23139910.3094
      2250.8314       1753.8884        148.0004        161.0004
 -14737402.43247  -5854560.68344  20428925.1384   20428940.5364   20428924.2364
       690.1534        537.8024        148.0004        131.0004
 03 10 28  1 30 30.0000000  0  8G27G 1G 8G13G 4G20G 7G28
   1791527.60446    502335.34445  23502462.9424   23502468.4914   23502462.7804
     -1650.8534      -1286.3754        123.0004        141.0004
    376053.31646  -3118321.34845  23454313.7214   23454312.1184   23454314.2394
       278.3424        216.8994        126.0004        146.0004
   1799834.98447    491743.32845  23244369.9354   23244384.1234   23244369.6394
     -1635.4644      -1274.3834        145.0004        158.0004
  -3023032.64847  -2350986.14846  22864494.8304   22864503.8534   22864495.1454
      1447.2254       1127.7114        150.0004        164.0004
  -5767973.91744      8025.72445  22730771.2234
      -342.5764       -266.9664         74.0004        155.0004
   1114741.28447   1230605.53745  23398084.0904   23398103.6784   23398083.7934
     -3175.0704      -2474.0544        137.0004        151.0004
   -951350.37447   -733081.89145  23127051.4414   23127068.2444   23127051.0034
      2254.3894       1756.6614        149.0004        162.0004
 -14757811.91046  -5870465.17745  20425041.8984   20425056.4924   20425040.9574
       670.7134        522.6614        119.0004        133.0004
 03 10 28  1 31  0.0000000  0  8G27G 1G 8G13G 4G20G 7G28
   1840962.13746    540856.25345  23511869.9764   23511874.6054   23511869.8014
     -1644.7584      -1281.6524        122.0004        138.0004
    367830.66146  -3124729.05545  23452749.1814   23452750.3254   23452749.4764
       270.2054        210.5764        133.0004        156.0004
   1848866.80147    529949.93645  23253700.4504   23253714.3414   23253700.1784
     -1633.1294      -1272.5704        144.0004        157.0004
  -3066396.13747  -2384776.13046  22856243.1784   22856252.3434   22856243.5204
      1443.7764       1125.0304        151.0004        164.0004
  -5757623.02845     16091.67746  22732740.8014   22732661.5574
      -347.2374       -270.5824         98.0004        169.0004
   1210102.54547   1304912.59945  23416230.9964   23416248.7554   23416230.6434
     -3182.1354      -2479.5714        135.0004        147.0004
  -1019031.31947   -785820.06845  23114172.0874   23114188.8194   23114171.5944
      2257.8114       1759.3274        149.0004        162.0004
 -14777633.10446  -5885910.37645  20421270.4594   20421295.1824   20421257.9484
       651.1364        507.4064        107.0004        134.0004
 03 10 28  1 31 30.0000000  0  8G27G 1G 8G13G 4G20G 7G28
   1890211.42146    579233.00945  23521241.6684   23521246.0814   23521241.2804
     -1638.4044      -1276.6984        133.0004        151.0004
    359855.37346  -3130944.06445  23451231.9104   23451236.7274   23451231.4414
       261.9564        204.1474        130.0004        152.0004
   1897824.27547    568098.71245  23263016.9004   23263030.4334   23263016.5354
     -1630.5994      -1270.5984        144.0004        158.0004
  -3109654.93647  -2418484.46646  22848011.5424   22848020.5214   22848011.8474
      1440.2704       1122.2964        152.0004        167.0004
  -5747134.47547     24264.79146  22734736.6344   22734650.1864   22734746.5394
      -351.9394       -274.2514        153.0004        167.0004
   1305675.22647   1379384.38045  23434418.0634   23434434.9624   23434417.6154
     -3189.1784      -2485.0554        136.0004        151.0004
  -1086815.58547   -838638.73846  23101273.0694   23101289.7554   23101272.5204
      2261.2024       1761.9664        149.0004        163.0004
 -14796869.74546  -5900900.28644  20417610.2174
       631.6064        492.2844        107.0004        124.0004
 03 10 28  1 32  0.0000000  0  8G27G 1G 8G13G 4G20G 7G28
   1939274.60546    617464.23545  23530577.6474   23530584.4544   23530577.6274
     -1632.4114      -1272.0124        119.0004        134.0004
    352129.82246  -3136964.52345  23449762.0984                   23449761.5104
       253.3654        197.4434        121.0004        145.0004
   1946705.65647    606188.17145  23272318.7934   23272332.4374   23272318.3464
     -1628.0024      -1268.5744        143.0004        157.0004
  -3152805.01847  -2452107.83746  22839800.6174   22839809.1424   22839800.8664
      1436.6134       1119.4354        150.0004        164.0004
  -5736508.28247     32545.24545  22736758.5094   22736772.7864   22736771.1554
      -356.3824       -277.7314        146.0004        151.0004
   1401457.37747   1454019.56745  23452645.0294   23452661.6874   23452644.6314
     -3196.0534      -2490.4234        141.0004        156.0004
  -1154701.28147   -891536.46946  23088354.7704   23088371.3194   23088354.1614
      2264.5994       1764.6154        150.0004        163.0004
 -14815518.82246  -5915432.53544  20414061.7794   20414108.5554   20414027.7184
       611.9784        476.8874        110.0004        130.0004
 03 10 28  1 32 30.0000000  0  8G27G 1G 8G13G 4G20G 7G28
   1988150.82746    655549.94545  23539878.2884   23539883.9334   23539878.3284
     -1626.1424      -1267.1334        125.0004        142.0004
    344655.49246  -3142789.54045  23448340.0054   23448346.9074   23448339.2234
       244.8474        190.8384        122.0004        143.0004
   1995508.32147    644216.23545  23281605.5614   23281619.2204   23281605.1494
     -1625.4744      -1266.6034        144.0004        157.0004
  -3195845.34847  -2485645.72446  22831610.3054   22831619.2784   22831610.5894
      1432.8364       1116.4934        150.0004        164.0004
  -5725747.05347     40931.53546  22738806.0084   22738815.9954   22738803.4534
      -360.8834       -281.2284        146.0004        163.0004
   1497445.77247   1528815.54145  23470911.1854   23470927.6454   23470910.8674
     -3203.0524      -2495.8804        140.0004        155.0004
  -1222686.93947   -944512.05246  23075417.3634   23075433.8574   23075416.7944
      2267.7994       1767.1094        150.0004        163.0004
 -14833580.31646  -5929506.85945  20410625.1644   20410677.4764   20410585.0404
       592.3804        461.6634        114.0004        135.0004
 03 10 28  1 33  0.0000000  0  8G27G 1G 8G13G 4G20G 7G28
   2036838.85546    693488.98145  23549143.0994   23549148.4544   23549143.1034
     -1619.8264      -1262.2164        126.0004        143.0004
    337435.74746  -3148415.95445  23446966.6624   23446973.3394   23446966.2014
       236.3714        184.2194        129.0004        146.0004
   2044230.58147    682181.73245  23290877.0484   23290890.5984   23290876.6804
     -1622.6514      -1264.4074        144.0004        157.0004
  -3238772.20147  -2519095.06846  22823441.6194   22823450.5624   22823441.9514
      1429.0044       1113.4914        149.0004        164.0004
  -5714854.25347     49419.74745  22740878.4594   22740893.5174   22740877.3974
      -365.2784       -284.6274        135.0004        139.0004
   1593637.60247   1603769.94345  23489216.1894   23489232.8314   23489215.7314
     -3209.7864      -2501.1034        140.0004        156.0004
  -1290770.58647   -997563.98545  23062461.3114   23062477.6784   23062460.8114
      2271.1284       1769.7064        150.0004        162.0004
 -14851052.95846  -5943122.51645  20407300.5404   20407357.3974   20407255.4544
       572.6674        446.2314        111.0004        132.0004
 03 10 28  1 33 30.0000000  0  8G27G 1G 8G13G 4G20G 7G28
   2085336.80446    731279.61845  23558371.8394   23558377.2494   23558371.7884
     -1613.3044      -1257.1134        131.0004        150.0004
    330471.42146  -3153843.11445  23445641.7644   23445648.4594   23445641.4834
       227.9584        177.7164        128.0004        146.0004
   2092869.76047    720082.52545  23300132.6604   23300146.2404   23300132.3694
     -1619.7974      -1262.1794        143.0004        156.0004
  -3281584.33847  -2552455.09446  22815294.8094   22815303.8564   22815295.1504
      1425.2354       1110.5794        149.0004        163.0004
  -5703831.35347     58009.26546  22742975.8634   22742991.2664   22742975.1234
      -369.3844       -287.8484        149.0004        166.0004
   1690029.30446   1678879.58545  23507559.3204   23507576.9314   23507558.8524
     -3216.2854      -2506.1864        127.0004        135.0004
  -1358950.89947  -1050691.24946  23049486.8524   23049503.1214   23049486.3644
      2274.3694       1772.2264        150.0004        163.0004
 -14867937.33647  -5956279.67746  20404087.9304   20404144.6724   20404042.5904
       552.8704        430.8394        141.0004        182.0004
 03 10 28  1 34  0.0000000  0  8G27G 1G 8G13G 4G20G 7G28
   2133644.35346    768921.70645  23567564.4504   23567569.7454   23567564.3734
     -1607.0584      -1252.2514        127.0004        142.0004
    323764.89346  -3159069.90845  23444366.0604   23444374.2604   23444365.7504
       219.3174        170.9344        131.0004        147.0004
   2141424.26747    757917.40945  23309372.0844   23309385.7244   23309371.8684
     -1616.9964      -1260.0054        142.0004        156.0004
  -3324278.02647  -2585723.03746  22807170.3924   22807179.8184   22807170.8164
      1421.2194       1107.4564        149.0004        163.0004
  -5692679.80847     66699.25846  22745097.6494   22745112.5114   22745097.3954
      -373.7534       -291.2564        142.0004        163.0004
   1786619.81846   1754144.98445  23525940.1354   23525956.2274   23525940.0164
     -3222.8344      -2511.2884        129.0004        147.0004
  -1427225.73947  -1103892.13846  23036494.3734   23036510.6724   23036493.8684
      2277.5094       1774.6714        150.0004        163.0004
 -14884232.09248  -5968977.33847  20400987.5144   20401032.1394   20400954.2314
       533.4414        415.6814        182.0004        205.0004
 03 10 28  1 34 30.0000000  0  9G27G 1G 8G13G 4G20G24G 7G28
   2181759.48846    806413.59645  23576720.3874   23576726.2014   23576720.3704
     -1600.6344      -1247.2414        119.0004        134.0004
    317320.21146  -3164091.77444  23443140.1764   23443145.3724   23443139.8204
       210.4874        164.0084        115.0004        129.0004
   2189890.92547    795683.78745  23318594.8114   23318608.6454   23318594.5454
     -1614.1434      -1257.7744        142.0004        155.0004
  -3366851.58147  -2618897.70946  22799068.9224   22799079.3224   22799069.4174
      1416.9824       1104.1564        148.0004        163.0004
  -5681402.72447     75487.15846  22747243.2434   22747257.9584   22747243.1784
      -378.0694       -294.6264        152.0004        170.0004
   1883404.95246   1829561.53645  23544358.0524   23544375.6564   23544358.1444
     -3229.4704      -2516.4524        130.0004        153.0004
   5177706.06444
     -3193.1244                         74.0004
  -1495593.94847  -1157165.77546  23023484.0354   23023500.4814   23023483.5154
      2280.4434       1776.9594        150.0004        163.0004
 -14899936.82648  -5981215.01147  20397999.3864   20398035.9784   20397974.7004
       513.6144        400.2544        182.0004        193.0004
 03 10 28  1 35  0.0000000  0  9G27G 1G 8G13G 4G20G24G 7G28
   2229683.02346    843756.51344  23585839.8244   23585845.0194   23585839.8444
     -1594.1524      -1242.1984        115.0004        130.0004
    311136.28546  -3168910.28645  23441963.7064   23441969.7484   23441963.0474
       201.8334        157.2684        122.0004        138.0004
   2238268.74747    833380.86545  23327800.5094   23327814.6844   23327800.2924
     -1611.0254      -1255.3494        143.0004        157.0004
  -3409300.67847  -2651975.09346  22790991.3214   22791000.8334   22790991.7884
      1412.9444       1101.0064        151.0004        165.0004
  -5670000.90347     84372.05545  22749412.6124   22749426.7284   22749412.5564
      -382.0344       -297.6994        144.0004        156.0004
   1980382.89947   1905128.29245  23562812.5964   23562829.8284   23562812.4114
     -3235.7254      -2521.3434        136.0004        151.0004
   5177706.06444
     -3193.1244                         74.0004
  -1564053.15047  -1210510.34646  23010456.4764   23010473.0574   23010455.9344
      2283.5094       1779.3474        150.0004        163.0004
 -14915049.89348  -5992991.15647  20395123.7694   20395153.7804   20395105.4164
       493.9884        384.9404        187.0004        203.0004
 03 10 28  1 35 30.0000000  0  9G27G 1G 8G13G 4G20G24G 7G28
   2277412.27846    880947.98345  23594922.3914   23594927.2644   23594922.3804
     -1587.6524      -1237.1184        122.0004        136.0004
    305217.93145  -3173522.03144  23440837.7614                   23440838.2024
       193.0414        150.4094         94.0004        111.0004
   2286554.62547    871006.41545  23336989.0554   23337002.8944   23336988.7784
     -1607.9394      -1252.9494        143.0004        157.0004
  -3451622.99847  -2684953.48646  22782937.8374   22782946.9784   22782938.2544
      1408.6904       1097.6804        151.0004        166.0004
  -5658478.21547     93351.56245  22751604.9524   22751619.0064   22751605.1774
      -386.0444       -300.8184        147.0004        154.0004
   2077550.85147   1980843.49245  23581303.2504   23581319.4984   23581302.8494
     -3242.0334      -2526.2504        139.0004        155.0004
    -30822.98944    -20955.539 4                  24714254.614
       602.1904        469.647          74.0004        100.000
  -1632602.07747  -1263924.82346  22997411.8204   22997428.3164   22997411.3374
      2286.4994       1781.6774        151.0004        164.0004
 -14929572.49948  -6004307.34547  20392360.3694   20392385.6854   20392346.7024
       474.3094        369.6014        188.0004        201.0004
 03 10 28  1 36  0.0000000  0  8G27G 1G 8G13G 4G20G 7G28
   2324947.16846    917987.90845  23603968.0944   23603973.2224   23603967.9124
     -1581.1944      -1232.1004        125.0004        141.0004
    299563.61445  -3177927.92944  23439761.9674
       183.7064        143.1614         80.0004        111.0004
   2334746.67247    908558.79145  23346159.7414   23346173.4974   23346159.3954
     -1604.8054      -1250.4974        143.0004        157.0004
  -3493816.65047  -2717831.82046  22774908.7844   22774918.2734   22774909.1044
      1404.2784       1094.2504        152.0004        167.0004
  -5646835.76847    102423.73945  22753820.3064   22753835.4444   22753820.5834
      -390.0834       -303.9814        142.0004        157.0004
   2174905.20746   2056703.69745  23599829.2704   23599846.1994   23599828.9954
     -3248.2574      -2531.0914        134.0004        148.0004
  -1701238.64947  -1317407.47646  22984350.5634   22984366.8844   22984350.0944
      2289.3714       1783.9074        151.0004        165.0004
 -14943503.47448  -6015162.15047  20389709.4374   20389731.2614   20389699.2334
       454.5374        354.1694        188.0004        203.0004
 03 10 28  1 36 30.0000000  0  8G27G 1G 8G13G 4G20G 7G28
   2372286.47546    954875.63145  23612976.5494   23612981.1874   23612976.1674
     -1574.5524      -1226.9194        126.0004        141.0004
    294176.32354  -3182125.83544  23438736.9294
       175.2004        136.5174         65.0004        108.0004
   2382842.96047    946036.52545  23355312.1484   23355325.7904   23355311.8054
     -1601.5424      -1247.9584        144.0004        158.0004
  -3535878.66347  -2750607.54946  22766904.6754   22766914.0734   22766905.0844
      1399.9684       1090.8854        153.0004        167.0004
  -5635075.91647    111587.71245  22756057.9104   22756072.3044   22756057.9074
      -393.8464       -306.9094        141.0004        159.0004
   2272444.84346   2132708.45245  23618390.5244   23618407.0574   23618390.4524
     -3254.3054      -2535.8324        131.0004        151.0004
  -1769961.14447  -1370957.00046  22971272.9644   22971289.1734   22971272.4934
      2292.2254       1786.1314        151.0004        165.0004
 -14956843.48248  -6025556.61247  20387170.7784   20387190.0584   20387163.2324
       434.8534        338.8134        188.0004        202.0004
 03 10 28  1 37  0.0000000  0  9G27G 1G 8G13G 4G20G24G 7G28
   2419429.18046    991610.09245  23621947.6184   23621951.9584   23621947.4094
     -1568.1414      -1221.9234        128.0004        144.0004
    289061.09744     -2063.57143  23437763.9094
       166.0614        129.3984         74.0004         74.0004
   2430841.09947    983437.65945  23364445.7634   23364459.5704   23364445.4774
     -1598.2784      -1245.4074        144.0004        157.0004
  -3577806.31147  -2783278.69046  22758926.2124   22758935.7684   22758926.5944
      1395.2364       1087.2014        152.0004        164.0004
  -5623200.61347    120841.56745  22758317.3654   22758331.5914   22758317.5574
      -397.8784       -310.0444        147.0004        155.0004
   2370165.29246   2208854.08545  23636986.1804   23637003.1884   23636986.1354
     -3260.3434      -2540.5074        130.0004        150.0004
    -43413.62854
       596.6894                         74.0004
  -1838767.94147  -1424572.27546  22958179.0624   22958195.4704   22958178.6734
      2294.8934       1788.2144        151.0004        164.0004
 -14969591.37848  -6035489.68647  20384744.8404   20384762.1944   20384739.1854
       415.0524        323.3924        188.0004        201.0004
 03 10 28  1 37 30.0000000  0  9G27G 1G 8G13G 4G20G24G 7G28
   2466374.61746   1028190.94645  23630881.1594   23630885.3234   23630880.9344
     -1561.4924      -1216.7444        125.0004        138.0004
    284216.28544     -5838.32745  23436842.1954
       156.9864        122.3274         74.0004        143.0004
   2478739.24447   1020760.88045  23373560.4324   23373574.1894   23373560.0274
     -1594.7154      -1242.6314        143.0004        157.0004
  -3619596.02847  -2815842.15646  22750973.9694   22750983.3934   22750974.2714
      1390.8224       1083.7544        152.0004        166.0004
  -5611211.93247    130183.75645  22760598.3374   22760612.4084   22760598.2954
      -401.2614       -312.6694        142.0004        151.0004
   2468064.47346   2285138.68045  23655615.9834   23655633.4234   23655615.6964
     -3266.0444      -2544.9524        131.0004        146.0004
    -17451.12844    -11353.946 3                  24701582.212
       573.8834        447.327          74.0004         74.000
  -1907656.51747  -1478251.18945  22945069.6324   22945085.9844   22945069.3204
      2297.7414       1790.4274        147.0004        158.0004
 -14981746.26748  -6044960.22247  20382431.6474   20382447.5954   20382427.4244
       395.3784        308.0574        187.0004        198.0004
 03 10 28  1 38  0.0000000  0  9G27G 1G 8G13G 4G20G24G 7G28
   2513121.23246   1064616.38844  23639776.7964   23639782.8514   23639776.3274
     -1554.9564      -1211.6824        116.0004        128.0004
    279646.32046     -9399.68345  23435972.8424   23435812.0234
       147.7564        115.1444        105.0004        140.0004
   2526535.63047   1058004.78645  23382655.7834   23382669.6754   23382655.3304
     -1591.4574      -1240.0984        144.0004        158.0004
  -3661245.44647  -2848296.14946  22743048.3564   22743057.7084   22743048.6954
      1385.9774       1079.9804        153.0004        166.0004
  -5599111.67947    139612.75145  22762900.6194   22762915.0664   22762900.6174
      -405.1034       -315.6704        146.0004        156.0004
   2566140.17546   2361560.96445  23674279.5404   23674296.3704   23674279.1724
     -3272.0904      -2549.6614        131.0004        142.0004
    -48356.77244    -35438.128 4                  24695654.735
       560.3804        436.857          74.0004        109.000
  -1976626.19147  -1531993.24245  22931944.8474   22931961.1094   22931944.4054
      2300.3354       1792.4684        147.0004        161.0004
 -14993306.89248  -6053966.88547  20380231.3764   20380246.3434   20380228.1484
       375.4824        292.5444        187.0004        201.0004
 03 10 28  1 38 30.0000000  0  8G27G 1G 8G13G 4G20G 7G28
   2559667.70946   1100886.60645  23648634.2634   23648638.9114   23648634.0264
     -1548.2734      -1206.4314        120.0004        138.0004
    275349.93146    -12747.51945  23435155.5544                   23435158.8504
       138.6234        107.9984        125.0004        154.0004
   2574227.40947   1095167.29345  23391731.1884   23391744.8394   23391730.7364
     -1587.9674      -1237.3814        143.0004        156.0004
  -3702752.84747  -2880639.62546  22735149.8084   22735159.4494   22735150.1494
      1381.1554       1076.2234        153.0004        167.0004
  -5586902.65847    149126.38545  22765223.6984   22765239.1054   22765224.1164
      -408.7904       -318.5674        137.0004        158.0004
   2664389.37347   2438118.69245  23692976.1344   23692992.6414   23692975.6104
     -3277.8204      -2554.1424        141.0004        161.0004
  -2045675.06347  -1585797.32846  22918804.9834   22918821.5234   22918804.4274
      2302.9804       1794.5274        150.0004        165.0004
 -15004276.70848  -6062513.90147  20378143.2834   20378157.4664   20378140.8724
       355.8094        277.2174        188.0004        202.0004
 03 10 28  1 39  0.0000000  0  9G27G 1G 8G13G 4G20G24G 7G28
   2606013.04846   1136999.29445  23657453.7424   23657459.4424   23657453.2714
     -1541.6324      -1201.2554        122.0004        139.0004
    271331.92946    -15878.10445  23434391.2094   23434408.9144   23434402.8984
       129.3754        100.8014        128.0004        141.0004
   2621812.80447   1132246.79245  23400786.2814   23400799.9814   23400785.8804
     -1584.3684      -1234.5704        143.0004        157.0004
  -3744114.75747  -2912869.74746  22727279.0014   22727288.5884   22727279.3044
      1376.3084       1072.4494        153.0004        166.0004
  -5574586.74647    158723.46945  22767567.2514   22767581.8644   22767567.5954
      -412.3234       -321.3054        139.0004        140.0004
   2762808.78747   2514808.84045  23711705.0024   23711722.4084   23711704.4844
     -3283.5234      -2558.5754        137.0004        158.0004
    -48356.77244
       560.3804                         74.0004
  -2114800.56447  -1639660.94946  22905650.5824   22905666.6024   22905650.1194
      2305.5084       1796.4904        151.0004        168.0004
 -15014651.18748  -6070595.69947  20376168.4444   20376181.9024   20376166.5824
       335.9644        261.6864        188.0004        203.0004
 03 10 28  1 39 30.0000000  0  9G27G 1G 8G13G 4G20G24G 7G28
   2652157.34546   1172955.16245  23666234.7724   23666240.4524   23666234.5394
     -1534.7804      -1195.9324        121.0004        141.0004
    267592.86845    -18791.40544  23433680.0044                   23433694.8614
       119.9034         93.4224         97.0004        106.0004
   2669290.16047   1169242.09445  23409820.8944   23409834.5344   23409820.5754
     -1580.7134      -1231.7274        144.0004        158.0004
  -3785328.42647  -2944984.30346  22719436.3704   22719445.8284   22719436.7204
      1371.3414       1068.5804        152.0004        165.0004
  -5562165.43047    168402.50345  22769930.7934   22769945.1344   22769931.1264
      -415.7294       -323.9484        146.0004        161.0004
   2861396.13746   2591629.82545  23730465.7094   23730482.9064   23730465.2934
     -3289.0204      -2562.8574        132.0004        139.0004
    -15131.82544     -7108.094 3                  24687889.557
       542.5614        422.777          74.0004         74.000
  -2184001.63347  -1693583.80446  22892481.8464   22892498.9634   22892481.4414
      2307.9234       1798.3734        147.0004        164.0004
 -15024433.08348  -6078216.24547  20374306.1164   20374319.2234   20374304.7084
       316.2534        246.3074        185.0004        201.0004
 03 10 28  1 40  0.0000000  0  9G27G 1G 8G13G 4G20G24G 7G28
   2698098.71946   1208753.33944  23674977.3024   23674982.3424   23674976.7064
     -1527.9154      -1190.5554        115.0004        131.0004
    264136.15244    -21484.85344  23433022.8184                   23433046.6984
       110.6144         86.1964         78.0004        107.0004
   2716656.99147   1206151.32045  23418834.4934   23418848.0514   23418834.2184
     -1576.9714      -1228.8124        144.0004        158.0004
  -3826391.86547  -2976982.01846  22711622.2944   22711632.0204   22711622.6314
      1366.3604       1064.7114        152.0004        165.0004
  -5549641.35847    178161.86646  22772313.7824   22772327.4534   22772314.1774
      -419.1134       -326.5884        153.0004        163.0004
   2960148.39146   2668579.09044  23749257.7104   23749275.3994   23749257.2304
     -3294.4394      -2567.0774        123.0004        131.0004
    -26465.41244    -15909.178 4                  24685736.350
       537.2104        416.203          74.0004        105.000
  -2253276.19447  -1747563.79846  22879299.1684   22879315.5584   22879298.7334
      2310.4304       1800.3334        152.0004        166.0004
 -15033620.10948  -6085371.44845  20372556.7524   20372571.6634   20372555.5694
       296.1674        230.6304        176.0004        139.0004
 03 10 28  1 40 30.0000000  0  8G27G 1G 8G13G 4G20G 7G28
   2743837.43246   1244393.85744  23683681.5104   23683685.2304   23683680.7604
     -1521.1164      -1185.3044        112.0004        127.0004
    260961.89844    -23958.03544  23432419.0264
       101.1674         78.8184         62.0004        107.0004
   2763911.33547   1242972.93145  23427826.7574   23427840.1064   23427826.5204
     -1573.1264      -1225.8114        143.0004        156.0004
  -3867301.54947  -3008859.95446  22703837.4824   22703847.2444   22703837.8714
      1361.1994       1060.6764        152.0004        165.0004
  -5537016.82347    187999.04946  22774715.8534   22774730.2834   22774716.3884
      -422.3664       -329.1174        153.0004        167.0004
   3059063.94946   2745655.81745  23768081.0794   23768098.0514   23768080.9094
     -3299.7084      -2571.2214        123.0004        145.0004
  -2322620.99347  -1801598.25245  22866103.2324   22866118.7414   22866102.7774
      2312.7574       1802.1214        146.0004        158.0004
 -15042213.72547  -6092063.63944  20370919.8694                   20370913.6774
       276.7034        215.3944        140.0004        111.0004
 03 10 28  1 41  0.0000000  0  8G27G 1G 8G13G 4G20G 7G28
   2789371.31446   1279874.50945  23692346.5854   23692350.0494   23692345.9704
     -1514.2994      -1179.9774        115.0004        135.0004
    258071.77144      -744.78043  23431869.4804
        91.7664         71.5064         74.0004         74.0004
   2811051.30647   1279705.44945  23436797.1674   23436810.5294   23436796.9734
     -1569.3214      -1222.8444        143.0004        157.0004
  -3908054.99847  -3040616.08546  22696082.4944   22696092.1314   22696082.8334
      1355.8104       1056.4834        151.0004        164.0004
  -5524293.03947    197913.87146  22777136.9224   22777150.7624   22777137.4044
      -425.7204       -331.7284        151.0004        164.0004
   3158138.82246   2822856.89745  23786934.7474   23786951.3454   23786934.4324
     -3305.0954      -2575.3824        126.0004        141.0004
  -2392036.74947  -1855687.94146  22852893.5144   22852907.6124   22852893.2304
      2315.1214       1803.9904        144.0004        163.0004
 -15050214.13446  -6098294.53644  20369395.8584                   20369366.7884
       256.7664        200.0104        113.0004        111.0004
 03 10 28  1 41 30.0000000  0  8G27G 1G 8G13G 4G20G 7G28
   2834701.48446   1315196.84345  23700972.5384   23700975.4854   23700972.3284
     -1507.7334      -1174.8704        116.0004        141.0004
    255470.60344     -2772.01245  23431374.9624
        81.8564         63.8094         74.0004        148.0004
   2858075.00147   1316347.24745  23445745.4484   23445759.0504   23445745.2454
     -1565.5304      -1219.8954        143.0004        158.0004
  -3948648.87447  -3072247.71446  22688357.8084   22688367.2854   22688358.1754
      1350.3674       1052.2324        151.0004        163.0004
  -5511472.69647    207903.64845  22779576.5944   22779590.5494   22779576.8834
      -429.0354       -334.3114        143.0004        154.0004
   3257370.96546   2900180.32245  23805818.1644   23805834.9934   23805817.2484
     -3310.4054      -2579.5264        121.0004        137.0004
  -2461519.34846  -1909830.01344  22839671.1804                   22839671.8264
      2317.0634       1805.4994        110.0004        114.0004
 -15057619.30445  -6104061.29144  20367985.0404
       236.8564        184.5764        103.0004        130.0004
 03 10 28  1 42  0.0000000  0  9G27G 1G 8G13G 4G20G24G 7G28
   2879823.40246   1350356.68244  23709559.0964   23709564.4094   23709558.8424
     -1500.5864      -1169.2824        110.0004        123.0004
    253157.68745     -4575.14445  23430935.1144   23430788.4954
        72.0834         56.1984         96.0004        137.0004
   2904979.55447   1352896.21745  23454671.0474   23454684.6914   23454670.9174
     -1561.4564      -1216.7204        143.0004        157.0004
  -3989081.46947  -3103753.49946  22680663.7914   22680673.1424   22680664.1544
      1345.0874       1048.1204        152.0004        166.0004
  -5498557.79547    217967.50846  22782034.2074   22782047.2924   22782034.5074
      -432.0134       -336.6404        152.0004        171.0004
   3356756.99647   2977623.77945  23824730.9324   23824747.9464   23824729.9164
     -3315.2964      -2583.3414        135.0004        154.0004
     -9253.17844
       539.1784                         74.0004
  -2531067.92045  -1964023.38544  22826436.2254                   22826441.3954
      2319.4034       1807.3054         82.0004        105.0004
 -15064433.67944  -6109368.70944  20366686.4024                   20366611.7704
       217.3554        169.2744         78.0004        110.0004
 03 10 28  1 42 30.0000000  0  9G27G 1G 8G13G 4G20G24G 7G28
   2924738.30245   1385355.16844  23718106.3424                   23718106.7754
     -1493.6694      -1163.8984         85.0004        112.0004
    251135.75844     -6150.84544  23430550.6104
        62.6334         48.8104         70.0004        112.0004
   2951764.20747   1389351.81745  23463573.8154   23463587.4344   23463573.7094
     -1557.5324      -1213.6594        143.0004        156.0004
  -4029349.43047  -3135131.22646  22673001.1154   22673010.9464   22673001.4444
      1339.4334       1043.7134        153.0004        167.0004
  -5485550.07047    228103.48346  22784509.4234   22784522.6544   22784509.7334
      -435.2074       -339.1334        156.0004        170.0004
   3456295.18746   3055185.56745  23843672.5294   23843691.0644   23843671.8224
     -3320.5334      -2587.4144        127.0004        143.0004
    -25254.17244    -17722.415 4                  24669003.186
       497.3804        387.877          74.0004         99.000
  -2600679.90844  -2018266.23644  22813189.3554
      2321.4094       1808.8884         73.0004        109.0004
 -15070651.55044  -6114211.01844  20365501.1094
       197.5134        153.8274         72.0004        104.0004
 03 10 28  1 43  0.0000000  0  9G27G 1G 8G13G 4G20G24G 7G28
   2969446.55844   1420192.68344  23726614.3764
     -1486.9574      -1158.6654         76.0004        111.0004
    249404.40246     -7501.02845  23430221.5814   23430089.9134
        52.7364         41.1134        122.0004        152.0004
   2998426.30047   1425711.89045  23472453.3024   23472467.0024   23472453.1654
     -1553.3764      -1210.4194        143.0004        157.0004
  -4069450.71447  -3166379.05646  22665370.2344   22665379.9434   22665370.5974
      1333.8334       1039.3554        154.0004        167.0004
  -5472452.32447    238309.54245  22787001.7434   22787015.0154   22787002.0654
      -438.1224       -341.3934        146.0004        150.0004
   3555982.41046   3132863.80745  23862642.4334   23862660.4734   23862641.8674
     -3325.4124      -2591.2434        125.0004        144.0004
    -25254.17244    -17722.415 4                  24669003.186
       497.3804        387.877          74.0004         99.000
  -2670354.94844    -14013.37243  22799930.4034
      2323.4684       1810.4944         74.0004         74.0004
 -15076276.49645  -6118591.63944  20364428.4764   20364426.1554
       177.8544        138.5934         96.0004        127.0004
 03 10 28  1 43 30.0000000  0  8G27G 1G 8G13G 4G20G 7G28
   3013945.60144   1454867.22644  23735082.6234
     -1479.6794      -1153.0104         69.0004        108.0004
    247970.49645     -8618.80844  23429949.2554                   23429908.3724
        43.0594         33.5564        101.0004        115.0004
   3044963.97347   1461975.00745  23481309.2374   23481322.7634   23481309.0994
     -1549.0444      -1207.0454        143.0004        156.0004
  -4109382.14947  -3197494.70146  22657771.5744   22657781.4654   22657771.9384
      1328.2544       1035.0074        153.0004        166.0004
  -5459265.93847    248584.79346  22789511.0634   22789523.7654   22789511.4914
      -440.8234       -343.4974        153.0004        170.0004
   3655815.02746   3210655.32244  23881640.0144   23881659.2334   23881639.1804
     -3330.1314      -2594.8924        121.0004        125.0004
  -2740088.97844    -68351.03545  22786660.1594
      2325.6364       1812.1634         74.0004        160.0004
 -15081309.38545  -6122511.63745  20363468.4764   20363468.8554   20363373.0744
       157.8854        122.9274        104.0004        135.0004
 03 10 28  1 44  0.0000000  0  8G27G 1G 8G13G 4G20G 7G28
   3058237.04544     26146.04543  23743511.4014
     -1473.0134      -1147.8034         74.0004         74.0004
    246832.45946     -9506.35145  23429732.9994   23429739.0244   23429730.6794
        32.6924         25.4794        119.0004        141.0004
   3091375.54647   1498139.87545  23490141.1604   23490154.4814   23490140.9084
     -1544.9554      -1203.8644        142.0004        155.0004
  -4149140.59647  -3228475.30246  22650205.8244   22650215.3554   22650206.2034
      1322.3204       1030.3864        154.0004        168.0004
  -5445993.60647    258926.77145  22792036.5664   22792050.0204   22792037.0944
      -443.8544       -345.8534        152.0004        159.0004
   3755791.88346   3288558.86245  23900665.1094   23900685.7984   23900663.8574
     -3334.9714      -2598.6704        124.0004        139.0004
  -2809881.55144   -122733.97344  22773378.9024
      2327.2834       1813.4314         74.0004        113.0004
 -15085752.57846  -6125972.95944  20362620.8434   20362623.5664   20362527.5584
       138.2684        107.7554        112.0004        130.0004
 03 10 28  1 44 30.0000000  0  8G27G 1G 8G13G 4G20G 7G28
   3102316.59344     60495.60844  23751899.5644
     -1465.9094      -1142.3164         74.0004        123.0004
    245991.62546    -10162.23845  23429573.2664   23429566.0554   23429564.9054
        22.9084         17.8844        116.0004        144.0004
   3137658.26547   1534204.35745  23498948.5064   23498961.6604   23498948.2454
     -1540.6674      -1200.5204        142.0004        156.0004
  -4188724.59647  -3259320.10246  22642673.2854   22642683.1184   22642673.6614
      1316.4764       1025.8204        154.0004        167.0004
  -5432636.88747    269334.63846  22794578.1834   22794591.5804   22794578.6184
      -446.6124       -348.0144        150.0004        167.0004
   3855909.35047   3366572.47045  23919716.9354   23919735.9484   23919716.2214
     -3339.6204      -2602.3014        142.0004        161.0004
  -2879730.39544     -9564.82843  22760086.9254
      2329.1984       1814.9584         74.0004         74.0004
 -15089605.88246  -6128976.03044  20361886.0024   20361890.1844   20361794.3044
       118.2124         92.1224        114.0004        125.0004
                            4  1
RINEX FILE SPLICE; other post-header comments skipped       COMMENT
 03 10 28  1 45  0.0000000  0  8G27G 1G 8G13G 4G20G 7G28
   3146185.17844     94680.46144  23760247.6894
     -1458.5984      -1136.6334         74.0004        108.0004
    245448.98246    -10585.18745  23429470.2214   23429470.0864   23429466.3144
        13.0524         10.1754        121.0004        138.0004
   3183810.97247   1570167.56845  23507731.0664   23507744.1654   23507730.8984
     -1536.0724      -1196.9434        143.0004        156.0004
  -4228130.02247  -3290025.53246  22635174.6984   22635184.3424   22635175.1404
      1310.6244       1021.2594        154.0004        167.0004
  -5419198.04347    279806.55046  22797135.5264   22797148.5454   22797135.8944
      -449.1334       -349.9664        153.0004        168.0004
   3956164.73246   3444693.43745  23938795.0524   23938814.2404   23938794.3144
     -3343.9904      -2605.7004        131.0004        135.0004
  -2949633.20244    -64034.07945  22746784.6314
      2331.0804       1816.3954         74.0004        150.0004
 -15092866.60646  -6131517.65645  20361264.5074   20361269.4884   20361173.8064
        99.2684         77.4434        114.0004        133.0004
 03 10 28  1 45 30.0000000  0  8G27G 1G 8G13G 4G20G 7G28
   3189842.30444     22961.50443  23768555.4244
     -1451.5824      -1131.1034         74.0004         74.0004
    245209.63445    -10771.74244  23429424.9954                   23429431.0804
         2.8034          2.1884         86.0004        111.0004
   3229831.00947   1606027.41245  23516488.3204   23516501.3834   23516488.0804
     -1531.5964      -1193.4584        141.0004        154.0004
  -4267354.70047  -3320589.92446  22627710.4864   22627720.0264   22627710.9344
      1304.6074       1016.5724        155.0004        168.0004
  -5405679.84347    290339.99746  22799708.0034   22799721.2274   22799708.3544
      -451.7284       -351.9864        155.0004        168.0004
   4056554.68746   3522919.05845  23957898.8534   23957917.9964   23957898.1124
     -3348.4024      -2609.1324        134.0004        141.0004
  -3019588.39644   -118543.68345  22733472.4264   22733286.7894
      2332.8614       1817.7914         76.0004        135.0004
 -15095535.76545  -6133598.68344  20360756.0624                   20360665.8864
        79.3924         61.8644        104.0004        101.0004
 03 10 28  1 46  0.0000000  0  8G27G 1G 8G13G 4G20G 7G28
   3233287.20044     56814.20444  23776822.8574
     -1444.8624      -1125.8534         74.0004        106.0004
    245274.07844    -10721.90344  23429437.3994
        -7.2824         -5.6674         74.0004        111.0004
   3275717.95947   1641783.57245  23525220.3134   23525233.3034   23525219.9504
     -1527.3484      -1190.1424        140.0004        154.0004
  -4306395.07747  -3351010.64046  22620281.2754   22620290.9134   22620281.7414
      1298.1584       1011.5424        155.0004        167.0004
  -5392082.28147    300935.42445  22802295.5384   22802308.2624   22802295.9224
      -454.6374       -354.2704        147.0004        160.0004
   4157078.30246   3601248.85945  23977027.9584   23977047.2074   23977027.2304
     -3353.0154      -2612.7334        125.0004        141.0004
  -3089593.19944   -173092.04244  22720150.7564
      2334.2364       1818.8664         76.0004        113.0004
 -15097610.27845  -6135216.15444  20360361.1164                   20360271.1144
        59.3034         46.2314         98.0004        121.0004
 03 10 28  1 46 30.0000000  0  8G27G 1G 8G13G 4G20G 7G28
   3276517.99644     90499.61544  23785049.6374
     -1437.5014      -1120.0944         74.0004        118.0004
    245642.49044    -10435.00844  23429507.6224
       -16.7214        -13.0344         76.0004        112.0004
   3321468.57347   1677433.33245  23533926.2864   23533939.6564   23533925.9394
     -1522.5384      -1186.3934        140.0004        153.0004
  -4345249.80247  -3381286.77846  22612887.3874   22612897.1294   22612887.8034
      1292.1544       1006.8654        155.0004        168.0004
  -5378408.52847    311590.54545  22804897.5894   22804909.8814   22804897.9544
      -456.8234       -355.9734        152.0004        161.0004
   4257731.53947   3679679.59245  23996181.9864   23996201.0034   23996181.3964
     -3357.0684      -2615.8844        138.0004        151.0004
  -3159646.53844   -227678.24044  22706819.8824
      2336.0574       1820.2884         64.0004        109.0004
 -15099093.88946  -6136373.98745  20360078.9244   20360083.5244   20359988.7944
        39.7484         31.0774        107.0004        136.0004
 03 10 28  1 47  0.0000000  0  8G27G 1G 8G13G 4G20G 7G28
   3319535.47144     19801.47743  23793235.7714
     -1430.4964      -1114.6734         74.0004         74.0004
    246317.37244       349.77143  23429636.3314
       -27.7354        -21.6134         74.0004         74.0004
   3367081.16747   1712975.61345  23542606.0384   23542619.3984   23542605.6914
     -1518.2354      -1183.0424        140.0004        153.0004
  -4383916.26947  -3411416.37346  22605529.3704   22605539.2914   22605529.7724
      1285.5654       1001.7384        155.0004        169.0004
  -5364660.71647    322303.38446  22807513.7154   22807525.8714   22807514.0594
      -459.5644       -358.1074        158.0004        178.0004
   4358511.92447   3758209.46945  24015360.1444   24015378.8134   24015359.9924
     -3361.5764      -2619.4074        135.0004        152.0004
  -3229747.04144   -282301.14544  22693480.0184
      2337.2964       1821.2404         62.0004        107.0004
 -15099984.04546  -6137068.41544  20359909.9194                   20359819.4044
        19.4684         15.0824        107.0004        129.0004
 03 10 28  1 47 30.0000000  0  8G27G 1G 8G13G 4G20G 7G28
   3362336.83344     53150.29944  23801380.7444
     -1423.2844      -1108.9514         74.0004        127.0004
    247300.18744      1114.87145  23429823.3724
       -37.8274        -29.4544         74.0004        144.0004
   3412554.36547   1748409.32545  23551259.4134   23551272.6854   23551259.0114
     -1513.4624      -1179.3254        140.0004        154.0004
  -4422391.04647  -3441396.71046  22598207.7754   22598217.7424   22598208.1614
      1279.2594        996.8334        155.0004        170.0004
  -5350841.11447    333071.93245  22810143.5244   22810156.0584   22810143.7574
      -461.8574       -359.8964        147.0004        154.0004
   4459417.17247   3836836.60145  24034562.1414   24034580.8704   24034561.7934
     -3365.5654      -2622.4994        139.0004        151.0004
  -3299890.40844    -29646.89743  22680132.1324
      2338.7484       1822.4014         74.0004         74.0004
 -15100279.01946  -6137297.32344  20359854.0434   20359858.0334   20359763.2714
         -.0304          -.0294        109.0004        126.0004
 03 10 28  1 48  0.0000000  0  8G27G 1G 8G13G 4G20G 7G28
   3404921.13544     86329.84644  23809484.7444
     -1416.1054      -1103.3724         74.0004        115.0004
    248594.63544      2123.33544  23430069.9034
       -48.0344        -37.4334         70.0004        111.0004
   3457885.96947   1783732.71845  23559885.7814   23559898.9054   23559885.3174
     -1508.7984      -1175.6894        139.0004        153.0004
  -4460672.05647  -3471226.29146  22590923.0754   22590933.2824   22590923.4304
      1272.6124        991.6554        155.0004        167.0004
  -5336951.73247    343894.89445  22812786.3294   22812798.9154   22812786.5834
      -464.2314       -361.7394        148.0004        159.0004
   4560444.57347   3915558.90545  24053787.2984   24053805.9404   24053786.8384
     -3369.7124      -2625.7424        136.0004        155.0004
  -3370075.61744    -84336.37646  22666776.2974
      2340.1504       1823.4964         74.0004        169.0004
 -15099983.16646  -6137066.72245  20359910.3874   20359914.3554   20359819.5664
       -19.6944        -15.3764        108.0004        136.0004
 03 10 28  1 48 30.0000000  0  8G27G 1G 8G13G 4G20G 7G28
   3447291.35344     16778.07243  23817547.8814
     -1408.7494      -1097.7274         74.0004         74.0004
    250200.82746      3375.02345  23430375.5984   23430287.0014
       -58.6684        -45.7354        122.0004        153.0004
   3503074.02147   1818944.20245  23568484.7114   23568498.0284   23568484.1344
     -1503.8924      -1171.8624        139.0004        153.0004
  -4498756.34947  -3500902.76146  22583675.8944   22583686.3074   22583676.2624
      1266.1144        986.5884        154.0004        168.0004
  -5322993.96047    354771.22545  22815442.2354   22815454.6144   22815442.5874
      -466.3704       -363.4314        141.0004        157.0004
   4661590.93946   3994373.72745  24073035.1434   24073054.3744   24073034.6114
     -3373.5834      -2628.7464        133.0004        140.0004
  -3440301.54246   -139057.97546  22653412.6934   22653181.2054
      2341.5284       1824.5624        131.0004        164.0004
 -15099096.71745  -6136376.14744  20360079.1434                   20359988.2584
       -39.4294        -30.6664         97.0004        103.0004
 03 10 28  1 49  0.0000000  0  8G27G 1G 8G13G 4G20G 7G28
   3489445.08644     49624.13744  23825569.9734
     -1401.4954      -1092.0164         74.0004        107.0004
    252119.52946      4870.79945  23430741.0234   23430661.3464   23430657.0034
       -69.3554        -54.0694        113.0004        138.0004
   3548116.59047   1854042.35845  23577056.0374   23577069.3734   23577055.4324
     -1499.0244      -1168.0734        138.0004        152.0004
  -4536640.95747  -3530423.42846  22576466.7874   22576476.6634   22576467.1974
      1259.3994        981.3544        154.0004        168.0004
  -5308970.49547    365699.00345  22818110.5894   22818123.1074   22818110.9004
      -468.5824       -365.1374        145.0004        156.0004
   4762854.02746   4073279.75244  24092305.1374   24092322.9314   24092304.5964
     -3377.4694      -2631.7984        115.0004        125.0004
  -3510565.79147   -193809.45746  22640041.6974   22639809.5814   22640002.1294
      2342.6444       1825.4404        149.0004        168.0004
 -15097618.01946  -6135224.06245  20360360.4704   20360364.3474   20360269.6434
       -59.2444        -46.1784        105.0004        135.0004
 03 10 28  1 49 30.0000000  0  8G27G 1G 8G13G 4G20G 7G28
   3531380.19644     82299.47744  23833550.3024
     -1394.3504      -1086.4644         74.0004        108.0004
    254353.21146      6612.11444  23431166.2364   23431250.0894   23431165.8024
       -79.9124        -62.3054        107.0004        117.0004
   3593012.19247   1889026.06245  23585599.3644   23585612.5574   23585598.7934
     -1494.1424      -1164.2734        138.0004        152.0004
  -4574323.47147  -3559786.84646  22569296.1274   22569306.2514   22569296.5804
      1252.5744        976.0424        155.0004        167.0004
  -5294883.11247    376676.29545  22820791.1544   22820803.9944   22820791.5724
      -470.6924       -366.7804        146.0004        157.0004
   4864231.40846   4152275.11045  24111596.9034   24111614.1874   24111596.5244
     -3381.1434      -2634.6584        117.0004        142.0004
  -3580865.82647   -248588.55746  22626664.0764   22626676.2154   22626663.6384
      2343.9014       1826.4214        156.0004        172.0004
 -15095549.39745  -6133611.25744  20360753.9274                   20360663.2894
       -78.8514        -61.4574         96.0004        106.0004
 03 10 28  1 50  0.0000000  0  8G27G 1G 8G13G 4G20G 7G28
   3573097.46844     13783.82543  23841489.3524
     -1386.8524      -1080.6644         74.0004         74.0004
    256903.62245      8600.15544  23431651.7884                   23431658.2164
       -90.1144        -70.2484         83.0004        107.0004
   3637758.90747   1923893.65045  23594114.3284   23594127.5764   23594113.8684
     -1488.9304      -1160.2054        137.0004        151.0004
  -4611800.88647  -3588990.35446  22562164.5174   22562174.4464   22562164.9134
      1245.8224        970.7654        154.0004        165.0004
  -5280733.61247    387702.16146  22823483.6614   22823495.9744   22823484.2054
      -472.5624       -368.2424        151.0004        172.0004
   4965719.82846   4231356.83745  24130909.6124   24130927.4874   24130909.3024
     -3384.6894      -2637.4164        130.0004        150.0004
  -3651199.38347   -303393.77646  22613280.0004   22613293.3374   22613279.3754
      2345.1194       1827.3584        157.0004        171.0004
 -15092892.19545  -6131539.49044  20361259.5074   20360100.3344   20360118.1394
       -98.5864        -76.8604         95.0004        126.0004
 03 10 28  1 50 30.0000000  0  8G27G 1G 8G13G 4G20G 7G28
   3614595.95344     46118.28644  23849386.7764
     -1379.6854      -1074.9934         74.0004        108.0004
    259773.16246     10836.71045  23432198.0734
      -101.0234        -78.7104        108.0004        142.0004
   3682355.14647   1958644.04945  23602600.6334   23602613.8044   23602600.2434
     -1484.0864      -1156.4354        136.0004        150.0004
  -4649070.16047  -3618031.25346  22555072.5414   22555081.9974   22555072.9504
      1238.8004        965.3124        152.0004        166.0004
  -5266524.53847    398774.25445  22826187.5664   22826200.6024   22826187.9834
      -474.6664       -369.8834        143.0004        159.0004
   5067316.65246   4310523.01345  24150243.1134   24150261.2884   24150242.7094
     -3388.3564      -2640.2654        127.0004        134.0004
  -3721564.61747   -358223.72146  22599889.8714   22599903.6724   22599889.2754
      2345.8924       1827.9574        157.0004        168.0004
 -15089643.57145  -6129007.96345  20361877.6674   20360666.9034   20360706.5904
      -117.7964        -91.8014        104.0004        132.0004
 03 10 28  1 51  0.0000000  0  8G27G 1G 8G13G 4G20G 7G28
   3655873.40744     78279.97644  23857242.1384
     -1372.1994      -1069.1534         74.0004        108.0004
    262963.48346     13322.60245  23432805.2904   23432964.9954   23432810.8744
      -111.6044        -86.9314        134.0004        156.0004
   3726798.93747   1993275.65445  23611057.8854   23611071.0074   23611057.5054
     -1478.8694      -1152.3694        136.0004        151.0004
  -4686128.63347  -3646908.19746  22548020.6924   22548030.7734   22548021.0424
      1231.7514        959.8104        152.0004        165.0004
  -5252257.49147    409891.69245  22828902.4624   22828915.1214   22828902.8244
      -476.4494       -371.2584        147.0004        156.0004
   5169019.54746   4389771.55345  24169596.8004   24169615.4484   24169596.0214
     -3391.7454      -2642.9024        119.0004        133.0004
  -3791959.45447   -413076.58546  22586494.0304   22586507.8384   22586493.4444
      2346.9724       1828.8124        156.0004        169.0004
 -15085809.29646  -6126021.86844  20362607.3174   20361396.1344   20361436.2254
      -137.7144       -107.2474        110.0004        129.0004
 03 10 28  1 51 30.0000000  0  8G27G 1G 8G13G 4G20G 7G28
   3696932.30844     10927.88943  23865056.0334
     -1364.8954      -1063.5554         74.0004         74.0004
    266474.58146     16058.04445  23433473.8484   23433633.0194   23433477.4274
      -122.3084        -95.2934        133.0004        152.0004
   3771088.42247   2027787.02845  23619485.6214   23619498.9224   23619485.2694
     -1473.6464      -1148.2944        135.0004        149.0004
  -4722973.68147  -3675618.53446  22541009.4494   22541019.1184   22541009.7494
      1224.6274        954.2514        153.0004        166.0004
  -5237934.80347    421052.08745  22831627.9304   22831641.8814   22831628.1554
      -478.2744       -372.6884        138.0004        152.0004
   5270825.88646   4469100.97245  24188970.2034   24188988.1184   24188969.4664
     -3395.1604      -2645.5754        122.0004        141.0004
  -3862381.66747   -467950.73446  22573092.9794   22573106.8134   22573092.4574
      2347.9044       1829.5234        157.0004        170.0004
 -15081390.54945  -6122581.73744  20363448.6884                   20362277.0924
      -157.0124       -122.2654         90.0004        111.0004
 03 10 28  1 52  0.0000000  0  8G27G 1G 8G13G 4G20G 7G28
   3737772.31144     42744.31844  23872828.2444
     -1357.7394      -1057.4784         74.0004        112.0004
    270309.98546     19046.37645  23434203.7184   23434362.7924   23434206.6474
      -133.2044       -103.7914        131.0004        147.0004
   3815222.05847   2062176.96545  23627883.9354   23627897.2074   23627883.5074
     -1468.4264      -1144.2324        135.0004        148.0004
  -4759603.63147  -3704161.54146  22534039.0464   22534049.4324   22534039.3634
      1217.3994        948.6404        153.0004        167.0004
  -5223558.21247    432254.88445  22834363.6064   22834376.9544   22834364.0554
      -480.0374       -374.0464        144.0004        150.0004
   5372732.85946   4548508.78444  24208362.7754   24208380.4584   24208361.7374
     -3398.4634      -2648.1534        108.0004        118.0004
  -3932828.74647   -522844.14846  22559687.2454   22559701.0934   22559686.6884
      2348.6074       1830.0634        156.0004        168.0004
 -15076384.91445  -6118685.07844  20364402.5394                   20362157.2324
      -176.7084       -137.5014         88.0004        114.0004
 03 10 28  1 52 30.0000000  0  8G27G 1G 8G13G 4G20G 7G28
   3778390.59944     74381.21644  23880557.7054
     -1350.2464      -1051.6854         74.0004        113.0004
    274470.22146     22288.21145  23434995.6654   23435154.4844   23434997.7944
      -144.0884       -112.2784        134.0004        151.0004
   3859197.86347   2096443.89245  23636252.3104   23636265.6034   23636251.8174
     -1463.2294      -1140.1814        135.0004        150.0004
  -4796014.74447  -3732533.99146  22527110.3544   22527120.5674   22527110.6344
      1210.1614        942.9984        154.0004        170.0004
  -5209129.18747    443498.44846  22837109.2354   22837122.5604   22837109.6144
      -481.7404       -375.3944        153.0004        175.0004
   5474737.89146   4627992.83945  24227773.8424   24227791.1074   24227772.9164
     -3401.7314      -2650.6884        110.0004        135.0004
  -4003299.41447   -577755.75346  22546276.8874   22546290.7534   22546276.3124
      2349.4334       1830.7224        155.0004        170.0004
 -15070787.99345  -6114326.38545  20365469.3094   20363134.6504
      -196.4204       -152.9924         96.0004        132.0004
 03 10 28  1 53  0.0000000  0  8G27G 1G 8G13G 4G20G 7G28
   3818786.88244      8104.55043  23888245.1464
     -1342.8694      -1046.3924         74.0004         74.0004
    278956.57746     25783.94144  23435849.4324   23436008.1754   23435850.8974
      -154.9124       -120.6754        121.0004        128.0004
   3903013.93047   2130586.34545  23644590.2584   23644603.4624   23644589.8664
     -1457.8004      -1135.9464        136.0004        152.0004
  -4832204.77447  -3760734.34645  22520223.7074   22520234.4564   22520224.0584
      1202.5824        937.0764        151.0004        162.0004
  -5194651.05847    454780.15745  22839864.1644   22839877.5164   22839864.5094
      -483.3144       -376.6064        146.0004        156.0004
   5576837.76446   4707550.77445  24247202.9274   24247220.6194   24247202.1604
     -3404.8394      -2653.1164        115.0004        133.0004
  -4073791.39647   -632684.27146  22532862.4264   22532876.8974   22532861.9294
      2350.1504       1831.2764        158.0004        171.0004
 -15064602.95146  -6109508.74345  20366647.8374   20364272.1844   20364351.9144
      -215.9034       -168.1634        111.0004        133.0004
 03 10 28  1 53 30.0000000  0  8G27G 1G 8G13G 4G20G 7G28
   3858961.53544     39445.60744  23895890.1894
     -1335.5034      -1043.5524         74.0004        106.0004
    283771.12146     29534.83445  23436765.9714   23436924.1834   23436766.8674
      -165.9864       -129.3414        132.0004        152.0004
   3946668.91347   2164603.25945  23652897.5474   23652910.7874   23652897.1434
     -1452.4184      -1131.7564        135.0004        149.0004
  -4868170.39847  -3788759.44746  22513379.8194   22513390.0864   22513380.1074
      1195.1464        931.2774        153.0004        168.0004
  -5180124.64947    466099.61446  22842628.2544   22842641.1874   22842628.6144
      -484.9544       -377.8854        153.0004        171.0004
   5679030.73646   4787181.27345  24266649.6334   24266668.0414   24266649.0844
     -3407.8924      -2655.4844        117.0004        133.0004
  -4144301.75247   -687626.81146  22519444.4254   22519458.5994   22519444.0084
      2350.7324       1831.7164        159.0004        175.0004
 -15057830.88446  -6104233.45345  20367938.0614   20365546.9504   20365640.5934
      -235.4734       -183.4634        114.0004        136.0004
 03 10 28  1 54  0.0000000  0  8G27G 1G 8G13G 4G20G 7G28
   3898911.52744     70662.29044  23903492.7404
     -1327.7364      -1037.5024         74.0004        108.0004
    288914.94647     33542.76245  23437744.8174   23437902.9644   23437745.4974
      -176.9754       -137.8904        136.0004        151.0004
   3990160.70047   2198493.05345  23661173.6234   23661186.8224   23661173.1484
     -1447.0194      -1127.5464        135.0004        149.0004
  -4903909.56547  -3816608.07446  22506578.9734   22506589.1494   22506579.2684
      1187.4884        925.2994        152.0004        167.0004
  -5165552.26947    477454.86445  22845401.1304   22845414.2774   22845401.4764
      -486.5364       -379.1354        141.0004        153.0004
   5781313.53346   4866881.79645  24286113.5474   24286132.2704   24286112.3464
     -3410.8684      -2657.8124        123.0004        145.0004
  -4214829.72347   -742583.19546  22506023.0824   22506037.5234   22506022.6034
      2351.1264       1832.0394        158.0004        170.0004
 -15050472.06046  -6098500.31945  20369339.8224   20366940.6604   20367040.9234
      -255.2614       -198.8734        113.0004        133.0004
 03 10 28  1 54 30.0000000  0  8G27G 1G 8G13G 4G20G 7G28
   3938639.42644      5419.82943  23911053.0114
     -1320.6074      -1029.0484         74.0004         74.0004
    294391.24546     37810.17945  23438787.2394   23438945.1114   23438787.4644
      -188.1064       -146.5904        129.0004        146.0004
   4033487.59546   2232254.30745  23669418.3504   23669431.6674   23669417.8794
     -1441.5174      -1123.2624        134.0004        149.0004
  -4939421.11047  -3844279.50445  22499821.3004   22499833.8494   22499821.6944
      1179.8264        919.3474        145.0004        150.0004
  -5150936.05447    488844.86245  22848182.2444   22848194.7024   22848182.7144
      -487.9614       -380.2374        149.0004        161.0004
   5883683.88646   4946650.62444  24305594.1874   24305613.1874   24305593.2564
     -3413.8604      -2660.1534        115.0004        128.0004
  -4285372.96347   -797551.73346  22492598.8414   22492613.5764   22492598.3584
      2351.5774       1832.3994        158.0004        171.0004
 -15042529.47046  -6092312.84744  20370852.4924   20368446.7014   20368552.3504
      -274.6134       -213.9884        114.0004        131.0004
 03 10 28  1 55  0.0000000  0  8G27G 1G 8G13G 4G20G 7G28
   3978142.61644     36201.93444  23918570.4454
     -1312.7494      -1022.9254         74.0004        129.0004
    300199.76946     42336.54645  23439892.5114   23440050.4884   23439892.0124
      -199.1084       -155.1444        128.0004        137.0004
   4076648.29146   2265886.04545  23677631.4244   23677644.7444   23677630.9084
     -1435.9464      -1118.9124        134.0004        148.0004
  -4974699.45646  -3871769.24044  22493108.2104                   22493109.1994
      1171.9964        913.2334        113.0004        115.0004
  -5136278.13647    500266.71045  22850971.2984   22850984.6384   22850971.8484
      -489.1784       -381.1794        146.0004        157.0004
   5986139.51646   5026486.15844  24325091.0254   24325108.9374   24325090.6044
     -3416.5674      -2662.2654        106.0004        127.0004
  -4355928.86047   -852530.42346  22479172.2624   22479187.0324   22479171.7864
      2352.0434       1832.7604        158.0004        171.0004
 -15034001.62646  -6085668.82745  20372476.4914   20370066.0534   20370175.1514
      -294.0254       -229.0664        115.0004        133.0004
 03 10 28  1 55 30.0000000  0  8G27G 1G 8G13G 4G20G 7G28
   4017422.13445     66809.36745  23926045.3354   23925905.0564
     -1305.6514      -1017.3834         88.0004        136.0004
    306342.01745     47122.84344  23441061.5134                   23441059.9844
      -210.3284       -163.8954         98.0004        111.0004
   4119640.78347   2299386.72145  23685812.5944   23685825.9244   23685811.9744
     -1430.2814      -1114.5034        135.0004        150.0004
  -5009743.66445  -3899076.42644  22486439.7134                   22486443.7744
      1164.0794        907.0734         88.0004        110.0004
  -5121580.24747    511719.81546  22853768.1044   22853781.4494   22853768.4924
      -490.5294       -382.2374        147.0004        163.0004
   6088677.26146   5106385.68445  24344603.4344   24344621.7074   24344602.7554
     -3419.2294      -2664.3364        114.0004        132.0004
  -4426494.72147   -907516.45046  22465743.8284   22465757.8134   22465743.3854
      2352.3914       1833.0174        158.0004        172.0004
 -15024889.67846  -6078569.20445  20374211.4834   20371797.3024   20371909.0904
      -313.2224       -244.0364        115.0004        133.0004
 03 10 28  1 56  0.0000000  0  8G27G 1G 8G13G 4G20G 7G28
   4056475.63045     97240.03844  23933477.0334   23933336.7274   23933487.5914
     -1298.1254      -1011.4974        102.0004        125.0004
    312819.80545     52170.74944  23442294.3514
      -221.6624       -172.7314         79.0004        111.0004
   4162463.78247   2332755.32545  23693961.6414   23693974.9084   23693961.0294
     -1424.6444      -1110.1144        135.0004        148.0004
  -5044550.14144  -3926198.38244  22479816.4494
      1156.1194        900.8834         76.0004        111.0004
  -5106844.01947    523202.79645  22856572.0744   22856585.0604   22856572.6584
      -491.9024       -383.3244        147.0004        159.0004
   6191294.81746   5186347.36945  24364130.9194   24364149.8554   24364130.4424
     -3421.9814      -2666.4724        121.0004        144.0004
  -4497069.21347   -962509.29446  22452313.8104   22452327.9214   22452313.4004
      2352.4964       1833.1214        155.0004        167.0004
 -15015193.74546  -6071014.46744  20376057.4544   20373640.8294   20373754.1694
      -333.0044       -259.6244        111.0004        131.0004
 03 10 28  1 56 30.0000000  0  8G27G 1G 8G13G 4G20G 7G28
   4095304.29546    127495.72645  23940866.0194   23940871.7684   23940876.3014
     -1290.6774      -1005.7004        121.0004        146.0004
    319636.29444     57482.49344  23443591.4904
      -232.9754       -181.5464         74.0004        113.0004
   4205115.91046   2365990.80945  23702078.0454   23702091.3084   23702077.4324
     -1419.0014      -1105.7184        134.0004        149.0004
  -5079116.28744     -7832.40243  22473238.8294
      1148.0814        894.6084         74.0004         74.0004
  -5092071.99747    534713.53445  22859382.9804   22859396.1294   22859383.5494
      -493.1774       -384.2924        142.0004        145.0004
   6293989.50946   5266368.95145  24383673.0484   24383692.9664   24383672.5804
     -3424.4884      -2668.4214        123.0004        139.0004
  -4567648.44447  -1017505.86546  22438882.8274   22438897.2104   22438882.3984
      2352.6144       1833.1934        158.0004        175.0004
 -15004913.01046  -6063002.38045  20378014.4124   20375596.2174   20375710.5244
      -352.4334       -274.6404        114.0004        133.0004
 03 10 28  1 57  0.0000000  0  8G27G 1G 8G13G 4G20G 7G28
   4133906.68846    157574.95945  23948212.0054   23948219.9674   23948211.4214
     -1283.0774       -999.7844        117.0004        135.0004
    326790.31644      2123.90943  23444952.8644
      -244.1734       -190.2654         74.0004         74.0004
   4247594.62847   2399091.18145  23710161.3834   23710174.5984   23710160.9964
     -1413.0594      -1101.0914        135.0004        150.0004
  -5113440.80144    -34645.74644  22466707.2384
      1140.0414        891.2604         74.0004         96.0004
  -5077265.44647    546251.32946  22862200.4414   22862213.1994   22862201.0354
      -494.1694       -385.0764        147.0004        164.0004
   6396758.06246   5346447.86245  24403229.5424   24403249.9734   24403228.5884
     -3426.9014      -2670.3064        117.0004        136.0004
  -4638232.60147  -1072506.55846  22425450.9324   22425465.3734   22425450.5104
      2352.8674       1833.3994        159.0004        175.0004
 -14994051.07046  -6054537.32044  20380081.5404   20377655.3844   20377777.4834
      -371.6794       -289.6304        109.0004        124.0004
 03 10 28  1 57 30.0000000  0  8G27G 1G 8G13G 4G20G 7G28
   4172283.06846    187478.21544  23955515.0484   23955522.9114   23955515.0294
     -1275.5324       -993.9184        115.0004        127.0004
    334285.05044      7963.61245  23446379.2134
      -255.4654       -199.0614         74.0004        141.0004
   4289899.25747   2432055.94345  23718211.6934   23718224.8444   23718211.2534
     -1407.1474      -1096.4804        135.0004        150.0004
  -5147519.78944    -61287.58244  22460222.3254
      1132.0264        884.9974         74.0004        111.0004
  -5062426.73347    557814.20646  22865023.9014   22865036.6924   22865024.4834
      -495.0174       -385.7294        150.0004        165.0004
   6499599.57146   5426584.11644  24422799.8034                   24422799.2884
     -3429.1034      -2672.0394        107.0004        131.0004
  -4708817.99047  -1127508.17446  22412018.8194   22412032.8984   22412018.4664
      2352.9784       1833.4984        160.0004        173.0004
 -14982609.31346  -6045620.95844  20382258.8064   20379818.0344   20379954.7814
      -390.8034       -304.4454        110.0004        130.0004
 03 10 28  1 58  0.0000000  0  8G27G 1G 8G13G 4G20G 7G28
   4210432.92646    217204.95845  23962774.9764   23962782.4704   23962774.8734
     -1267.9684       -988.0174        123.0004        143.0004
    342121.58146     14070.52845  23447870.3324   23447947.4434
      -266.9684       -208.0244        113.0004        146.0004
   4332027.28747   2464883.03545  23726228.2794   23726241.5524   23726227.9184
     -1401.3494      -1091.9664        135.0004        149.0004
  -5181350.49544     -5910.48143  22453784.6684
      1123.6094        875.5394         74.0004         74.0004
  -5047558.04047    569399.98945  22867853.2304   22867869.6004   22867853.8884
      -496.1394       -386.5964        141.0004        158.0004
   6602509.46546   5506773.55145  24442383.0754   24442401.3834   24442382.5434
     -3431.3934      -2673.8104        131.0004        148.0004
  -4779402.42747  -1182509.01346  22398587.0354   22398600.9024   22398586.6274
      2352.8064       1833.3464        161.0004        176.0004
 -14970588.33746  -6036253.37645  20384546.2064   20382105.6884   20382242.2934
      -410.4044       -319.7654        108.0004        133.0004
 03 10 28  1 58 30.0000000  0  8G27G 1G 8G13G 4G20G 7G28
   4248354.98746    246754.23445  23969991.6574   23969999.5934   23969991.6924
     -1260.5034       -982.1964        117.0004        135.0004
    350300.78946     20444.06445  23449426.6644   23449504.8934   23449394.5494
      -278.4094       -216.9394        132.0004        153.0004
   4373977.38347   2497571.54445  23734211.1134   23734224.2484   23734210.7334
     -1395.4514      -1087.3714        135.0004        149.0004
  -5214931.62944    -32077.66446  22447394.4514
      1115.0664        868.8964         74.0004        164.0004
  -5032660.88947    581008.42645  22870688.1184   22870702.3394   22870688.5144
      -497.1704       -387.4154        143.0004        160.0004
   6705486.11246   5587014.99744  24461979.0374   24461998.0314   24461978.7414
     -3433.8354      -2675.7094        117.0004        131.0004
  -4849984.24947  -1237507.69546  22385155.6784   22385169.2854   22385155.2674
      2352.5604       1833.1674        159.0004        173.0004
 -14957987.84546  -6026433.54144  20386943.6594   20384503.7974   20384640.0934
      -429.7834       -334.9264        105.0004        126.0004
 03 10 28  1 59  0.0000000  0  8G27G 1G 8G13G 4G20G 7G28
   4286049.85546    276126.58645  23977165.1694   23977173.0484   23977165.2624
     -1252.7754       -976.1894        122.0004        138.0004
    358823.35146     27084.83645  23451048.4554   23451061.5284   23451018.2504
      -289.9594       -225.9374        133.0004        148.0004
   4415748.29047   2530120.60945  23742159.8444   23742172.6704   23742159.3194
     -1389.3864      -1082.6554        135.0004        151.0004
  -5248259.86946    -58047.91146  22441052.4304   22441083.5394
      1106.6704        862.3494        132.0004        171.0004
  -5017737.33946    592637.38445  22873527.9354   22873541.7794   22873528.3564
      -497.8734       -388.0154        131.0004        141.0004
   6808526.11046   5667305.64944  24481587.0264   24481606.9934   24481586.6044
     -3435.7884      -2677.2364        110.0004        127.0004
  -4920561.02547  -1292502.61546  22371725.2764   22371739.2054   22371724.8874
      2352.3514       1833.0034        160.0004        171.0004
 -14944812.20946  -6016166.47944  20389450.4714   20387011.1164   20387147.3304
      -448.6414       -349.5364        105.0004        125.0004
 03 10 28  1 59 30.0000000  0  8G27G 1G 8G13G 4G20G 7G28
   4323516.61246    305321.32545  23984295.0704   23984302.7874   23984295.0404
     -1245.1924       -970.2754        118.0004        136.0004
    367691.65946     33995.27545  23452735.9384   23452747.4174   23452735.5804
      -301.3914       -234.8384        132.0004        147.0004
   4457337.81647   2562528.46645  23750073.9984   23750086.8164   23750073.3394
     -1383.2534      -1077.8694        136.0004        151.0004
  -5281331.77647    -83818.28046  22434759.2734   22434785.7434   22434764.6934
      1097.9754        855.5504        152.0004        170.0004
  -5002790.46047    604284.37645  22876372.0304   22876385.6544   22876372.5584
      -498.6624       -388.5504        142.0004        157.0004
   6911627.65946   5747644.10045  24501206.5404   24501227.2114   24501206.2424
     -3437.7794      -2678.7704        109.0004        132.0004
  -4991130.52247  -1347491.77046  22358296.2314   22358310.0064   22358295.8234
      2352.1154       1832.8194        162.0004        175.0004
 -14931057.89545  -6005448.12644  20392067.4554
      -468.0694       -364.8954         83.0004        115.0004
                            4  1
RINEX FILE SPLICE; other post-header comments skipped       COMMENT
 03 10 28  2  0  0.0000000  0  8G27G 1G 8G13G 4G20G 7G28
   4360755.42246    334338.48045  23991381.6144   23991389.2614   23991381.8004
     -1237.5744       -964.3354        127.0004        146.0004
    376907.42246     41176.21145  23454489.5924   23454502.3494   23454489.6594
      -312.9564       -243.8494        133.0004        149.0004
   4498744.98247   2594794.01245  23757953.3834   23757966.4444   23757952.7314
     -1377.1904      -1073.1404        136.0004        151.0004
  -5314145.18047   -109387.05546  22428515.1544   22428529.5604   22428520.3314
      1089.4694        848.9364        155.0004        172.0004
  -4987820.30346    615949.17045  22879220.8764   22879234.3304   22879221.2614
      -499.4414       -389.1954        132.0004        145.0004
   7014788.24846   5828028.72445  24520837.5134   24520857.8974   24520837.1954
     -3439.6744      -2680.2454        123.0004        141.0004
  -5061689.67347  -1402472.75846  22344869.0974   22344882.7304   22344868.7334
      2351.7564       1832.5354        160.0004        174.0004
 -14916731.63545  -5994285.19044  20394793.2484   20392354.7534   20392490.8844
      -487.2404       -379.6414        103.0004        129.0004
 03 10 28  2  0 30.0000000  0  8G27G 1G 8G13G 4G20G 7G28
   4397764.45246    363176.11145  23998424.4884   23998432.7914   23998424.5394
     -1229.9484       -958.3754        126.0004        142.0004
    386471.68147     48628.78345  23456309.8604   23456322.0664   23456310.1864
      -324.6794       -252.9954        136.0004        154.0004
   4539967.59047   2626915.66545  23765797.7064   23765810.7934   23765797.0004
     -1371.0804      -1068.3874        136.0004        150.0004
  -5346697.10347   -134751.94346  22422320.8314   22422332.2324   22422321.3244
      1080.6054        842.0154        154.0004        169.0004
  -4972829.06347    627631.43046  22882073.5384   22882085.3844   22882073.7954
      -500.0824       -389.6924        152.0004        169.0004
   7118005.25146   5908457.22144  24540479.2824   24540500.1554   24540479.2744
     -3441.4914      -2681.6784        112.0004        127.0004
  -5132237.00047  -1457444.54746  22331444.3394   22331457.9284   22331443.9384
      2351.3064       1832.1834        162.0004        175.0004
 -14901829.70146  -5982673.29945  20397628.7914   20395190.4974   20395326.6304
      -506.2764       -394.4654        111.0004        133.0004
 03 10 28  2  1  0.0000000  0  8G27G 1G 8G13G 4G20G 7G28
   4434544.89146    391835.66545  24005423.7004   24005431.9994   24005423.8584
     -1222.2054       -952.3484        117.0004        133.0004
    396384.95847     56352.88645  23458196.4114   23458209.0594   23458196.7004
      -336.3194       -262.0514        136.0004        153.0004
   4581005.08047   2658893.26145  23773606.6224   23773619.4844   23773606.0124
     -1364.8364      -1063.5194        136.0004        151.0004
  -5378985.74747   -159911.88546  22416176.5684   22416188.4294   22416176.9354
      1071.8554        835.2104        156.0004        174.0004
  -4957819.18646    639327.91344  22884929.5494                   22884929.0694
      -500.6804       -390.1504        118.0004        112.0004
   7221276.07946   5988927.75244  24560131.2874   24560151.8324   24560131.0844
     -3443.2954      -2683.0744        113.0004        131.0004
  -5202769.59047  -1512404.88046  22318022.3554   22318035.9634   22318021.9194
      2350.7894       1831.7744        160.0004        174.0004
 -14886354.72446  -5970615.42244  20400573.5184   20398135.1554   20398271.4164
      -525.4744       -409.4584        111.0004        131.0004
 03 10 28  2  1 30.0000000  0  8G27G 1G 8G13G 4G20G 7G28
   4471095.54246    420316.10645  24012379.3474   24012387.7764   24012379.7094
     -1214.6164       -946.4514        120.0004        141.0004
    406649.39346     64350.71045  23460149.8724   23460162.3964   23460150.0494
      -348.1364       -271.2554        134.0004        148.0004
   4621854.55346   2690724.11745  23781379.7404   23781392.9504   23781379.0974
     -1358.5254      -1058.5834        133.0004        146.0004
  -5411008.22547   -184864.24346  22410082.8584   22410094.0694   22410083.1944
      1063.0184        828.3254        159.0004        176.0004
  -4942792.50445    651037.56144  22887788.7674                   22887786.8844
      -501.2124       -390.5774         89.0004        106.0004
   7324598.10946   6069438.17845  24579793.0354   24579813.4224   24579793.3634
     -3444.9334      -2684.3484        119.0004        137.0004
  -5273285.98647  -1567352.58346  22304603.4104   22304616.9644   22304603.0064
      2350.1504       1831.2824        162.0004        175.0004
 -14870308.18846  -5958112.67544  20403627.1764   20401188.4474   20401324.9764
      -544.5804       -424.3494        111.0004        127.0004
 03 10 28  2  2  0.0000000  0  8G27G 1G 8G13G 4G20G 7G28
   4507416.89146    448618.31845  24019291.3244   24019299.3724   24019291.6814
     -1206.7714       -940.3264        127.0004        146.0004
    417266.62647     72623.50445  23462170.5094   23462183.1534   23462170.4744
      -359.7894       -280.3614        135.0004        150.0004
   4662515.02847   2722407.31845  23789116.9884   23789130.6314   23789116.3974
     -1352.1054      -1053.5794        135.0004        151.0004
  -5442762.22647   -209607.56546  22404040.1664   22404051.8084   22404040.4994
      1054.1004        821.3834        159.0004        176.0004
  -4927750.84944    662758.79544  22890650.8504
      -501.5174       -390.8184         72.0004        105.0004
   7427968.90146   6149986.67044  24599464.2304   24599484.2414   24599464.2024
     -3446.4704      -2685.5504        113.0004        127.0004
  -5343782.76847  -1622284.80146  22291188.3114   22291201.4724   22291187.8464
      2349.6414       1830.8764        161.0004        176.0004
 -14853688.67746  -5945162.53644  20406789.9544   20404351.0064   20404487.5644
      -563.5054       -439.1114        110.0004        126.0004
 03 10 28  2  2 30.0000000  0  8G27G 1G 8G13G 4G20G 7G28
   4543508.83346    476741.65545  24026159.7684   24026168.4574   24026159.9844
     -1199.2874       -934.5154        118.0004        136.0004
    428238.18046     81173.07045  23464258.4924   23464269.6244   23464258.0094
      -371.5754       -289.5434        133.0004        150.0004
   4702984.95847   2753941.96645  23796818.0964   23796831.4924   23796817.5604
     -1345.7894      -1048.6544        135.0004        152.0004
  -5474244.76947   -234139.42746  22398049.2104   22398061.7064   22398049.5574
      1044.9474        814.2354        157.0004        174.0004
  -4912696.60644       101.69143  22893515.4014
      -502.5824       -391.6244         74.0004         74.0004
   7531386.00446   6230571.19045  24619144.1754   24619164.8654   24619144.3344
     -3447.7894      -2686.5834        125.0004        144.0004
  -5414258.75347  -1677200.99546  22277777.0044   22277790.5514   22277776.5904
      2348.8624       1830.2754        162.0004        176.0004
 -14836498.63046  -5931767.72444  20410061.2704   20407622.1584   20407758.7214
      -582.5384       -453.9194        110.0004        128.0004
 03 10 28  2  3  0.0000000  0  8G27G 1G 8G13G 4G20G 7G28
   4579370.84946    504686.28145  24032984.0974   24032991.6764   24032984.3984
     -1191.4574       -928.3984        120.0004        138.0004
    439564.27446     89998.39445  23466413.9044   23466427.0194   23466413.5294
      -383.4054       -298.7394        129.0004        138.0004
   4743263.52847   2785327.49645  23804482.9824   23804496.1934   23804482.4184
     -1339.3554      -1043.6464        135.0004        149.0004
  -5505453.79147   -258458.49346  22392110.3404   22392123.7924   22392110.6094
      1035.6784        807.0314        153.0004        166.0004
  -4897630.35344     11842.10444  22896382.2384
      -502.3444       -391.5264         74.0004        102.0004
   7634847.04746   6311189.82545  24638832.5264   24638853.3014   24638832.2114
     -3449.4484      -2687.8644        119.0004        136.0004
  -5484710.38447  -1732098.19746  22264370.3174   22264383.8284   22264369.9114
      2347.8964       1829.5124        162.0004        175.0004
 -14818738.12046  -5917928.11345  20413441.0724
      -601.1714       -468.5754        113.0004        136.0004
 03 10 28  2  3 30.0000000  0  8G27G 1G 8G13G 4G20G 7G28
   4615001.72846    532450.25445  24039764.7514   24039773.8434   24039764.7834
     -1183.9674       -922.5704        125.0004        146.0004
    451246.39245     99100.84144  23468637.1254                   23468636.7084
      -395.4854       -308.1704        103.0004        115.0004
   4783348.63447   2816562.34445  23812111.0864   23812124.0474   23812110.5734
     -1332.9544      -1038.6534        137.0004        151.0004
  -5536386.90247   -282562.57746  22386224.0514   22386237.3174   22386224.3434
      1026.3764        799.8044        152.0004        166.0004
  -4882555.99744     23591.03144  22899250.6464
      -502.6904       -391.8004         74.0004        112.0004
   7738349.09746   6391840.55045  24658528.4284   24658549.1924   24658527.9914
     -3450.7924      -2688.9264        124.0004        145.0004
  -5555136.73947  -1786975.53746  22250968.6004   22250981.9554   22250968.1304
      2347.0534       1828.8864        160.0004        176.0004
 -14800410.98846  -5903647.26144  20416928.6964   20414489.4564   20414625.9704
      -621.1594       -484.0044        113.0004        125.0004
 03 10 28  2  4  0.0000000  0  8G27G 1G 8G13G 4G20G 7G28
   4650401.58946    560034.33545  24046501.2334   24046510.0844   24046501.3094
     -1176.1324       -916.4464        125.0004        144.0004
    463286.07846    108481.70745  23470928.4554   23470948.3154   23470928.3024
      -407.2624       -317.3254        134.0004        153.0004
   4823239.62247   2847646.03845  23819702.2234   23819714.9754   23819701.7994
     -1326.4224      -1033.5684        135.0004        151.0004
  -5567040.18847   -306448.50846  22380390.9494   22380403.0864   22380391.2844
      1017.1104        792.5714        153.0004        172.0004
  -4867473.30844     35346.46844  22902120.8984
      -502.9394       -392.0044         74.0004        108.0004
   7841890.60346   6472522.23244  24678231.8704   24678251.9814   24678232.5814
     -3452.0044      -2689.8854        107.0004        122.0004
  -5625534.26547  -1841830.71346  22237572.2354   22237585.7604   22237571.8124
      2346.1094       1828.1364        163.0004        178.0004
 -14781516.65146  -5888924.22845  20420524.2194   20418084.9724   20418221.4434
      -639.1454       -498.0124        113.0004        137.0004
 03 10 28  2  4 30.0000000  0  8G27G 1G 8G13G 4G20G 7G28
   4685570.49246    587438.22545  24053193.9264   24053202.9854   24053193.9494
     -1168.5294       -910.5324        119.0004        133.0004
    475684.50847    118142.24945  23473288.1094   23473305.2344   23473287.8484
      -419.3094       -326.7244        137.0004        151.0004
   4862934.61746   2878576.97045  23827256.0874   23827268.8584   23827255.7084
     -1319.8824      -1028.4644        134.0004        149.0004
  -5597410.73647   -330113.67646  22374611.7874   22374622.6204   22374612.1084
      1007.6664        785.1944        154.0004        173.0004
  -4852384.00644     10872.58046  22904992.3684
      -503.0184       -391.9524         74.0004        163.0004
   7945467.58346   6553231.77344  24697941.9014   24697962.0154   24697941.7374
     -3453.1944      -2690.7904        109.0004        122.0004
  -5695901.07747  -1896661.85046  22224181.6504   22224195.0414   22224181.2964
      2345.0194       1827.2854        164.0004        177.0004
 -14762056.80546  -5873761.13344  20424227.3154                   20421924.5294
      -658.1384       -512.8134        110.0004        113.0004
 03 10 28  2  5  0.0000000  0  8G27G 1G 8G13G 4G20G 7G28
   4720507.70246    614661.58245  24059842.5094   24059851.4084   24059842.5164
     -1160.8094       -904.5114        125.0004        138.0004
    488442.97147    128083.69945  23475716.1964   23475731.6284   23475715.9664
      -431.3604       -336.1154        138.0004        151.0004
   4902431.64647   2909353.61245  23834772.3224   23834785.2404   23834772.0224
     -1313.2184      -1023.2754        136.0004        153.0004
  -5627498.67747   -353559.42846  22368886.4054   22368898.8444   22368886.6414
       998.1164        777.7604        154.0004        173.0004
  -4837291.79545     22632.50545  22907864.3744   22907964.5304
      -503.0974       -392.0274         94.0004        152.0004
   8049078.20346   6633966.96945  24717658.3494   24717684.2494   24717658.1714
     -3454.2114      -2691.5644        107.0004        135.0004
  -5766235.18147  -1951467.55246  22210797.4494   22210810.7644   22210797.0184
      2343.8374       1826.3554        164.0004        177.0004
 -14742033.48446  -5858158.42145  20428037.6654   20425598.3034   20425734.8394
      -676.8284       -527.3624        110.0004        136.0004
 03 10 28  2  5 30.0000000  0  8G27G 1G 8G13G 4G20G 7G28
   4755213.79146    641705.19344  24066447.1424   24066455.6714   24066446.7494
     -1153.0694       -898.4914        117.0004        131.0004
    501562.25847    138306.07345  23478213.0874   23478227.9334   23478213.0624
      -443.3444       -345.4474        140.0004        157.0004
   4941729.46647   2939975.00045  23842250.5504   23842263.6824   23842250.2064
     -1306.6294      -1018.1474        137.0004        151.0004
  -5657298.97347   -376780.34346  22363215.7274   22363227.0094   22363215.9344
       988.5214        770.2774        156.0004        174.0004
  -4822197.26546     34394.94445  22910736.7124   22910837.8524   22910760.6884
      -503.1854       -392.0744        131.0004        155.0004
   8152719.18046   6714725.58844  24737380.5894   24737404.9504   24737380.6594
     -3455.2904      -2692.4154        114.0004        127.0004
  -5836533.87847  -2006245.49146  22197419.8954   22197433.0054   22197419.4904
      2342.6484       1825.4374        164.0004        179.0004
 -14721447.78546  -5842117.98544  20431955.0474   20429515.5394   20429652.1684
      -695.6584       -542.0894        114.0004        130.0004
 03 10 28  2  6  0.0000000  0  8G27G 1G 8G13G 4G20G 7G28
   4789687.95646    668568.09245  24073007.5554   24073016.2764   24073007.0264
     -1145.4004       -892.5124        120.0004        137.0004
    515044.19847    148811.22345  23480778.8694   23480792.7644   23480778.8804
      -455.4374       -354.8714        138.0004        154.0004
   4980827.23547   2970440.63145  23849690.7014   23849703.5784   23849690.2574
     -1299.9464      -1012.9384        136.0004        152.0004
  -5686810.12447   -399776.46146  22357600.0054   22357611.6474   22357600.2444
       978.7494        762.6214        155.0004        170.0004
  -4807102.60046     46156.91145  22913608.8874   22913625.6484   22913630.5084
      -503.1484       -392.1094        129.0004        139.0004
   8256389.36446   6795507.35545  24757108.2524   24757131.1854   24757107.9594
     -3456.1744      -2693.1154        112.0004        138.0004
  -5906794.87748  -2060994.32046  22184049.5934   22184062.8594   22184049.1464
      2341.3114       1824.3974        165.0004        177.0004
 -14700299.17646  -5825638.52345  20435979.6444   20433539.9894   20433676.6094
      -714.2624       -556.5994        113.0004        137.0004
 03 10 28  2  6 30.0000000  0  8G27G 1G 8G13G 4G20G 7G28
   4823929.38946    695249.44145  24079523.6894   24079532.6404   24079523.3754
     -1137.5674       -886.4044        133.0004        144.0004
    528888.69346    159598.45645  23483413.6634   23483428.3704   23483413.7444
      -467.6674       -364.3874        133.0004        149.0004
   5019722.89646   3000748.75045  23857092.4984   23857105.5434   23857091.9194
     -1293.1634      -1007.6584        134.0004        149.0004
  -5716029.99847   -422545.29546  22352039.7434   22352051.0994   22352040.0304
       968.9864        755.0634        156.0004        169.0004
  -4792010.40247     57917.15345  22916480.7664   22916492.7344   22916480.6364
      -503.1054       -392.0164        149.0004        162.0004
   8360084.44346   6876308.25744  24776841.0884   24776864.5284   24776840.8234
     -3456.8694      -2693.6534        111.0004        126.0004
  -5977015.77148  -2115711.73746  22170686.9344   22170699.8854   22170686.4704
      2339.9554       1823.3384        166.0004        178.0004
 -14678592.19346  -5808724.68245  20440110.4674   20437670.5244   20437807.3174
      -733.0534       -571.1844        113.0004        137.0004
 03 10 28  2  7  0.0000000  0  8G27G 1G 8G13G 4G20G 7G28
   4857939.00046    721750.07145  24085995.7264   24086004.8334   24085995.3784
     -1129.9334       -880.4574        130.0004        144.0004
    543098.84147    170670.93245  23486118.0084   23486131.5654   23486117.9874
      -479.8934       -373.9214        136.0004        153.0004
   5058415.95846   3030899.11045  23864455.6364   23864468.6934   23864455.1384
     -1286.5294      -1002.4904        134.0004        149.0004
  -5744954.80747   -445084.08446  22346535.6854   22346546.8634   22346535.9564
       959.1124        747.3704        157.0004        172.0004
  -4776920.86747     69675.26346  22919352.2344   22919364.3724   22919352.2824
      -502.7844       -391.7844        149.0004        169.0004
   8463804.35546   6957128.71144  24796578.7074   24796601.0724   24796578.6844
     -3457.8344      -2694.4104        114.0004        127.0004
  -6047193.92248  -2170395.89146  22157332.4074   22157345.2934   22157331.9544
      2338.3904       1822.1204        166.0004        179.0004
 -14656325.41046  -5791374.27144  20444347.8864   20441907.6704   20442044.5424
      -751.8534       -585.8744        112.0004        131.0004
 03 10 28  2  7 30.0000000  0  8G27G 1G 8G13G 4G20G 7G28
   4891715.78246    748069.11645  24092423.3794   24092432.7424   24092423.2494
     -1122.0354       -874.3014        131.0004        144.0004
    557674.57947    182028.23045  23488892.0314   23488905.1744   23488892.0024
      -491.9434       -383.3284        138.0004        156.0004
   5096904.06346   3060889.73745  23871779.8364   23871792.8204   23871779.3774
     -1279.5514       -997.0454        133.0004        147.0004
  -5773582.68147   -467391.47346  22341088.0914   22341098.8634   22341088.3494
       949.2284        739.6494        159.0004        172.0004
  -4761838.06746     81427.65345  22922222.4304   22922235.4754   22922223.2034
      -502.7014       -391.7094        130.0004        143.0004
   8567545.04546   7037965.47145  24816320.2654   24816341.7894   24816320.0084
     -3458.3354      -2694.8114        123.0004        145.0004
  -6117327.05548  -2225044.89246  22143986.4574   22143999.1834   22143986.0454
      2336.9854       1821.0204        167.0004        179.0004
 -14633500.86646  -5773589.13645  20448691.4584   20446250.9814   20446387.9054
      -770.1484       -600.1644        115.0004        132.0004
 03 10 28  2  8  0.0000000  0  8G27G 1G 8G13G 4G20G 7G28
   4925260.60246    774207.77145  24098807.0834   24098815.7164   24098806.9724
     -1114.3204       -868.3104        124.0004        141.0004
    572617.16647    193671.58145  23491735.6884   23491748.5304   23491735.6184
      -504.2394       -392.9084        139.0004        153.0004
   5135185.99146   3090719.64045  23879064.7174   23879077.8914   23879064.3504
     -1272.5514       -991.5904        133.0004        147.0004
  -5801911.73747   -489466.28046  22335697.3234   22335708.4264   22335697.6004
       939.2594        731.8744        157.0004        172.0004
  -4746761.34147     93176.12845  22925091.4414   22925104.5874   22925091.5214
      -502.3644       -391.4504        142.0004        154.0004
   8671304.08146   7118816.26445  24836065.2624   24836087.0964   24836065.6834
     -3458.8834      -2695.2164        120.0004        145.0004
  -6187413.03148  -2279657.13146  22130649.4114   22130662.1034   22130648.9854
      2335.3614       1819.7564        167.0004        179.0004
 -14610120.95546  -5755371.46045  20453140.6754   20450699.9264   20450836.9524
      -788.7344       -614.6254        115.0004        133.0004
 03 10 28  2  8 30.0000000  0  8G27G 1G 8G13G 4G20G 7G28
   4958572.96246    800165.42345  24105146.1894   24105154.8424   24105146.2494
     -1106.7084       -862.3694        132.0004        152.0004
    587928.22147    205602.19045  23494649.5314   23494662.2454   23494649.5344
      -516.6334       -402.5544        139.0004        153.0004
   5173261.28046   3120388.52945  23886310.4274   23886323.5664   23886310.0564
     -1265.8424       -986.3704        133.0004        148.0004
  -5829938.07747   -511304.71346  22330364.1364   22330374.9714   22330364.3854
       929.0614        723.9534        159.0004        174.0004
  -4731692.83347    104917.72046  22927958.8384   22927973.0344   22927958.8544
      -502.2324       -391.3414        149.0004        165.0004
   8775079.65046   7199679.85744  24855813.5044   24855835.4554   24855813.4324
     -3459.5454      -2695.7354        108.0004        122.0004
  -6257448.67048  -2334230.20746  22117321.8474   22117334.6254   22117321.4744
      2333.5464       1818.3404        166.0004        178.0004
 -14586186.51946  -5736721.90945  20457695.4894   20455254.3354   20455391.5324
      -807.1734       -628.9414        114.0004        135.0004
 03 10 28  2  9  0.0000000  0  8G27G 1G 8G13G 4G20G 7G28
   4991652.38246    825941.54445  24111441.2264   24111450.3934   24111441.3744
     -1098.6744       -856.1154        132.0004        151.0004
    603608.49547    217820.49745  23497633.6694   23497646.6104   23497633.6294
      -528.6954       -411.9614        140.0004        154.0004
   5211127.58846   3149894.68545  23893516.2834   23893529.4534   23893515.8804
     -1258.6264       -980.7454        132.0004        146.0004
  -5857660.82047   -532907.09946  22325088.7234   22325099.6314   22325089.0214
       919.1144        716.1844        159.0004        175.0004
  -4716635.51147    116650.83945  22930823.9574   22930836.9274   22930824.1484
      -501.5964       -390.8434        146.0004        156.0004
   8878869.52655   7280555.17644  24875564.2624                   24875564.2404
     -3459.6314      -2695.8084        101.0004        124.0004
  -6327432.38348  -2388762.76346  22104004.2114   22104016.9614   22104003.8304
      2331.9874       1817.1264        166.0004        178.0004
 -14561698.61046  -5717640.94545  20462355.6834   20459914.1064   20460051.4194
      -825.3254       -643.1224        116.0004        132.0004
 03 10 28  2  9 30.0000000  0  8G27G 1G 8G13G 4G20G 7G28
   5024498.73046    851535.92544  24117691.8384   24117701.2584   24117692.1134
     -1091.1164       -850.2154        121.0004        130.0004
    619658.67547    230326.69245  23500688.1474   23500701.6594   23500688.0374
      -541.2624       -421.7604        137.0004        152.0004
   5248783.99346   3179237.18445  23900682.1004   23900695.4234   23900681.7624
     -1251.7274       -975.3674        133.0004        148.0004
  -5885076.83847   -554270.58646  22319871.6924   22319882.9134   22319871.9804
       908.6664        708.0634        158.0004        170.0004
  -4701590.21047    128374.42346  22933686.9674   22933700.0764   22933687.1954
      -501.2124       -390.5474        151.0004        169.0004
   8982670.24745   7361438.57244  24895317.1394                   24895315.8814
     -3460.2034      -2696.2344         94.0004        117.0004
  -6397361.13648  -2443252.47746  22090696.9824   22090709.7994   22090696.6344
      2329.9764       1815.5594        166.0004        178.0004
 -14536659.79846  -5698131.09545  20467120.7804   20464678.6124   20464816.1464
      -843.8334       -657.5394        117.0004        137.0004
