     2.10           OBSERVATION DATA    G (GPS)             RINEX VERSION / TYPE
teqc  2002Mar14     Ole Bjerregaard Hans20031029 00:10:46UTCPGM / RUN BY / DATE
Linux 2.0.36|Pentium II|gcc -static|Linux|486/DX+           COMMENT
     2              OBSERVATION DATA    G (GPS)             COMMENT
CCRINEXO V2.3.0 UX  KMS                 29-OCT-03 01:06     COMMENT
CONCATENATED OBSERVATION FILES                              COMMENT
teqc  2001Nov28                         20031028  0:59:     COMMENT
MSWin2000|IAx86-PII|wcl386 11.0|MSWin95/98/NT/2000|486/DX+  COMMENT
BIT 2 OF LLI FLAGS DATA COLLECTED UNDER A/S CONDITION       COMMENT
 SNR is mapped to RINEX snr flag value [1-9]                COMMENT
  L1: 1 -> 1;  90 -> 5; 210 -> 9                            COMMENT
  L2: 1 -> 1; 150 -> 5; 250 -> 9                            COMMENT
QAQ1                                                        MARKER NAME
43007M001                                                   MARKER NUMBER
KMS                 KMS                                     OBSERVER / AGENCY
ZR20012301          ASHTECH UZ-12       CJ00                REC # / TYPE / VERS
13301               ASH701941.B     SCIS                    ANT # / TYPE
  2170942.1800 -2251829.9500  5539988.2900                  APPROX POSITION XYZ
        0.1206        0.0000        0.0000                  ANTENNA: DELTA H/E/N
     1     1                                                WAVELENGTH FACT L1/2
     9    C1    L1    L2    P1    P2    D1    D2    S1    S2# / TYPES OF OBSERV
    30.0000                                                 INTERVAL
  2003    10    28     0     0    0.0000000     GPS         TIME OF FIRST OBS
                                                            END OF HEADER
 03 10 28  0  0  0.0000000  1  8G 7G 9G11G14G20G23G28G31
  22443164.5694  -13300354.94543 -10355979.83942  22443163.0114   22443167.3014
      2728.1044       2125.8034         53.0004         46.0004
  23838809.6304   -6879117.03643  -5350311.83742  23838808.8254   23838815.1474
      1150.2174        896.2794         45.0004         41.0004
  20508770.3984  -16479879.14044 -12824927.90742  20508769.4544   20508771.9864
      -737.1834       -574.4254         57.0004         52.0004
  24285763.5074   -7102765.68843  -5512624.83742  24285763.4424   24285767.1584
      1681.0144       1309.8804         45.0004         39.0004
  23150199.2164  -12756311.74743  -9931026.46942  23150198.3784   23150201.7444
      3432.2884       2674.5054         49.0004         43.0004
  24543045.0054   -5971143.31843  -4647445.47942  24543044.1814   24543050.8644
     -2706.5064      -2108.9704         45.0004         40.0004
  20990059.9554  -20240256.78344 -15762708.08142  20990058.6584   20990062.0054
      -416.0504       -324.1874         57.0004         51.0004
  23522653.7374    1676689.94543   1320942.28942  23522652.4004   23522656.1394
     -3656.8454      -2849.4804         47.0004         42.0004
 03 10 28  0  0 30.0000000  0  8G 7G 9G11G14G20G23G28G31
  22427609.4754  -13382094.90243 -10419673.29142  22427608.4134   22427612.7184
      2720.5554       2119.9044         53.0004         46.0004
  23832301.1594   -6913323.21743  -5376966.11142  23832300.3164   23832305.9024
      1129.3614        880.0274         46.0004         40.0004
  20513024.6174  -16457522.26244 -12807506.95842  20513023.7434   20513026.4654
      -754.0944       -587.6094         57.0004         52.0004
  24276212.9554   -7152957.34843  -5551735.13742  24276212.6594   24276213.7044
      1664.0994       1296.7074         45.0004         39.0004
  23130630.6054  -12859147.21743 -10011157.96442  23130628.7784   23130632.9014
      3422.6024       2666.9624         49.0004         43.0004
  24558528.1004   -5889783.97943  -4584048.57642  24558527.2604   24558531.7234
     -2717.9944      -2117.9224         47.0004         40.0004
  20992490.8234  -20227481.96544 -15752753.68942  20992489.5774   20992492.7664
      -436.3854       -340.0444         57.0004         51.0004
  23543542.2224    1786459.09543   1406476.66742  23543539.7304   23543544.9494
     -3661.7994      -2853.3424         47.0004         41.0004
 03 10 28  0  1  0.0000000  0  8G 7G 9G11G14G20G23G28G31
  22412097.9974  -13463612.91243 -10483193.85242  22412096.2044   22412101.3074
      2713.3244       2114.2764         53.0004         46.0004
  23825910.2814   -6946910.81043  -5403138.21642  23825909.4864   23825914.1394
      1108.9364        864.0994         47.0004         41.0004
  20517374.0954  -16434666.57044 -12789697.32242  20517372.8804   20517375.5884
      -770.3434       -600.2644         57.0004         52.0004
  24266757.7634   -7202642.43243  -5590450.70142  24266757.4344   24266761.2114
      1647.4664       1283.7434         44.0004         39.0004
  23111115.1804  -12961701.34243 -10091070.24842  23111112.9944   23111116.6824
      3413.5894       2659.9304         49.0004         43.0004
  24574071.3134   -5808102.22443  -4520400.42542  24574070.3544   24574075.6924
     -2727.9814      -2125.6914         46.0004         40.0004
  20995036.1474  -20214106.63044 -15742331.34642  20995035.0274   20995037.9754
      -456.1034       -355.4054         57.0004         51.0004
  23564456.8314    1896365.29843   1492117.84742  23564455.1084   23564459.9734
     -3665.8304      -2856.4994         47.0004         42.0004
 03 10 28  0  1 30.0000000  0  8G 7G 9G11G14G20G23G28G31
  22396628.1704  -13544904.65543 -10546538.06642  22396626.8734   22396630.7154
      2706.0874       2108.6444         53.0004         46.0004
  23819637.1714   -6979876.62343  -5428825.91842  23819635.7404   23819638.3674
      1088.6574        848.2904         46.0004         41.0004
  20521818.6074  -16411310.57744 -12771497.84542  20521817.4224   20521820.2494
      -786.7414       -613.0344         57.0004         52.0004
  24257400.6314   -7251816.50743  -5628768.16742  24257400.1724   24257401.6724
      1630.7164       1270.6944         45.0004         39.0004
  23091653.8974  -13063968.93643 -10170759.26242  23091653.0004   23091656.2754
      3404.1654       2652.5734         49.0004         43.0004
  24589675.1134   -5726097.87343  -4456500.94042  24589674.7794   24589680.7564
     -2738.9344      -2134.2434         45.0004         40.0004
  20997696.0974  -20200128.47344 -15731439.27142  20997694.9934   20997697.9194
      -475.8994       -370.8284         57.0004         51.0004
  23585398.5634    2006409.17943   1577866.28442  23585397.0344   23585400.0724
     -3670.4884      -2860.1264         48.0004         42.0004
 03 10 28  0  2  0.0000000  0  8G 7G 9G11G14G20G23G28G31
  22381201.9574  -13625967.16443 -10609703.59042  22381200.3174   22381205.7824
      2698.1194       2102.4244         52.0004         47.0004
  23813483.2414   -7012217.38643  -5454026.47142  23813481.6884   23813487.2864
      1067.5744        831.8724         47.0004         41.0004
  20526358.5464  -16387453.43444 -12752907.86142  20526357.5704   20526359.8894
      -803.7024       -626.2644         57.0004         52.0004
  24248140.8934   -7300475.58743  -5666684.25842  24248140.6314   24248144.4154
      1613.2724       1257.0904         44.0004         39.0004
  23072248.3154  -13165945.57243 -10250221.54642  23072247.0184   23072251.6554
      3394.3434       2644.9144         49.0004         43.0004
  24605343.4564   -5643771.78643  -4392350.87142  24605341.8804   24605346.6854
     -2749.7504      -2142.6564         47.0004         41.0004
  21000471.1234  -20185545.91244 -15720076.24342  21000469.7094   21000472.9844
      -496.3074       -386.7354         57.0004         51.0004
  23606364.4554    2116591.02643   1663722.23542  23606363.2904   23606367.3404
     -3674.9874      -2863.6344         47.0004         42.0004
 03 10 28  0  2 30.0000000  0  8G 7G 9G11G14G20G23G28G31
  22365820.1214  -13706802.99043 -10672692.60442  22365818.3494   22365822.8884
      2690.5504       2096.5384         53.0004         47.0004
  23807446.6314   -7043936.00043  -5478742.27642  23807445.4414   23807450.8964
      1046.7804        815.6844         46.0004         41.0004
  20530992.8334  -16363100.20044 -12733931.32342  20530991.4804   20530994.1254
      -820.1564       -639.0834         57.0004         52.0004
  24238979.0014   -7348621.71543  -5704200.68542  24238976.7154   24238981.7104
      1596.3284       1243.8884         44.0004         39.0004
  23052898.6314  -13267632.36543 -10329457.99442  23052897.2224   23052899.6994
      3384.5354       2637.2774         49.0004         43.0004
  24621068.3394   -5561129.87443  -4327954.63442  24621067.2104   24621071.3134
     -2759.9864      -2150.6584         45.0004         39.0004
  21003359.9084  -20170363.21344 -15708245.58042  21003359.0544   21003362.0134
      -516.2404       -402.2684         57.0004         51.0004
  23627355.3594    2226905.25243   1749681.36542  23627353.3824   23627359.2134
     -3679.5474      -2867.1674         47.0004         41.0004
 03 10 28  0  3  0.0000000  0  8G 7G 9G11G14G20G23G28G31
  22350480.7974  -13787408.32843 -10735501.99442  22350479.4484   22350484.2284
      2683.0914       2090.7054         53.0004         47.0004
  23801529.3954   -7075029.29143  -5502970.86742  23801527.9334   23801533.6784
      1026.0464        799.5184         46.0004         41.0004
  20535721.4844  -16338249.69344 -12714567.29842  20535720.4364   20535723.2704
      -836.5374       -651.8524         57.0004         52.0004
  24229915.1434   -7396250.79843  -5741314.31042  24229914.5014   24229918.7004
      1578.8784       1230.2954         45.0004         39.0004
  23033604.1624  -13369024.21643 -10408464.62642  23033601.7074   23033606.8104
      3374.8164       2629.7214         50.0004         43.0004
  24636855.1854   -5478172.31343  -4263312.36042  24636854.0014   24636857.8614
     -2770.2004      -2158.6074         46.0004         39.0004
  21006364.0434  -20154578.10244 -15695945.50742  21006362.8444   21006366.0284
      -536.0934       -417.7334         57.0004         51.0004
  23648374.1244    2337352.45443   1835744.10542  23648373.3904   23648376.4094
     -3684.0384      -2870.7044         48.0004         41.0004
 03 10 28  0  3 30.0000000  0  8G 7G 9G11G14G20G23G28G31
  22335186.3714  -13867781.61943 -10798130.50042  22335185.0444   22335190.4334
      2675.2624       2084.6174         53.0004         47.0004
  23795732.3624   -7105495.91943  -5526711.03842  23795730.8114   23795736.0764
      1005.0804        783.1614         47.0004         41.0004
  20540544.9364  -16312902.86344 -12694816.52942  20540543.8784   20540546.3824
      -853.1194       -664.7684         57.0004         52.0004
  24220951.3014   -7443360.66443  -5778023.31142  24220949.4804   24220953.5244
      1561.8614       1217.0354         44.0004         39.0004
  23014366.4724  -13470118.29543 -10487239.22242  23014365.6574   23014369.2124
      3364.8174       2621.9334         50.0004         43.0004
  24652700.4264   -5394901.68643  -4198426.25742  24652700.2384   24652706.2904
     -2780.6404      -2166.7264         44.0004         40.0004
  21009482.3704  -20138191.04644 -15683176.38742  21009481.2404   21009484.3504
      -556.2564       -433.4454         57.0004         51.0004
  23669415.6414    2447931.07243   1921909.23842  23669415.3514   23669418.8314
     -3688.1844      -2873.9264         47.0004         41.0004
 03 10 28  0  4  0.0000000  0  8G 7G 9G11G14G20G23G28G31
  22319935.8794  -13947920.93343 -10860576.67242  22319934.0734   22319940.1434
      2667.2474       2078.3754         52.0004         47.0004
  23790055.0434   -7135334.57843  -5549962.02242  23790053.8124   23790057.9054
       984.0134        766.7584         47.0004         41.0004
  20545462.7774  -16287060.00644 -12674679.22542  20545461.6434   20545464.1994
      -869.8734       -677.8284         57.0004         52.0004
  24212085.2184   -7489948.82443  -5814325.81142  24212083.8364   24212088.6584
      1543.9174       1203.0574         45.0004         39.0004
  22995186.2624  -13570911.06543 -10565779.02042  22995185.3164   22995188.0884
      3354.5104       2613.9064         50.0004         43.0004
  24668606.6254   -5311319.38943  -4133297.25742  24668604.4484   24668610.5434
     -2791.5214      -2175.2034         47.0004         41.0004
  21012715.2914  -20121201.71244 -15669937.95342  21012714.3054   21012717.0084
      -576.5244       -449.2444         57.0004         51.0004
  23690482.8844    2558639.98643   2008175.90842  23690482.2304   23690485.0274
     -3692.6454      -2877.3784         47.0004         41.0004
 03 10 28  0  4 30.0000000  0  8G 7G 9G11G14G20G23G28G31
  22304730.3434  -14027829.02143 -10922842.67842  22304728.7734   22304734.0604
      2659.7804       2072.5564         53.0004         47.0004
  23784494.7964   -7164548.11143  -5572725.82242  23784493.2824   23784498.8794
       963.4824        750.7754         46.0004         41.0004
  20550473.7764  -16260726.59844 -12654159.68142  20550472.7084   20550475.4064
      -885.8064       -690.2434         57.0004         52.0004
  24203319.5754   -7536017.65743  -5850223.75042  24203318.3734   24203321.5014
      1526.9064       1189.8014         45.0004         39.0004
  22976063.3274  -13671404.29543 -10644085.41842  22976061.1194   22976065.4684
      3344.7744       2606.3324         50.0004         44.0004
  24684568.9084   -5227432.55443  -4067930.99342  24684567.6484   24684571.4284
     -2801.1924      -2182.7504         45.0004         40.0004
  21016062.1344  -20103614.59844 -15656233.71942  21016061.0234   21016063.8294
      -596.1114       -464.4974         57.0004         51.0004
  23711574.4404    2669473.36643   2094539.56142  23711573.0274   23711577.5814
     -3696.2934      -2880.2334         47.0004         41.0004
 03 10 28  0  5  0.0000000  0  8G 7G 9G11G14G20G23G28G31
  22289569.5834  -14107498.62643 -10984922.86342  22289568.4314   22289573.4394
      2651.9084       2066.4074         53.0004         47.0004
  23779054.5544   -7193129.66643  -5594997.19242  23779053.4324   23779061.1124
       942.3334        734.2904         46.0004         41.0004
  20555579.2584  -16233897.68144 -12633254.03342  20555577.9674   20555580.6644
      -902.2424       -703.0444         57.0004         52.0004
  24194653.6634   -7581558.99943  -5885710.57342  24194651.2934   24194654.5364
      1509.2544       1176.0504         45.0004         39.0004
  22956998.5814  -13771589.10843 -10722151.49042  22956997.1224   22957001.0644
      3334.5734       2598.3824         50.0004         43.0004
  24700591.5644   -5143237.33343  -4002324.27142  24700589.8344   24700594.1054
     -2811.2304      -2190.5754         44.0004         38.0004
  21019523.5674  -20085424.16044 -15642059.36542  21019522.4154   21019525.5594
      -616.1384       -480.1064         57.0004         51.0004
  23732689.9194    2780435.57243   2181003.60342  23732689.8984   23732692.3964
     -3700.5544      -2883.5544         47.0004         41.0004
 03 10 28  0  5 30.0000000  0  8G 7G 9G11G14G20G23G28G31
  22274454.1164  -14186929.86643 -11046817.36242  22274453.0734   22274458.6404
      2643.8304       2060.1234         53.0004         47.0004
  23773737.3444   -7221079.68943  -5616776.39842  23773736.1804   23773742.3324
       921.4214        718.0104         47.0004         41.0004
  20560778.2604  -16206575.95844 -12611964.37342  20560777.1654   20560779.8474
      -918.7324       -715.8984         57.0004         52.0004
  24186087.3734   -7626572.43443  -5920785.93242  24186085.9884   24186090.4984
      1491.8444       1162.4674         45.0004         40.0004
  22937993.0294  -13871464.35643 -10799976.34442  22937990.6754   22937995.5564
      3324.1004       2590.2254         50.0004         43.0004
  24716671.3024   -5058737.87743  -3936480.59242  24716669.9664   24716675.0364
     -2821.4374      -2198.5154         45.0004         40.0004
  21023099.8434  -20066632.33444 -15627416.39842  21023098.3844   21023101.8344
      -636.2384       -495.7644         57.0004         51.0004
  23753828.6994    2891523.37143   2267565.51842  23753827.3314   23753832.0424
     -3704.8444      -2886.9064         45.0004         41.0004
 03 10 28  0  6  0.0000000  0  8G 7G 9G11G14G20G23G28G31
  22259384.0674  -14266123.97543 -11108527.07342  22259382.7264   22259387.9954
      2635.8914       2053.9474         53.0004         47.0004
  23768538.7374   -7248400.36743  -5638065.41342  23768536.4994   23768542.1464
       900.2674        701.5114         46.0004         41.0004
  20566070.5834  -16178765.32044 -12590293.74442  20566069.4024   20566072.0434
      -935.1124       -728.6584         57.0004         52.0004
  24177622.4324   -7671059.14243  -5955450.86142  24177620.7704   24177624.4544
      1473.9704       1148.5474         46.0004         40.0004
  22919045.9724  -13971029.96643 -10877559.92642  22919044.4284   22919047.3384
      3313.7094       2582.0794         50.0004         43.0004
  24732808.3564   -4973939.36543  -3870403.86642  24732806.7304   24732813.0354
     -2831.6374      -2206.4584         46.0004         41.0004
  21026789.5994  -20047241.93344 -15612307.00542  21026788.3224   21026790.9694
      -656.2314       -511.3474         57.0004         51.0004
  23774990.2494    3002732.45243   2354221.93142  23774989.3934   23774994.5894
     -3709.1914      -2890.2764         46.0004         41.0004
 03 10 28  0  6 30.0000000  0  8G 7G 9G11G14G20G23G28G31
  22244360.3994  -14345075.14543 -11170047.47942  22244359.6104   22244364.5204
      2627.3064       2047.2564         54.0004         47.0004
  23763460.3414   -7275085.90343  -5658859.34642  23763459.4954   23763464.0224
       878.3184        684.4084         47.0004         41.0004
  20571456.3104  -16150462.50944 -12568239.60142  20571455.2874   20571457.8914
      -951.9824       -741.8074         57.0004         52.0004
  24169258.1044   -7715012.90643  -5989700.46242  24169256.8894   24169260.2654
      1455.7934       1134.3954         46.0004         40.0004
  22900159.7854  -14070278.77543 -10954896.63642  22900158.7314   22900163.0774
      3302.6864       2573.5434         50.0004         44.0004
  24749001.2144   -4888839.78843  -3804092.65042  24749000.4744   24749006.5244
     -2842.0224      -2214.5514         44.0004         39.0004
  21030593.9054  -20027249.53244 -15596728.51642  21030592.6074   21030595.5934
      -676.8464       -527.4114         57.0004         50.0004
  23796176.3134    3114065.39143   2440974.83942  23796175.7364   23796180.0764
     -3713.3384      -2893.5134         46.0004         41.0004
 03 10 28  0  7  0.0000000  0  8G 7G 9G11G14G20G23G28G31
  22229382.4404  -14423786.72843 -11231381.15642  22229381.3114   22229386.6124
      2619.6454       2041.2914         54.0004         47.0004
  23758502.3194   -7301140.54543  -5679161.54942  23758500.5394   23758506.7804
       857.9544        668.5314         47.0004         41.0004
  20576934.6654  -16121673.65344 -12545806.72042  20576933.6844   20576936.2754
      -967.7214       -754.0694         57.0004         52.0004
  24160994.8814   -7758437.12243  -6023537.50242  24160992.6934   24160996.0804
      1438.7844       1121.1324         45.0004         39.0004
  22881333.4224  -14169212.96743 -11031988.19042  22881331.9934   22881335.4544
      3292.5824       2565.6484         51.0004         44.0004
  24765251.9514   -4803446.52943  -3737552.56642  24765251.8584   24765255.0894
     -2851.4274      -2221.8894         46.0004         39.0004
  21034511.9744  -20006660.24744 -15580684.93142  21034510.6424   21034513.7744
      -696.3694       -542.6274         57.0004         51.0004
  23817386.2894    3225515.64843   2527819.20642  23817384.9464   23817388.4934
     -3716.8904      -2896.2704         47.0004         41.0004
 03 10 28  0  7 30.0000000  0  8G 7G 9G11G14G20G23G28G31
  22214450.4374  -14502254.10443 -11292524.53742  22214448.7574   22214454.2394
      2611.3954       2034.8614         53.0004         47.0004
  23753664.7924   -7326559.93243  -5698968.68442  23753663.8454   23753669.6824
       836.6154        651.9044         46.0004         41.0004
  20582506.2154  -16092396.13944 -12522993.07142  20582504.8684   20582507.4934
      -984.1154       -766.8384         57.0004         52.0004
  24152831.8724   -7801326.09143  -6056957.47342  24152831.2634   24152835.1584
      1421.0124       1107.2954         44.0004         39.0004
  22862567.8324  -14267826.44543 -11108829.84042  22862566.0914   22862569.5714
      3281.6624       2557.1304         51.0004         44.0004
  24781558.8624   -4717758.54843  -3670782.70442  24781555.9154   24781561.4844
     -2861.1014      -2229.4344         46.0004         40.0004
  21038543.9584  -19985471.00144 -15564173.84442  21038542.6954   21038546.1024
      -716.2984       -558.1494         57.0004         51.0004
  23838615.9084    3337085.06743   2614756.41442  23838615.3244   23838619.5244
     -3720.7584      -2899.2904         46.0004         41.0004
 03 10 28  0  8  0.0000000  0  8G 7G 9G11G14G20G23G28G31
  22199565.5784  -14580475.82543 -11353476.53042  22199564.5234   22199568.4664
      2603.7504       2028.8924         54.0004         47.0004
  23748948.3634   -7351343.55643  -5718280.41842  23748947.9984   23748954.0914
       815.8064        635.6974         46.0004         41.0004
  20588170.1354  -16062631.66144 -12499799.97242  20588168.8574   20588171.6114
      -999.8594       -779.1104         57.0004         51.0004
  24144772.7874   -7843678.26943  -6089959.12442  24144771.2174   24144774.9524
      1403.3294       1093.5044         45.0004         39.0004
  22843863.4324  -14366116.61843 -11185419.56442  22843862.5384   22843865.8264
      3271.2944       2549.0594         51.0004         44.0004
  24797919.0234   -4631778.66343  -3603785.59942  24797917.9924   24797922.0584
     -2870.5614      -2236.7934         45.0004         39.0004
  21042690.2344  -19963682.52944 -15547195.82442  21042689.3134   21042692.3324
      -735.9044       -573.4304         57.0004         50.0004
  23859870.6784    3448771.79343   2701785.00342  23859869.2224   23859871.8454
     -3724.2454      -2902.0124         47.0004         41.0004
 03 10 28  0  8 30.0000000  0  8G 7G 9G11G14G20G23G28G31
  22184727.4954  -14658451.59443 -11414236.88542  22184726.9724   22184731.1454
      2595.1544       2022.2004         54.0004         48.0004
  23744353.2684   -7375491.73343  -5737097.08842  23744352.1364   23744358.4134
       794.5164        619.0954         47.0004         41.0004
  20593926.4204  -16032382.15544 -12476228.93042  20593925.1844   20593927.8074
     -1016.3144       -791.9364         57.0004         52.0004
  24136816.1034   -7885493.15343  -6122542.18342  24136815.3054   24136819.0814
      1384.9224       1079.1624         45.0004         39.0004
  22825221.5674  -14464081.46043 -11261755.79442  22825220.0354   22825224.0304
      3259.9414       2540.2284         50.0004         44.0004
  24814335.7404   -4545509.97943  -3536563.32242  24814335.4954   24814340.3174
     -2880.0534      -2244.1844         45.0004         39.0004
  21046950.3734  -19941296.24244 -15529751.96942  21046949.1494   21046952.1314
      -756.0524       -589.1344         57.0004         50.0004
  23881144.9674    3560573.42243   2788903.15242  23881143.6614   23881147.7004
     -3728.3764      -2905.2194         46.0004         41.0004
 03 10 28  0  9  0.0000000  0  8G 7G 9G11G14G20G23G28G31
  22169935.9704  -14736178.74643 -11474803.50242  22169934.3404   22169939.7444
      2586.6884       2015.5964         54.0004         47.0004
  23739878.3634   -7399003.05243  -5755417.71942  23739878.7644   23739884.1614
       773.0434        602.3554         47.0004         42.0004
  20599774.9104  -16001647.86244 -12452280.13642  20599773.7364   20599776.3324
     -1032.5514       -804.5924         57.0004         52.0004
  24128962.1564   -7926767.77743  -6154704.26442  24128960.5824   24128964.1254
      1366.7994       1065.0424         45.0004         40.0004
  22806641.4234  -14561717.33643 -11337835.67442  22806640.6924   22806643.8044
      3249.0874       2531.7624         50.0004         44.0004
  24830806.7974   -4458954.28243  -3469117.57242  24830804.9404   24830811.2444
     -2890.1444      -2252.0494         45.0004         40.0004
  21051324.2824  -19918311.71144 -15511841.94842  21051323.1134   21051325.8444
      -776.1614       -604.8054         57.0004         50.0004
  23902441.5534    3672489.13843   2876110.22642  23902440.1894   23902445.3344
     -3732.4744      -2908.4134         46.0004         40.0004
 03 10 28  0  9 30.0000000  0  8G 7G 9G11G14G20G23G28G31
  22155191.2314  -14813656.35543 -11535175.67142  22155190.7294   22155196.4404
      2578.1724       2008.9584         53.0004         47.0004
  23735526.4914   -7421876.25943  -5773240.92942  23735526.4704   23735531.4134
       751.4744        585.5724         47.0004         41.0004
  20605715.2954  -15970430.14044 -12427954.64742  20605714.3744   20605717.0144
     -1048.8704       -817.3044         57.0004         51.0004
  24121210.7124   -7967500.88843  -6186444.38142  24121209.6304   24121214.0854
      1348.1704       1050.5194         46.0004         40.0004
  22788125.3464  -14659022.15643 -11413657.59142  22788123.0884   22788128.5614
      3237.4234       2522.6754         51.0004         44.0004
  24847332.4364   -4372114.08743  -3401450.03842  24847330.4234   24847337.1504
     -2899.8214      -2259.6004         46.0004         40.0004
  21055811.5554  -19894729.91844 -15493466.52942  21055810.5234   21055813.4984
      -796.2694       -620.4694         57.0004         51.0004
  23923760.2954    3784517.09743   2963404.72542  23923757.7494   23923763.1574
     -3736.3764      -2911.4794         46.0004         40.0004
 03 10 28  0 10  0.0000000  0  8G 7G 9G11G14G20G23G28G31
  22140497.8144  -14890880.48543 -11595350.31442  22140496.1714   22140501.0094
      2569.6464       2002.3294         54.0004         48.0004
  23731296.0364   -7444108.87643  -5790565.03042  23731295.6934   23731300.5054
       730.3364        569.1064         47.0004         41.0004
  20611748.0664  -15938728.11344 -12403251.77542  20611746.9504   20611749.6964
     -1064.8814       -829.7784         57.0004         52.0004
  24113563.0044   -8007688.26643  -6217759.18942  24113562.0994   24113565.8464
      1330.2414       1036.5624         45.0004         40.0004
  22769672.4364  -14755990.69243 -11489217.45342  22769672.0784   22769675.3704
      3226.3264       2514.0214         50.0004         44.0004
  24863911.7414   -4284989.73843  -3333561.13342  24863909.1344   24863914.3984
     -2908.8814      -2266.6524         45.0004         39.0004
  21060413.1934  -19870549.05244 -15474624.30542  21060412.0044   21060414.8744
      -816.1604       -635.9634         57.0004         50.0004
  23945099.5114    3896657.89043   3050787.15942  23945098.5834   23945103.1134
     -3739.8204      -2914.1444         46.0004         40.0004
 03 10 28  0 10 30.0000000  0  8G 7G 9G11G14G20G23G28G31
  22125849.4934  -14967856.11543 -11655331.30042  22125847.6234   22125852.8144
      2561.7444       1996.1574         53.0004         48.0004
  23727185.5034   -7465706.32243  -5807394.25142  23727184.5964   23727191.1484
       709.0894        552.5314         47.0004         41.0004
  20617871.5404  -15906549.05844 -12378177.18542  20617870.3844   20617873.1174
     -1080.5804       -842.0104         57.0004         51.0004
  24106018.9044   -8047334.76843  -6248652.52742  24106017.6724   24106021.2284
      1312.5944       1022.7924         46.0004         40.0004
  22751283.5514  -14852626.40343 -11564517.98442  22751282.0244   22751286.5054
      3215.5784       2505.6494         50.0004         44.0004
  24880543.0644   -4197589.58043  -3265457.21642  24880541.2024   24880547.4714
     -2918.0204      -2273.7664         46.0004         39.0004
  21065127.0514  -19845776.01144 -15455320.64942  21065126.0344   21065129.0074
      -835.6564       -651.1554         57.0004         50.0004
  23966459.3864    4008903.69743   3138251.41542  23966457.9654   23966463.6414
     -3743.3294      -2916.8784         46.0004         40.0004
 03 10 28  0 11  0.0000000  0  8G 7G 9G11G14G20G23G28G31
  22111250.1734  -15044574.86443 -11715112.10342  22111249.0484   22111253.6564
      2553.0244       1989.3644         54.0004         48.0004
  23723198.1584   -7486660.83443  -5823722.45642  23723197.3284   23723201.8324
       687.9544        536.0764         46.0004         41.0004
  20624086.7594  -15873887.31944 -12352726.47642  20624085.7664   20624088.4964
     -1096.6424       -854.5264         57.0004         51.0004
  24098579.3724   -8086431.49143  -6279117.47442  24098577.7914   24098580.2644
      1294.1494       1008.4374         46.0004         40.0004
  22732959.8714  -14948919.67443 -11639551.68142  22732958.4944   22732961.9564
      3204.2244       2496.7964         51.0004         44.0004
  24897228.1414   -4109909.17043  -3197134.95342  24897227.6594   24897233.3934
     -2927.3404      -2281.0404         45.0004         40.0004
  21069955.7044  -19820404.31244 -15435550.50542  21069954.2864   21069957.3244
      -855.6384       -666.7304         57.0004         50.0004
  23987839.7924    4121259.74343   3225801.58542  23987837.4234   23987842.5444
     -3747.0084      -2919.7444         46.0004         40.0004
 03 10 28  0 11 30.0000000  0  8G 7G 9G11G14G20G23G28G31
  22096699.0624  -15121040.20443 -11774695.48842  22096698.1224   22096702.8304
      2544.8424       1982.9904         53.0004         48.0004
  23719333.2914   -7506976.57443  -5839552.87542  23719332.3774   23719336.5044
       666.7334        519.5424         47.0004         41.0004
  20630392.6764  -15840749.20144 -12326904.55542  20630391.5654   20630394.3044
     -1112.3154       -866.7344         57.0004         51.0004
  24091242.7924   -8124981.98843  -6309156.81142  24091241.7044   24091244.3914
      1275.9164        994.2264         45.0004         40.0004
  22714699.8244  -15044873.07143 -11714320.53242  22714698.6584   22714702.4174
      3192.9694       2488.0154         51.0004         44.0004
  24913965.8774   -4021956.19743  -3128600.36542  24913964.4914   24913969.9594
     -2936.2874      -2288.0144         45.0004         40.0004
  21074896.2204  -19794439.67144 -15415318.32842  21074895.0944   21074898.1324
      -875.1714       -681.9544         57.0004         50.0004
  24009241.2204    4233719.45343   3313432.48542  24009239.8654   24009243.8134
     -3750.1514      -2922.2174         46.0004         40.0004
 03 10 28  0 12  0.0000000  0  8G 7G 9G11G14G20G23G28G31
  22082197.9654  -15197246.98043 -11834077.41842  22082196.0774   22082200.7444
      2536.0534       1976.1444         54.0004         48.0004
  23715588.6804   -7526649.26043  -5854882.12042  23715587.9744   23715592.2684
       645.2214        502.7704         46.0004         41.0004
  20636789.7334  -15807132.19044 -12300709.47542  20636788.6824   20636791.6764
     -1128.3044       -879.1974         57.0004         51.0004
  24084011.5904   -8162980.77443  -6338766.21942  24084011.1494   24084015.1834
      1257.5994        979.9454         45.0004         40.0004
  22696507.1294  -15140479.83243 -11788819.29042  22696505.8224   22696510.2974
      3181.4204       2479.0324         51.0004         44.0004
  24930753.8084   -3933729.11943  -3059852.11142  24930752.7174   24930759.0724
     -2944.9554      -2294.7714         43.0004         38.0004
  21079950.5274  -19767879.07044 -15394621.76842  21079949.5534   21079952.1504
      -895.1214       -697.4944         57.0004         50.0004
  24030660.1744    4346285.03143   3401145.89942  24030659.2424   24030663.0554
     -3753.7774      -2925.0044         46.0004         40.0004
 03 10 28  0 12 30.0000000  0  8G 7G 9G11G14G20G23G28G31
  22067745.8284  -15273195.80943 -11893258.32142  22067743.6974   22067748.0234
      2526.8534       1968.9714         54.0004         48.0004
  23711966.6064   -7545680.76343  -5869711.85642  23711965.4384   23711972.3604
       623.0534        485.4734         47.0004         41.0004
  20643277.6074  -15773039.68244 -12274143.87442  20643276.2524   20643279.1074
     -1144.7174       -891.9894         57.0004         51.0004
  24076886.8684   -8200428.57043  -6367946.28942  24076884.9134   24076886.7694
      1238.5554        965.1094         46.0004         40.0004
  22678379.2414  -15235739.37243 -11863047.47842  22678378.1524   22678381.2224
      3169.0954       2469.4134         51.0004         44.0004
  24947595.0654   -3845232.73843  -2990893.96042  24947594.5804   24947598.6624
     -2954.5854      -2302.2674         45.0004         38.0004
  21085117.7434  -19740725.36744 -15373463.05042  21085116.7564   21085119.4454
      -915.4524       -713.3414         57.0004         50.0004
  24052101.1134    4458952.57443   3488938.78142  24052100.2784   24052104.1344
     -3757.4364      -2927.8734         46.0004         40.0004
 03 10 28  0 13  0.0000000  0  8G 7G 9G11G14G20G23G28G31
  22053342.3254  -15348883.83043 -11952236.00542  22053340.9244   22053344.9324
      2518.6644       1962.6024         54.0004         48.0004
  23708467.8524   -7564068.76743  -5884040.09142  23708466.5864   23708471.3124
       602.2544        469.2714         46.0004         41.0004
  20649855.6104  -15738471.57444 -12247207.68142  20649854.4614   20649857.2524
     -1160.0394       -903.9314         57.0004         51.0004
  24069865.6894   -8237322.17243  -6396694.50242  24069864.2724   24069867.4254
      1220.6184        951.1344         46.0004         40.0004
  22660319.6884  -15330647.78443 -11937002.06942  22660318.3034   22660320.7864
      3157.8414       2460.6554         51.0004         44.0004
  24964487.2044   -3756468.06943  -2921726.79642  24964485.4574   24964491.3584
     -2963.3324      -2309.0894         45.0004         40.0004
  21090398.1244  -19712977.63944 -15351841.45442  21090397.0744   21090399.9704
      -934.7404       -728.3754         57.0004         50.0004
  24073560.7574    4571721.95543   3576811.00242  24073559.8414   24073562.8674
     -3760.6894      -2930.4054         46.0004         40.0004
 03 10 28  0 13 30.0000000  0  8G 7G 9G11G14G20G23G28G31
  22038989.5824  -15424309.85543 -12011009.55742  22038987.4714   22038992.0084
      2509.6174       1955.5404         54.0004         48.0004
  23705090.4114   -7581813.18443  -5897866.92742  23705089.3324   23705094.8384
       580.4054        452.2444         47.0004         41.0004
  20656523.8174  -15703429.11344 -12219901.86642  20656523.0374   20656525.5244
     -1176.2114       -916.5294         57.0004         51.0004
  24062950.6234   -8273660.43843  -6425010.06942  24062950.6634   24062952.6434
      1201.5054        936.2374         47.0004         40.0004
  22642326.5954  -15425202.45443 -12010681.01642  22642324.8414   22642328.8434
      3145.6784       2451.1684         51.0004         45.0004
  24981426.4194   -3667437.72443  -2852352.77442  24981425.8044   24981433.8434
     -2972.4814      -2316.2034         42.0004         38.0004
  21095791.3154  -19684636.95344 -15329757.80242  21095790.0384   21095793.0164
      -954.7934       -744.0004         57.0004         50.0004
  24095038.3844    4684591.53543   3664761.30842  24095037.7564   24095040.2754
     -3764.2464      -2933.1864         45.0004         40.0004
 03 10 28  0 14  0.0000000  0  8G 7G 9G11G14G20G23G28G31
  22024685.6224  -15499475.13943 -12069579.88042  22024683.9544   22024689.1114
      2501.1224       1948.9164         54.0004         48.0004
  23701837.3624   -7598916.26843  -5911193.98642  23701835.9354   23701842.0894
       559.4914        435.9644         47.0004         41.0004
  20663281.7044  -15667916.23144 -12192229.49442  20663280.7094   20663283.2594
     -1191.5174       -928.4544         57.0004         51.0004
  24056140.2934   -8309444.61743  -6452893.80842  24056139.6744   24056143.2434
      1183.6454        922.3274         47.0004         41.0004
  22624400.1164  -15519403.55243 -12084084.43742  22624398.7124   22624402.8084
      3134.2314       2442.2554         51.0004         45.0004
  24998421.4184   -3578147.13543  -2782775.96142  24998419.5644   24998424.5814
     -2980.6104      -2322.5524         46.0004         39.0004
  21101296.0974  -19655706.88544 -15307214.90342  21101295.1164   21101298.2304
      -974.0784       -759.0224         57.0004         50.0004
  24116534.1404    4797556.66843   3752786.05042  24116532.8534   24116538.2254
     -3766.9794      -2935.3064         44.0004         40.0004
 03 10 28  0 14 30.0000000  0  8G 7G 9G11G14G20G23G28G31
  22010433.5084  -15574373.74443 -12127942.42142  22010431.6794   22010435.9484
      2492.0824       1941.8864         55.0004         48.0004
  23698704.8484   -7615372.88343  -5924017.27042  23698704.3284   23698710.6134
       537.6144        418.8994         47.0004         42.0004
  20670129.7424  -15631929.82544 -12164188.13742  20670128.8354   20670131.4214
     -1207.5464       -940.9424         57.0004         51.0004
  24049438.0034   -8344668.42643  -6480340.89042  24049436.8174   24049439.4774
      1164.6274        907.5144         47.0004         40.0004
  22606543.0904  -15613243.72343 -12157206.62642  22606542.0894   22606545.1704
      3121.9014       2432.6524         51.0004         45.0004
  25015462.7174   -3488594.22943  -2712994.69142  25015461.4494   25015465.1834
     -2989.4984      -2329.4734         46.0004         39.0004
  21106914.6134  -19626183.54644 -15284209.71442  21106913.3434   21106916.2814
      -994.0364       -774.5714         57.0004         50.0004
  24138050.5234    4910620.30443   3840887.53242  24138048.2784   24138052.9754
     -3770.4504      -2938.0054         44.0004         40.0004
 03 10 28  0 15  0.0000000  0  8G 7G 9G11G14G20G23G28G31
  21996231.2574  -15649005.86743 -12186097.31442  21996230.0674   21996234.0484
      2483.2314       1934.9874         54.0004         48.0004
  23695696.1574   -7631184.45243  -5936337.90242  23695695.1774   23695700.9084
       516.5184        402.4864         47.0004         42.0004
  20677067.0504  -15595472.95544 -12135780.18242  20677066.3654   20677069.0134
     -1223.0584       -953.0304         57.0004         51.0004
  24042841.3534   -8379332.21243  -6507351.63642  24042840.4304   24042843.2604
      1146.1694        893.1014         46.0004         40.0004
  22588754.7964  -15706722.05643 -12230046.86442  22588753.2434   22588757.1194
      3109.9014       2423.2944         52.0004         45.0004
  25032552.0254   -3398782.57043  -2643011.72442  25032550.7154   25032556.9234
     -2997.8854      -2335.9964         42.0004         38.0004
  21112644.8214  -19596069.53444 -15260744.25842  21112643.6584   21112646.5284
     -1013.7114       -789.9054         57.0004         50.0004
  24159583.4234    5023779.23743   3929063.26542  24159582.3594   24159585.1604
     -3773.4214      -2940.3204         45.0004         39.0004
 03 10 28  0 15 30.0000000  0  8G 7G 9G11G14G20G23G28G31
  21982079.5014  -15723370.21743 -12244043.54442  21982078.1264   21982083.0584
      2473.8434       1927.6644         54.0004         48.0004
  23692810.9344   -7646350.57043  -5948155.59242  23692810.0864   23692814.5234
       494.3044        385.1624         48.0004         42.0004
  20684094.1884  -15558547.43844 -12107007.04842  20684093.0724   20684095.7234
     -1239.0804       -965.5184         57.0004         51.0004
  24036351.8884   -8413434.60443  -6533924.89442  24036351.3434   24036354.2504
      1126.9794        878.1814         46.0004         40.0004
  22571035.5734  -15799836.38343 -12302603.45842  22571033.6764   22571037.6514
      3097.3384       2413.5054         51.0004         45.0004
  25049692.6174   -3308715.10843  -2572829.47242  25049689.0954   25049696.1914
     -3007.0814      -2343.1814         44.0004         39.0004
  21118487.6824  -19565365.95244 -15236819.40242  21118486.3454   21118489.4504
     -1033.6814       -805.4724         57.0004         50.0004
  24181135.1874    5137031.61643   4017311.82642  24181133.9344   24181138.4864
     -3777.1404      -2943.2264         45.0004         40.0004
 03 10 28  0 16  0.0000000  0  8G 7G 9G11G14G20G23G28G31
  21967980.9384  -15797463.82643 -12301778.82142  21967979.0044   21967983.6464
      2465.5034       1921.1624         54.0004         48.0004
  23690048.3244   -7660869.55343  -5959469.15442  23690045.5164   23690051.2624
       473.5074        368.9734         47.0004         41.0004
  20691209.9594  -15521152.34744 -12077868.01442  20691208.9864   20691211.4184
     -1254.1664       -977.2754         57.0004         51.0004
  24029969.3784   -8446972.59443  -6560058.36342  24029969.0594   24029972.2904
      1108.6324        863.8624         46.0004         40.0004
  22553386.1234  -15892581.91443 -12374872.68742  22553384.6434   22553388.2054
      3085.4344       2404.2414         51.0004         45.0004
  25066880.2044   -3218392.75343  -2502448.47342  25066879.1174   25066883.5444
     -3014.7424      -2349.1494         46.0004         39.0004
  21124442.7724  -19534071.90544 -15212434.45042  21124441.7064   21124444.4014
     -1052.8024       -820.3684         57.0004         50.0004
  24202703.1394    5250377.57343   4105633.27242  24202702.0524   24202708.2844
     -3779.4244      -2945.0034         44.0004         40.0004
 03 10 28  0 16 30.0000000  0  8G 7G 9G11G14G20G23G28G31
  21953931.2144  -15871287.47543 -12359303.71542  21953930.3124   21953935.0684
      2455.7854       1913.6074         54.0004         48.0004
  23687407.8554   -7674742.99943  -5970279.67242  23687406.6974   23687412.6844
       451.1814        351.5664         47.0004         41.0004
  20698414.6924  -15483291.81444 -12048366.28942  20698413.5744   20698416.0794
     -1270.2384       -989.7984         57.0004         51.0004
  24023694.8164   -8479947.00843  -6585752.66542  24023693.6534   24023697.2314
      1089.0814        848.6264         46.0004         40.0004
  22535808.2504  -15984958.75943 -12446854.62542  22535806.3854   22535810.4044
      3072.5494       2394.1784         52.0004         45.0004
  25084114.9134   -3127820.14043  -2431872.49942  25084114.3254   25084119.1364
     -3024.0224      -2356.3794         44.0004         38.0004
  21130509.4174  -19502190.40943 -15187591.73142  21130508.2594   21130511.2954
     -1073.0314       -836.1324         56.0004         50.0004
  24224289.4004    5363813.15143   4194024.61442  24224289.0774   24224292.9934
     -3783.3414      -2948.0434         44.0004         39.0004
 03 10 28  0 17  0.0000000  0  8G 7G 9G11G14G20G23G28G31
  21939936.0194  -15944838.08443 -12416615.89542  21939934.4574   21939939.1494
      2447.5454       1907.1814         55.0004         48.0004
  23684890.6474   -7687969.20743  -5980585.91442  23684890.4514   23684895.1614
       430.6024        335.5374         47.0004         41.0004
  20705707.8974  -15444965.25944 -12018501.44042  20705707.0774   20705709.4694
     -1284.9424      -1001.2484         57.0004         51.0004
  24017528.0844   -8512355.06643  -6611005.67342  24017527.0204   24017531.4454
      1071.2614        834.7664         46.0004         41.0004
  22518299.4594  -16076962.64143 -12518545.93142  22518298.7334   22518302.6924
      3060.9664       2385.1744         51.0004         45.0004
  25101397.6764   -3036998.21543  -2361102.16842  25101397.5024   25101402.3704
     -3031.0234      -2361.8394         45.0004         38.0004
  21136688.2104  -19469720.90444 -15162290.82442  21136686.9874   21136690.1714
     -1091.6674       -850.6474         57.0004         50.0004
  24245892.3904    5477338.29943   4282485.71742  24245891.6574   24245895.7904
     -3785.2784      -2949.5704         44.0004         39.0004
 03 10 28  0 17 30.0000000  0  8G 7G 9G11G14G20G23G28G31
  21925992.0274  -16018115.43343 -12473715.13242  21925990.2014   21925995.1374
      2438.1554       1899.8714         54.0004         48.0004
  23682497.3034   -7700548.96843  -5990388.44342  23682496.5954   23682499.9494
       408.7544        318.5284         47.0004         41.0004
  20713089.3074  -15406175.34944 -11988275.54042  20713088.5974   20713091.1164
     -1300.5464      -1013.4074         57.0004         51.0004
  24011468.1564   -8544196.44043  -6635817.08442  24011467.5914   24011471.4464
      1051.9914        819.7354         46.0004         41.0004
  22500863.6044  -16168591.84143 -12589945.29042  22500862.2794   22500865.8724
      3048.3214       2375.3204         52.0004         45.0004
  25118727.7944   -2945930.86243  -2290140.64842  25118726.4844   25118732.4134
     -3039.4474      -2368.3974         46.0004         39.0004
  21142978.1984  -19436665.55543 -15136533.43442  21142977.3184   21142980.3384
     -1111.4444       -866.0494         56.0004         50.0004
  24267513.0934    5590950.19543   4371014.43742  24267511.3654   24267515.3064
     -3788.4404      -2952.0304         44.0004         39.0004
 03 10 28  0 18  0.0000000  0  8G 7G 9G11G14G20G23G28G31
  21912099.8424  -16091117.88743 -12530600.16742  21912098.4944   21912103.2464
      2429.0984       1892.8014         55.0004         48.0004
  23680225.9164   -7712481.21043  -5999686.13942  23680225.2074   23680230.7264
       387.2424        301.7324         47.0004         41.0004
  20720559.0154  -15366923.09344 -11957689.37642  20720557.8384   20720560.6734
     -1315.8044      -1025.2994         57.0004         51.0004
  24005517.4694   -8575469.52943  -6660185.68542  24005516.5404   24005520.6484
      1033.2304        805.1134         46.0004         41.0004
  22483498.5794  -16259843.63843 -12661050.57142  22483496.8084   22483501.7464
      3035.6454       2365.4454         51.0004         45.0004
  25136103.8534   -2854620.15143  -2218989.44442  25136102.1104   25136107.2874
     -3047.4054      -2374.6004         45.0004         38.0004
  21149380.2854  -19403024.93144 -15110319.99542  21149378.7834   21149382.2464
     -1130.8074       -881.1554         57.0004         50.0004
  24289148.5154    5704647.50543   4459609.69642  24289147.5944   24289151.7454
     -3790.9044      -2953.9584         45.0004         40.0004
 03 10 28  0 18 30.0000000  0  8G 7G 9G11G14G20G23G28G31
  21898260.8204  -16163843.09043 -12587269.14942  21898259.0654   21898263.5504
      2419.2634       1885.1434         54.0004         48.0004
  23678078.9914   -7723765.49543  -6008479.06242  23678078.3084   23678081.3934
       365.0144        284.4364         46.0004         41.0004
  20728115.9484  -15327209.35844 -11926743.61042  20728115.1444   20728117.7314
     -1331.7024      -1037.6904         57.0004         51.0004
  23999674.8084   -8606172.35143  -6684109.92642  23999673.5724   23999677.4354
      1013.7314        789.9134         46.0004         40.0004
  22466206.6424  -16350714.74643 -12731859.20742  22466205.2614   22466208.5104
      3022.4094       2355.1244         52.0004         45.0004
  25153524.5834   -2763067.69943  -2147649.86342  25153524.1244   25153530.0714
     -3055.9724      -2381.2674         44.0004         38.0004
  21155893.1724  -19368799.40244 -15083650.77342  21155891.6834   21155895.0264
     -1150.8374       -896.7614         57.0004         50.0004
  24310800.2284    5818429.47343   4548270.93642  24310798.6874   24310804.1874
     -3794.3294      -2956.6144         44.0004         40.0004
 03 10 28  0 19  0.0000000  0  8G 7G 9G11G14G20G23G28G31
  21884474.4964  -16236288.70443 -12643720.25942  21884473.5404   21884478.0714
      2410.5624       1878.3534         55.0004         48.0004
  23676053.7944   -7734400.73243  -6016766.27342  23676052.1544   23676058.2114
       343.9234        268.0144         46.0004         41.0004
  20735761.0354  -15287034.32044 -11895438.37742  20735760.0984   20735762.6414
     -1346.4514      -1049.1854         57.0004         51.0004
  23993941.9794   -8636302.58343  -6707588.01942  23993940.6654   23993943.6304
       995.3924        775.6224         46.0004         40.0004
  22448988.1534  -16441201.62243 -12802368.44342  22448986.1674   22448990.3334
      3010.2314       2345.6204         52.0004         45.0004
  25170992.1594   -2671275.30543  -2076123.30242  25170991.4394   25170996.0164
     -3063.1944      -2386.9024         44.0004         38.0004
  21162516.7874  -19333988.93643 -15056525.76142  21162515.8474   21162519.0714
     -1169.6624       -911.4264         56.0004         50.0004
  24332467.8304    5932295.23443   4636997.45142  24332466.7534   24332470.3534
     -3796.5294      -2958.3334         43.0004         39.0004
 03 10 28  0 19 30.0000000  0  8G 7G 9G11G14G20G23G28G31
  21870742.0354  -16308454.63543 -12699953.43742  21870740.6414   21870744.9904
      2401.3774       1871.2024         55.0004         48.0004
  23674154.9844   -7744388.16143  -6024548.77542  23674153.9514   23674157.8044
       322.5784        251.3754         48.0004         41.0004
  20743493.2934  -15246400.97844 -11863776.02642  20743492.5134   20743494.9734
     -1361.5964      -1060.9844         57.0004         51.0004
  23988316.9664   -8665860.37543  -6730620.06042  23988315.8934   23988319.1874
       976.0474        760.5684         47.0004         41.0004
  22431841.9134  -16531303.00543 -12872577.28542  22431840.9084   22431844.8614
      2997.4234       2335.6424         52.0004         46.0004
  25188505.0654   -2579246.62143  -2004412.66142  25188502.1634   25188508.3944
     -3071.0174      -2392.9994         42.0004         38.0004
  21169252.2724  -19298595.70244 -15028946.63142  21169251.0754   21169254.4024
     -1189.0184       -926.5094         57.0004         50.0004
  24354152.5194    6046242.08343   4725787.17242  24354151.7664   24354154.6434
     -3798.8394      -2960.1344         44.0004         38.0004
 03 10 28  0 20  0.0000000  0  8G 7G 9G11G14G20G23G28G31
  21857062.4484  -16380340.55943 -12755968.43142  21857061.1954   21857065.8934
      2391.0974       1863.1914         55.0004         49.0004
  23672377.1214   -7753728.35643  -6031826.82042  23672376.5954   23672381.8124
       300.3544        234.0584         47.0004         41.0004
  20751312.4524  -15205311.73944 -11831758.42942  20751311.2564   20751313.9904
     -1377.5844      -1073.4394         57.0004         51.0004
  23982800.8374   -8694845.43843  -6753205.81442  23982801.0314   23982803.2724
       955.9904        744.9214         46.0004         41.0004
  22414770.1924  -16621017.30243 -12942484.51342  22414768.5104   22414772.3274
      2983.7154       2324.9694         52.0004         46.0004
  25206061.8724   -2486985.49043  -1932520.99742  25206060.5564   25206067.6034
     -3079.3754      -2399.5024         43.0004         38.0004
  21176097.8694  -19262622.11243 -15000915.26142  21176096.6894   21176099.8174
     -1209.1464       -942.2004         56.0004         50.0004
  24375850.4994    6160267.19743   4814637.87342  24375848.9624   24375853.4764
     -3802.6094      -2963.0704         45.0004         39.0004
 03 10 28  0 20 30.0000000  0  8G 7G 9G11G14G20G23G28G31
  21843437.5734  -16451942.80543 -12811762.37842  21843435.6574   21843439.9354
      2381.8964       1856.0294         55.0004         49.0004
  23670722.9044   -7762419.18143  -6038598.90742  23670723.1994   23670727.8854
       278.6704        217.1524         47.0004         41.0004
  20759218.5464  -15163765.53944 -11799384.75942  20759217.3084   20759219.8824
     -1392.5904      -1085.1374         57.0004         51.0004
  23977394.3524   -8723254.51543  -6775342.72842  23977393.5484   23977398.9414
       937.1034        730.2174         46.0004         41.0004
  22397772.4514  -16710339.83743 -13012086.46942  22397771.3604   22397775.3524
      2970.6874       2314.8054         52.0004         46.0004
  25223662.8684   -2394491.75743  -1860447.95242  25223661.7014   25223667.5094
     -3087.0974      -2405.5324         44.0004         39.0004
  21183054.5134  -19226066.74944 -14972430.57242  21183053.0994   21183056.2974
     -1228.2754       -957.0964         57.0004         50.0004
  24397564.5094    6274371.06943   4903549.95642  24397562.1944   24397566.6744
     -3804.8074      -2964.7894         45.0004         40.0004
 03 10 28  0 21  0.0000000  0  8G 7G 9G11G14G20G23G28G31
  21829864.9824  -16523261.66343 -12867335.48642  21829863.6604   21829869.2144
      2371.8154       1848.1694         55.0004         49.0004
  23669193.0314   -7770462.26743  -6044866.23042  23669191.8554   23669196.9604
       256.6544        199.9874         48.0004         42.0004
  20767210.5804  -15121765.76444 -11766657.64842  20767209.4324   20767212.1414
     -1408.1864      -1097.2914         57.0004         51.0004
  23972099.0594   -8751088.18943  -6797031.30242  23972097.5144   23972101.1724
       917.6064        715.0094         46.0004         41.0004
  22380849.0154  -16799269.83543 -13081382.54942  22380848.1234   22380851.8024
      2957.1354       2304.2594         52.0004         46.0004
  25241307.0004   -2301770.01843  -1788197.26342  25241305.5214   25241312.8074
     -3095.4254      -2412.0184         44.0004         38.0004
  21190120.7074  -19188932.52243 -14943494.82142  21190119.3924   21190122.9734
     -1248.0754       -972.5264         56.0004         50.0004
  24419289.5394    6388550.47643   4992520.87942  24419287.9254   24419294.4504
     -3807.6534      -2966.9964         43.0004         39.0004
 03 10 28  0 21 30.0000000  0  8G 7G 9G11G14G20G23G28G31
  21816349.1384  -16594291.57543 -12922683.45742  21816347.9304   21816352.1944
      2362.8394       1841.1744         55.0004         49.0004
  23667786.1874   -7777853.29243  -6050625.40842  23667785.9294   23667790.8864
       235.4614        183.4654         47.0004         41.0004
  20775289.5354  -15079309.80044 -11733575.07142  20775288.7334   20775291.2584
     -1422.8284      -1108.7024         57.0004         51.0004
  23966912.2244   -8778340.77643  -6818267.05942  23966911.6764   23966915.0064
       898.7164        700.3134         46.0004         41.0004
  22364002.9444  -16887800.65143 -13150367.58842  22364001.7114   22364005.0694
      2944.2034       2294.1934         52.0004         46.0004
  25258995.5884   -2208818.30743  -1715767.39942  25258994.7354   25258999.0614
     -3101.8564      -2417.0304         42.0004         38.0004
  21197297.7704  -19151216.48243 -14914105.70042  21197296.7134   21197299.6164
     -1266.9154       -987.2094         56.0004         50.0004
  24441033.9034    6502808.08243   5081552.70742  24441032.5074   24441038.2394
     -3809.8644      -2968.7304         44.0004         39.0004
 03 10 28  0 22  0.0000000  0  8G 7G 9G11G14G20G23G28G31
  21802886.9904  -16665034.80643 -12977808.06442  21802885.5924   21802890.2674
      2353.0234       1833.5204         55.0004         49.0004
  23666502.6404   -7784595.93943  -6055879.40542  23666502.0914   23666506.9054
       213.5594        166.4094         46.0004         41.0004
  20783454.9204  -15036402.50544 -11700140.80942  20783453.6314   20783456.3314
     -1438.0364      -1120.5524         57.0004         51.0004
  23961836.5484   -8805015.10943  -6839052.25542  23961835.5374   23961838.9714
       879.0114        684.9584         47.0004         41.0004
  22347230.9144  -16975933.34243 -13219042.38942  22347229.4944   22347234.4124
      2930.7734       2283.7144         52.0004         46.0004
  25276726.0584   -2115642.75243  -1643163.09242  25276725.0584   25276730.3174
     -3110.1764      -2423.5184         43.0004         38.0004
  21204584.6854  -19112923.59443 -14884267.09742  21204583.4324   21204586.4494
     -1286.3854      -1002.3714         56.0004         50.0004
  24462790.3904    6617138.35343   5170641.22142  24462789.9394   24462793.0504
     -3812.6254      -2970.8814         44.0004         39.0004
 03 10 28  0 22 30.0000000  0  8G 7G 9G11G14G20G23G28G31
  21789479.6864  -16735489.49743 -13032707.82242  21789478.1144   21789483.3384
      2343.8004       1826.3344         55.0004         49.0004
  23665343.1294   -7790689.77843  -6060627.75442  23665342.1294   23665347.2164
       192.5934        150.0624         47.0004         41.0004
  20791705.2504  -14993045.04444 -11666355.76942  20791704.4434   20791706.9594
     -1452.5494      -1131.8524         57.0004         51.0004
  23956870.2504   -8831109.53443  -6859385.60742  23956869.4124   23956872.5944
       860.3844        670.4124         47.0004         40.0004
  22330537.0264  -17063664.83443 -13287404.57242  22330535.7444   22330539.0244
      2917.8604       2273.6584         53.0004         46.0004
  25294498.6614   -2022245.98143  -1570386.53242  25294498.4874   25294504.8524
     -3116.6974      -2428.5874         44.0004         39.0004
  21211981.3814  -19074054.29843 -14853979.35642  21211979.8734   21211983.0614
     -1305.1134      -1016.9664         56.0004         50.0004
  24484560.1454    6731540.16043   5259785.45642  24484558.2194   24484563.2244
     -3814.2454      -2972.1334         44.0004         39.0004
 03 10 28  0 23  0.0000000  0  8G 7G 9G11G14G20G23G28G31
  21776128.7644  -16805651.01343 -13087379.14342  21776127.2084   21776131.4744
      2334.3024       1818.9514         55.0004         49.0004
  23664307.2814   -7796132.01843  -6064868.43042  23664306.8504   23664312.2364
       171.0314        133.2764         47.0004         41.0004
  20800041.9634  -14949235.81644 -11632218.69142  20800041.0294   20800043.5874
     -1467.4274      -1143.4474         57.0004         51.0004
  23952016.6164   -8856619.69243  -6879263.64242  23952014.9884   23952017.5774
       841.0634        655.3814         47.0004         40.0004
  22313918.8574  -17150989.65843 -13355449.87442  22313917.8794   22313921.8234
      2904.5084       2263.2504         52.0004         46.0004
  25312314.3524   -1928626.96443  -1497436.83342  25312313.2654   25312318.8224
     -3123.9274      -2434.2244         44.0004         39.0004
  21219487.9014  -19034606.89243 -14823241.15642  21219486.6654   21219489.9984
     -1324.1634      -1031.8154         56.0004         50.0004
  24506344.9444    6846015.04343   5348986.62842  24506344.1044   24506346.9514
     -3816.9354      -2974.2434         43.0004         38.0004
 03 10 28  0 23 30.0000000  0  8G 7G 9G11G14G20G23G28G31
  21762832.7464  -16875521.18543 -13141823.45542  21762831.3094   21762835.8654
      2324.0214       1810.9244         55.0004         49.0004
  23663395.4504   -7800925.81943  -6068603.87642  23663394.6654   23663399.7004
       148.8284        115.9804         47.0004         41.0004
  20808463.7344  -14904979.66644 -11597733.36942  20808462.6294   20808465.3524
     -1482.7624      -1155.4024         57.0004         51.0004
  23947273.1094   -8881547.87143  -6898688.15342  23947272.2914   23947275.0974
       821.1384        639.8574         46.0004         40.0004
  22297379.5374  -17237908.50743 -13423178.82542  22297378.0704   22297381.6364
      2890.3924       2252.2644         53.0004         46.0004
  25330170.2384   -1834791.20343  -1424318.20742  25330169.9984   25330175.3144
     -3131.5024      -2440.1374         43.0004         38.0004
  21227103.8354  -18994585.46443 -14792055.65642  21227102.3644   21227105.5334
     -1343.6434      -1046.9944         56.0004         50.0004
  24528141.2964    6960558.25543   5438241.00342  24528140.8154   24528144.8624
     -3819.2874      -2976.0674         43.0004         38.0004
 03 10 28  0 24  0.0000000  0  8G 7G 9G11G14G20G23G28G31
  21749592.4434  -16945098.84843 -13196039.79942  21749591.1834   21749596.1484
      2314.5564       1803.5574         55.0004         49.0004
  23662606.2534   -7805071.29843  -6071834.06842  23662605.4944   23662611.8104
       127.5374         99.3754         47.0004         42.0004
  20816970.1184  -14860278.44244 -11562901.24042  20816969.0724   20816971.6274
     -1497.2734      -1166.7074         57.0004         51.0004
  23942640.9534   -8905893.47843  -6917658.73442  23942639.0714   23942641.9174
       801.9024        624.8694         47.0004         40.0004
  22280917.1394  -17324419.10943 -13490589.67842  22280915.3514   22280919.2374
      2876.9984       2241.8294         53.0004         46.0004
  25348068.1164   -1740741.54643  -1351032.84842  25348066.9844   25348072.0394
     -3138.4894      -2445.5814         43.0004         38.0004
  21234828.5924  -18953991.73043 -14760424.18642  21234827.2334   21234830.3154
     -1362.5714      -1061.7434         56.0004         50.0004
  24549949.9894    7075167.78043   5527547.09342  24549948.1324   24549951.2354
     -3821.0584      -2977.4404         44.0004         38.0004
 03 10 28  0 24 30.0000000  0  8G 7G 9G11G14G20G23G28G31
  21736408.3184  -17014380.55543 -13250025.57742  21736406.8484   21736412.1044
      2304.1854       1795.4744         55.0004         49.0004
  23661942.3944   -7808566.55743  -6074557.66442  23661941.6624   23661945.4274
       105.4294         82.1514         48.0004         42.0004
  20825561.3124  -14815131.18444 -11527721.56542  20825560.3814   20825562.8324
     -1512.5334      -1178.5954         57.0004         51.0004
  23938118.7594   -8929653.11843  -6936172.72642  23938117.3814   23938119.7294
       782.2544        609.5434         46.0004         40.0004
  22264532.8354  -17410516.94943 -13557678.89842  22264531.4114   22264534.2494
      2862.7414       2230.6904         53.0004         46.0004
  25366005.5864   -1646478.47243  -1277581.16042  25366004.4594   25366010.4284
     -3145.6344      -2451.1434         44.0004         38.0004
  21242662.2434  -18912824.67543 -14728345.96542  21242660.9934   21242664.2604
     -1382.0344      -1076.9074         56.0004         50.0004
  24571774.7364    7189844.20843   5616905.34242  24571772.8594   24571774.2304
     -3824.1674      -2979.8784         44.0004         38.0004
 03 10 28  0 25  0.0000000  0  8G 7G 9G11G14G20G23G28G31
  21723280.5144  -17083366.32743 -13303780.72942  21723279.0564   21723284.4774
      2294.4744       1787.8984         55.0004         49.0004
  23661400.3334   -7811413.38443  -6076775.91342  23661398.5514   23661403.4074
        84.1684         65.5794         48.0004         41.0004
  20834237.1404  -14769540.98744 -11492196.73842  20834235.7634   20834238.2574
     -1527.0274      -1189.8874         57.0004         51.0004
  23933707.5574   -8952827.46143  -6954230.61242  23933707.5564   23933711.5484
       762.7504        594.3564         46.0004         40.0004
  22248227.4964  -17496201.09443 -13624445.75042  22248227.0104   22248229.9894
      2849.2214       2220.1654         53.0004         46.0004
  25383982.9844   -1552006.37343  -1203966.68842  25383981.9154   25383987.7544
     -3152.9554      -2456.8464         43.0004         38.0004
  21250604.6054  -18871087.30343 -14695823.33742  21250603.3744   21250606.3084
     -1400.7464      -1091.4884         56.0004         50.0004
  24593605.8054    7304584.22343   5706313.14642  24593604.4224   24593609.4014
     -3825.5994      -2980.9784         43.0004         38.0004
 03 10 28  0 25 30.0000000  0  8G 7G 9G11G14G20G23G28G31
  21710210.7314  -17152051.43243 -13357301.56942  21710209.4634   21710213.9134
      2284.3724       1780.0344         55.0004         49.0004
  23660982.8964   -7813608.53743  -6078486.38542  23660981.7214   23660987.0184
        62.2534         48.5124         48.0004         41.0004
  20842996.6064  -14723506.14744 -11456325.44242  20842996.0684   20842998.4994
     -1541.9764      -1201.5424         57.0004         51.0004
  23929410.8034   -8975412.08943  -6971828.98142  23929409.3844   23929412.2714
       742.7794        578.8004         46.0004         41.0004
  22232002.0664  -17581465.67843 -13690885.66342  22232001.1334   22232005.5424
      2835.0334       2209.1214         53.0004         46.0004
  25402001.3114   -1457324.42443  -1130188.87342  25401999.6674   25402004.6694
     -3159.4054      -2461.8704         43.0004         38.0004
  21258655.9634  -18828777.42243 -14662854.61542  21258654.8574   21258658.1564
     -1419.9794      -1106.4734         56.0004         50.0004
  24615454.4834    7419389.73343   5795771.90642  24615452.8904   24615455.6184
     -3828.3124      -2983.0964         43.0004         38.0004
 03 10 28  0 26  0.0000000  0  8G 7G 9G11G14G20G23G28G31
  21697197.7314  -17220435.75943 -13410588.06542  21697196.1844   21697201.0804
      2274.5524       1772.3804         55.0004         49.0004
  23660687.2434   -7815153.66643  -6079690.34342  23660687.3564   23660692.4054
        40.8884         31.8684         46.0004         41.0004
  20851841.4674  -14677029.58044 -11420109.93942  20851840.3454   20851842.7584
     -1556.4564      -1212.8254         57.0004         51.0004
  23925226.0024   -8997407.52043  -6988968.24842  23925224.2534   23925227.7224
       723.4904        563.7524         47.0004         41.0004
  22215856.7814  -17666309.81043 -13756997.94942  22215855.5644   22215858.9694
      2821.2954       2198.4084         53.0004         46.0004
  25420057.1634   -1362435.89743  -1056249.92542  25420056.6674   25420062.4404
     -3166.0404      -2467.0364         42.0004         37.0004
  21266815.6414  -18785897.76343 -14629441.91342  21266814.4524   21266817.7874
     -1438.6234      -1121.0074         56.0004         50.0004
  24637313.5494    7534257.71043   5885279.36442  24637312.8934   24637317.0034
     -3830.0194      -2984.4284         44.0004         39.0004
 03 10 28  0 26 30.0000000  0  8G 7G 9G11G14G20G23G28G31
  21684240.8954  -17288520.99843 -13463641.49342  21684239.7844   21684244.7664
      2264.6374       1764.6474         55.0004         49.0004
  23660517.2274   -7816051.90843  -6080390.22242  23660514.7214   23660521.6214
        19.2684         15.0034         47.0004         41.0004
  20860769.1294  -14630115.61444 -11383553.59842  20860767.6254   20860769.9664
     -1571.0344      -1224.1944         57.0004         51.0004
  23921152.0094   -9018816.01943  -7005650.20742  23921150.4794   23921154.5024
       703.6934        548.3294         47.0004         41.0004
  22199791.8664  -17750734.06243 -13822783.05742  22199789.7334   22199794.2054
      2807.0984       2187.3364         53.0004         46.0004
  25438152.7034   -1267346.45143   -982154.31742  25438149.8344   25438158.1514
     -3172.8164      -2472.3154         44.0004         38.0004
  21275083.0174  -18742452.97843 -14595588.87242  21275081.7694   21275084.9854
     -1457.5534      -1135.7584         56.0004         50.0004
  24659182.8654    7649183.49443   5974831.88242  24659181.2134   24659185.9954
     -3831.9674      -2985.9464         44.0004         39.0004
 03 10 28  0 27  0.0000000  0  8G 7G 9G11G14G20G23G28G31
  21671342.9944  -17356302.59243 -13516458.32542  21671341.4954   21671346.4004
      2254.3544       1756.6374         55.0004         49.0004
  23660469.6434   -7816300.85043  -6080584.23742  23660468.4924   23660473.9464
        -2.3574         -1.8534         47.0004         42.0004
  20869779.7484  -14582762.83944 -11346655.32942  20869778.3594   20869781.1684
     -1585.6024      -1235.5394         57.0004         51.0004
  23917189.7554   -9039633.18943  -7021871.32542  23917189.3954   23917193.1574
       684.0684        533.0364         46.0004         41.0004
  22183807.3554  -17834732.72543 -13888236.54242  22183805.4464   22183809.5874
      2793.0584       2176.4034         53.0004         46.0004
  25456285.3954   -1172055.54443   -907901.75842  25456284.1884   25456291.5094
     -3179.6234      -2477.6254         43.0004         37.0004
  21283458.4454  -18698440.91343 -14561293.77942  21283457.1214   21283460.3244
     -1476.3804      -1150.4254         56.0004         50.0004
  24681063.8274    7764168.64943   6064430.64442  24681063.0834   24681066.2214
     -3833.7344      -2987.3154         43.0004         38.0004
 03 10 28  0 27 30.0000000  0  8G 7G 9G11G14G20G23G28G31
  21658502.8354  -17423778.03843 -13569036.60842  21658501.4574   21658506.3204
      2244.1084       1748.6484         55.0004         49.0004
  23660547.6864   -7815899.25943  -6080271.23142  23660546.6364   23660550.8784
       -24.1874        -18.8614         48.0004         42.0004
  20878873.8424  -14534971.62844 -11309415.42442  20878872.7664   20878875.5154
     -1600.3254      -1247.0064         57.0004         51.0004
  23913342.1734   -9059857.59043  -7037630.56142  23913340.5404   23913343.5034
       664.2374        517.5764         46.0004         41.0004
  22167904.1694  -17918302.39443 -13953355.74642  22167902.8154   22167906.5324
      2778.4504       2165.0164         53.0004         46.0004
  25474457.6834   -1076564.71943   -833493.40442  25474456.9094   25474463.0264
     -3186.5484      -2483.0104         40.0004         35.0004
  21291941.1754  -18653861.92443 -14526556.90442  21291940.1324   21291943.3054
     -1495.4074      -1165.2504         56.0004         50.0004
  24702955.5634    7879212.66743   6154075.28242  24702955.2104   24702958.3674
     -3835.7574      -2988.9004         43.0004         37.0004
 03 10 28  0 28  0.0000000  0  8G 7G 9G11G14G20G23G28G31
  21645721.6344  -17490944.18543 -13621373.87042  21645720.2724   21645724.9314
      2233.5294       1740.4074         55.0004         49.0004
  23660746.7064   -7814845.77543  -6079450.25842  23660745.3334   23660750.9054
       -45.9884        -35.8354         47.0004         42.0004
  20888051.6264  -14486741.94544 -11271833.84942  20888050.5664   20888053.2384
     -1615.0404      -1258.4764         57.0004         51.0004
  23909606.9214   -9079486.39143  -7052925.71642  23909605.5264   23909608.6634
       644.4134        502.1414         47.0004         41.0004
  22152083.6284  -18001438.87743 -14018137.40342  22152082.8414   22152086.2784
      2763.9764       2153.7354         53.0004         47.0004
                                 -13034930.08842                  25492675.5574
                     -2488.1684                         32.0004
  21300532.3034  -18608715.96543 -14491378.24942  21300531.1184   21300534.3704
     -1514.3774      -1180.0394         56.0004         50.0004
  24724860.0634    7994315.55543   6243765.83442  24724857.7464   24724861.7464
     -3837.9304      -2990.5874         43.0004         38.0004
 03 10 28  0 28 30.0000000  0  7G 7G 9G11G14G20G28G31
  21632998.3694  -17557805.64543 -13673473.70042  21632997.1094   21633001.6904
      2223.5054       1732.6054         55.0004         49.0004
  23661069.8804   -7813146.82943  -6078126.31942  23661068.7944   23661074.4004
       -67.3424        -52.4934         48.0004         42.0004
  20897311.5854  -14438081.27344 -11233916.44042  20897310.4844   20897312.8694
     -1629.2954      -1269.5794         57.0004         51.0004
  23905983.8994   -9098524.68043  -7067760.68842  23905982.3724   23905986.3884
       624.5354        486.6454         48.0004         41.0004
  22136345.3604  -18084145.97543 -14082584.48342  22136343.6594   22136348.0844
      2749.7134       2142.6304         53.0004         47.0004
  21309229.6804  -18563010.21643 -14455763.38942  21309228.3704   21309231.8134
     -1532.9474      -1194.4974         56.0004         50.0004
  24746774.3004    8109469.73643   6333496.31442  24746773.6074   24746775.8504
     -3839.3744      -2991.7244         45.0004         39.0004
 03 10 28  0 29  0.0000000  0  7G 7G 9G11G14G20G28G31
  21620332.9244  -17624359.65143 -13725333.94542  21620331.5994   21620336.8344
      2213.6354       1724.9114         55.0004         49.0004
  23661516.0654   -7810801.34643  -6076298.53142  23661514.9834   23661520.1714
       -88.7024        -69.1234         47.0004         42.0004
  20906653.1084  -14388989.98044 -11195663.48442  20906652.1344   20906654.6214
     -1643.2794      -1280.4784         57.0004         51.0004
  23902474.0924   -9116970.52243  -7082134.09642  23902473.4484   23902475.6204
       605.1594        471.5474         48.0004         41.0004
  22120689.3734  -18166419.72843 -14146693.89042  22120687.8864   22120691.8414
      2735.4904       2131.5424         53.0004         47.0004
  21318033.8054  -18516744.84843 -14419712.46542  21318032.6944   21318035.9144
     -1551.3004      -1208.8104         56.0004         50.0004
  24768696.0234    8224674.82143   6423266.48042  24768691.5474   24768696.2974
     -3840.4274      -2992.5384         43.0004         38.0004
 03 10 28  0 29 30.0000000  0  7G 7G 9G11G14G20G28G31
  21607727.6864  -17690600.89943 -13776950.48642  21607726.4894   21607731.7284
      2202.7694       1716.4414         55.0004         49.0004
  23662086.6614   -7807806.32743  -6073964.77742  23662086.1954   23662089.8544
      -110.6164        -86.1924         47.0004         42.0004
  20916077.6144  -14339465.71544 -11157073.15142  20916076.6534   20916078.9984
     -1658.0244      -1291.9704         57.0004         51.0004
  23899076.4694   -9134819.16843  -7096042.12942  23899077.3614   23899079.4594
       585.0694        455.9054         47.0004         41.0004
  22105116.8094  -18248253.96143 -14210460.82242  22105115.5784   22105119.1054
      2720.5004       2119.8554         53.0004         47.0004
  21326945.0644  -18469917.43343 -14383223.60042  21326943.8114   21326946.8774
     -1570.3014      -1223.6094         56.0004         50.0004
  24790630.1094    8339933.35043   6513078.26542  24790631.2364   24790634.5204
     -3842.9984      -2994.5544         45.0004         38.0004
 03 10 28  0 30  0.0000000  0  7G 7G 9G11G14G20G28G31
  21595182.7404  -17756529.82343 -13828323.68742  21595180.7544   21595185.5904
      2192.2464       1708.2534         56.0004         49.0004
  23662779.8544   -7804163.34343  -6071126.00842  23662777.5254   23662783.4184
      -132.3734       -103.1574         48.0004         42.0004
  20925583.4744  -14289511.67844 -11118147.92942  20925582.3324   20925585.0874
     -1672.3744      -1303.1524         57.0004         51.0004
  23895793.6304   -9152071.66243  -7109485.66342  23895791.4884   23895796.6044
       565.1454        440.3734         46.0004         40.0004
  22089628.0124  -18329648.23043 -14273884.92742  22089626.5834   22089630.8774
      2705.5934       2108.2564         53.0004         47.0004
  21335962.1114  -18422531.20743 -14346299.28342  21335960.7404   21335964.1624
     -1588.9164      -1238.1124         56.0004         49.0004
  24812569.5624    8455241.95743   6602929.07942  24812565.7954   24812570.7424
     -3844.7454      -2995.9014         42.0004         38.0004
 03 10 28  0 30 30.0000000  0  7G 7G 9G11G14G20G28G31
  21582696.6074  -17822142.15343 -13879450.17442  21582695.3404   21582700.0564
      2181.2284       1699.6634         55.0004         49.0004
  23663596.3554   -7799870.61243  -6067781.02442  23663595.2034   23663601.8584
      -154.3964       -120.3084         48.0004         42.0004
  20935171.0754  -14239126.84544 -11078887.02242  20935170.2984   20935173.0294
     -1687.2194      -1314.7154         57.0004         51.0004
  23892623.7204   -9168724.53143  -7122461.96542  23892623.2294   23892627.1934
       544.6154        424.3934         45.0004         40.0004
  22074223.6594  -18410597.31043 -14336962.11642  22074222.2534   22074226.2314
      2690.3184       2096.3434         53.0004         47.0004
  21345085.8574  -18374584.85543 -14308938.49642  21345084.8234   21345087.9164
     -1608.0244      -1252.9974         56.0004         49.0004
  24834524.5714    8570601.51443   6692819.64342  24834525.0044   24834527.5614
     -3846.6554      -2997.4024         44.0004         38.0004
 03 10 28  0 31  0.0000000  0  7G 7G 9G11G14G20G28G31
  21570270.7414  -17887443.47343 -13930334.34142  21570269.0374   21570273.8254
      2171.6934       1692.2224         56.0004         49.0004
  23664535.0144   -7794935.42343  -6063935.50142  23664533.7354   23664537.7654
      -174.9394       -136.3614         47.0004         41.0004
  20944839.3594  -14188319.73444 -11039297.06342  20944838.5184   20944841.1734
     -1700.3814      -1324.9814         57.0004         51.0004
  23889569.6214   -9184784.06743  -7134975.95442  23889567.1824   23889571.3394
       525.6304        409.5854         46.0004         41.0004
  22058903.8354  -18491105.80443 -14399696.00342  22058902.0084   22058905.9484
      2676.4924       2085.5744         53.0004         47.0004
  21354315.1024  -18326086.93943 -14271147.91342  21354313.6844   21354317.0794
     -1625.5704      -1266.6794         56.0004         49.0004
  24856480.6214    8686003.75743   6782743.43542  24856478.5824   24856486.6734
     -3847.2874      -2997.8874         42.0004         38.0004
 03 10 28  0 31 30.0000000  0  7G 7G 9G11G14G20G28G31
  21557904.9804  -17952424.61343 -13980969.01042  21557903.7264   21557908.3024
      2161.1674       1684.0324         55.0004         49.0004
  23665598.1094   -7789350.53543  -6059583.68642  23665597.1434   23665602.8694
      -196.5084       -153.1274         47.0004         42.0004
  20954589.1824  -14137084.41444 -10999373.43642  20954588.3004   20954590.6994
     -1714.5664      -1336.0274         57.0004         51.0004
  23886626.1294   -9200241.65843  -7147020.84542  23886626.6124   23886631.0674
       505.4744        393.8834         46.0004         41.0004
  22043669.1884  -18571163.79243 -14462078.83642  22043667.8544   22043671.5944
      2661.4134       2073.8144         54.0004         47.0004
  21363650.0584  -18277031.26343 -14232922.71442  21363648.6524   21363652.1954
     -1644.1604      -1281.1594         56.0004         49.0004
  24878454.4204    8801454.59243   6872705.04442  24878452.4624   24878455.6854
     -3848.5164      -2998.8384         42.0004         38.0004
 03 10 28  0 32  0.0000000  0  7G 7G 9G11G14G20G28G31
  21545599.7224  -18017088.35143 -14031356.33642  21545598.2144   21545602.8554
      2150.0994       1675.3984         56.0004         49.0004
  23666784.0764   -7783120.86943  -6054729.53442  23666783.0044   23666788.4074
      -218.5514       -170.2964         48.0004         42.0004
  20964419.6474  -14085426.52044 -10959120.52942  20964418.2794   20964420.9194
     -1729.0154      -1347.2894         57.0004         51.0004
  23883798.9804   -9215101.05443  -7158599.65942  23883798.5304   23883801.6674
       485.0284        377.9614         46.0004         41.0004
  22028520.2064  -18650773.06043 -14524112.01242  22028518.7064   22028522.3644
      2646.0984       2061.9074         54.0004         47.0004
  21373090.0864  -18227423.52543 -14194267.33942  21373088.8284   21373091.7434
     -1662.8264      -1295.7084         56.0004         49.0004
  24900430.7084    8916948.45243   6962700.16642  24900430.5194   24900433.0254
     -3850.8174      -3000.6434         43.0004         37.0004
 03 10 28  0 32 30.0000000  0  7G 7G 9G11G14G20G28G31
  21533355.5274  -18081433.43643 -14081495.35342  21533354.1114   21533358.3494
      2139.1244       1666.8484         56.0004         50.0004
  23668092.0324   -7776246.60643  -6049372.96842  23668091.3014   23668097.4774
      -240.2324       -187.1944         48.0004         42.0004
  20974329.5584  -14033347.84044 -10918539.74142  20974328.7504   20974331.3354
     -1743.3334      -1358.4524         57.0004         51.0004
  23881086.6024   -9229361.52043  -7169711.69042  23881084.7544   23881088.4504
       465.1574        362.4734         46.0004         40.0004
  22013456.7434  -18729931.42543 -14585793.85442  22013455.0224   22013459.1644
      2630.7374       2049.9284         54.0004         47.0004
  21382635.1574  -18177265.50843 -14155183.17242  21382633.7524   21382636.9104
     -1681.4624      -1310.2204         56.0004         49.0004
  24922416.8144    9032483.46043   7052727.43142  24922413.2254   24922418.0244
     -3852.2324      -3001.7414         42.0004         37.0004
 03 10 28  0 33  0.0000000  0  7G 7G 9G11G14G20G28G31
  21521171.8404  -18145456.45943 -14131383.42842  21521170.3554   21521175.2764
      2129.1434       1659.0694         56.0004         50.0004
  23669523.9144   -7768726.29943  -6043512.81142  23669523.3654   23669525.8224
      -260.9344       -203.3284         48.0004         42.0004
  20984320.4004  -13980847.79244 -10877630.61442  20984319.3244   20984321.8064
     -1756.6144      -1368.7964         57.0004         51.0004
  23878486.4104   -9243020.53643  -7180355.08742  23878486.0984   23878488.5614
       445.6484        347.2374         46.0004         40.0004
  21998479.8654  -18808634.46643 -14647120.89142  21998478.4774   21998482.7404
      2616.2404       2038.6274         54.0004         47.0004
  21392284.6104  -18126556.69743 -14115669.82442  21392283.1644   21392286.3714
     -1699.0654      -1323.9414         56.0004         49.0004
  24944411.0074    9148060.13043   7142787.16442  24944411.8334   24944414.8044
     -3853.0194      -3002.3484         44.0004         37.0004
 03 10 28  0 33 30.0000000  0  7G 7G 9G11G14G20G28G31
  21509050.3344  -18209155.40043 -14181018.98042  21509049.0544   21509054.0914
      2118.3344       1650.6474         56.0004         50.0004
  23671076.7674   -7760560.85943  -6037150.14142  23671075.6204   23671079.5354
      -282.3634       -220.0164         48.0004         42.0004
  20994390.6384  -13927927.44444 -10836393.98142  20994389.4734   20994392.1794
     -1770.3874      -1379.5244         57.0004         51.0004
  23876002.0514   -9256077.26343  -7190529.22842  23876000.8454   23876004.2224
       425.6664        331.7024         46.0004         41.0004
  21983590.3454  -18886879.42643 -14708090.95742  21983589.0524   21983592.9714
      2601.0344       2026.7864         54.0004         47.0004
  21402038.7994  -18075298.30043 -14075728.22442  21402037.5104   21402040.4274
     -1717.2814      -1338.1434         56.0004         49.0004
  24966407.1494    9263677.46343   7232878.56242  24966404.3604   24966412.8204
     -3853.2984      -3002.5724         39.0004         36.0004
 03 10 28  0 34  0.0000000  0  7G 7G 9G11G14G20G28G31
  21496990.5404  -18272529.49543 -14230401.40542  21496989.3234   21496994.4534
      2106.9834       1641.8024         56.0004         50.0004
  23672753.3324   -7751751.17543  -6030285.51142  23672752.8604   23672758.3244
      -304.4474       -237.2454         48.0004         42.0004
  21004540.4324  -13874589.22644 -10794831.73242  21004539.5984   21004541.8724
     -1784.9934      -1390.9064         57.0004         50.0004
  23873632.2124   -9268531.53943  -7200234.00442  23873630.5184   23873635.5064
       404.9154        315.5224         46.0004         40.0004
  21968788.3694  -18964664.74943 -14768702.87542  21968786.7794   21968790.6704
      2585.0634       2014.3414         54.0004         47.0004
  21411896.8184  -18023492.46743 -14035360.03442  21411895.4864   21411898.4924
     -1736.1464      -1352.8404         56.0004         49.0004
  24988420.7344    9379333.26243   7322999.86042  24988421.7054   24988422.2824
     -3855.7234      -3004.4644         43.0004         37.0004
 03 10 28  0 34 30.0000000  0  8G 4G 7G 9G11G14G20G28G31
  25060165.9874   -2262348.07543  -1737553.29242  25060164.9504   25060171.2554
      3793.3174       2955.8274         41.0004         38.0004
  21484993.6034  -18335576.70843 -14279529.10442  21484992.0614   21484997.0924
      2096.5724       1633.6904         56.0004         50.0004
  23674551.5434   -7742297.26043  -6022918.88542  23674551.3044   23674555.5424
      -325.1674       -253.3744         47.0004         41.0004
  21014769.8314  -13820833.93244 -10752944.48142  21014768.8514   21014771.4084
     -1798.2894      -1401.2684         57.0004         51.0004
  23871376.8204   -9280382.05243  -7209468.20142  23871375.5804   23871377.9744
       385.3984        300.3044         46.0004         40.0004
  21954074.3614  -19041987.53343 -14828954.38842  21954072.4714   21954076.7064
      2570.1874       2002.7544         54.0004         47.0004
  21421859.0984  -17971140.20643 -13994566.06542  21421857.7554   21421860.8964
     -1753.7614      -1366.5724         56.0004         49.0004
  25010434.8254    9495026.52843   7413150.35542  25010433.9714   25010437.1994
     -3856.3804      -3004.9654         45.0004         38.0004
 03 10 28  0 35  0.0000000  0  8G 4G 7G 9G11G14G20G28G31
  25038520.9544   -2376094.93443  -1826186.99942  25038519.8704   25038526.0694
      3790.5054       2953.6384         44.0004         38.0004
  21473058.0654  -18398296.43243 -14328401.59042  21473056.8854   21473061.4134
      2085.1954       1624.8214         55.0004         50.0004
  23676474.1314   -7732200.66143  -6015051.41142  23676473.4054   23676476.4354
      -347.1874       -270.5384         48.0004         41.0004
  21025078.0814  -13766664.23844 -10710734.33342  21025076.8844   21025079.5404
     -1812.5484      -1412.3714         57.0004         50.0004
  23869236.9864   -9291629.33543  -7218232.34742  23869235.6064   23869239.1444
       364.9364        284.3724         46.0004         41.0004
  21939448.3274  -19118846.38343 -14888844.39142  21939446.6004   21939451.0104
      2554.1694       1990.2654         54.0004         48.0004
  21431925.0574  -17918244.03243 -13953348.25842  21431923.9204   21431926.7924
     -1772.3254      -1381.0284         56.0004         49.0004
  25032459.4704    9610754.76143   7503328.14342  25032458.6024   25032457.8164
     -3857.8354      -3006.1084         44.0004         37.0004
 03 10 28  0 35 30.0000000  0  8G 4G 7G 9G11G14G20G28G31
  25016889.6754   -2489771.09243  -1914765.70542  25016889.1954   25016893.4294
      3787.7414       2951.4864         44.0004         37.0004
  21461185.9774  -18460687.22143 -14377017.79842  21461184.3824   21461189.1414
      2073.9274       1616.0454         56.0004         50.0004
  23678516.8934   -7721462.25043  -6006683.95942  23678514.9914   23678520.2894
      -368.8354       -287.3934         47.0004         41.0004
  21035464.5254  -13712081.66044 -10668202.46042  21035463.6884   21035465.9704
     -1826.5144      -1423.2634         57.0004         50.0004
  23867211.8414   -9302273.05743  -7226526.23542  23867210.7234   23867213.3664
       344.4314        268.3844         46.0004         41.0004
  21924911.0894  -19195238.94243 -14948371.04142  21924909.9944   21924913.8014
      2538.3534       1977.9424         54.0004         47.0004
  21442093.7164  -17864805.56143 -13911707.88442  21442092.7464   21442095.5374
     -1790.6014      -1395.2714         56.0004         49.0004
  25054486.9034    9726516.69443   7593532.21642  25054486.4184   25054489.5564
     -3859.3264      -3007.2624         44.0004         37.0004
 03 10 28  0 36  0.0000000  0  8G 4G 7G 9G11G14G20G28G31
  24995270.7724   -2603372.18743  -2003286.03942  24995269.0644   24995276.8714
      3785.8454       2950.0094         40.0004         36.0004
  21449376.4104  -18522744.84643 -14425374.38342  21449375.0154   21449379.5434
      2063.3224       1607.7864         56.0004         50.0004
  23680684.2534   -7710079.33143  -5997814.17342  23680683.5744   23680685.5704
      -389.7894       -303.7354         48.0004         41.0004
  21045930.2094  -13657085.11944 -10625348.01342  21045929.1114   21045931.7784
     -1839.7924      -1433.6124         57.0004         50.0004
  23865301.5814   -9312309.50743  -7234346.95342  23865301.3164   23865303.7144
       324.7504        253.0424         46.0004         41.0004
  21910463.7114  -19271160.10043 -15007530.36042  21910462.6964   21910466.1184
      2523.1594       1966.0904         54.0004         48.0004
  21452366.3384  -17810823.81043 -13869644.17942  21452364.8584   21452368.4304
     -1808.1604      -1408.9504         56.0004         49.0004
  25076523.0704    9842313.41043   7683763.41842  25076519.9324   25076521.4024
     -3860.2734      -3008.0234         40.0004         36.0004
 03 10 28  0 36 30.0000000  0  8G 4G 7G 9G11G14G20G28G31
  24973667.5484   -2716902.05443  -2091750.72642  24973665.9834   24973672.4694
      3782.4214       2947.3334         44.0004         38.0004
  21437629.9644  -18584473.06943 -14473474.30642  21437628.5004   21437632.9484
      2051.5814       1598.6284         56.0004         50.0004
  23682971.2714   -7698058.17643  -5988446.92342  23682969.7144   23682972.3704
      -411.8604       -320.9474         47.0004         40.0004
  21056473.2384  -13601681.29644 -10582176.19342  21056472.0144   21056474.5604
     -1854.1224      -1444.7664         57.0004         50.0004
  23863506.3954   -9321743.63443  -7241698.24842  23863505.9634   23863509.3674
       304.0634        236.9394         46.0004         40.0004
  21896105.8494  -19346612.80143 -15066324.63242  21896104.4614   21896107.9784
      2506.8194       1953.3764         54.0004         48.0004
  21462740.8054  -17756305.73743 -13827162.57142  21462739.4354   21462742.5324
     -1826.8564      -1423.5324         56.0004         49.0004
  25098562.4274    9958138.34643   7774016.52542  25098563.7144   25098566.1694
     -3862.1004      -3009.4294         43.0004         36.0004
 03 10 28  0 37  0.0000000  0  8G 4G 7G 9G11G14G20G28G31
  24952078.8874   -2830352.70043  -2180153.76542  24952077.7434   24952083.1724
      3780.5814       2945.9074         44.0004         39.0004
  21425947.4704  -18645864.07543 -14521311.46342  21425946.1354   21425951.0414
      2040.8754       1590.2844         56.0004         50.0004
  23685379.6394   -7685392.93243  -5978577.75542  23685379.0074   23685382.5344
      -432.5974       -337.0774         46.0004         40.0004
  21067094.2754  -13545865.50244 -10538683.36842  21067093.3284   21067096.2734
     -1867.2204      -1454.9784         57.0004         50.0004
  23861826.3814   -9330568.55543  -7248574.88342  23861825.7084   23861828.5724
       284.1684        221.4284         46.0004         40.0004
  21881838.6204  -19421588.45443 -15124747.18542  21881837.2894   21881840.6564
      2491.3354       1941.2924         54.0004         48.0004
  21473218.0464  -17701246.28243 -13784259.09342  21473216.6934   21473220.0884
     -1844.1604      -1437.0064         56.0004         49.0004
  25120609.5904   10073996.07843   7864295.21142  25120608.1764   25120608.4134
     -3862.9224      -3010.0724         41.0004         37.0004
 03 10 28  0 37 30.0000000  0  8G 4G 7G 9G11G14G20G28G31
  24930503.0104   -2943726.90843  -2268497.23342  24930502.0144   24930510.6884
      3778.0824       2943.9534         41.0004         37.0004
  21414329.0224  -18706920.53543 -14568887.91142  21414327.4444   21414332.0014
      2029.8144       1581.6714         56.0004         50.0004
  23687912.4194   -7672089.37943  -5968211.34942  23687910.6084   23687915.1244
      -453.8064       -353.6174         47.0004         41.0004
  21077793.0084  -13489643.52544 -10494874.04442  21077792.1694   21077794.7054
     -1880.5594      -1465.3704         57.0004         50.0004
  23860264.6774   -9338788.00943  -7254979.69342  23860263.4514   23860264.5504
       264.1094        205.8054         47.0004         41.0004
  21867660.9984  -19496089.08743 -15182799.60742  21867659.8534   21867663.7094
      2475.6684       1929.0884         54.0004         48.0004
  21483797.5424  -17645651.68543 -13740938.64142  21483796.2194   21483799.5724
     -1861.8274      -1450.7724         56.0004         49.0004
  25142664.3704   10189881.09343   7954595.15742  25142664.8524   25142663.1264
     -3862.8554      -3010.0284         44.0004         38.0004
 03 10 28  0 38  0.0000000  0  8G 4G 7G 9G11G14G20G28G31
  24908943.3574   -3057025.86143  -2356782.03642  24908943.5554   24908949.6064
      3774.2804       2941.0044         43.0004         37.0004
  21402773.6694  -18767643.45143 -14616204.46942  21402772.3724   21402777.4194
      2017.6044       1572.1564         56.0004         50.0004
  23690564.3944   -7658150.34743  -5957349.73942  23690563.3174   23690568.3764
      -475.9884       -370.8914         47.0004         40.0004
  21088568.6064  -13433019.25544 -10450751.23742  21088567.2374   21088569.9134
     -1895.0314      -1476.6504         57.0004         50.0004
  23858814.4534   -9346403.93443  -7260914.19642  23858812.5454   23858814.9934
       242.8074        189.1984         47.0004         41.0004
  21853574.5534  -19570114.94543 -15240482.07742  21853573.5084   21853576.9954
      2458.6374       1915.8164         54.0004         48.0004
  21494477.8654  -17589525.94243 -13697204.29942  21494476.4354   21494479.8754
     -1880.5994      -1465.3984         56.0004         49.0004
  25164717.4464   10305789.52143   8044913.32642  25164713.9244   25164715.4534
     -3864.5004      -3011.3024         39.0004         36.0004
 03 10 28  0 38 30.0000000  0  8G 4G 7G 9G11G14G20G28G31
  24887399.4044   -3170240.90643  -2445001.49842  24887398.5164   24887403.7244
      3773.0164       2940.0154         45.0004         39.0004
  21391283.3374  -18828024.44643 -14663254.58942  21391282.3124   21391286.9754
      2007.6084       1564.3674         56.0004         50.0004
  23693338.5684   -7643569.77843  -5945988.23442  23693338.2704   23693342.5434
      -496.0094       -386.5064         47.0004         41.0004
  21099420.8684  -13375987.96844 -10406311.27942  21099420.0524   21099422.7084
     -1907.2634      -1486.1674         57.0004         50.0004
  23857482.0314   -9353409.49943  -7266373.10342  23857480.3064   23857484.1614
       223.9404        174.5134         47.0004         41.0004
  21839580.1634  -19643656.72643 -15297787.34842  21839578.9194   21839582.3064
      2443.9164       1904.3554         54.0004         48.0004
  21505259.8884  -17532863.88543 -13653052.04542  21505258.7584   21505262.3594
     -1897.0374      -1478.2124         55.0004         49.0004
  25186782.2874  -14784993.32043 -11506346.13342  25186784.9684   25186778.8104
     -3864.1654      -3011.0464         43.0004         35.0004
 03 10 28  0 39  0.0000000  0  8G 4G 7G 9G11G14G20G28G31
  24865870.3144   -3283375.88643  -2533158.54842  24865869.8604   24865875.7534
      3769.2414       2937.0834         40.0004         36.0004
  21379858.1934  -18888067.36243 -14710041.27842  21379856.7214   21379861.3664
      1995.2894       1554.7754         56.0004         50.0004
  23696234.4284   -7628354.02643  -5934131.79542  23696235.0324   23696237.7454
      -518.1354       -403.7404         46.0004         41.0004
  21110349.6854  -13318556.03244 -10361559.12242  21110348.9144   21110351.6654
     -1921.4834      -1497.2604         57.0004         50.0004
  23856263.4734   -9359809.07843  -7271359.77542  23856262.4244   23856264.7754
       202.5664        157.8384         46.0004         41.0004
  21825677.1954  -19716717.57643 -15354717.87742  21825675.9864   21825679.3804
      2426.8974       1891.0904         54.0004         48.0004
  21516143.6414  -17475672.45843 -13608487.30442  21516142.0274   21516145.1734
     -1915.6384      -1492.7014         56.0004         49.0004
  25208844.7234  -14669034.06443 -11415988.34542  25208843.5424   25208843.1364
     -3865.7914      -3012.2834         39.0004         35.0004
 03 10 28  0 39 30.0000000  0  8G 4G 7G 9G11G14G20G28G31
  24844357.9944   -3396425.28743  -2621248.88842  24844357.9044   24844362.8534
      3767.1694       2935.4564         45.0004         37.0004
  21368497.3844  -18947766.48943 -14756560.05042  21368496.2474   21368500.7084
      1984.3364       1546.2394         56.0004         50.0004
  23699251.3624   -7612499.22143  -5921777.27642  23699249.3174   23699255.1244
      -538.7784       -419.8214         46.0004         41.0004
  21121356.1694  -13260720.95844 -10316492.83642  21121354.7484   21121357.1034
     -1934.3824      -1507.3054         57.0004         50.0004
  23855161.9084   -9365598.17943  -7275870.78742  23855161.5314   23855164.6504
       183.0284        142.6184         47.0004         41.0004
  21811866.9234  -19789291.05243 -15411268.62642  21811865.6244   21811869.0034
      2411.0984       1878.7804         54.0004         48.0004
  21527127.4984  -17417949.29243 -13563508.22342  21527126.4414   21527129.5954
     -1932.8894      -1506.1584         55.0004         49.0004
  25230921.5564  -14553050.21743 -11325611.31542  25230921.7934   25230918.0884
     -3866.4494      -3012.8254         45.0004         37.0004
 03 10 28  0 40  0.0000000  0  8G 4G 7G 9G11G14G20G28G31
  24822861.7234   -3509391.81443  -2709274.71442  24822861.0404   24822867.1404
      3763.9924       2932.9774         45.0004         39.0004
  21357202.2964  -19007124.54843 -14802813.09342  21357200.6094   21357205.3444
      1972.6964       1537.1644         56.0004         50.0004
  23702387.8154   -7596011.00743  -5908929.34542  23702386.3314   23702393.4754
      -560.4644       -436.7074         45.0004         41.0004
  21132437.0334  -13202488.75244 -10271117.09342  21132436.0944   21132438.4274
     -1947.8434      -1517.8044         57.0004         50.0004
  23854176.4174   -9370780.82443  -7279909.20242  23854175.3964   23854177.9164
       162.6554        126.7434         47.0004         41.0004
  21798148.9504  -19861379.26443 -15467441.24342  21798147.9684   21798151.1824
      2394.6224       1865.9434         54.0004         48.0004
  21538212.2654  -17359700.48843 -13518119.56342  21538210.5814   21538214.1754
     -1950.5264      -1519.8914         55.0004         49.0004
  25252990.7674  -14437047.15943 -11235219.42842  25252988.5244   25252992.1714
     -3867.2474      -3013.4464         42.0004         36.0004
 03 10 28  0 40 30.0000000  0  8G 4G 7G 9G11G14G20G28G31
  24801380.9224   -3622270.38343  -2797231.89242  24801380.4514   24801385.7464
      3761.2474       2930.8414         44.0004         39.0004
  21345972.3894  -19066136.71743 -14848796.62942  21345970.9514   21345975.5364
      1961.2774       1528.2664         56.0004         50.0004
  23705647.6344   -7578886.70643  -5895585.82042  23705646.5454   23705651.2144
      -581.4564       -453.0904         46.0004         41.0004
  21143594.3744  -13143857.10444 -10225430.10042  21143593.0674   21143595.8974
     -1960.9854      -1528.0334         57.0004         50.0004
  23853304.7264   -9375353.29643  -7283472.25042  23853304.2174   23853309.4634
       142.5444        111.0754         46.0004         41.0004
  21784524.7794  -19932976.61443 -15523231.37642  21784523.0964   21784526.7624
      2378.4644       1853.3584         54.0004         48.0004
  21549396.9254  -17300924.34043 -13472319.97842  21549395.8414   21549399.1344
     -1968.0004      -1533.5064         55.0004         49.0004
  25275073.5984  -14321023.24143 -11144811.25342  25275077.0534   25275073.5084
     -3867.4834      -3013.6244         42.0004         37.0004
 03 10 28  0 41  0.0000000  0  7G 4G 7G 9G11G14G20G28
  24779917.3744   -3735062.35043  -2885121.58142  24779916.3584   24779922.6244
      3758.3464       2928.5784         43.0004         38.0004
  21334808.4594  -19124804.16643 -14894511.53142  21334807.0344   21334811.9964
      1949.8994       1519.4044         56.0004         50.0004
  23709027.0704   -7561129.83543  -5881749.25142  23709025.7314   23709031.0464
      -602.3274       -469.3394         47.0004         41.0004
  21154826.6054  -13084830.68444 -10179435.49642  21154825.8134   21154828.2034
     -1973.9444      -1538.1344         57.0004         50.0004
  23852551.9144   -9379317.98643  -7286561.67442  23852549.3274   23852553.4724
       122.1084         95.1504         46.0004         40.0004
  21770993.3394  -20004083.50443 -15578639.34042  21770992.1684   21770995.4944
      2362.1974       1840.6614         55.0004         48.0004
  21560681.0984  -17241625.36743 -13426112.99242  21560680.0734   21560683.3924
     -1985.2824      -1546.9634         55.0004         49.0004
 03 10 28  0 41 30.0000000  0  7G 4G 7G 9G11G14G20G28
  24758470.7114   -3847764.12943  -2972941.09942  24758470.5964   24758476.0344
      3755.1504       2926.0954         44.0004         38.0004
  21323710.6394  -19183123.40043 -14939955.07842  21323709.1514   21323713.9664
      1938.0704       1510.1854         56.0004         50.0004
  23712526.2014   -7542739.35343  -5867419.00242  23712525.3624   23712529.0704
      -623.8374       -486.0954         47.0004         40.0004
  21166134.0164  -13025409.03244 -10133132.90742  21166133.1254   21166135.5144
     -1987.4204      -1548.6434         57.0004         50.0004
  23851911.8544   -9382672.39243  -7289175.50442  23851910.5844   23851914.0754
       101.3874         78.9994         46.0004         40.0004
  21757555.9744  -20074695.86543 -15633661.94042  21757554.7094   21757558.4184
      2345.3534       1827.5454         54.0004         48.0004
  21572064.9564  -17181803.39343 -13379498.47242  21572063.4934   21572067.1654
     -2002.8434      -1560.6384         55.0004         49.0004
 03 10 28  0 42  0.0000000  0  7G 4G 7G 9G11G14G20G28
  24737041.2954   -3960372.60443  -3060687.76542  24737041.0094   24737046.2574
      3751.9824       2923.6094         43.0004         38.0004
  21312679.4384  -19241091.36343 -14985124.97642  21312678.1424   21312683.0034
      1926.2964       1501.0084         56.0004         50.0004
  23716146.6074   -7523714.70543  -5852594.63442  23716145.8134   23716150.6754
      -644.8214       -502.4694         47.0004         41.0004
  21177516.6984  -12965592.08444 -10086522.30542  21177515.9184   21177518.2044
     -2000.6354      -1558.9384         57.0004         50.0004
  23851391.4964   -9385414.93143  -7291312.52642  23851389.0534   23851392.2854
        81.0884         63.1944         47.0004         40.0004
  21744214.0304  -20144809.77543 -15688296.14942  21744212.4424   21744216.4984
      2328.6534       1814.5424         54.0004         48.0004
  21583548.3944  -17121458.37543 -13332476.39742  21583547.0834   21583550.1954
     -2020.3294      -1574.2864         55.0004         48.0004
 03 10 28  0 42 30.0000000  0  7G 4G 7G 9G11G14G20G28
  24715631.5314   -4072890.26343  -3148363.72542  24715630.7344   24715634.2864
      3748.7794       2921.1234         46.0004         38.0004
  21301714.8914  -19298710.54643 -15030023.06842  21301713.5994   21301718.5624
      1914.4254       1491.7574         56.0004         50.0004
  23719886.5294   -7504060.87743  -5837279.96642  23719886.2104   23719891.4384
      -666.1254       -519.0694         47.0004         41.0004
  21188973.8454  -12905385.45244 -10039608.05042  21188972.8564   21188975.6514
     -2013.6014      -1569.0344         57.0004         50.0004
  23850984.5924   -9387549.49243  -7292975.91942  23850982.7514   23850987.2534
        60.8894         47.4454         47.0004         40.0004
  21730966.1124  -20214427.07443 -15742543.38742  21730964.4304   21730968.8064
      2311.9834       1801.5494         55.0004         48.0004
  21595130.0804  -17060596.40043 -13285051.47442  21595128.4744   21595131.8924
     -2037.6354      -1587.7684         55.0004         49.0004
 03 10 28  0 43  0.0000000  0  7G 4G 7G 9G11G14G20G28
  24694235.7364   -4185314.30643  -3235966.84542  24694235.8744   24694241.9544
      3746.2524       2919.1504         42.0004         38.0004
  21290817.2504  -19355978.04843 -15074647.07942  21290816.0644   21290821.1684
      1903.0734       1482.9164         56.0004         50.0004
  23723747.3714   -7483777.71443  -5821474.83742  23723746.0674   23723750.2124
      -686.4204       -534.8764         48.0004         41.0004
  21200505.0554  -12844789.42844  -9992390.36942  21200504.0894   21200506.5194
     -2026.2224      -1578.8704         57.0004         50.0004
  23850695.8644   -9389074.38143  -7294164.27242  23850693.1844   23850696.2724
        40.8664         31.8494         47.0004         40.0004
  21717813.7874  -20283544.46643 -15796401.08342  21717812.0914   21717815.9574
      2295.6814       1788.8464         55.0004         48.0004
  21606809.5084  -16999217.98743 -13237224.13742  21606808.6564   21606812.1064
     -2054.4054      -1600.8414         55.0004         49.0004
 03 10 28  0 43 30.0000000  0  7G 4G 7G 9G11G14G20G28
  24672860.5114   -4297643.08143  -3323495.57542  24672859.6144   24672866.1084
      3743.0684       2916.6664         44.0004         39.0004
  21279986.7644  -19412892.41043 -15118995.92842  21279985.4194   21279990.3714
      1891.6564       1474.0214         56.0004         50.0004
  23727724.3334   -7462866.24743  -5805180.25042  23727724.7804   23727730.6204
      -707.2634       -551.1194         47.0004         41.0004
  21212109.6514  -12783805.66844  -9944870.55742  21212108.8224   21212111.1874
     -2038.8174      -1588.6944         57.0004         50.0004
  23850522.8124   -9389989.08543  -7294877.12942  23850520.4524   23850523.0754
        20.9364         16.3224         48.0004         41.0004
  21704756.5244  -20352159.74043 -15849867.51142  21704754.9674   21704758.4524
      2279.2124       1776.0054         55.0004         48.0004
  21618587.6914  -16937325.00143 -13188995.84842  21618586.3184   21618589.8404
     -2071.2824      -1613.9884         55.0004         48.0004
 03 10 28  0 44  0.0000000  0  7G 4G 7G 9G11G14G20G28
  24651504.3264   -4409874.11143  -3410948.15342  24651503.1414   24651509.3454
      3739.3724       2913.7914         42.0004         39.0004
  21269224.2174  -19469451.00543 -15163067.54642  21269222.7854   21269227.7574
      1879.2614       1464.3574         56.0004         50.0004
  23731826.2834   -7441326.30243  -5788395.85642  23731825.0494   23731827.9874
      -728.8354       -567.9254         48.0004         41.0004
  21223788.3524  -12722434.83544  -9897049.12742  21223787.0744   21223789.6684
     -2052.2324      -1599.1394         57.0004         50.0004
  23850463.5614   -9390292.54443  -7295113.60642  23850461.8834   23850465.3584
         -.3644          -.2784         47.0004         41.0004
  21691795.3514  -20420269.59043 -15902940.10942  21691794.1904   21691798.0464
      2261.7624       1762.4104         55.0004         48.0004
  21630463.5454  -16874917.98943 -13140367.02042  21630462.1494   21630465.3314
     -2088.8834      -1627.7014         55.0004         48.0004
 03 10 28  0 44 30.0000000  0  7G 4G 7G 9G11G14G20G28
  24630165.8474   -4522006.85243  -3498324.12042  24630165.4674   24630170.9304
      3735.6544       2910.8864         45.0004         38.0004
  21258529.2754  -19525653.35343 -15206861.59142  21258527.8144   21258532.8864
      1867.1804       1454.9544         56.0004         50.0004
  23736043.0364   -7419160.20343  -5771123.54542  23736041.1174   23736045.6894
      -749.3004       -583.8904         47.0004         41.0004
  21235539.6094  -12660679.21843  -9848927.86242  21235538.6804   21235541.7144
     -2065.1354      -1609.1894         56.0004         50.0004
  23850520.9644   -9389985.69743  -7294874.55642  23850519.1234   23850524.6614
       -20.5034        -15.9844         46.0004         41.0004
  21678931.1494  -20487872.88343 -15955617.99042  21678929.9204   21678933.4704
      2244.7964       1749.1924         55.0004         48.0004
  21642436.3004  -16812000.02243 -13091340.03742  21642435.0204   21642438.5044
     -2106.0124      -1641.0424         55.0004         48.0004
 03 10 28  0 45  0.0000000  0  7G 4G 7G 9G11G14G20G28
  24608847.7084   -4634035.97743  -3585619.46242  24608847.1024   24608852.5004
      3732.7534       2908.6324         45.0004         40.0004
  21247903.0134  -19581494.36843 -15250374.08242  21247902.0264   21247906.5654
      1855.5134       1445.8534         56.0004         50.0004
  23740380.5354   -7396365.05943  -5753360.94042  23740379.1194   23740384.6134
      -770.2014       -600.1744         46.0004         40.0004
  21247364.8934  -12598537.13843  -9800505.46942  21247364.3144   21247366.9204
     -2077.6004      -1618.9074         56.0004         50.0004
  23850695.0194   -9389064.94643  -7294157.16742  23850694.8264   23850700.4364
       -40.6484        -31.6554         46.0004         41.0004
  21666163.7734  -20554964.04843 -16007896.81942  21666162.8274   21666166.2704
      2228.0154       1736.1134         55.0004         48.0004
  21654506.9494  -16748569.52943 -13041913.68742  21654505.2654   21654508.8754
     -2122.7554      -1654.0944         55.0004         48.0004
 03 10 28  0 45 30.0000000  0  7G 4G 7G 9G11G14G20G28
  24587548.2464   -4745965.23043  -3672836.91442  24587548.7774   24587551.4814
      3729.2904       2905.9454         45.0004         38.0004
  21237345.0814  -19636977.56343 -15293607.72842  21237343.4504   21237348.3724
      1843.2634       1436.2944         56.0004         50.0004
  23744835.7034   -7372947.46843  -5735113.45842  23744835.4974   23744839.8564
      -791.1104       -616.4564         46.0004         40.0004
  21259262.5554  -12536014.88944  -9751786.83742  21259261.7784   21259264.2114
     -2090.4934      -1628.9624         57.0004         50.0004
  23850986.2144   -9387535.11843  -7292965.20642  23850987.3224   23850992.4114
       -61.1984        -47.6734         47.0004         42.0004
  21653493.8464  -20621546.02043 -16059778.86642  21653492.7354   21653496.0424
      2210.8674       1722.7474         55.0004         48.0004
  21666673.5794  -16684633.14243 -12992093.13542  21666671.8804   21666675.2534
     -2139.6594      -1667.2634         55.0004         48.0004
 03 10 28  0 46  0.0000000  0  7G 4G 7G 9G11G14G20G28
  24566266.6334   -4857791.52943  -3759974.20142  24566266.0114   24566271.5284
      3726.0414       2903.4004         44.0004         38.0004
  21226855.4854  -19692100.06443 -15336560.31042  21226853.9114   21226858.8984
      1831.4714       1427.1224         56.0004         50.0004
  23749412.0414   -7348906.97643  -5716380.58142  23749410.8404   23749416.8464
      -811.2934       -632.1844         47.0004         41.0004
  21271232.7384  -12473112.61344  -9702772.07842  21271231.8894   21271234.3844
     -2103.0614      -1638.7474         57.0004         50.0004
  23851394.9324   -9385394.41543  -7291297.17942  23851394.1444   23851397.2864
       -81.5334        -63.5234         47.0004         41.0004
  21640921.2954  -20687615.21543 -16111261.35142  21640920.0814   21640923.6144
      2193.6314       1709.3184         54.0004         48.0004
  21678936.0124  -16620191.34943 -12941878.76342  21678934.8384   21678937.9884
     -2156.5884      -1680.4514         55.0004         48.0004
 03 10 28  0 46 30.0000000  0  7G 4G 7G 9G11G14G20G28
  24545007.0764   -4969512.06643  -3847028.93342  24545006.7144   24545013.1874
      3722.7084       2900.8034         44.0004         39.0004
  21216435.5644  -19746859.03344 -15379229.63142  21216433.8584   21216438.6114
      1819.5354       1417.8194         57.0004         50.0004
  23754104.4214   -7324243.62443  -5697162.43642  23754103.3654   23754108.6354
      -832.0884       -648.3774         46.0004         41.0004
  21283274.8464  -12409831.01444  -9653461.74442  21283273.7654   21283276.2784
     -2115.3774      -1648.3524         57.0004         50.0004
  23851918.0834   -9382641.68543  -7289152.21742  23851916.8824   23851920.3084
      -101.8124        -79.3164         46.0004         40.0004
  21628447.0144  -20753168.21143 -16162341.60942  21628445.6684   21628449.0504
      2176.8124       1696.2164         55.0004         48.0004
  21691295.3234  -16555245.05543 -12891271.26242  21691293.5654   21691296.9084
     -2172.9694      -1693.2294         55.0004         48.0004
 03 10 28  0 47  0.0000000  0  7G 4G 7G 9G11G14G20G28
  24523765.3544   -5081145.09243  -3934015.62642  24523764.7694   24523768.8044
      3718.9184       2897.8584         47.0004         39.0004
  21206080.7554  -19801273.05343 -15421630.14642  21206079.2134   21206083.9694
      1807.4034       1408.3694         56.0004         51.0004
  23758911.9814   -7298978.57543  -5677475.30342  23758910.7824   23758915.3714
      -852.7204       -664.4544         47.0004         41.0004
  21295385.0554  -12346191.43543  -9603872.45642  21295383.8964   21295386.5824
     -2127.8604      -1658.0724         56.0004         50.0004
  23852553.9824   -9379296.89643  -7286545.96142  23852554.4224   23852558.1904
      -121.8084        -94.9054         45.0004         40.0004
  21616067.1594  -20818223.21343 -16213033.81342  21616066.1424   21616069.8814
      2159.5844       1682.7944         55.0004         48.0004
  21703746.1264  -16489816.17643 -12840287.71642  21703744.5304   21703748.0044
     -2189.5764      -1706.1614         55.0004         48.0004
 03 10 28  0 47 30.0000000  0  7G 4G 7G 9G11G14G20G28
  24502545.8524   -5192652.23643  -4020904.24542  24502545.1334   24502551.3904
      3714.9744       2894.7804         45.0004         40.0004
  21195799.0924  -19855303.54344 -15463731.82442  21195797.4994   21195802.4234
      1794.7514       1398.5114         57.0004         51.0004
  23763841.2934   -7273075.99543  -5657291.44042  23763840.8394   23763843.3404
      -873.7374       -680.8454         47.0004         41.0004
  21307570.3074  -12282158.54644  -9553976.70542  21307568.9774   21307571.5334
     -2140.8034      -1668.1494         57.0004         50.0004
  23853311.1764   -9375323.28243  -7283449.82442  23853310.8004   23853314.1384
      -142.8924       -111.3544         46.0004         40.0004
  21603790.4874  -20882740.98243 -16263307.39242  21603788.8024   21603792.2074
      2141.7764       1668.9134         55.0004         49.0004
  21716295.3784  -16423869.56743 -12788900.74742  21716294.0594   21716297.0144
     -2206.6714      -1719.4794         55.0004         48.0004
 03 10 28  0 48  0.0000000  0  7G 4G 7G 9G11G14G20G28
  24481347.6334   -5304047.07743  -4107705.26642  24481346.7224   24481352.7204
      3710.6234       2891.3914         45.0004         39.0004
  21185587.5774  -19908963.99943 -15505545.15242  21185586.2634   21185591.2454
      1781.9524       1388.5324         56.0004         50.0004
  23768889.5004   -7246552.27943  -5636623.61742  23768888.3764   23768891.0464
      -895.0044       -697.4074         47.0004         41.0004
  21319827.1094  -12217749.01243  -9503787.45942  21319825.7754   21319828.2844
     -2153.7044      -1678.2154         56.0004         50.0004
  23854184.8304   -9370735.41243  -7279874.91342  23854183.6324   23854186.8804
      -163.7294       -127.5754         47.0004         41.0004
  21591612.1374  -20946734.49743 -16313172.45842  21591611.0784   21591614.8054
      2123.7854       1654.9004         55.0004         49.0004
  21728939.2304  -16357422.16743 -12737123.55042  21728938.1634   21728941.1394
     -2223.5644      -1732.6514         55.0004         48.0004
 03 10 28  0 48 30.0000000  0  7G 4G 7G 9G11G14G20G28
  24460170.9514   -5415333.19243  -4194421.61742  24460170.7094   24460175.7994
      3707.8264       2889.2154         43.0004         38.0004
  21175446.1164  -19962258.19843 -15547073.07642  21175444.5224   21175449.5094
      1770.5914       1379.6814         56.0004         51.0004
  23774051.5124   -7219413.99543  -5615476.93942  23774049.1434   23774056.0874
      -914.4664       -712.5724         45.0004         40.0004
  21332153.9544  -12152969.49543  -9453309.91942  21332152.5564   21332155.3854
     -2165.1524      -1687.1344         56.0004         50.0004
  23855173.0004   -9365538.56243  -7275825.42342  23855171.0904   23855177.0074
      -183.2654       -142.7874         45.0004         40.0004
  21579534.0654  -21010206.99043 -16362631.53542  21579532.6724   21579536.3034
      2107.2124       1641.9844         55.0004         49.0004
  21741677.6314  -16290481.30843 -12684961.85742  21741676.5014   21741679.8914
     -2239.3304      -1744.9344         55.0004         48.0004
 03 10 28  0 49  0.0000000  0  7G 4G 7G 9G11G14G20G28
  24439014.8604   -5526503.87443  -4281047.94842  24439014.2954   24439021.1284
      3703.3204       2885.6964         43.0004         39.0004
  21165375.3624  -20015179.51243 -15588310.44742  21165373.9854   21165378.9134
      1757.8414       1369.7544         56.0004         51.0004
  23779334.6984   -7191657.32543  -5593848.44142  23779334.1804   23779336.4444
      -935.5484       -729.0084         46.0004         40.0004
  21344551.6554  -12087816.65443  -9402541.47642  21344550.7644   21344553.7644
     -2178.0034      -1697.1454         56.0004         50.0004
  23856278.1954   -9359728.03743  -7271297.75342  23856276.9384   23856282.4604
      -204.0644       -159.0104         44.0004         40.0004
  21567556.3324  -21073151.61243 -16411679.27942  21567554.8084   21567558.3314
      2089.2994       1628.0304         55.0004         49.0004
  21754510.4634  -16223043.99943 -12632413.32342  21754509.5724   21754512.8714
     -2256.1604      -1758.0354         55.0004         48.0004
 03 10 28  0 49 30.0000000  0  7G 4G 7G 9G11G14G20G28
  24417881.9934   -5637561.06943  -4367585.88942  24417881.6174   24417885.7614
      3699.7124       2882.8884         44.0004         38.0004
  21155375.3534  -20067729.92843 -15629258.79442  21155373.9834   21155378.8704
      1745.5554       1360.1764         56.0004         51.0004
  23784733.3234   -7163286.90943  -5571741.67342  23784731.1194   23784735.6194
      -955.9624       -744.9204         46.0004         40.0004
  21357020.0374  -12022295.65143  -9351486.15442  21357019.0824   21357022.0424
     -2190.1944      -1706.6474         56.0004         50.0004
  23857501.0144   -9353307.21643  -7266294.54942  23857499.9434   23857503.5074
      -224.0864       -174.6124         45.0004         41.0004
  21555678.1294  -21135569.52843 -16460316.61242  21555677.0314   21555680.7874
      2071.8574       1614.4384         55.0004         49.0004
  21767437.2624  -16155115.65543 -12579482.17042  21767436.1084   21767438.8984
     -2272.5024      -1770.7794         55.0004         48.0004
 03 10 28  0 50  0.0000000  0  7G 4G 7G 9G11G14G20G28
  24396770.8384   -5748505.04043  -4454035.72042  24396770.0504   24396774.3344
      3695.5434       2879.6464         47.0004         40.0004
  21145445.7844  -20119910.04943 -15669918.62342  21145444.5104   21145449.3384
      1732.7284       1350.1684         56.0004         51.0004
  23790247.7924   -7134306.28143  -5549159.38742  23790246.6404   23790250.4164
      -976.5644       -760.9754         47.0004         40.0004
  21369558.0834  -11956410.09043  -9300146.75842  21369556.8974   21369559.2594
     -2202.6334      -1716.3394         56.0004         49.0004
  23858838.5774   -9346278.44143  -7260817.56842  23858837.3664   23858841.7954
      -244.7684       -190.7294         46.0004         41.0004
  21543901.1454  -21197461.11343 -16508543.81942  21543899.2834   21543903.0144
      2053.8114       1600.3724         55.0004         49.0004
  21780456.1414  -16086700.36743 -12526171.57942  21780455.1874   21780458.3334
     -2289.0034      -1783.6504         54.0004         48.0004
 03 10 28  0 50 30.0000000  0  7G 4G 7G 9G11G14G20G28
  24375679.6044   -5859330.16143  -4540392.79942  24375679.7334   24375684.9634
      3692.0734       2876.9284         45.0004         38.0004
  21135588.0824  -20171713.78643 -15710285.16242  21135586.4514   21135591.3534
      1720.4014       1340.5664         56.0004         51.0004
  23795880.2564   -7104711.88643  -5526098.79342  23795878.5364   23795884.5814
      -996.5884       -776.5504         46.0004         41.0004
  21382165.6134  -11890157.01243  -9248520.98442  21382164.3744   21382167.1444
     -2214.6574      -1725.7114         56.0004         49.0004
  23860292.8324   -9338636.99943  -7254863.21042  23860292.1444   23860296.5544
      -265.0004       -206.4864         46.0004         41.0004
  21532224.8054  -21258819.53743 -16556355.57742  21532223.3784   21532226.8964
      2036.3194       1586.7404         55.0004         49.0004
  21793568.5044  -16017795.39643 -12472479.41342  21793567.1284   21793570.3374
     -2305.0494      -1796.1454         55.0004         48.0004
 03 10 28  0 51  0.0000000  0  7G 4G 7G 9G11G14G20G28
  24354613.6194   -5970036.31343  -4626657.26542  24354613.6864   24354618.7394
      3688.5804       2874.2174         46.0004         40.0004
  21125801.4324  -20223141.52244 -15750358.71542  21125800.1634   21125804.8934
      1708.3304       1331.1684         57.0004         51.0004
  23801626.8784   -7074507.38143  -5502562.81742  23801626.2544   23801632.6614
     -1016.5434       -792.1154         45.0004         41.0004
  21394842.1884  -11823539.80443  -9196611.47742  21394841.0884   21394843.9294
     -2226.2754      -1734.7644         56.0004         49.0004
  23861863.5774   -9330384.88943  -7248433.00442  23861862.3784   23861866.0104
      -285.0864       -222.1364         46.0004         41.0004
  21520649.9034  -21319644.92243 -16603751.96742  21520648.5864   21520652.2934
      2019.0034       1573.2514         55.0004         49.0004
  21806773.5464  -15948404.69343 -12418408.74642  21806772.1634   21806775.0714
     -2320.6974      -1808.3464         55.0004         48.0004
 03 10 28  0 51 30.0000000  0  7G 4G 7G 9G11G14G20G28
  24333570.4574   -6080623.38243  -4712828.91242  24333568.7364   24333569.2204
      3684.0894       2870.7254         45.0004         38.0004
  21116086.2364  -20274193.23843 -15790139.27342  21116085.2634   21116090.0464
      1695.5424       1321.2044         56.0004         51.0004
  23807491.0804   -7043695.30743  -5478553.41342  23807488.7274   23807495.8704
     -1037.0354       -808.0884         46.0004         41.0004
  21407587.4964  -11756561.64243  -9144420.70842  21407586.6584   21407589.3874
     -2238.4624      -1744.2494         56.0004         49.0004
  23863552.0944   -9321523.88343  -7241528.36842  23863548.2784   23863550.4804
      -305.2854       -237.8954         47.0004         40.0004
  21509176.5624  -21379936.93243 -16650732.74842  21509175.3094   21509179.1744
      2000.9094       1559.1514         55.0004         49.0004
  21820069.2484  -15878532.07143 -12363962.56142  21820067.9974   21820071.5224
     -2336.8304      -1820.9104         54.0004         48.0004
 03 10 28  0 52  0.0000000  0  7G 4G 7G 9G11G14G20G28
  24312547.6134   -6191088.55643  -4798905.68142  24312547.4774   24312552.8694
      3681.1414       2868.4224         45.0004         39.0004
  21106444.0394  -20324865.81244 -15829624.36142  21106442.5784   21106447.5554
      1683.0214       1311.4544         57.0004         51.0004
  23813470.4804   -7012275.67543  -5454070.54542  23813469.8544   23813475.0444
     -1057.1304       -823.7414         47.0004         42.0004
  21420401.9844  -11689222.34443  -9091948.52742  21420401.1834   21420403.5344
     -2250.3354      -1753.4994         56.0004         49.0004
  23865352.9844   -9312052.78343  -7234148.30142  23865352.1544   23865354.3274
      -325.4724       -253.6054         48.0004         41.0004
  21497805.7164  -21439691.88443 -16697295.04842  21497804.5144   21497808.2464
      1983.1794       1545.3404         55.0004         49.0004
  21833457.3414  -15808177.81243 -12309141.07742  21833456.1254   21833459.3494
     -2352.7504      -1833.2994         54.0004         48.0004
 03 10 28  0 52 30.0000000  0  7G 4G 7G 9G11G14G20G28
  24291551.8964   -6301430.55643  -4884886.40042  24291551.0204   24291556.5024
      3675.6804       2864.1644         46.0004         40.0004
  21096873.3864  -20375158.32844 -15868813.33542  21096872.1324   21096877.2014
      1669.9284       1301.2424         57.0004         51.0004
  23819564.4234   -6980250.55443  -5429115.81942  23819563.2454   23819565.8204
     -1077.5984       -839.7034         47.0004         40.0004
  21433284.5574  -11621524.21043  -9039196.73242  21433283.5494   21433285.9264
     -2262.6574      -1763.1054         56.0004         49.0004
  23867270.7434   -9301972.03843  -7226293.22842  23867268.9854   23867273.0834
      -346.4544       -269.9844         48.0004         41.0004
  21486537.4234  -21498908.33443 -16743437.72942  21486536.0254   21486539.7744
      1964.8164       1531.0254         55.0004         49.0004
  21846936.1544  -15737344.43343 -12253946.24642  21846935.2254   21846938.5984
     -2369.2364      -1846.1624         54.0004         48.0004
 03 10 28  0 53  0.0000000  0  7G 4G 7G 9G11G14G20G28
  24270578.2294   -6411644.61343  -4970767.38642  24270577.0324   24270583.0714
      3671.9524       2861.2514         44.0004         40.0004
  21087376.7124  -20425066.16444 -15907702.55142  21087375.3144   21087379.9344
      1657.5834       1291.6184         57.0004         51.0004
  23825773.3444   -6947618.37443  -5403688.04142  23825771.9894   23825775.3174
     -1097.5344       -855.2234         47.0004         40.0004
  21446235.7404  -11553465.76443  -8986164.18142  21446234.5644   21446237.0984
     -2274.1504      -1772.0664         56.0004         49.0004
  23869304.7224   -9291278.77943  -7217960.87042  23869303.7134   23869308.5904
      -366.1674       -285.2994         46.0004         41.0004
  21475372.4414  -21557581.33943 -16789156.95642  21475371.0464   21475374.5294
      1947.0614       1517.1914         55.0004         49.0004
  21860506.9464  -15666031.27143 -12198377.57242  21860505.5554   21860508.8974
     -2384.7134      -1858.2224         54.0004         48.0004
 03 10 28  0 53 30.0000000  0  7G 4G 7G 9G11G14G20G28
  24249627.1264   -6521735.13643  -5056552.04742  24249627.2684   24249633.5324
      3668.0174       2858.1914         45.0004         39.0004
  21077951.8624  -20474593.60744 -15946295.33442  21077950.5354   21077954.8994
      1644.7664       1281.6354         57.0004         51.0004
  23832098.3174   -6914386.61143  -5377793.12142  23832097.6004   23832101.4034
     -1117.5154       -870.8244         48.0004         41.0004
  21459253.7384  -11485054.40943  -8932856.63642  21459252.9564   21459255.5384
     -2286.0314      -1781.3194         56.0004         49.0004
  23871455.3614   -9279979.47343  -7209156.29742  23871454.7134   23871458.1424
      -386.3844       -301.0934         46.0004         41.0004
  21464310.1164  -21615715.06643 -16834455.96642  21464308.4364   21464312.1884
      1928.9654       1503.0954         55.0004         49.0004
  21874167.2504  -15594246.30843 -12142441.26142  21874166.3094   21874169.4554
     -2400.5494      -1870.5504         54.0004         48.0004
 03 10 28  0 54  0.0000000  0  7G 4G 7G 9G11G14G20G28
  24228704.5234   -6631694.39443  -5142234.61942  24228703.8944   24228709.2744
      3663.1784       2854.4294         47.0004         39.0004
  21068600.8674  -20523733.39544 -15984586.06442  21068599.6654   21068604.3754
      1631.5284       1271.3194         57.0004         51.0004
  23838536.1364   -6880550.78043  -5351427.56442  23838536.2744   23838540.3114
     -1138.0624       -886.8334         47.0004         41.0004
  21472340.1804  -11416285.74843  -8879270.66742  21472339.0984   21472341.5184
     -2298.1994      -1790.8004         56.0004         49.0004
  23873722.0624   -9268067.83043  -7199874.51542  23873720.7224   23873725.2194
      -407.1504       -317.2744         47.0004         41.0004
  21453351.3294  -21673301.39943 -16879328.42942  21453349.9034   21453353.7584
      1910.4584       1488.6694         55.0004         49.0004
  21887917.8054  -15521985.22043 -12086133.94542  21887916.8534   21887919.8414
     -2416.6094      -1883.0774         54.0004         47.0004
 03 10 28  0 54 30.0000000  0  7G 4G 7G 9G11G14G20G28
  24207804.2674   -6741525.85243  -5227817.50942  24207803.5564   24207808.3104
      3658.8404       2851.0374         47.0004         41.0004
  21059323.1574  -20572488.81944 -16022577.29542  21059321.5254   21059326.2564
      1618.5904       1261.2384         57.0004         51.0004
  23845088.2644   -6846117.29043  -5324596.45642  23845087.1734   23845093.4484
     -1157.7654       -902.1394         45.0004         41.0004
  21485493.3564  -11347166.37743  -8825411.41642  21485492.1864   21485494.4874
     -2309.8504      -1799.8834         56.0004         49.0004
  23876104.2924   -9255549.51143  -7190119.98842  23876104.5014   23876105.8964
      -427.2034       -332.8884         47.0004         41.0004
  21442496.8084  -21730343.69743 -16923776.97142  21442495.2874   21442498.9154
      1892.3464       1474.5594         55.0004         49.0004
  21901758.2384  -15449255.28443 -12029461.28842  21901756.8884   21901760.5634
     -2432.2184      -1895.2444         54.0004         47.0004
 03 10 28  0 55  0.0000000  0  7G 4G 7G 9G11G14G20G28
  24186927.8324   -6851227.92843  -5313299.64342  24186926.2094   24186933.2304
      3654.0034       2847.2734         44.0004         40.0004
  21050118.7094  -20620858.46544 -16060267.91542  21050117.3054   21050122.1284
      1605.6864       1251.1854         57.0004         51.0004
  23851754.7104   -6811087.67943  -5297300.66042  23851754.2664   23851760.3974
     -1177.7634       -917.7384         46.0004         42.0004
  21498712.1644  -11277698.07943  -8771280.27842  21498711.6584   21498714.0334
     -2321.4454      -1808.9204         56.0004         49.0004
  23878602.5354   -9242424.82943  -7179892.98642  23878601.9534   23878603.4754
      -447.6464       -348.8034         48.0004         41.0004
  21431745.8984  -21786839.96943 -16967800.04142  21431744.4014   21431747.8474
      1873.9104       1460.1974         55.0004         49.0004
  21915687.1144  -15376058.79043 -11972425.05542  21915685.5224   21915689.2734
     -2447.7894      -1907.3654         54.0004         47.0004
 03 10 28  0 55 30.0000000  0  7G 4G 7G 9G11G14G20G28
  24166077.6454   -6960794.01843  -5398675.71842  24166077.4474   24166083.4024
      3649.3834       2843.6584         44.0004         40.0004
  21040988.8894  -20668835.67344 -16097652.74742  21040987.5954   21040991.9184
      1592.4574       1240.8724         57.0004         51.0004
  23858533.3814   -6775458.30743  -5269537.62642  23858531.8124   23858539.9844
     -1197.8184       -933.3564         44.0004         41.0004
  21511998.8834  -11207877.12843  -8716874.34242  21511997.7934   21512000.6174
     -2333.4704      -1818.2874         56.0004         49.0004
  23881216.2334   -9228688.85543  -7169189.62642  23881213.6134   23881217.8224
      -468.4734       -365.0564         47.0004         41.0004
  21421099.8854  -21842783.34943 -17011392.27742  21421098.6964   21421102.2584
      1855.2944       1445.6794         55.0004         49.0004
  21929705.2084  -15302392.60443 -11915022.83742  21929703.8704   21929707.2394
     -2463.4884      -1919.6134         54.0004         47.0004
 03 10 28  0 56  0.0000000  0  7G 4G 7G 9G11G14G20G28
  24145254.6214   -7070226.43443  -5483947.69642  24145254.1774   24145258.8984
      3645.2834       2840.4694         46.0004         40.0004
  21031933.4094  -20716423.22044 -16134733.95242  21031931.7404   21031936.5104
      1579.3894       1230.6904         57.0004         51.0004
  23865426.7054   -6739234.71943  -5241311.57042  23865426.7134   23865432.6154
     -1217.4994       -948.6944         44.0004         40.0004
  21525351.3784  -11137709.22843  -8662198.06442  21525350.4934   21525353.0804
     -2344.9614      -1827.2424         56.0004         49.0004
  23883944.2344   -9214346.20343  -7158013.59242  23883942.3064   23883947.2744
      -488.3164       -380.5164         45.0004         40.0004
  21410558.9984  -21898176.14143 -17054555.48042  21410557.4184   21410561.2674
      1836.8894       1431.3394         55.0004         49.0004
  21943811.6404  -15228263.20143 -11857259.66242  21943810.4474   21943813.6174
     -2479.0744      -1931.7524         54.0004         47.0004
 03 10 28  0 56 30.0000000  0  7G 4G 7G 9G11G14G20G28
  24124455.2014   -7179524.03743  -5569114.64642  24124455.4584   24124458.7504
      3641.6514       2837.6644         46.0004         38.0004
  21022951.9724  -20763619.73344 -16171510.46642  21022950.5244   21022955.3324
      1566.8544       1220.9264         57.0004         51.0004
  23872434.5764   -6702418.93543  -5212623.96142  23872433.7604   23872439.2934
     -1237.0454       -963.9264         47.0004         41.0004
  21538769.3434  -11067196.24343  -8607252.88442  21538768.5534   21538771.2374
     -2356.0444      -1835.8674         56.0004         49.0004
  23886789.8114   -9199397.45843  -7146365.23842  23886789.1834   23886793.3224
      -508.2984       -396.0774         47.0004         41.0004
  21400123.0944  -21953016.97443 -17097288.58942  21400122.0114   21400125.8254
      1818.9584       1417.3744         55.0004         49.0004
  21958005.3954  -15153672.75743 -11799137.24842  21958004.2074   21958007.5894
     -2493.7964      -1943.2084         54.0004         47.0004
 03 10 28  0 57  0.0000000  0  7G 4G 7G 9G11G14G20G28
  24103683.6034   -7288684.77943  -5654174.91442  24103683.2874   24103688.2064
      3636.0074       2833.2494         47.0004         41.0004
  21014045.3234  -20810423.65344 -16207981.04642  21014043.9034   21014048.7384
      1553.3704       1210.4164         57.0004         51.0004
  23879551.6494   -6665012.22943  -5183475.88542  23879551.4684   23879556.4424
     -1256.9314       -979.4284         45.0004         40.0004
  21552253.3524  -10996339.67543  -8552039.97542  21552252.2764   21552254.7864
     -2367.6624      -1844.9314         56.0004         49.0004
  23889750.0474   -9183843.02243  -7134244.94842  23889749.0504   23889751.7334
      -528.6014       -411.8994         47.0004         41.0004
  21389792.9784  -22007303.98543 -17139590.14342  21389791.2544   21389795.0084
      1800.2274       1402.7704         55.0004         49.0004
  21972286.5804  -15078623.48943 -11740657.30542  21972285.1344   21972289.4174
     -2509.3734      -1955.3634         54.0004         47.0004
 03 10 28  0 57 30.0000000  0  7G 4G 7G 9G11G14G20G28
  24082937.7024   -7397704.71343  -5739125.53942  24082936.9674   24082941.1374
      3631.3574       2829.6294         46.0004         40.0004
  21005214.4244  -20856830.88344 -16244142.52242  21005212.9994   21005217.6014
      1539.8634       1199.8984         57.0004         51.0004
  23886782.3694   -6627013.84443  -5153866.66942  23886781.3704   23886786.6234
     -1276.3194       -994.5274         45.0004         39.0004
  21565802.1704  -10925138.42943  -8496558.48442  21565801.4874   21565803.7724
     -2379.4364      -1854.1074         56.0004         49.0004
  23892824.7924   -9167680.19043  -7121650.38242  23892824.8404   23892828.4164
      -549.3444       -428.0614         46.0004         41.0004
  21379568.0324  -22061032.53943 -17181456.54342  21379567.2924   21379570.9574
      1781.2614       1387.9974         55.0004         49.0004
  21986655.8644  -15003114.96543 -11681819.49342  21986654.6244   21986657.5794
     -2524.9024      -1967.4524         54.0004         47.0004
 03 10 28  0 58  0.0000000  0  7G 4G 7G 9G11G14G20G28
  24062217.7944   -7506585.94743  -5823967.88042  24062217.9994   24062223.4664
      3626.8714       2826.1344         48.0004         42.0004
  20996458.6924  -20902843.75544 -16279996.71742  20996457.1364   20996461.9214
      1527.3064       1190.1094         57.0004         51.0004
  23894124.6744   -6588429.21543  -5123800.55942  23894123.4174   23894128.5174
     -1295.6994      -1009.6504         46.0004         40.0004
  21579415.8374  -10853598.22343  -8440812.87142  21579414.8644   21579417.7934
     -2390.1044      -1862.4174         55.0004         49.0004
  23896015.7024   -9150914.04143  -7108585.91942  23896014.6394   23896017.7764
      -568.9104       -443.3154         47.0004         41.0004
  21369450.0774  -22114204.68743 -17222889.37342  21369448.6694   21369452.8664
      1763.3014       1374.0034         55.0004         49.0004
  22001110.6864  -14927153.26643 -11622628.57342  22001109.7194   22001113.1394
     -2539.5364      -1978.8494         54.0004         47.0004
 03 10 28  0 58 30.0000000  0  7G 4G 7G 9G11G14G20G28
  24041524.8954   -7615326.17143  -5908700.54342  24041524.6234   24041529.0284
      3621.9894       2822.3244         47.0004         42.0004
  20987778.0064  -20948460.21444 -16315542.01542  20987776.7644   20987781.3454
      1513.5174       1179.3704         57.0004         51.0004
  23901577.4084   -6549259.78743  -5093278.77142  23901577.0974   23901583.0854
     -1315.7004      -1025.2154         44.0004         40.0004
  21593094.0424  -10781719.77443  -8384803.69142  21593092.9324   21593095.8884
     -2402.0314      -1871.7074         55.0004         49.0004
  23899320.6764   -9133543.74843  -7095050.57142  23899319.7754   23899323.3574
      -589.5494       -459.3864         46.0004         41.0004
  21359438.3924  -22166818.46243 -17263887.11142  21359436.7924   21359440.6164
      1744.0644       1359.0164         56.0004         49.0004
  22015651.8274  -14850739.81643 -11563085.63642  22015650.5594   22015653.9214
     -2555.0074      -1990.9144         54.0004         47.0004
 03 10 28  0 59  0.0000000  0  7G 4G 7G 9G11G14G20G28
  24020859.0104   -7723919.82343  -5993318.84342  24020857.7474   24020864.5024
      3617.5694       2818.8944         45.0004         39.0004
  20979173.9764  -20993674.51244 -16350773.94042  20979172.4364   20979177.2894
      1500.5364       1169.2384         57.0004         51.0004
  23909145.3974   -6509503.07843  -5062299.49842  23909144.3174   23909148.0004
     -1334.9464      -1040.2254         47.0004         41.0004
  21606836.4784  -10709500.59943  -8328529.01842  21606835.8624   21606838.6204
     -2412.8514      -1880.1504         55.0004         49.0004
  23902741.1784   -9115565.73743  -7081041.57942  23902740.2454   23902743.6864
      -609.5704       -475.0014         45.0004         40.0004
  21349533.1814  -22218867.80943 -17304445.05742  21349532.0134   21349535.7344
      1725.6464       1344.6594         55.0004         49.0004
  22030279.4274  -14773872.88143 -11503189.33742  22030278.0234   22030280.8984
     -2569.6504      -2002.3154         54.0004         47.0004
 03 10 28  0 59 30.0000000  0  7G 4G 7G 9G11G14G20G28
  24000222.6034   -7832369.51943  -6077825.11542  24000222.4864   24000226.7554
      3612.1394       2814.6564         47.0004         41.0004
  20970645.9594  -21038489.68644 -16385694.85542  20970644.5124   20970649.1864
      1486.9094       1158.6294         57.0004         51.0004
  23916820.9194   -6469165.12243  -5030867.26242  23916819.8594   23916823.7494
     -1354.5614      -1055.5074         46.0004         40.0004
  21620643.1944  -10636946.58143  -8271993.42242  21620642.1874   21620644.9124
     -2424.3394      -1889.0954         55.0004         49.0004
  23906277.7414   -9096985.07043  -7066562.96942  23906275.8554   23906280.7414
      -629.7084       -490.6944         47.0004         40.0004
  21339735.9904  -22270355.23943 -17344565.13042  21339734.5564   21339738.1244
      1706.6044       1329.8194         56.0004         49.0004
  22044991.2164  -14696558.91743 -11442944.69742  22044989.7864   22044993.1974
     -2584.8844      -2014.2064         53.0004         47.0004
 03 10 28  1  0  0.0000000  1  7G 4G 7G 9G11G14G20G28
  23979612.9444   -7940674.18843  -6162218.33842  23979611.2464   23979616.9094
      3606.8124       2810.4994         46.0004         40.0004
  20962194.1904  -21082904.80644 -16420304.03242  20962192.8104   20962197.5334
      1473.3444       1148.0584         57.0004         51.0004
  23924607.1504   -6428248.13143  -4998983.82342  23924605.8464   23924608.4334
     -1373.8334      -1070.5204         47.0004         39.0004
  21634512.9154  -10564059.82843  -8215198.55242  21634512.1304   21634514.9184
     -2435.4894      -1897.7764         55.0004         49.0004
  23909927.5784   -9077803.28543  -7051616.16242  23909927.6484   23909928.5954
      -649.8234       -506.3404         46.0004         41.0004
  21330045.0824  -22321279.92543 -17384246.68442  21330043.6294   21330047.3934
      1687.7024       1315.0964         55.0004         49.0004
  22059788.2604  -14618800.66143 -11382353.83542  22059787.3724   22059790.7134
     -2599.8004      -2025.8104         53.0004         47.0004
 03 10 28  1  0 30.0000000  0  7G 4G 7G 9G11G14G20G28
  23959030.9104   -8048828.90743  -6246494.57842  23959030.5934   23959037.3824
      3602.6874       2807.2794         44.0004         41.0004
  20953819.1924  -21126915.01644 -16454597.68642  20953817.7474   20953822.4774
      1460.2784       1137.8684         57.0004         51.0004
  23932503.9874   -6386750.72343  -4966648.12442  23932502.2604   23932505.8454
     -1392.9014      -1085.3824         47.0004         40.0004
  21648446.6534  -10490838.59243  -8158143.04442  21648446.0114   21648448.3904
     -2446.2414      -1906.1654         55.0004         49.0004
  23913692.3044   -9058017.13443  -7036198.31042  23913692.0614   23913695.8404
      -669.4154       -521.6344         46.0004         41.0004
  21320462.1484  -22371636.72843 -17423485.73942  21320461.0944   21320464.7674
      1669.0794       1300.5734         55.0004         49.0004
  22074669.9784  -14540597.26943 -11321416.10742  22074668.7944   22074671.6354
     -2614.1204      -2036.9834         53.0004         47.0004
 03 10 28  1  1  0.0000000  0  7G 4G 7G 9G11G14G20G28
  23938479.7524   -8156835.13243  -6330655.22142  23938479.3214   23938482.4744
      3598.2214       2803.8144         48.0004         41.0004
  20945521.0074  -21170522.09544 -16488577.23942  20945519.6144   20945524.2324
      1447.4284       1127.8734         57.0004         51.0004
  23940509.2754   -6344677.92443  -4933864.24742  23940507.6884   23940514.6014
     -1411.1954      -1099.6294         46.0004         41.0004
  21662443.2594  -10417287.72643  -8100830.68042  21662441.9674   21662444.6534
     -2456.5594      -1914.1944         55.0004         49.0004
  23917573.0844   -9037630.49043  -7020312.62942  23917571.2744   23917575.1134
      -688.9434       -536.8554         47.0004         41.0004
  21310987.9904  -22421427.25543 -17462283.53742  21310986.3304   21310990.1214
      1650.8714       1286.3954         55.0004         49.0004
  22089635.3714  -14461954.06643 -11260135.67842  22089634.4384   22089637.6364
     -2628.1134      -2047.8714         54.0004         47.0004
 03 10 28  1  1 30.0000000  0  7G 4G 7G 9G11G14G20G28
  23917954.6384   -8264688.11543  -6414696.46142  23917953.9754   23917960.8334
      3592.9304       2799.6934         46.0004         41.0004
  20937300.4074  -21213721.24344 -16522238.89942  20937299.1294   20937303.9784
      1433.2994       1116.8574         57.0004         51.0004
  23948624.8494   -6302028.02043  -4900630.57942  23948623.8304   23948629.8584
     -1431.0694      -1115.1304         45.0004         40.0004
  21676502.6244  -10343405.48343  -8043260.10342  21676501.4014   21676504.4184
     -2468.1964      -1923.2634         55.0004         49.0004
  23921565.9644   -9016640.66243  -7003956.88242  23921566.0424   23921570.1614
      -709.3854       -552.7714         46.0004         41.0004
  21301621.0964  -22470646.60543 -17500636.26942  21301620.0134   21301623.4954
      1631.1014       1270.9924         55.0004         49.0004
  22104684.5914  -14382870.03843 -11198511.76342  22104683.5104   22104686.4314
     -2643.2764      -2059.6864         53.0004         47.0004
 03 10 28  1  2  0.0000000  0  7G 4G 7G 9G11G14G20G28
  23897459.5304   -8372390.69443  -6498620.41942  23897458.7514   23897464.1524
      3587.1284       2795.1564         47.0004         41.0004
  20929156.8724  -21256515.36744 -16555584.96242  20929155.6174   20929160.5074
      1419.5344       1106.1294         57.0004         51.0004
  23956849.6674   -6258807.45343  -4866952.33342  23956849.0304   23956854.1474
     -1450.4554      -1130.2174         46.0004         40.0004
  21690623.8814  -10269198.05643  -7985436.13942  21690622.4914   21690625.7324
     -2479.1774      -1931.8284         55.0004         49.0004
  23925673.8794   -8995052.69543  -6987135.09442  23925673.4644   23925678.6134
      -729.8354       -568.7084         45.0004         41.0004
  21292363.6084  -22519297.55843 -17538546.10842  21292362.3664   21292365.8184
      1612.0984       1256.1754         56.0004         49.0004
  22119816.5394  -14303351.97143 -11136549.63442  22119815.6724   22119818.2404
     -2657.9914      -2071.1704         53.0004         47.0004
 03 10 28  1  2 30.0000000  0  7G 4G 7G 9G11G14G20G28
  23876994.7714   -8479937.96543  -6582423.45842  23876994.5734   23876997.4844
      3582.2854       2791.3914         47.0004         40.0004
  20921091.5604  -21298900.14244 -16588612.06342  20921089.9764   20921094.5304
      1406.1454       1095.6954         57.0004         51.0004
  23965184.2204   -6215015.07743  -4832828.46142  23965183.3164   23965187.3594
     -1469.1824      -1144.8274         48.0004         40.0004
  21704807.4394  -10194663.83743  -7927357.53342  21704806.2814   21704808.1404
     -2489.8334      -1940.1324         55.0004         49.0004
  23929897.8514   -8972863.75543  -6969844.85942  23929895.3124   23929900.5594
      -749.3494       -583.9164         46.0004         41.0004
  21283215.0174  -22567375.50043 -17576009.43742  21283213.2784   21283216.9294
      1593.1184       1241.3884         56.0004         49.0004
  22135031.5384  -14223398.76243 -11074248.43542  22135029.7724   22135033.7844
     -2672.1844      -2082.2244         53.0004         47.0004
 03 10 28  1  3  0.0000000  0  7G 4G 7G 9G11G14G20G28
  23856557.9324   -8587330.28543  -6666105.75442  23856557.8424   23856563.4324
      3576.8204       2787.1384         47.0004         41.0004
  20913103.8044  -21340875.65044 -16621320.23942  20913102.5494   20913107.0924
      1391.9824       1084.6584         57.0004         51.0004
  23973625.3534   -6170654.32443  -4798261.64442  23973624.8764   23973627.3214
     -1488.7074      -1160.0584         46.0004         39.0004
  21719051.7844  -10119806.29343  -7869026.98342  21719050.9724   21719053.8914
     -2500.9564      -1948.8004         55.0004         48.0004
  23934233.6594   -8950077.08743  -6952089.03342  23934232.8064   23934236.7554
      -770.0314       -600.0164         46.0004         41.0004
  21274175.0444  -22614880.59443 -17613026.38642  21274173.4104   21274177.0314
      1573.6864       1226.2424         56.0004         50.0004
  22150327.2334  -14143014.87343 -11011611.64142  22150326.7184   22150329.7184
     -2686.8554      -2093.6644         53.0004         46.0004
 03 10 28  1  3 30.0000000  0  7G 4G 7G 9G11G14G20G28
  23836151.7664   -8694563.16543  -6749663.66142  23836152.0744   23836158.1584
      3571.8864       2783.2754         47.0004         41.0004
  20905194.8824  -21382438.04244 -16653706.51342  20905193.5174   20905198.0204
      1378.6764       1074.2934         57.0004         51.0004
  23982174.9374   -6125724.41443  -4763251.30242  23982173.7534   23982179.0534
     -1506.6644      -1174.0194         47.0004         40.0004
  21733358.8864  -10044624.26743  -7810443.59142  21733357.5914   21733360.3724
     -2511.2994      -1956.8564         55.0004         48.0004
  23938684.4324   -8926690.85243  -6933866.15842  23938682.9524   23938687.4514
      -789.4124       -615.1194         47.0004         41.0004
  21265244.6544  -22661808.84443 -17649593.85842  21265243.2604   21265247.0334
      1554.8014       1211.5374         56.0004         50.0004
  22165706.1924  -14062199.97443 -10948638.99942  22165704.8664   22165707.7154
     -2700.8824      -2104.5774         53.0004         46.0004
 03 10 28  1  4  0.0000000  0  7G 4G 7G 9G11G14G20G28
  23815775.8074   -8801638.60343  -6833098.99542  23815774.9204   23815779.1314
      3566.8234       2779.3424         46.0004         40.0004
  20897364.0634  -21423589.15944 -16685772.31742  20897362.8664   20897367.0474
      1365.0014       1063.6344         57.0004         51.0004
  23990832.2114   -6080230.71143  -4727801.68342  23990830.6404   23990836.8134
     -1524.6704      -1188.0614         47.0004         40.0004
  21747726.4404   -9969122.59043  -7751611.12242  21747725.1354   21747727.6954
     -2521.8504      -1965.0744         55.0004         48.0004
  23943248.3804   -8902708.22743  -6915178.36542  23943247.7904   23943250.4494
      -808.9844       -630.3494         48.0004         41.0004
  21256423.7964  -22708162.11043 -17685713.27142  21256422.3994   21256426.0094
      1535.8174       1196.7434         56.0004         50.0004
  22181165.7574  -13980959.45543 -10885334.69142  22181164.2704   22181167.5344
     -2714.8514      -2115.4614         53.0004         46.0004
 03 10 28  1  4 30.0000000  0  7G 4G 7G 9G11G14G20G28
  23795431.7354   -8908554.18943  -6916409.87642  23795430.5104   23795435.1634
      3561.6564       2775.3064         47.0004         41.0004
  20889611.9074  -21464327.00244 -16717516.09542  20889610.4494   20889615.2074
      1351.3314       1052.9954         57.0004         51.0004
  23999597.1244   -6034174.93743  -4691914.06442  23999595.7284   23999601.0364
     -1544.4494      -1203.4554         46.0004         41.0004
  21762154.2904   -9893302.35443  -7692530.41842  21762153.3054   21762155.7164
     -2532.3604      -1973.2594         55.0004         48.0004
  23947925.1764   -8878129.83743  -6896026.39742  23947924.6164   23947925.9644
      -828.8134       -645.8054         48.0004         41.0004
  21247713.1924  -22753938.11843 -17721382.86942  21247711.7154   21247715.0064
      1516.4794       1181.6694         56.0004         50.0004
  22196705.4264  -13899295.19843 -10821700.20842  22196704.5314   22196708.1124
     -2728.9264      -2126.4314         53.0004         46.0004
 03 10 28  1  5  0.0000000  0  7G 4G 7G 9G11G14G20G28
  23775116.9624   -9015307.22443  -6999593.96342  23775116.0384   23775120.6624
      3555.1014       2770.2114         46.0004         41.0004
  20881938.8204  -21504648.95944 -16748935.81342  20881937.6144   20881942.3484
      1336.9064       1041.7534         57.0004         51.0004
  24008466.8234   -5987557.78843  -4655589.37042  24008465.6664   24008470.9434
     -1563.5884      -1218.4024         46.0004         41.0004
  21776643.2364   -9817163.91743  -7633201.77142  21776642.2154   21776644.5414
     -2543.6824      -1982.0984         55.0004         48.0004
  23952715.5224   -8852955.25643  -6876409.88142  23952716.1214   23952717.3384
      -849.5034       -661.9564         47.0004         40.0004
  21239112.4874  -22799134.13943 -17756600.54842  21239111.0524   21239114.7064
      1496.4704       1166.0824         56.0004         50.0004
  22212326.2784  -13817208.36043 -10757736.44442  22212325.2964   22212327.9734
     -2743.5824      -2137.8564         53.0004         46.0004
 03 10 28  1  5 30.0000000  0  7G 4G 7G 9G11G14G20G28
  23754834.3374   -9121895.10743  -7082649.33942  23754833.0684   23754837.6484
      3550.2754       2766.4574         48.0004         42.0004
  20874345.4144  -21544552.54544 -16780029.54042  20874344.1544   20874348.8344
      1323.4824       1031.3174         57.0004         51.0004
  24017446.3164   -5940379.21943  -4618826.80242  24017445.1264   24017449.1154
     -1581.5694      -1232.3974         48.0004         41.0004
  21791191.9674   -9740707.71043  -7573625.51442  21791190.8964   21791193.9554
     -2553.5034      -1989.7324         55.0004         48.0004
  23957619.8704   -8827184.33143  -6856328.85442  23957619.0184   23957620.5354
      -868.7754       -676.9894         46.0004         40.0004
  21230622.7464  -22843747.81343 -17791364.45642  21230621.2064   21230624.9474
      1477.6894       1151.4554         56.0004         50.0004
  22228027.2764  -13734700.33443 -10693444.50642  22228026.4104   22228029.1884
     -2756.9494      -2148.2524         53.0004         46.0004
 03 10 28  1  6  0.0000000  0  7G 4G 7G 9G11G14G20G28
  23734581.3054   -9228320.00643  -7165577.81142  23734581.1784   23734584.8884
      3544.6224       2762.0274         48.0004         41.0004
  20866831.3954  -21584040.66844 -16810799.53042  20866829.8974   20866834.6444
      1309.1384       1020.1124         57.0004         51.0004
  24026529.1324   -5892646.26743  -4581632.13542  24026528.0774   24026532.1874
     -1600.3954      -1247.0714         47.0004         40.0004
  21805800.0094   -9663939.91343  -7513806.45442  21805798.9534   21805802.4084
     -2564.3264      -1998.1794         55.0004         48.0004
  23962634.8254   -8800821.61343  -6835786.44642  23962634.3024   23962638.3074
      -888.9234       -692.6634         46.0004         40.0004
  21222243.4304  -22887781.87843 -17825676.71142  21222241.8924   21222245.6324
      1457.9384       1136.0574         56.0004         50.0004
  22243807.1984  -13651777.74443 -10628829.47742  22243805.6324   22243808.7724
     -2771.1664      -2159.3504         53.0004         46.0004
 03 10 28  1  6 30.0000000  0  7G 4G 7G 9G11G14G20G28
  23714359.2454   -9334576.74943  -7248375.17142  23714359.9214   23714364.3584
      3538.7754       2757.5114         45.0004         40.0004
  20859396.9904  -21623107.59144 -16841241.23242  20859395.6314   20859400.2634
      1294.9094       1009.0174         57.0004         51.0004
  24035716.0454   -5844356.88543  -4544004.12742  24035715.9564   24035720.6834
     -1619.1144      -1261.6414         44.0004         39.0004
  21820468.2984   -9586857.83543  -7453742.50442  21820467.4894   21820469.9904
     -2574.9634      -2006.4614         55.0004         48.0004
  23967764.7764   -8773864.44743  -6814780.91342  23967763.3894   23967768.5984
      -908.6884       -708.0614         46.0004         40.0004
  21213975.0054  -22931230.82243 -17859533.02842  21213973.9004   21213977.7384
      1438.2664       1120.7234         56.0004         50.0004
  22259666.1594  -13568438.79543 -10563890.04842  22259664.2504   22259667.8134
     -2785.0874      -2170.2014         53.0004         46.0004
 03 10 28  1  7  0.0000000  0  7G 4G 7G 9G11G14G20G28
  23694173.6264   -9440666.03643  -7331042.07642  23694172.6264   23694177.0874
      3533.3424       2753.2644         48.0004         41.0004
  20852042.6044  -21661754.83644 -16871355.99842  20852041.3044   20852045.7154
      1281.0534        998.2184         57.0004         51.0004
  24045011.7594   -5795515.57143  -4505945.98842  24045010.8784   24045015.4884
     -1637.1804      -1275.7174         47.0004         40.0004
  21835196.1664   -9509466.07143  -7393437.24042  21835195.0474   21835197.3504
     -2584.9524      -2014.2534         55.0004         48.0004
  23973007.8694   -8746316.12943  -6793314.70242  23973005.5534   23973011.1954
      -928.3394       -723.3824         46.0004         40.0004
  21205818.6454  -22974095.93943 -17892934.41342  21205816.9724   21205820.7744
      1418.8374       1105.5944         56.0004         50.0004
  22275602.3374  -13484688.60043 -10498630.17942  22275601.5374   22275604.9554
     -2798.6774      -2180.7744         52.0004         46.0004
 03 10 28  1  7 30.0000000  0  7G 4G 7G 9G11G14G20G28
  23674017.4414   -9546585.63943  -7413576.83342  23674015.7414   23674022.0564
      3528.0424       2749.1014         46.0004         41.0004
  20844768.5734  -21699980.37244 -16901142.18542  20844767.0504   20844771.7344
      1267.3714        987.5644         57.0004         51.0004
  24054412.0024   -5746123.59543  -4467458.72742  24054411.3874   24054416.1924
     -1655.2564      -1289.7974         48.0004         42.0004
  21849982.1734   -9431765.15143  -7332891.08142  21849980.7424   21849982.9814
     -2594.9874      -2022.0644         54.0004         48.0004
  23978362.8774   -8718176.91643  -6771388.09342  23978362.1844   23978364.9884
      -947.4694       -738.2854         46.0004         40.0004
  21197772.3654  -23016375.24143 -17925879.31042  21197771.3624   21197774.9904
      1399.8434       1090.7904         56.0004         50.0004
  22291618.1694  -13400528.81743 -10433051.13942  22291616.5964   22291620.1374
     -2811.8254      -2191.0234         53.0004         46.0004
 03 10 28  1  8  0.0000000  0  7G 4G 7G 9G11G14G20G28
  23653894.7064   -9652332.52043  -7495976.79542  23653894.6704   23653897.5304
      3522.0434       2744.4484         47.0004         42.0004
  20837575.2514  -21737781.11344 -16930597.31842  20837573.9384   20837578.6694
      1252.9924        976.3674         57.0004         51.0004
  24063914.8354   -5696181.76443  -4428542.98842  24063913.0184   24063919.7684
     -1673.8984      -1304.3534         46.0004         41.0004
  21864826.5494   -9353755.12943  -7272104.06042  21864825.4174   21864828.4454
     -2605.3774      -2030.1594         54.0004         48.0004
  23983830.4864   -8689446.29743  -6749000.57442  23983829.5284   23983832.1764
      -967.3934       -753.8134         47.0004         40.0004
  21189839.3204  -23058065.77643 -17958365.43442  21189838.1294   21189841.6154
      1379.9794       1075.3134         56.0004         50.0004
  22307710.6874  -13315960.37243 -10367153.65942  22307709.2924   22307712.5464
     -2825.7004      -2201.8544         52.0004         46.0004
 03 10 28  1  8 30.0000000  0  7G 4G 7G 9G11G14G20G28
  23633805.1584   -9757906.45843  -7578242.12942  23633803.7384   23633809.6084
      3516.4744       2740.0994         48.0004         42.0004
  20830462.7364  -21775157.15544 -16959721.48042  20830461.2874   20830466.2074
      1239.1564        965.5894         57.0004         51.0004
  24073520.3244   -5645693.51043  -4389201.50342  24073518.7054   24073524.8174
     -1691.7534      -1318.2594         45.0004         39.0004
  21879730.0454   -9275439.07843  -7211078.57742  21879728.5164   21879731.3904
     -2615.2564      -2037.8624         55.0004         48.0004
  23989409.5044   -8660126.62943  -6726154.17942  23989408.9334   23989412.7094
      -986.5294       -768.7054         46.0004         40.0004
  21182017.7364  -23099167.68143 -17990392.90142  21182016.4424   21182020.1364
      1360.6764       1060.2684         56.0004         50.0004
  22323880.3314  -13230987.12043 -10300940.74142  22323879.1014   22323883.1474
     -2838.7554      -2212.0254         52.0004         46.0004
 03 10 28  1  9  0.0000000  0  7G 4G 7G 9G11G14G20G28
  23613747.0964   -9863310.87143  -7660375.38642  23613746.4384   23613751.2154
      3510.4504       2735.4264         48.0004         42.0004
  20823430.3774  -21812112.29144 -16988517.64342  20823429.0234   20823433.8094
      1224.6724        954.2894         57.0004         51.0004
  24083232.8184   -5594666.50843  -4349440.22342  24083231.8774   24083236.3824
     -1709.8454      -1332.3444         47.0004         41.0004
  21894689.4884   -9196823.68743  -7149819.83542  21894689.0074   21894691.0054
     -2625.6084      -2045.9204         54.0004         48.0004
  23995100.2184   -8630223.94943  -6702853.52142  23995098.2064   23995103.0744
     -1006.6724       -784.4114         46.0004         40.0004
  21174307.7434  -23139684.82543 -18021964.68842  21174306.1684   21174309.9294
      1340.5624       1044.5884         56.0004         50.0004
  22340126.0454  -13145616.68543 -10234418.32842  22340124.6744   22340128.5774
     -2852.4874      -2222.7324         52.0004         46.0004
 03 10 28  1  9 30.0000000  0  7G 4G 7G 9G11G14G20G28
  23593721.8204   -9968535.98343  -7742368.85942  23593719.6314   23593726.1034
      3504.2584       2730.5834         46.0004         41.0004
  20816480.0524  -21848636.79044 -17016978.28042  20816478.7854   20816483.2154
      1210.1504        942.9764         57.0004         51.0004
  24093045.0734   -5543093.87343  -4309253.72542  24093044.7574   24093049.6034
     -1728.5344      -1346.9024         44.0004         40.0004
  21909708.1794   -9117901.99643  -7088322.42842  21909706.9674   21909709.6744
     -2635.8794      -2053.9394         54.0004         48.0004
  24000903.4204   -8599730.50643  -6679092.46742  24000902.6794   24000904.9704
     -1026.3994       -799.7864         46.0004         40.0004
  21166710.8494  -23179607.24543 -18053073.07142  21166709.2624   21166713.0074
      1320.7084       1029.1354         56.0004         50.0004
  22356448.5534  -13059842.81643 -10167581.54842  22356447.2114   22356450.2104
     -2865.9224      -2233.1974         53.0004         46.0004
 03 10 28  1 10  0.0000000  0  7G 4G 7G 9G11G14G20G28
  23573732.3904  -10073583.77043  -7824224.23442  23573730.9764   23573737.7124
      3498.4294       2726.0474         46.0004         41.0004
  20809611.0884  -21884733.17244 -17045105.32042  20809609.7674   20809614.3344
      1195.7924        931.7864         57.0004         51.0004
  24102962.7414   -5490981.94343  -4268647.07042  24102962.6294   24102965.6794
     -1745.9614      -1360.4774         46.0004         39.0004
  21924783.6064   -9038680.07643  -7026591.06742  21924782.3234   21924785.4004
     -2645.9524      -2061.7834         55.0004         48.0004
  24006817.5224   -8568651.33443  -6654874.92042  24006815.9234   24006820.3434
     -1045.7004       -814.8184         46.0004         40.0004
  21159225.9784  -23218937.88143 -18083720.31942  21159225.0914   21159228.5744
      1300.9594       1013.7374         56.0004         50.0004
  22372845.6354  -12973672.28043 -10100435.68942  22372845.1214   22372847.9684
     -2879.0384      -2243.3954         52.0004         46.0004
 03 10 28  1 10 30.0000000  0  7G 4G 7G 9G11G14G20G28
  23553777.1704  -10178453.73743  -7905940.92842  23553775.6894   23553779.6214
      3492.7044       2721.5934         48.0004         42.0004
  20802823.8374  -21920401.13744 -17072898.49742  20802822.3204   20802827.0934
      1181.9544        921.0074         57.0004         51.0004
  24112982.3444   -5438334.20943  -4227622.92442  24112981.3034   24112985.4914
     -1763.5104      -1374.1694         46.0004         40.0004
  21939915.4574   -8959160.17743  -6964627.51542  21939914.7444   21939917.3284
     -2655.4384      -2069.1644         55.0004         48.0004
  24012841.8644   -8536988.85943  -6630202.91342  24012841.7664   24012845.6704
     -1064.9934       -829.8414         46.0004         40.0004
  21151854.8204  -23257676.43543 -18113906.19942  21151853.2394   21151856.7724
      1281.5414        998.6054         56.0004         50.0004
  22389318.5884  -12887108.32243 -10032983.26542  22389317.1994   22389321.2314
     -2891.8154      -2253.3454         52.0004         45.0004
 03 10 28  1 11  0.0000000  0  7G 4G 7G 9G11G14G20G28
  23533854.1364  -10283141.24143  -7987515.49842  23533854.6384   23533858.8814
      3486.8944       2717.0524         47.0004         42.0004
  20796118.6064  -21955636.23544 -17100354.41042  20796117.2294   20796121.9604
      1167.5814        909.8024         57.0004         51.0004
  24123100.9634   -5385148.98543  -4186179.84142  24123099.8204   24123107.4614
     -1781.3204      -1388.0204         44.0004         39.0004
  21955104.9454   -8879340.87643  -6902430.66042  21955103.6284   21955106.7404
     -2665.3414      -2076.8914         54.0004         48.0004
  24018979.1094   -8504740.88343  -6605074.74542  24018977.9674   24018981.0714
     -1084.4144       -844.9904         46.0004         40.0004
  21144596.4754  -23295818.53743 -18143627.30042  21144595.0874   21144598.7334
      1261.7304        983.1674         56.0004         50.0004
  22405866.4754  -12800150.44643  -9965223.89642  22405864.6734   22405868.4664
     -2904.7204      -2263.4174         52.0004         46.0004
 03 10 28  1 11 30.0000000  0  7G 4G 7G 9G11G14G20G28
  23513968.8584  -10387647.95143  -8068949.22442  23513968.7884   23513972.2574
      3480.8444       2712.3574         49.0004         43.0004
  20789495.6784  -21990440.13744 -17127474.29042  20789494.2434   20789498.9634
      1153.3514        898.7064         57.0004         51.0004
  24133324.1074   -5331432.54643  -4144323.03542  24133323.2304   24133328.9274
     -1799.3744      -1402.1034         45.0004         40.0004
  21970349.4014   -8799226.61943  -6840003.97542  21970348.7204   21970351.2524
     -2674.8654      -2084.3084         54.0004         48.0004
  24025226.5484   -8471911.43943  -6579493.39042  24025225.0014   24025227.8294
     -1103.8704       -860.1684         45.0004         40.0004
  21137450.9414  -23333366.13343 -18172885.16642  21137449.9534   21137453.5304
      1242.0694        967.8364         56.0004         50.0004
  22422487.2594  -12712804.03243  -9897161.73242  22422486.4594   22422488.8594
     -2917.5624      -2273.4314         52.0004         45.0004
 03 10 28  1 12  0.0000000  0  7G 4G 7G 9G11G14G20G28
  23494114.7974  -10491971.12043  -8150239.87642  23494114.6684   23494120.1094
      3474.3964       2707.3224         47.0004         42.0004
  20782955.3084  -22024810.95344 -17154256.67942  20782953.8854   20782958.5924
      1138.6424        887.2474         57.0004         52.0004
  24143647.0944   -5277186.04043  -4102053.16242  24143645.2804   24143649.8884
     -1817.2674      -1416.0534         46.0004         40.0004
  21985650.8684   -8718818.72843  -6777348.47642  21985649.7654   21985652.8414
     -2685.1194      -2092.2954         54.0004         48.0004
  24031584.1704   -8438500.88843  -6553459.12142  24031583.2054   24031586.1264
     -1123.2804       -875.2834         46.0004         40.0004
  21130419.5844  -23370317.41043 -18201678.34842  21130418.1664   21130422.1054
      1221.8544        952.1004         56.0004         50.0004
  22439183.0734  -12625071.23043  -9828798.51342  22439182.2134   22439184.6144
     -2930.7514      -2283.6814         52.0004         46.0004
 03 10 28  1 12 30.0000000  0  7G 4G 7G 9G11G14G20G28
  23474297.5324  -10596110.40043  -8231387.34042  23474296.6064   23474303.6054
      3467.8544       2702.2354         48.0004         42.0004
  20776496.9874  -22058748.27144 -17180701.32442  20776495.5974   20776500.4544
      1123.7464        875.6444         57.0004         51.0004
  24154069.9044   -5222412.38643  -4059372.50342  24154068.4594   24154072.6754
     -1835.1744      -1430.0254         44.0004         38.0004
  22001008.2094   -8638119.20943  -6714465.73142  22001006.6714   22001009.0964
     -2695.1774      -2100.1284         55.0004         48.0004
  24038051.5304   -8404511.32743  -6526973.79442  24038050.8184   24038053.9374
     -1143.0274       -890.6764         46.0004         41.0004
  21123501.6694  -23406672.06243 -18230006.64542  21123500.0864   21123504.1204
      1201.5194        936.2524         56.0004         50.0004
  22455950.6214  -12536955.02543  -9760136.54642  22455948.5374   22455951.9174
     -2943.9134      -2293.9444         52.0004         45.0004
 03 10 28  1 13  0.0000000  0  7G 4G 7G 9G11G14G20G28
  23454518.1424  -10700062.04443  -8312388.57942  23454516.5964   23454520.6564
      3462.1784       2697.8094         48.0004         42.0004
  20770122.1134  -22092248.68044 -17206805.52842  20770120.8114   20770125.1574
      1109.6494        864.6564         57.0004         52.0004
  24164593.8024   -5167111.73543  -4016280.96642  24164591.9644   24164597.6534
     -1852.0604      -1443.1554         46.0004         40.0004
  22016419.6814   -8557127.83443  -6651355.56742  22016418.8364   22016421.8874
     -2704.2664      -2107.2144         54.0004         47.0004
  24044629.5974   -8369941.93043  -6500036.63642  24044628.6884   24044633.3114
     -1161.5954       -905.1394         46.0004         41.0004
  21116697.7424  -23442426.70343 -18257867.39042  21116696.2724   21116700.2554
      1182.0224        921.0544         56.0004         50.0004
  22472791.4034  -12448455.92843  -9691176.21742  22472789.8664   22472793.9494
     -2956.0804      -2303.4184         52.0004         45.0004
 03 10 28  1 13 30.0000000  0  7G 4G 7G 9G11G14G20G28
  23434773.4034  -10803824.65843  -8393242.47742  23434772.8084   23434774.6184
      3455.6344       2692.7074         48.0004         42.0004
  20763830.4694  -22125311.13644 -17232568.45542  20763829.1954   20763833.9924
      1094.6994        853.0114         57.0004         52.0004
  24175217.3094   -5111287.19843  -3972781.39442  24175216.5024   24175220.7054
     -1869.6274      -1456.8534         46.0004         41.0004
  22031887.1324   -8475846.57743  -6588019.50142  22031885.6474   22031888.7414
     -2714.2174      -2114.9674         54.0004         47.0004
  24051319.1594   -8334794.18443  -6472648.77942  24051317.2494   24051323.0044
     -1181.3094       -920.4894         46.0004         41.0004
  21110008.3814  -23477580.66343 -18285260.07342  21110007.0094   21110010.8184
      1161.8274        905.3264         56.0004         50.0004
  22489704.2774  -12359576.98343  -9621919.92442  22489703.0314   22489706.8214
     -2969.0264      -2313.5374         52.0004         45.0004
 03 10 28  1 14  0.0000000  0  7G 4G 7G 9G11G14G20G28
  23415063.8994  -10907397.96343  -8473948.85742  23415062.9174   23415066.9184
      3449.0304       2687.5614         49.0004         43.0004
  20757622.5044  -22157935.74044 -17257990.17742  20757620.9084   20757625.4254
      1079.8444        841.4314         57.0004         52.0004
  24185936.3494   -5054941.96943  -3928876.06342  24185936.7104   24185942.2214
     -1886.9874      -1470.3614         44.0004         38.0004
  22047409.2174   -8394278.31143  -6524459.80442  22047407.6784   22047411.1634
     -2723.9894      -2122.6024         54.0004         47.0004
  24058117.7164   -8299070.69243  -6444812.38542  24058116.5164   24058120.6254
     -1200.6444       -935.5584         47.0004         41.0004
  21103433.0254  -23512134.14543 -18312184.85942  21103431.3344   21103435.2294
      1141.4984        889.4744         56.0004         50.0004
  22506688.5334  -12270321.98443  -9552370.58942  22506687.3444   22506690.9604
     -2981.8314      -2323.5084         51.0004         45.0004
 03 10 28  1 14 30.0000000  0  7G 4G 7G 9G11G14G20G28
  23395390.2264  -11010781.50543  -8554507.45442  23395387.7854   23395393.6424
      3443.2804       2683.0814         48.0004         43.0004
  20751497.4134  -22190122.51344 -17283070.79642  20751496.0184   20751500.5654
      1065.7644        830.4654         57.0004         52.0004
  24196759.2094   -4998079.47443  -3884567.64242  24196758.6384   24196762.9224
     -1903.6904      -1483.3924         45.0004         39.0004
  22062984.8544   -8312425.89443  -6460678.69742  22062983.3514   22062986.5334
     -2732.9664      -2129.5784         54.0004         47.0004
  24065024.2824   -8262773.59443  -6416528.89142  24065022.4574   24065027.1524
     -1219.2814       -950.0994         46.0004         41.0004
  21096971.5874  -23546087.45343 -18338641.97342  21096970.4194   21096974.2914
      1121.9824        874.2744         56.0004         50.0004
  22523744.9844  -12180694.53243  -9482531.00842  22523743.7874   22523746.9144
     -2993.4724      -2332.5714         52.0004         45.0004
 03 10 28  1 15  0.0000000  0  7G 4G 7G 9G11G14G20G28
  23375753.5584  -11113970.95243  -8634914.68442  23375753.5364   23375757.3764
      3436.5174       2677.8184         49.0004         42.0004
  20745456.5314  -22221867.14644 -17307806.86942  20745455.1934   20745459.6904
      1050.7964        818.8054         57.0004         52.0004
  24207679.0044   -4940699.43143  -3839855.82442  24207678.2844   24207683.7964
     -1921.1054      -1496.9764         47.0004         41.0004
  22078616.3594   -8230288.02343  -6396675.15842  22078614.6614   22078617.0554
     -2742.5904      -2137.0764         54.0004         47.0004
  24072040.6504   -8225901.43943  -6387797.35942  24072038.9354   24072043.2454
     -1238.4994       -965.0584         46.0004         40.0004
  21090625.5754  -23579436.36843 -18364628.13442  21090624.3544   21090627.7594
      1101.5994        858.3904         56.0004         50.0004
  22540871.4694  -12090694.41643  -9412401.06242  22540870.6714   22540873.6664
     -3006.1724      -2342.4604         52.0004         45.0004
 03 10 28  1 15 30.0000000  0  7G 4G 7G 9G11G14G20G28
  23356153.2024  -11216965.45343  -8715170.03342  23356152.6524   23356155.2924
      3429.8544       2672.5894         48.0004         42.0004
  20739499.8794  -22253169.12644 -17332197.95642  20739498.5934   20739503.1594
      1035.9154        807.1964         57.0004         52.0004
  24218695.1114   -4882805.16543  -3794743.56042  24218694.4234   24218698.5364
     -1938.4474      -1510.4744         45.0004         40.0004
  22094300.4354   -8147867.01043  -6332450.99742  22094299.0224   22094301.0304
     -2752.2344      -2144.6024         54.0004         47.0004
  24079165.4424   -8188456.31243  -6358619.48342  24079164.9024   24079168.4464
     -1257.9324       -980.2044         46.0004         41.0004
  21084394.5814  -23612181.08743 -18390143.47642  21084393.2214   21084396.8664
      1081.3684        842.6204         56.0004         50.0004
  22558066.9204  -12000325.07543  -9341983.42042  22558065.8934   22558070.5314
     -3018.5274      -2352.0864         51.0004         45.0004
 03 10 28  1 16  0.0000000  0  7G 4G 7G 9G11G14G20G28
  23336591.2304  -11319766.06743  -8795274.32042  23336589.9194   23336596.7514
      3423.3654       2667.5434         48.0004         43.0004
  20733627.3184  -22284030.12944 -17356245.43642  20733625.8854   20733630.4824
      1021.0754        795.6334         57.0004         52.0004
  24229809.2674   -4824401.39043  -3749234.02442  24229809.0034   24229812.4974
     -1955.3814      -1523.6854         47.0004         39.0004
  22110036.9004   -8065167.07443  -6268009.49342  22110035.8614   22110038.5944
     -2761.5154      -2151.8424         54.0004         47.0004
  24086400.8724   -8150441.68343  -6328997.55742  24086399.0194   24086402.6844
     -1276.7854       -994.9084         47.0004         41.0004
  21078278.0214  -23644323.00643 -18415189.12042  21078276.7394   21078280.2594
      1061.1514        826.8634         56.0004         50.0004
  22575333.1354  -11909591.69443  -9271282.10542  22575332.6384   22575335.2014
     -3030.3904      -2361.3184         51.0004         45.0004
 03 10 28  1 16 30.0000000  0  7G 4G 7G 9G11G14G20G28
  23317066.8724  -11422369.67143  -8875225.16842  23317066.7244   23317070.0704
      3417.0064       2662.5854         49.0004         42.0004
  20727839.1854  -22314447.14344 -17379947.03242  20727837.7714   20727842.3164
      1006.7244        784.4634         57.0004         52.0004
  24241018.5554   -4765488.73143  -3703327.93742  24241018.2874   24241025.2174
     -1972.0134      -1536.6324         43.0004         39.0004
  22125827.1194   -7982188.36743  -6203350.76842  22125825.6834   22125829.4064
     -2770.3754      -2158.7394         53.0004         47.0004
  24093742.4504   -8111857.62743  -6298931.95142  24093742.2164   24093746.1894
     -1295.4454      -1009.4174         47.0004         41.0004
  21072276.9624  -23675859.50543 -18439763.00342  21072275.6574   21072279.0834
      1041.2354        811.3564         56.0004         50.0004
  22592668.5394  -11818494.97943  -9200297.67642  22592668.0374   22592670.9584
     -3042.3814      -2370.6864         51.0004         45.0004
 03 10 28  1 17  0.0000000  0  7G 4G 7G 9G11G14G20G28
  23297578.8464  -11524772.15243  -8955019.21242  23297579.0444   23297583.3684
      3410.3114       2657.3974         48.0004         42.0004
  20722136.1814  -22344416.57444 -17403299.80942  20722134.6974   20722139.3574
       991.8354        772.8674         57.0004         52.0004
  24252327.8864   -4706067.49343  -3657025.55842  24252326.1224   24252331.8104
     -1989.3354      -1550.1304         47.0004         41.0004
  22141670.0984   -7898930.44443  -6138474.47842  22141669.7584   22141672.0574
     -2779.6934      -2165.9924         53.0004         47.0004
  24101193.2394   -8072703.19743  -6268421.92942  24101192.2134   24101195.1204
     -1314.3484      -1024.1714         46.0004         40.0004
  21066391.4974  -23706787.37243 -18463862.61142  21066390.3524   21066394.0494
      1021.0324        795.6034         56.0004         50.0004
  22610073.0444  -11727035.43443  -9129030.52042  22610072.1284   22610075.5024
     -3054.7974      -2380.3644         51.0004         45.0004
 03 10 28  1 17 30.0000000  0  7G 4G 7G 9G11G14G20G28
  23278132.6294  -11626974.92743  -9034657.68142  23278131.6044   23278134.9314
      3403.3824       2651.9934         50.0004         43.0004
  20716517.9894  -22373940.19844 -17426305.25442  20716516.6514   20716521.2574
       976.5494        760.9424         57.0004         52.0004
  24263730.6254   -4646143.18543  -3610331.20242  24263728.8194   24263734.7144
     -2005.7224      -1562.9044         47.0004         40.0004
  22157566.4694   -7815397.09243  -6073383.56042  22157565.3884   22157568.3654
     -2789.0464      -2173.2764         53.0004         47.0004
  24108751.3694   -8032982.47043  -6237470.52042  24108750.6324   24108753.5864
     -1333.5754      -1039.1494         46.0004         40.0004
  21060621.6244  -23737108.62343 -18487489.55542  21060620.2654   21060624.0034
      1000.6214        779.7064         56.0004         50.0004
  22627545.2204  -11635218.60443  -9057484.97042  22627544.3694   22627547.6014
     -3066.5384      -2389.5134         51.0004         45.0004
 03 10 28  1 18  0.0000000  0  7G 4G 7G 9G11G14G20G28
  23258719.7304  -11728977.12143  -9114139.85742  23258719.1844   23258721.8534
      3397.0564       2647.0114         48.0004         42.0004
  20710984.6584  -22403017.23844 -17448962.65642  20710983.3464   20710987.9624
       962.1574        749.7294         57.0004         52.0004
  24275228.8034   -4585718.87543  -3563247.37142  24275227.2474   24275232.6354
     -2022.3454      -1575.8584         45.0004         39.0004
  22173514.8044   -7731590.69743  -6008079.88442  22173513.8174   22173516.4974
     -2797.8244      -2180.1164         54.0004         47.0004
  24116416.5774   -7992698.14843  -6206080.31242  24116416.4404   24116420.3494
     -1351.8594      -1053.3994         46.0004         40.0004
  21054966.9614  -23766822.73443 -18510643.39042  21054966.0294   21054969.6664
       980.6874        764.1734         56.0004         50.0004
  22645084.5534  -11543047.42943  -8985663.30042  22645082.9244   22645086.5784
     -3077.8074      -2398.2824         51.0004         44.0004
 03 10 28  1 18 30.0000000  0  7G 4G 7G 9G11G14G20G28
  23239349.5324  -11830775.56243  -9193463.26842  23239349.7054   23239352.1404
      3389.7424       2641.3384         49.0004         43.0004
  20705537.0194  -22431645.25644 -17471270.23742  20705535.7174   20705540.3404
       946.5304        737.5604         57.0004         52.0004
  24286822.1874   -4524795.51243  -3515774.58742  24286819.9924   24286826.8694
     -2039.0504      -1588.8604         45.0004         40.0004
  22189513.9204   -7647511.93543  -5942563.98042  22189512.8984   22189515.7924
     -2807.3264      -2187.5294         54.0004         47.0004
  24124190.5334   -7951849.50143  -6174250.30542  24124189.6964   24124192.7404
     -1371.1074      -1068.3794         46.0004         40.0004
  21049428.6804  -23795927.73043 -18533322.59342  21049427.2074   21049430.6724
       959.9974        748.0384         56.0004         50.0004
  22662692.3914  -11450523.18143  -8913566.48742  22662690.4634   22662693.0904
     -3090.2554      -2407.9764         51.0004         45.0004
 03 10 28  1 19  0.0000000  0  7G 4G 7G 9G11G14G20G28
  23220018.1854  -11932367.63943  -9272625.88042  23220017.2264   23220020.8654
      3383.4444       2636.4484         50.0004         43.0004
  20700175.3794  -22459821.66344 -17493225.90142  20700173.9444   20700178.6024
       932.0074        726.2454         57.0004         52.0004
  24298510.4994   -4463374.25143  -3467913.95742  24298509.3934   24298513.1454
     -2055.6224      -1601.7824         46.0004         39.0004
  22205565.5974   -7563160.75243  -5876835.79242  22205564.6774   22205567.2694
     -2815.7284      -2194.0734         53.0004         47.0004
  24132070.7364   -7910436.34343  -6141980.26542  24132069.5744   24132073.1904
     -1389.5384      -1082.7464         46.0004         40.0004
  21044006.6004  -23824421.49943 -18555525.53642  21044005.1744   21044008.8614
       940.1354        732.5724         56.0004         50.0004
  22680365.5174  -11357647.17243  -8841195.60942  22680364.6574   22680367.5764
     -3101.1824      -2416.5134         51.0004         45.0004
 03 10 28  1 19 30.0000000  0  7G 4G 7G 9G11G14G20G28
  23200722.6994  -12033755.30043  -9351629.20342  23200722.4664   23200727.2854
      3376.0004       2630.6274         49.0004         43.0004
  20694898.9734  -22487549.10044 -17514831.71142  20694897.4894   20694902.1724
       916.5244        714.1794         57.0004         52.0004
  24310291.4794   -4401461.50343  -3419670.18442  24310290.9654   24310296.3504
     -2072.3414      -1614.7864         44.0004         39.0004
  22221667.6144   -7478542.84543  -5810899.76742  22221666.6744   22221669.6184
     -2825.3314      -2201.5524         53.0004         47.0004
  24140058.6464   -7868464.55643  -6109274.94742  24140057.6934   24140060.4864
     -1408.4724      -1097.5074         47.0004         40.0004
  21038699.7934  -23852306.91343 -18577254.41842  21038698.7684   21038702.5374
       919.0324        716.1314         56.0004         50.0004
  22698105.0484  -11264426.13943  -8768555.86342  22698103.8824   22698107.3794
     -3113.4114      -2426.0364         51.0004         45.0004
 03 10 28  1 20  0.0000000  0  7G 4G 7G 9G11G14G20G28
  23181469.7824  -12134935.21243  -9430470.61542  23181468.3434   23181470.9974
      3369.8084       2625.7944         50.0004         43.0004
  20689708.6854  -22514824.73944 -17536085.45942  20689707.1734   20689711.8934
       902.2374        703.0534         57.0004         52.0004
  24322166.7794   -4339058.12443  -3371044.37642  24322166.2744   24322171.6914
     -2087.5004      -1626.6084         46.0004         40.0004
  22237820.6254   -7393657.59043  -5744755.42942  22237820.1844   22237822.7154
     -2833.2544      -2207.7334         53.0004         47.0004
  24148152.0944   -7825933.45743  -6076133.73142  24148151.1524   24148154.3774
     -1426.2984      -1111.4054         46.0004         40.0004
  21033509.8744  -23879581.37943 -18598507.23642  21033508.3904   21033512.0864
       899.6054        700.9804         56.0004         50.0004
  22715909.4114  -11170860.65143  -8695647.70042  22715909.4664   22715912.4304
     -3123.9514      -2434.2414         51.0004         44.0004
 03 10 28  1 20 30.0000000  0  7G 4G 7G 9G11G14G20G28
  23162255.5404  -12235903.53843  -9509147.20042  23162254.8074   23162260.5844
      3362.3164       2619.9694         49.0004         44.0004
  20684604.8344  -22541644.66244 -17556984.08442  20684603.3724   20684608.0864
       886.6194        690.8854         57.0004         52.0004
  24334134.4814   -4276163.87043  -3322035.86942  24334133.7424   24334140.8094
     -2104.4714      -1639.8484         43.0004         39.0004
  22254024.7374   -7308504.55243  -5678402.41842  22254024.1534   22254027.0534
     -2842.6014      -2215.0154         53.0004         47.0004
  24156350.1494   -7782842.40543  -6042556.33042  24156349.2284   24156353.4284
     -1445.4644      -1126.3474         44.0004         39.0004
  21028436.8824  -23906241.62643 -18619281.44042  21028435.1894   21028439.0044
       878.8014        684.7824         56.0004         50.0004
  22733779.8574  -11076950.85343  -8622471.25142  22733779.4924   22733782.4714
     -3135.8804      -2443.5154         51.0004         44.0004
 03 10 28  1 21  0.0000000  0  7G 4G 7G 9G11G14G20G28
  23143081.5364  -12336661.37843  -9587659.73942  23143080.8524   23143087.4234
      3355.1974       2614.4284         49.0004         44.0004
  20679587.5604  -22568010.92944 -17577529.25542  20679586.1534   20679590.6204
       871.4144        679.0394         57.0004         52.0004
  24346196.0884   -4212784.34143  -3272649.32542  24346195.5034   24346201.2544
     -2120.0584      -1651.9744         45.0004         38.0004
  22270279.1244   -7223087.89243  -5611843.99242  22270278.1574   22270281.2284
     -2851.4004      -2221.8704         53.0004         46.0004
  24164656.1464   -7739195.70343  -6008545.99742  24164655.8774   24164659.4744
     -1463.9124      -1140.6934         45.0004         39.0004
  21023479.8544  -23932289.67643 -18639578.61942  21023478.4174   21023482.0894
       858.0524        668.6074         56.0004         50.0004
  22751714.6844  -10982702.44143  -8549030.96442  22751714.2444   22751716.9154
     -3147.1544      -2452.3174         51.0004         44.0004
 03 10 28  1 21 30.0000000  0  7G 4G 7G 9G11G14G20G28
  23123947.6994  -12437208.74143  -9666008.29042  23123947.9834   23123951.7634
      3348.1514       2608.9534         48.0004         42.0004
  20674656.8594  -22593923.88944 -17597721.23342  20674655.1204   20674659.6574
       856.1464        667.1344         58.0004         52.0004
  24358348.1504   -4148923.37343  -3222887.60742  24358346.8584   24358351.2324
     -2136.5404      -1664.8394         45.0004         39.0004
  22286583.3084   -7137410.77243  -5545082.60742  22286581.8864   22286585.0274
     -2860.2434      -2228.7514         53.0004         47.0004
  24173067.3124   -7694996.04043  -5974104.67542  24173066.4764   24173070.5924
     -1482.5614      -1155.2444         46.0004         40.0004
  21018639.2094  -23957726.50143 -18659399.51142  21018637.8674   21018641.7704
       837.6634        652.7274         56.0004         50.0004
  22769713.2064  -10888119.66143  -8475330.12942  22769712.2914   22769716.6894
     -3158.2824      -2460.9964         50.0004         44.0004
 03 10 28  1 22  0.0000000  0  7G 4G 7G 9G11G14G20G28
  23104856.7964  -12537539.48943  -9744188.03342  23104856.0014   23104860.5234
      3340.9314       2603.3184         50.0004         44.0004
  20669812.9304  -22619377.72944 -17617555.39542  20669811.2354   20669816.0134
       840.9554        655.2964         57.0004         52.0004
  24370593.3624   -4084579.09243  -3172749.15742  24370592.1774   24370596.8084
     -2152.5444      -1677.3114         47.0004         40.0004
  22302936.6254   -7051470.39343  -5478116.09442  22302935.7254   22302938.5244
     -2868.8294      -2235.4594         53.0004         46.0004
  24181584.1454   -7650240.71643  -5939230.41842  24181584.0204   24181587.8224
     -1500.9724      -1169.5914         46.0004         40.0004
  21013916.4214  -23982546.78743 -18678739.98342  21013914.8784   21013918.2084
       817.4254        636.9524         56.0004         50.0004
  22787775.5114  -10793200.48143  -8401367.15442  22787774.3154   22787778.4404
     -3169.4164      -2469.6534         50.0004         44.0004
 03 10 28  1 22 30.0000000  0  7G 4G 7G 9G11G14G20G28
  23085805.2454  -12637657.17143  -9822201.75642  23085803.0944   23085808.2054
      3333.5654       2597.6064         50.0004         44.0004
  20665055.6544  -22644376.33544 -17637034.83042  20665054.2974   20665059.0454
       825.7824        643.4744         57.0004         52.0004
  24382926.6854   -4019759.41943  -3122240.38342  24382925.7064   24382931.0804
     -2168.4934      -1689.7294         41.0004         39.0004
  22319339.0334   -6965273.44543  -5410949.65042  22319338.5044   22319341.6464
     -2877.3774      -2242.1144         53.0004         46.0004
  24190205.9914   -7604936.02543  -5903927.99042  24190204.1524   24190209.2384
     -1519.4564      -1183.9964         46.0004         40.0004
  21009309.6734  -24006754.62643 -18697603.23242  21009308.3314   21009311.7424
       796.6624        620.7874         56.0004         50.0004
  22805901.1084  -10697952.44043  -8327147.92442  22805899.9464   22805902.4614
     -3180.2684      -2478.1174         50.0004         44.0004
 03 10 28  1 23  0.0000000  0  7G 4G 7G 9G11G14G20G28
  23066793.9324  -12737554.59143  -9900043.82642  23066793.2934   23066800.3304
      3326.0754       2591.7394         50.0004         44.0004
  20660386.5184  -22668913.03644 -17656154.33142  20660385.2464   20660389.7004
       810.0104        631.1714         57.0004         52.0004
  24395352.5364   -3954460.84343  -3071358.49942  24395351.1714   24395357.8264
     -2184.8264      -1702.4764         42.0004         38.0004
  22335792.4234   -6878815.88343  -5343580.12942  22335791.6964   22335793.7654
     -2886.4074      -2249.1354         53.0004         46.0004
  24198931.1584   -7559078.46343  -5868194.88442  24198930.2284   24198935.0434
     -1537.7954      -1198.2704         45.0004         39.0004
  21004820.3954  -24030344.04843 -18715984.59342  21004819.4394   21004822.8784
       775.9214        604.6144         56.0004         50.0004
  22824089.9694  -10602372.84343  -8252670.34042  22824089.1224   22824091.9894
     -3191.5674      -2486.9544         51.0004         44.0004
 03 10 28  1 23 30.0000000  0  7G 4G 7G 9G11G14G20G28
  23047825.6104  -12837236.31043  -9977717.90842  23047825.4934   23047829.9484
      3319.4354       2586.5714         49.0004         43.0004
  20655804.1714  -22692992.98244 -17674917.91742  20655803.0184   20655807.4674
       795.2874        619.7104         57.0004         52.0004
  24407868.5134   -3888692.79943  -3020110.61642  24407867.6724   24407872.7694
     -2199.9274      -1714.2174         45.0004         39.0004
  22352293.2774   -6792105.38443  -5276013.50942  22352291.6654   22352294.5444
     -2894.3384      -2255.3144         53.0004         46.0004
  24207761.3574   -7512675.47643  -5832036.68442  24207761.5864   24207765.1734
     -1555.6914      -1212.2274         45.0004         39.0004
  21000448.2774  -24053320.71943 -18733888.48542  21000446.9174   21000450.6844
       755.9224        589.0304         56.0004         50.0004
  22842339.2704  -10506470.62643  -8177941.38542  22842338.4174   22842341.3264
     -3201.6664      -2494.8024         50.0004         44.0004
 03 10 28  1 24  0.0000000  0  7G 4G 7G 9G11G14G20G28
  23028898.1114  -12936697.18043 -10055219.79142  23028898.0274   23028902.3514
      3311.8014       2580.6434         49.0004         44.0004
  20651309.6864  -22716611.26244 -17693321.77242  20651308.6164   20651313.1334
       779.6684        607.5354         57.0004         52.0004
  24420473.6874   -3822453.85043  -2968495.95542  24420472.2984   24420477.7924
     -2216.3764      -1727.0544         44.0004         40.0004
  22368841.5834   -6705139.89943  -5208248.21342  22368840.4894   22368843.2494
     -2903.0994      -2262.1624         53.0004         46.0004
  24216696.1514   -7465725.04443  -5795451.91542  24216694.8324   24216699.6424
     -1574.2224      -1226.6624         45.0004         39.0004
  20996193.2354  -24075680.24843 -18751311.48242  20996192.0214   20996195.7384
       735.1104        572.8174         56.0004         50.0004
  22860650.4644  -10410244.52043  -8102960.04442  22860648.8604   22860652.7284
     -3212.6464      -2503.3424         51.0004         44.0004
 03 10 28  1 24 30.0000000  0  7G 4G 7G 9G11G14G20G28
  23010013.8514  -13035935.54043 -10132548.34842  23010013.9904   23010016.9704
      3304.5594       2574.9894         49.0004         43.0004
  20646903.4874  -22739766.86944 -17711365.11042  20646901.9994   20646906.7414
       764.4394        595.6644         57.0004         52.0004
  24433166.5404   -3755746.38943  -2916515.97242  24433165.1264   24433172.1144
     -2230.8074      -1738.2914         43.0004         39.0004
  22385438.3844   -6617921.08443  -5140285.52642  22385437.5824   22385440.3604
     -2911.1594      -2268.4324         52.0004         46.0004
  24225734.9484   -7418229.06143  -5758442.10642  24225734.2274   24225739.1914
     -1591.8544      -1240.4024         46.0004         40.0004
  20992056.4174  -24097421.84943 -18768252.98342  20992054.5464   20992058.1624
       714.8244        557.0034         56.0004         50.0004
  22879022.2274  -10313697.34743  -8027728.50542  22879021.7404   22879025.3764
     -3223.1424      -2511.5594         50.0004         44.0004
 03 10 28  1 25  0.0000000  0  7G 4G 7G 9G11G14G20G28
  22991172.1994  -13134952.67043 -10209704.50542  22991171.4004   22991174.3154
      3296.5454       2568.7214         50.0004         43.0004
  20642585.0054  -22762461.44544 -17729049.19742  20642583.5734   20642587.9894
       748.4444        583.2024         57.0004         52.0004
  24445949.9274   -3688576.10543  -2864175.41942  24445948.8634   24445953.3444
     -2247.1104      -1750.9954         47.0004         39.0004
  22402083.7614   -6530453.34043  -5072128.84442  22402082.6994   22402085.3184
     -2920.0394      -2275.3524         53.0004         46.0004
  24234875.3594   -7370191.87243  -5721010.78842  24234874.9204   24234879.5134
     -1610.6384      -1255.0364         45.0004         40.0004
  20988036.0184  -24118547.80043 -18784714.75742  20988034.5714   20988038.0554
       693.5104        540.4014         56.0004         50.0004
  22897455.4384  -10216834.55743  -7952251.02442  22897453.9504   22897457.1934
     -3234.2704      -2520.2224         50.0004         44.0004
 03 10 28  1 25 30.0000000  0  7G 4G 7G 9G11G14G20G28
  22972372.7554  -13233744.68543 -10286685.21442  22972372.4774   22972376.5584
      3289.2414       2563.0544         51.0004         45.0004
  20638354.4364  -22784691.93344 -17746371.66342  20638353.0504   20638357.7454
       733.1494        571.2854         57.0004         52.0004
  24458818.9314   -3620943.70643  -2811474.86042  24458818.0504   24458823.9584
     -2261.7094      -1762.3674         44.0004         39.0004
  22418775.6504   -6442736.07343  -5003777.74442  22418774.6234   22418777.0884
     -2928.2064      -2281.7154         53.0004         46.0004
  24244121.0284   -7321612.02443  -5683156.22242  24244120.6964   24244124.1264
     -1628.4114      -1268.9014         46.0004         40.0004
  20984133.5734  -24139055.51743 -18800694.79342  20984132.1314   20984135.8694
       673.1054        524.4994         56.0004         50.0004
  22915948.1274  -10119656.67743  -7876528.03142  22915946.8014   22915949.9004
     -3244.5304      -2528.1874         50.0004         44.0004
 03 10 28  1 26  0.0000000  0  7G 4G 7G 9G11G14G20G28
  22953615.2504  -13332309.95943 -10363489.27042  22953614.1794   22953619.3674
      3281.7714       2557.2444         49.0004         43.0004
  20634212.7324  -22806456.88144 -17763331.36642  20634211.4194   20634215.9954
       717.6764        559.2254         57.0004         52.0004
  24471776.3274   -3552851.36843  -2758415.98642  24471774.7764   24471780.2504
     -2277.5704      -1774.7314         43.0004         38.0004
  22435514.5414   -6354770.41743  -4935233.07842  22435513.1394   22435516.7014
     -2936.3844      -2288.0954         53.0004         46.0004
  24253468.7384   -7272492.22643  -5644880.98942  24253467.3304   24253469.7384
     -1646.3874      -1282.8994         46.0004         40.0004
  20980348.4244  -24158944.16943 -18816192.43842  20980347.3544   20980351.1274
       652.6204        508.5384         56.0004         50.0004
  22934499.8644  -10022166.34843  -7800561.56542  22934496.7264   22934502.3594
     -3254.8954      -2536.2984         50.0004         43.0004
 03 10 28  1 26 30.0000000  0  8G 4G 5G 7G 9G11G14G20G28
  22934902.6524  -13430647.57643 -10440115.95242  22934902.5574   22934907.3414
      3273.7884       2550.9894         50.0004         45.0004
  25103035.0914   -2442241.92043  -1849065.52242  25103033.6524   25103044.3424
      3204.6824       2497.1524         41.0004         36.0004
  20630159.9184  -22827755.80144 -17779927.93342  20630158.3634   20630162.9384
       701.7574        546.8234         57.0004         52.0004
  24484821.4294   -3484302.48243  -2705001.32142  24484820.8564   24484825.0584
     -2293.5754      -1787.1964         45.0004         38.0004
  22452300.5844   -6266558.68143  -4866496.67342  22452299.1524   22452302.5334
     -2944.9534      -2294.7734         52.0004         46.0004
  24262917.5124   -7222834.25343  -5606186.44742  24262917.1134   24262919.5424
     -1664.8284      -1297.2904         45.0004         40.0004
  20976681.8524  -24178213.80243 -18831207.72942  20976680.6994   20976683.8754
       631.5084        492.0884         56.0004         50.0004
  22953110.6964   -9924366.57143  -7724353.99542  22953109.5164   22953112.7714
     -3265.6844      -2544.6994         50.0004         43.0004
 03 10 28  1 27  0.0000000  0  8G 4G 5G 7G 9G11G14G20G28
  22916232.8814  -13528757.93043 -10516565.50842  22916234.2024   22916237.0944
      3266.8844       2545.6404         51.0004         44.0004
  25084764.8894   -2538254.59143  -1923880.23142  25084764.4684   25084768.4954
      3195.9414       2490.3204         42.0004         37.0004
  20626195.3494  -22848589.77644 -17796162.20042  20626193.7284   20626198.3194
       686.9954        535.3204         57.0004         52.0004
  24497951.9144   -3415301.72843  -2651234.42542  24497950.2834   24497957.5194
     -2307.0744      -1797.7184         46.0004         40.0004
  22469132.5454   -6178104.86043  -4797571.62042  22469131.8824   22469134.8444
     -2952.2144      -2300.4214         52.0004         46.0004
  24272468.8594   -7172642.06943  -5567075.65142  24272467.8944   24272472.2064
     -1681.8004      -1310.4954         46.0004         40.0004
  20973132.7214  -24196865.89543 -18845741.81942  20973131.2594   20973134.9844
       611.7784        476.7054         56.0004         50.0004
  22971779.5494   -9826262.32143  -7647909.15042  22971777.7674   22971779.7224
     -3274.8884      -2551.9094         50.0004         44.0004
 03 10 28  1 27 30.0000000  0  8G 4G 5G 7G 9G11G14G20G28
  22897608.6214  -13626635.69643 -10592833.88842  22897608.4224   22897610.6564
      3259.3614       2539.7744         50.0004         44.0004
  25066548.3514   -2633980.86943  -1998472.00142  25066547.7954   25066557.0514
      3186.9044       2483.3174         43.0004         37.0004
  20622320.0614  -22868954.11744 -17812030.52342  20622318.5614   20622322.9664
       671.5854        523.3144         57.0004         52.0004
  24511168.8944   -3345848.20343  -2597114.80442  24511168.2204   24511172.6594
     -2321.5784      -1809.0294         45.0004         39.0004
  22486012.4634   -6089406.45343  -4728455.99942  22486011.1844   22486013.3324
     -2960.0164      -2306.5144         53.0004         46.0004
  24282122.0574   -7121913.89143  -5527547.28742  24282120.1674   24282125.9014
     -1699.1164      -1323.9814         45.0004         40.0004
  20969701.4854  -24214896.63543 -18859791.74242  20969700.0714   20969703.6374
       591.2924        460.7474         56.0004         51.0004
  22990504.4404   -9727852.55343  -7571226.24942  22990504.3474   22990507.3644
     -3284.7714      -2559.5534         49.0004         43.0004
 03 10 28  1 28  0.0000000  0  8G 4G 5G 7G 9G11G14G20G28
  22879027.2764  -13724281.80843 -10668921.69642  22879025.1974   22879029.5794
      3250.8754       2533.1394         51.0004         44.0004
  25048388.0454   -2729419.56143  -2072839.86142  25048387.9164   25048392.5384
      3176.4764       2475.1674         42.0004         36.0004
  20618533.7734  -22888850.25344 -17827534.00942  20618532.4114   20618537.0864
       655.1974        510.5424         57.0004         52.0004
  24524470.3054   -3275946.80143  -2542646.16142  24524469.4384   24524473.7924
     -2337.7884      -1821.6484         45.0004         39.0004
  22502936.2604   -6000467.56843  -4659152.98342  22502935.5224   22502938.1874
     -2968.8384      -2313.3814         52.0004         46.0004
  24291876.0874   -7070653.03043  -5487603.56942  24291874.7274   24291879.6194
     -1717.6884      -1338.4604         44.0004         40.0004
  20966388.1614  -24232307.76843 -18873358.84842  20966386.8144   20966390.5674
       569.8144        444.0124         56.0004         51.0004
  23009289.6074   -9629142.35143  -7494309.23942  23009287.8944   23009290.8294
     -3295.4494      -2567.8834         50.0004         43.0004
 03 10 28  1 28 30.0000000  0  8G 4G 5G 7G 9G11G14G20G28
  22860489.0054  -13821693.09243 -10744826.57142  22860488.5964   22860494.5054
      3243.2134       2527.1764         50.0004         45.0004
  25030282.2644   -2824566.64043  -2146980.56542  25030283.3594   25030286.6324
      3166.9944       2467.7974         42.0004         36.0004
  20614837.5144  -22908275.33444 -17842670.44342  20614836.0754   20614840.6314
       639.8484        498.5794         57.0004         52.0004
  24537857.4264   -3205598.86143  -2487829.68142  24537857.1614   24537861.1884
     -2352.3274      -1832.9764         45.0004         40.0004
  22519906.3904   -5911288.16243  -4589662.54042  22519905.5504   22519908.3654
     -2976.4064      -2319.2824         52.0004         45.0004
  24301732.1014   -7018860.35443  -5447245.57942  24301731.1054   24301735.3204
     -1735.0144      -1351.9434         45.0004         39.0004
  20963193.6334  -24249097.05743 -18886441.40742  20963192.0744   20963195.4124
       549.4484        428.1494         56.0004         51.0004
  23028130.0174   -9530132.83043  -7417158.98642  23028128.9034   23028133.0104
     -3305.1514      -2575.4274         49.0004         43.0004
 03 10 28  1 29  0.0000000  0  8G 4G 5G 7G 9G11G14G20G28
  22841998.0374  -13918869.72543 -10820548.57742  22841996.8174   22841999.9934
      3235.4444       2521.1124         50.0004         44.0004
  25012233.4104   -2919420.33843  -2220892.49042  25012232.9934   25012236.4384
      3157.2064       2460.1524         44.0004         38.0004
  20611230.2904  -22927230.30244 -17857440.54242  20611228.7584   20611233.4814
       624.1374        486.3334         57.0004         52.0004
  24551327.2464   -3134808.91943  -2432668.78242  24551327.6384   24551332.9814
     -2366.7424      -1844.2154         44.0004         39.0004
  22536922.2874   -5821871.52143  -4519987.25242  22536921.1954   22536924.1294
     -2984.2514      -2325.3884         52.0004         45.0004
  24311687.7244   -6966539.51743  -5406476.00742  24311686.1594   24311691.3614
     -1752.8934      -1365.8864         45.0004         39.0004
  20960116.4284  -24265266.29143 -18899040.79642  20960114.9594   20960118.6484
       528.8684        412.1044         56.0004         51.0004
  23047027.5014   -9430828.52043  -7339779.03142  23047026.1644   23047029.7414
     -3314.9264      -2583.0564         50.0004         43.0004
 03 10 28  1 29 30.0000000  0  8G 4G 5G 7G 9G11G14G20G28
  22823550.4374  -14015811.80443 -10896087.83642  22823549.4574   22823552.3534
      3228.0124       2515.3334         50.0004         44.0004
  24994239.5494   -3013980.40343  -2294575.63242  24994238.5704   24994242.7964
      3147.6294       2452.7064         44.0004         38.0004
  20607712.9244  -22945715.64444 -17871844.69642  20607711.3924   20607715.9194
       608.8434        474.4254         57.0004         52.0004
  24564881.5844   -3063581.07443  -2377166.52042  24564880.8034   24564886.3074
     -2380.8044      -1855.1744         43.0004         38.0004
  22553982.5884   -5732220.67443  -4450129.45742  22553980.9484   22553983.5024
     -2991.7224      -2331.2034         52.0004         46.0004
  24321743.7994   -6913694.02143  -5365297.85242  24321743.4624   24321747.4024
     -1769.3964      -1378.7534         44.0004         39.0004
  20957157.1884  -24280816.28143 -18911157.65842  20957156.0034   20957159.6004
       508.6564        396.3574         56.0004         51.0004
  23065979.4644   -9331233.68943  -7262172.72342  23065979.6074   23065982.0684
     -3324.0334      -2590.1484         50.0004         43.0004
 03 10 28  1 30  0.0000000  0  8G 4G 5G 7G 9G11G14G20G28
  22805147.7914  -14112514.58443 -10971440.61042  22805147.5244   22805150.2224
      3219.9094       2509.0114         50.0004         44.0004
  24976301.5704   -3108240.69343  -2368025.07342  24976300.3324   24976305.9514
      3137.4734       2444.7784         42.0004         37.0004
  20604285.0424  -22963727.48744 -17885879.89742  20604283.6314   20604288.4634
       592.9014        461.9974         57.0004         52.0004
  24578519.4864   -2991915.23543  -2321323.04942  24578518.6114   24578524.4124
     -2395.8454      -1866.8824         44.0004         38.0004
  22571086.4714   -5642334.35543  -4380088.17742  22571085.7904   22571088.4174
     -2999.8254      -2337.5284         52.0004         45.0004
  24331901.6094   -6860322.69943  -5323710.07842  24331899.2574   24331904.0494
     -1787.4044      -1392.7644         45.0004         39.0004
  20954316.6974  -24295743.99743 -18922789.63942  20954315.2334   20954318.7664
       487.5694        379.9244         56.0004         51.0004
  23084987.3804   -9231348.10543  -7184339.84142  23084986.1184   23084989.4994
     -3333.9594      -2597.8844         49.0004         43.0004
 03 10 28  1 30 30.0000000  0  8G 4G 5G 7G 9G11G14G20G28
  22786790.9004  -14208978.24943 -11046607.06942  22786789.8044   22786794.9624
      3211.5234       2502.4814         50.0004         44.0004
  24958421.4884   -3202200.43943  -2441240.60642  24958419.6154   24958426.3314
      3126.9854       2436.6254         44.0004         37.0004
  20600947.6964  -22981266.31244 -17899546.51242  20600946.2674   20600950.8924
       576.8104        449.4544         57.0004         52.0004
  24592239.5794   -2919815.88643  -2265141.68542  24592239.3314   24592243.7744
     -2410.3614      -1878.2054         44.0004         38.0004
  22588235.5604   -5552215.64443  -4309865.80542  22588235.6484   22588236.9514
     -3007.7464      -2343.7134         52.0004         45.0004
  24342155.6274   -6806428.40643  -5281714.63242  24342154.2394   24342160.6824
     -1805.1144      -1406.5734         44.0004         39.0004
  20951593.9914  -24310050.51543 -18933937.56442  20951592.7544   20951596.4144
       466.6684        363.6384         56.0004         51.0004
  23104048.8714   -9131176.04243  -7106283.72042  23104047.4004   23104051.5304
     -3343.6224      -2605.4344         49.0004         43.0004
 03 10 28  1 31  0.0000000  0  8G 4G 5G 7G 9G11G14G20G28
  22768481.1834  -14305199.15243 -11121584.35742  22768480.9404   22768484.1354
      3203.8664       2496.5214         50.0004         44.0004
  24940599.3774   -3295853.59443  -2514217.14342  24940597.8974   24940605.3814
      3116.9974       2428.8294         44.0004         38.0004
  20597700.7764  -22998329.24244 -17912842.30142  20597699.2954   20597703.9654
       561.3594        437.4254         57.0004         52.0004
  24606042.9814   -2847283.69443  -2208623.09542  24606041.6444   24606047.2294
     -2424.6064      -1889.3004         46.0004         39.0004
  22605429.3544   -5461863.85743  -4239461.81942  22605427.3674   22605431.4034
     -3015.1044      -2349.4124         52.0004         45.0004
  24352512.3224   -6752011.62743  -5239312.27342  24352510.4694   24352515.3114
     -1821.9884      -1419.7114         44.0004         39.0004
  20948990.3344  -24323733.64543 -18944599.73242  20948988.9604   20948992.4724
       446.2074        347.7004         56.0004         51.0004
  23123166.0084   -9030718.34243  -7028005.02742  23123164.7004   23123167.5094
     -3352.8444      -2612.6114         49.0004         43.0004
 03 10 28  1 31 30.0000000  0  8G 4G 5G 7G 9G11G14G20G28
  22750218.2274  -14401177.91343 -11196372.98842  22750217.6914   22750220.5324
      3193.4514       2488.3984         51.0004         45.0004
  24922835.9794   -3389200.56543  -2586954.80642  24922835.2044   24922841.0904
      3104.7824       2419.3004         45.0004         39.0004
  20594544.0424  -23014917.37244 -17925768.10342  20594542.6414   20594547.3224
       543.2394        423.2964         57.0004         52.0004
  24619925.6244   -2774323.60343  -2151771.23042  24619925.0264   24619930.8004
     -2441.1154      -1902.1704         45.0004         40.0004
  22622666.6564   -5371283.04943  -4168879.37442  22622665.1994   22622667.9214
     -3024.9884      -2357.1484         52.0004         45.0004
  24362967.2264   -6697075.74143  -5196505.34042  24362965.4014   24362968.4154
     -1841.4754      -1434.9074         45.0004         39.0004
  20946504.8094  -24336795.10443 -18954777.47642  20946503.5794   20946506.9374
       423.1904        329.7584         56.0004         51.0004
  23142335.8724   -8929979.79243  -6949507.49342  23142335.0194   23142337.2634
     -3364.4184      -2621.6284         49.0004         43.0004
 03 10 28  1 32  0.0000000  0  8G 4G 5G 7G 9G11G14G20G28
  22731999.2004  -14496907.85543 -11270967.70042  22731999.0804   22732003.6684
      3186.9364       2483.3124         50.0004         45.0004
  24905132.5174   -3482234.58443  -2659449.15942  24905131.9904   24905138.7404
      3095.8904       2412.4004         44.0004         38.0004
  20591478.8024  -23031024.72244 -17938319.28342  20591477.4564   20591482.1484
       528.9954        412.1954         57.0004         52.0004
  24633892.5474   -2700933.05243  -2094583.78542  24633891.1084   24633896.7044
     -2453.1574      -1911.5524         44.0004         39.0004
  22639947.3874   -5280470.00943  -4098115.99342  22639946.2794   22639949.9344
     -3030.9654      -2361.7804         51.0004         45.0004
  24373519.8954   -6641617.24143  -5153290.87142  24373518.3674   24373522.5854
     -1857.1244      -1447.1114         45.0004         39.0004
  20944138.6094  -24349229.67643 -18964466.74342  20944137.1054   20944140.6464
       404.1234        314.8984         56.0004         51.0004
  23161559.0514   -8828958.05143  -6870789.28442  23161559.0214   23161562.0734
     -3371.9224      -2627.4434         49.0004         43.0004
 03 10 28  1 32 30.0000000  0  8G 4G 5G 7G 9G11G14G20G28
  22713830.0804  -14592396.40043 -11345374.35542  22713829.3304   22713833.2664
      3178.5564       2476.8154         51.0004         45.0004
  24887486.6484   -3574961.66743  -2731704.84842  24887485.5664   24887492.9754
      3085.4994       2404.3274         43.0004         37.0004
  20588503.7384  -23046659.43444 -17950502.18142  20588502.3204   20588507.0454
       512.9544        399.7024         57.0004         52.0004
  24647936.6214   -2627124.04143  -2037070.27642  24647936.4644   24647941.6324
     -2467.3634      -1922.6224         42.0004         38.0004
  22657270.6364   -5189434.71943  -4027179.40242  22657270.0634   22657272.7444
     -3038.5264      -2367.6814         52.0004         45.0004
  24384169.3804   -6585647.62643  -5109678.13442  24384166.9194   24384172.3824
     -1874.2254      -1460.4324         44.0004         38.0004
  20941889.9954  -24361045.85143 -18973674.14142  20941888.4194   20941892.2924
       383.2604        298.6434         56.0004         51.0004
  23180835.1774   -8727664.80743  -6791859.51542  23180833.2604   23180838.0594
     -3381.1754      -2634.6974         49.0004         43.0004
 03 10 28  1 33  0.0000000  0  8G 4G 5G 7G 9G11G14G20G28
  22695705.7664  -14687640.33043 -11419590.36442  22695704.3054   22695708.7474
      3170.5294       2470.5374         51.0004         45.0004
  24869902.2404   -3667374.38543                  24869901.2474
      3074.8704                         45.0004
  20585619.0064  -23061818.80744 -17962314.67942  20585617.6704   20585622.3204
       497.2564        387.4734         57.0004         52.0004
  24662062.7404   -2552898.20343  -1979232.05042  24662060.4184   24662066.3354
     -2481.1684      -1933.3694         44.0004         38.0004
  22674636.9024   -5098177.05143  -3956069.54042  22674635.7464   22674638.1354
     -3045.8084      -2373.3554         52.0004         45.0004
  24394918.0334   -6529167.35243  -5065667.64442  24394917.3484   24394920.2234
     -1890.9994      -1473.5194         45.0004         38.0004
  20939759.7614  -24372241.92643 -18982398.34642  20939758.1824   20939761.7664
       362.7004        282.6134         56.0004         51.0004
  23200162.0514   -8626101.04543  -6712718.94142  23200160.1594   23200163.5274
     -3390.0644      -2641.5974         49.0004         43.0004
 03 10 28  1 33 30.0000000  0  8G 4G 5G 7G 9G11G14G20G28
  22677627.0764  -14782634.10243 -11493611.44642  22677627.1984   22677631.4684
      3162.3464       2464.1704         51.0004         45.0004
  24852378.2154   -3759467.95743  -2875475.85942  24852376.1664   24852381.8894
      3064.5584       2387.9794         43.0004         39.0004
  20582825.8264  -23076497.85144 -17973752.90042  20582824.3384   20582828.8004
       481.3234        375.0634         57.0004         52.0004
  24676265.4554   -2478254.01743  -1921067.90642  24676265.2854   24676269.4504
     -2495.0254      -1944.1754         42.0004         38.0004
  22692045.0604   -5006694.70343  -3884784.59442  22692042.8974   22692047.6044
     -3053.1214      -2379.0444         52.0004         45.0004
  24405764.2724   -6472174.02743  -5021257.21842  24405762.5964   24405766.5344
     -1908.3964      -1487.0404         44.0004         39.0004
  20937747.9834  -24382813.81543 -18990636.18142  20937746.3954   20937749.9514
       341.9184        266.4334         56.0004         51.0004
  23219540.7304   -8524265.68843  -6633366.75542  23219539.5614   23219544.4464
     -3399.0324      -2648.5904         48.0004         42.0004
 03 10 28  1 34  0.0000000  0  8G 4G 5G 7G 9G11G14G20G28
  22659599.2804  -14877378.47843 -11567438.22142  22659598.4364   22659602.6424
      3154.1544       2457.7884         51.0004         45.0004
  24834911.9274   -3851242.07543  -2946988.21142  24834910.3404   24834917.5954
      3054.2524       2379.9294         42.0004         38.0004
  20580123.4454  -23090698.11044 -17984818.05142  20580122.0554   20580126.7244
       465.6804        362.8664         57.0004         52.0004
  24690549.6064   -2403196.57143  -1862581.78542  24690547.1904   24690553.9154
     -2508.0164      -1954.2714         41.0004         37.0004
  22709496.5724   -4914991.43443  -3813327.50342  22709495.6764   22709497.3214
     -3060.2064      -2384.5864         52.0004         45.0004
  24416705.7414   -6414672.39943  -4976451.08442  24416703.9884   24416707.7814
     -1924.8244      -1499.8644         43.0004         39.0004
  20935854.4574  -24392763.61643 -18998389.27342  20935853.0694   20935856.6454
       321.5584        250.5644         56.0004         51.0004
  23238971.1464   -8422163.67743  -6553806.78042  23238969.2244   23238972.3554
     -3407.5074      -2655.2004         50.0004         43.0004
 03 10 28  1 34 30.0000000  0  8G 4G 5G 7G 9G11G14G20G28
  22641617.9784  -14971871.28043 -11641068.96742  22641617.1434   22641620.7184
      3145.1594       2450.7734         51.0004         45.0004
  24817510.1884   -3942693.42943  -3018248.79842  24817509.7004   24817515.7624
      3042.3144       2370.6214         42.0004         38.0004
  20577512.5184  -23104418.19544 -17995509.03942  20577511.2824   20577515.9414
       448.9414        349.8274         57.0004         52.0004
  24704911.1384   -2327727.91643  -1803775.10642  24704910.5464   24704914.6604
     -2522.9394      -1965.9274         45.0004         37.0004
  22726988.4874   -4823068.54243  -3741699.28842  22726986.4264   22726990.0334
     -3068.1314      -2390.7624         52.0004         45.0004
  24427745.5114   -6356663.62843  -4931249.69842  24427743.3414   24427749.4444
     -1942.5614      -1513.6584         45.0004         39.0004
  20934079.2954  -24402090.57243 -19005657.02942  20934078.2094   20934081.7584
       300.1614        233.8934         56.0004         51.0004
  23258449.5584   -8319797.50143  -6474040.95942  23258449.6674   23258452.9444
     -3416.9714      -2662.5644         48.0004         43.0004
 03 10 28  1 35  0.0000000  0  8G 4G 5G 7G 9G11G14G20G28
  22623683.6154  -15066110.69343 -11714502.27642  22623684.3364   22623687.3364
      3136.8974       2444.3254         51.0004         45.0004
  24800169.1804   -4033818.68943  -3089255.30642  24800167.1524   24800174.2154
      3032.2604       2362.7924         41.0004         38.0004
  20574993.3684  -23117656.64844 -18005824.73442  20574992.1344   20574996.6884
       433.2014        337.5624         57.0004         52.0004
  24719349.7394   -2251850.57643  -1744649.62842  24719348.8284   24719354.6394
     -2536.1704      -1976.2404         45.0004         38.0004
  22744521.7204   -4730926.90743  -3669900.61642  22744520.7754   22744524.0244
     -3075.0674      -2396.1324         51.0004         45.0004
  24438881.7354   -6298148.90643  -4885654.05242  24438879.6194   24438883.6284
     -1958.7934      -1526.3214         47.0004         40.0004
  20932423.0084  -24410794.09943 -19012438.99742  20932421.8374   20932425.5314
       279.6344        217.8924         56.0004         51.0004
  23277979.8424   -8217169.14143  -6394070.84742  23277978.6584   23277981.3444
     -3425.4404      -2669.1814         49.0004         42.0004
 03 10 28  1 35 30.0000000  0  8G 4G 5G 7G 9G11G14G20G28
  22605800.6974  -15160095.39443 -11787737.10842  22605799.9644   22605803.1634
      3128.1444       2437.5214         52.0004         45.0004
  24782889.6764   -4124615.94143  -3160006.28442  24782887.1794   24782897.2924
      3020.5854       2353.7064         41.0004         38.0004
  20572566.1424  -23130412.92444 -18015764.70242  20572564.5534   20572569.3764
       416.7864        324.7744         57.0004         52.0004
  24733865.5824   -2175568.62243  -1685209.20542  24733865.0134   24733871.9454
     -2549.9254      -1986.9374         43.0004         39.0004
  22762097.4824   -4638568.43643  -3597932.98342  22762096.9794   22762099.0084
     -3082.6224      -2402.0294         52.0004         45.0004
  24450111.0234   -6239130.21143  -4839665.16642  24450109.5924   24450116.0674
     -1976.0854      -1539.7794         44.0004         39.0004
  20930885.5204  -24418874.43543 -19018735.36342  20930884.2424   20930888.1284
       258.5694        201.4894         56.0004         51.0004
  23297558.2064   -8114281.76143  -6313898.86942  23297556.4524   23297559.1904
     -3434.3244      -2676.0924         48.0004         42.0004
 03 10 28  1 36  0.0000000  0  8G 4G 5G 7G 9G11G14G20G28
  22587964.3994  -15253824.84643 -11860773.05342  22587963.1174   22587966.9714
      3119.9994       2431.1604         51.0004         45.0004
  24765674.7774   -4215082.55943  -3230499.68442  24765674.3784   24765680.9724
      3009.9194       2345.3844         43.0004         38.0004
  20570230.1494  -23142687.22444 -18025329.09342  20570228.9964   20570233.4624
       400.9534        312.4344         57.0004         52.0004
  24748457.2264   -2098885.14843  -1625456.32442  24748455.4714   24748462.9624
     -2562.7524      -1996.9394         42.0004         38.0004
  22779713.3734   -4545995.57043  -3525798.28942  22779712.4794   22779714.9374
     -3089.4894      -2407.4004         51.0004         45.0004
  24461437.3364   -6179611.49643  -4793287.16942  24461437.0624   24461440.9864
     -1992.3994      -1552.5174         45.0004         39.0004
  20929466.7234  -24426332.54143 -19024546.87842  20929465.0634   20929468.4754
       238.1604        185.5784         56.0004         51.0004
  23317185.4564   -8011139.21043  -6233528.08242  23317184.9534   23317188.8844
     -3442.2794      -2682.2904         48.0004         42.0004
 03 10 28  1 36 30.0000000  0  8G 4G 5G 7G 9G11G14G20G28
  22570175.4814  -15347296.40743 -11933608.01842  22570175.4034   22570180.5854
      3111.4744       2424.5144         51.0004         45.0004
  24748525.1044   -4305215.53243  -3300733.09642  24748523.3134   24748528.9084
      2998.7444       2336.6804         44.0004         38.0004
  20567986.6274  -23154477.56944 -18034516.36942  20567985.2494   20567990.0754
       384.8754        299.9034         57.0004         52.0004
  24763126.6724   -2021801.22243  -1565390.99642  24763125.0734   24763130.7604
     -2575.6554      -2007.0174         42.0004         37.0004
  22797370.5984   -4453208.86543  -3453496.95642  22797369.0754   22797372.0844
     -3096.4764      -2412.8474         51.0004         45.0004
  24472859.3954   -6119594.42843  -4746521.30542  24472858.0854   24472863.9654
     -2008.9974      -1565.4094         45.0004         39.0004
  20928165.9994  -24433167.04643 -19029872.47142  20928164.5264   20928168.3804
       217.3864        169.3934         56.0004         51.0004
  23336861.5164   -7907743.31943  -6152959.87742  23336859.6324   23336861.5244
     -3450.8114      -2688.9214         49.0004         42.0004
 03 10 28  1 37  0.0000000  0  8G 4G 5G 7G 9G11G14G20G28
  22552438.5774  -15440509.23643 -12006241.41642  22552437.8294   22552441.2984
      3103.4294       2418.2554         51.0004         45.0004
  24731436.3494   -4395013.94443  -3370706.41142  24731434.9734   24731442.1064
      2988.3094       2328.5964         43.0004         38.0004
  20565835.1704  -23165783.70444 -18043326.34442  20565833.9364   20565838.6144
       369.4704        287.9024         57.0004         52.0004
  24777871.3884   -1944321.22943  -1505016.89242  24777870.2534   24777875.4274
     -2588.5974      -2017.0844         44.0004         38.0004
  22815067.8784   -4360210.35243  -3381030.60742  22815065.7114   22815068.4754
     -3102.8174      -2417.7834         51.0004         44.0004
  24484375.3984   -6059080.89143  -4699368.70342  24484373.6064   24484377.7794
     -2024.7524      -1577.6934         45.0004         39.0004
  20926983.9554  -24439378.73543 -19034712.75242  20926982.6354   20926985.9684
       197.2614        153.7114         56.0004         51.0004
  23356584.9404   -7804097.03643  -6072196.56842  23356583.9714   23356586.5664
     -3458.5474      -2694.9774         49.0004         42.0004
 03 10 28  1 37 30.0000000  0  8G 4G 5G 7G 9G11G14G20G28
  22534749.8874  -15533461.84043 -12078672.01042  22534749.5864   22534752.2054
      3093.9874       2410.8914         51.0004         45.0004
  24714412.8344   -4484473.33543  -3440415.66042  24714411.4964   24714417.6174
      2976.1884       2319.1124         44.0004         39.0004
  20563775.9784  -23176604.95344 -18051758.48042  20563774.6814   20563779.2914
       352.5394        274.7034         57.0004         52.0004
  24792690.4074   -1866448.22943  -1444336.77342  24792689.2194   24792694.2444
     -2602.6944      -2028.0734         46.0004         40.0004
  22832803.7004   -4267001.64843  -3308400.45442  22832801.8194   22832806.3904
     -3110.5404      -2423.7904         51.0004         44.0004
  24495985.8744   -5998073.05843  -4651831.16142  24495984.7134   24495987.6664
     -2041.8954      -1591.0894         45.0004         39.0004
  20925920.3274  -24444967.94543 -19039067.97642  20925918.8294   20925922.4774
       175.8604        137.0304         56.0004         51.0004
  23376354.3414   -7700203.58043  -5991240.67042  23376353.2084   23376357.6014
     -3467.2094      -2701.7244         47.0004         42.0004
 03 10 28  1 38  0.0000000  0  8G 4G 5G 7G 9G11G14G20G28
  22517112.3574  -15626151.47243 -12150897.72442  22517111.3474   22517115.3794
      3085.7704       2404.4914         51.0004         45.0004
  24697453.9544   -4573589.34743  -3509856.63542  24697454.1214   24697461.7224
      2965.2644       2310.5774         45.0004         39.0004
  20561809.4144  -23186939.68544 -18059811.50842  20561808.1294   20561812.4904
       336.7784        262.4244         57.0004         52.0004
  24807582.9604   -1788183.87543  -1383351.67642  24807582.0524   24807586.9964
     -2615.0774      -2037.7234         45.0004         39.0004
  22850581.1654   -4173583.32043  -3235606.96542  22850580.1464   22850582.0924
     -3117.0354      -2428.8654         51.0004         44.0004
  24507688.5634   -5936569.72343  -4603906.30242  24507686.7484   24507693.2064
     -2057.9814      -1603.5904         44.0004         38.0004
  20924975.2524  -24449933.41143 -19042937.17042  20924973.8954   20924977.5074
       155.5614        121.2204         56.0004         51.0004
  23396171.5194   -7596064.61143  -5910093.44442  23396170.8664   23396173.2894
     -3474.6064      -2707.4814         48.0004         42.0004
 03 10 28  1 38 30.0000000  0  8G 4G 5G 7G 9G11G14G20G28
  22499524.2744  -15718578.63043 -12222918.86242  22499523.8504   22499527.8934
      3076.5344       2397.2984         52.0004         46.0004
  24680563.1964   -4662362.09143  -3579030.08442  24680561.4354   24680566.8844
      2953.2784       2301.2654         46.0004         38.0004
  20559935.0754  -23196788.63244 -18067485.99842  20559933.6274   20559938.3694
       320.1434        249.4624         57.0004         52.0004
  24822549.7944   -1709532.11143  -1322064.26142  24822549.0634   24822554.1764
     -2628.1524      -2047.9294         43.0004         37.0004
  22868397.2944   -4079958.90943  -3162652.88842  22868396.0504   22868399.5674
     -3124.2604      -2434.4834         51.0004         45.0004
  24519484.9484   -5874576.80643  -4555600.15442  24519484.1494   24519487.3924
     -2074.7374      -1616.6914         44.0004         38.0004
  20924149.0024  -24454276.97443 -19046321.76642  20924147.4464   20924150.9614
       134.3384        104.6834         56.0004         51.0004
  23416035.0004   -7491684.65743  -5828758.44442  23416034.3754   23416037.5294
     -3483.2884      -2714.2434         48.0004         42.0004
 03 10 28  1 39  0.0000000  0  8G 4G 5G 7G 9G11G14G20G28
  22481985.4374  -15810740.33543 -12294733.17442  22481985.5554   22481988.6414
      3067.3394       2390.1274         51.0004         45.0004
  24663734.6214   -4750786.82643                  24663734.8074
      2941.7004                         44.0004
  20558153.5914  -23206149.58444 -18074780.22042  20558152.4524   20558157.0894
       303.6814        236.6344         57.0004         52.0004
  24837589.8384   -1630495.78743  -1260477.44942  24837589.5294   24837593.9034
     -2641.4514      -2058.2784         43.0004         37.0004
  22886252.1834   -3986128.28743  -3089538.11942  22886251.6584   22886253.7644
     -3131.4404      -2440.0724         50.0004         44.0004
  24531375.6434   -5812095.22843  -4506913.28542  24531373.8414   24531378.0774
     -2091.1314      -1629.4474         44.0004         38.0004
  20923441.0734  -24457997.35244 -19049220.76342  20923439.6134   20923443.0254
       113.3374         88.3174         57.0004         51.0004
  23435943.3324   -7387065.06443  -5747236.69342  23435942.3524   23435945.8864
     -3491.4764      -2720.6404         48.0004         42.0004
 03 10 28  1 39 30.0000000  0  8G 4G 5G 7G 9G11G14G20G28
  22464499.3974  -15902634.16643 -12366338.74942  22464497.9824   22464502.3954
      3058.5564       2383.2924         52.0004         45.0004
  24646974.9844   -4838861.47943  -3716562.08842  24646974.6714   24646979.8574
      2929.9374       2283.0574         45.0004         40.0004
  20556465.6154  -23215021.39644 -18081693.29942  20556464.2134   20556468.6984
       287.6104        224.1004         57.0004         52.0004
  24852703.0044   -1551076.88943  -1198592.61742  24852701.9034   24852708.8894
     -2653.3354      -2067.5164         44.0004         39.0004
  22904145.8344   -3892092.45743  -3016263.45642  22904145.3244   22904148.3564
     -3137.8044      -2445.0554         50.0004         44.0004
  24543358.1694   -5749125.51343  -4457845.69342  24543356.2394   24543358.9364
     -2107.1244      -1641.9334         45.0004         38.0004
  20922851.7544  -24461094.00043 -19051633.74742  20922850.4554   20922853.7304
        92.8834         72.3744         56.0004         51.0004
  23455895.9684   -7282208.11943  -5665530.02642  23455895.7724   23455897.8774
     -3499.2124      -2726.6744         48.0004         41.0004
 03 10 28  1 40  0.0000000  0  8G 4G 5G 7G 9G11G14G20G28
  22447063.2824  -15994261.96843 -12437737.03542  22447062.4154   22447067.3034
      3049.8134       2376.4814         52.0004         46.0004
  24630281.8674   -4926583.60643  -3784916.00742  24630280.9084   24630287.3824
      2918.1494       2273.8454         45.0004         39.0004
  20554870.1234  -23223406.15944 -18088226.85242  20554868.7614   20554872.9664
       271.3114        211.4164         57.0004         52.0004
  24867887.5804   -1471281.47543  -1136414.82542  24867885.5734   24867891.3264
     -2666.0674      -2077.4494         43.0004         39.0004
  22922079.4894   -3797855.86543  -2942832.34042  22922077.6174   22922080.1804
     -3144.4864      -2450.2494         51.0004         44.0004
  24555432.0884   -5685674.32643  -4408403.32142  24555430.7334   24555435.6914
     -2123.3664      -1654.5614         44.0004         38.0004
  20922380.6264  -24463569.88044 -19053563.01442  20922379.2604   20922382.6544
        72.1474         56.2194         57.0004         51.0004
  23475894.4204   -7177119.56243  -5583642.83142  23475892.7894   23475897.0464
     -3506.8894      -2732.6094         48.0004         41.0004
 03 10 28  1 40 30.0000000  0  9G 1G 4G 5G 7G 9G11G14G20G28
  25155906.9564   -2269191.56143  -1702184.07042  25155902.2744   25155915.0454
      3512.2394       2736.8064         39.0004         37.0004
  22429678.2204  -16085619.45343 -12508924.68742  22429677.8104   22429680.6504
      3040.7474       2369.4274         52.0004         45.0004
  24613656.2074   -5013950.42743  -3852993.60342  24613654.7594   24613662.2394
      2906.3054       2264.6554         44.0004         38.0004
  20553367.8094  -23231300.39544 -18094378.16642  20553366.4454   20553370.9854
       254.9724        198.6774         57.0004         52.0004
  24883144.0174   -1391108.22243  -1073941.91342  24883142.8374   24883149.1504
     -2678.7694      -2087.3684         44.0004         39.0004
  22940051.1134   -3703417.23643  -2869243.81642  22940049.7154   22940051.8354
     -3151.3464      -2455.5914         50.0004         44.0004
  24567598.5204   -5621740.52043  -4358585.09042  24567597.5864   24567601.0244
     -2139.0764      -1666.8094         44.0004         39.0004
  20922027.7814  -24465422.50744 -19055006.65042  20922026.5184   20922030.0214
        51.3484         40.0144         57.0004         51.0004
  23495936.1054   -7071799.39043  -5501575.21042  23495935.6434   23495937.7854
     -3514.5004      -2738.5684         48.0004         42.0004
 03 10 28  1 41  0.0000000  0  9G 1G 4G 5G 7G 9G11G14G20G28
  25135866.0114   -2374531.46443  -1784267.00442  25135868.9664   25135874.3384
      3510.1894       2735.2164         44.0004         38.0004
  22412344.3144  -16176707.99043 -12579902.76542  22412344.7374   22412348.4244
      3031.7924       2362.4284         52.0004         46.0004
  24597096.9494   -5100962.44243  -3920794.83742  24597095.6844   24597102.3424
      2894.5264       2255.4634         43.0004         39.0004
  20551958.3884  -23238706.59244 -18100149.18642  20551956.9894   20551961.5194
       238.7604        186.0494         57.0004         52.0004
  24898471.1534   -1310564.78543  -1011180.54642  24898469.9834   24898476.8794
     -2690.8614      -2096.7704         45.0004         39.0004
  22958059.6014   -3608781.42143  -2795501.60142  22958057.5144   22958060.8174
     -3157.8874      -2460.7014         51.0004         44.0004
  24579855.6434   -5557328.96843  -4308394.43342  24579854.3104   24579859.9364
     -2155.0794      -1679.2684         44.0004         39.0004
  20921793.2824  -24466655.48443 -19055967.47342  20921792.0184   20921795.4154
        30.7124         23.9394         56.0004         51.0004
  23516020.2324   -6966253.58443  -5419331.74942  23516020.3814   23516023.2764
     -3521.9084      -2744.3544         47.0004         41.0004
 03 10 28  1 41 30.0000000  0  9G 1G 4G 5G 7G 9G11G14G20G28
  25115827.9134   -2479812.26443  -1866303.91642  25115823.2284   25115832.6574
      3509.6354       2734.7854         40.0004         37.0004
  22395063.2134  -16267524.72243 -12650669.07142  22395062.6624   22395065.2514
      3023.7934       2356.2084         52.0004         46.0004
  24580609.1584   -5187615.49643  -3988316.64342  24580608.1774   24580614.4254
      2883.4684       2246.8674         45.0004         39.0004
  20550642.3184  -23245622.46444 -18105538.15342  20550640.8144   20550645.3744
       223.4004        174.0794         57.0004         52.0004
  24913867.4084   -1229652.73143   -948132.21042  24913865.6004   24913872.8784
     -2701.9924      -2105.4514         44.0004         38.0004
  22976105.4644   -3513948.44543  -2721605.79442  22976104.1494   22976106.1174
     -3163.3554      -2464.9284         51.0004         44.0004
  24592202.0104   -5492440.64043  -4257832.34742  24592201.4554   24592207.9934
     -2169.6484      -1690.6164         42.0004         38.0004
  20921677.2004  -24467267.31144 -19056444.28142  20921675.7004   20921679.1334
        11.1834          8.7144         57.0004         51.0004
  23536148.8344   -6860483.35043  -5336913.41942  23536146.6544   23536150.1104
     -3528.3544      -2749.3764         47.0004         42.0004
 03 10 28  1 42  0.0000000  0  9G 1G 4G 5G 7G 9G11G14G20G28
  25095808.2004   -2585030.74043  -1948292.25542  25095808.4814   25095813.7464
      3506.4664       2732.3164         45.0004         37.0004
  22377832.9584  -16358068.14743 -12721222.39142  22377832.9604   22377835.5744
      3013.7654       2348.3844         52.0004         46.0004
  24564187.5154   -5273906.80943  -4055556.88442  24564185.6564   24564193.3424
      2870.4974       2236.7684         43.0004         38.0004
  20549419.6614  -23252047.30444 -18110544.50042  20549418.2734   20549422.6954
       206.0814        160.5844         57.0004         52.0004
  24929334.6634   -1148374.42443   -884798.39742  24929333.4464   24929339.0114
     -2715.3504      -2115.8634         44.0004         38.0004
  22994188.5874   -3418919.64043  -2647557.37642  22994187.7334   22994190.6484
     -3170.6514      -2470.6444         50.0004         44.0004
  24604640.7254   -5427076.67843  -4206899.27242  24604638.6744   24604644.9944
     -2186.4824      -1703.7694         42.0004         38.0004
  20921678.7544  -24467257.91843 -19056437.01642  20921677.7144   20921680.8984
       -10.4604         -8.1494         56.0004         51.0004
  23556317.4454   -6754491.52243  -5254322.44442  23556316.4964   23556321.0744
     -3536.4534      -2755.6734         47.0004         42.0004
 03 10 28  1 42 30.0000000  0  9G 1G 4G 5G 7G 9G11G14G20G28
  25075796.1124   -2690182.36243  -2030228.55442  25075795.1204   25075800.5704
      3504.0464       2730.4254         40.0004         37.0004
  22360656.4504  -16448334.87943 -12791560.13542  22360655.0644   22360658.8594
      3004.1584       2340.9144         52.0004         46.0004
  24547838.0864   -5359830.67043  -4122510.51942  24547836.6474   24547840.9864
      2857.9924       2227.0154         44.0004         38.0004
  20548290.8414  -23257978.62544 -18115166.29542  20548289.5354   20548294.1894
       189.4634        147.6314         57.0004         52.0004
  24944870.7764   -1066732.30143   -821181.59242  24944870.9514   24944875.6324
     -2727.7504      -2125.4844         43.0004         38.0004
  23012309.8554   -3323694.71943  -2573356.15442  23012308.8094   23012310.9374
     -3177.3984      -2475.8844         51.0004         44.0004
  24617170.6854   -5361239.02443  -4155597.23942  24617169.6384   24617175.4064
     -2202.4634      -1716.1904         45.0004         38.0004
  20921799.1364  -24466625.85544 -19055944.53342  20921797.7604   20921801.3154
       -31.3984        -24.4664         57.0004         51.0004
  23576529.8194   -6648279.13843  -5171559.54442  23576527.9754   23576531.5474
     -3543.9314      -2761.5014         48.0004         41.0004
 03 10 28  1 43  0.0000000  0  9G 1G 4G 5G 7G 9G11G14G20G28
  25055801.4814   -2795265.43243  -2112111.40042  25055801.7524   25055804.6054
      3501.2514       2728.2414         43.0004         36.0004
  22343531.1524  -16538324.70843 -12861682.07242  22343530.5944   22343534.8174
      2994.8684       2333.6504         52.0004         46.0004
  24531556.3854   -5445386.05043  -4189176.88742  24531555.2924   24531560.8684
      2845.7744       2217.4844         45.0004         39.0004
  20547255.9604  -23263417.15344 -18119404.09642  20547254.5714   20547259.1994
       172.7974        134.6484         57.0004         52.0004
  24960475.5044    -984728.49343   -757282.77442  24960475.0744   24960479.3574
     -2739.6704      -2134.8204         42.0004         37.0004
  23030466.4964   -3228276.54343  -2499004.33742  23030465.3594   23030468.2474
     -3184.0164      -2481.0644         50.0004         44.0004
  24629788.2814   -5294931.28143  -4103929.35842  24629787.2264   24629793.4554
     -2218.4714      -1728.6684         43.0004         38.0004
  20922037.8124  -24465372.76144 -19054968.13542  20922036.4804   20922039.8604
       -52.3654        -40.8044         57.0004         51.0004
  23596782.2194   -6541850.33943  -5088627.99842  23596780.8314   23596784.0344
     -3551.3884      -2767.3004         48.0004         41.0004
 03 10 28  1 43 30.0000000  0  9G 1G 4G 5G 7G 9G11G14G20G28
  25035816.7514   -2900278.98943  -2193940.11042  25035816.7164   25035821.6854
      3499.6304       2726.9794         43.0004         36.0004
  22326459.7264  -16628038.05143 -12931588.59942  22326459.5084   22326463.1534
      2985.8654       2326.6524         52.0004         46.0004
  24515346.0234   -5530572.48143  -4255555.70542  24515345.2984   24515351.1074
      2833.7664       2208.1194         44.0004         39.0004
  20546314.6334  -23268363.87444 -18123258.67242  20546313.3424   20546317.8694
       156.8584        122.2284         57.0004         52.0004
  24976148.0994    -902368.72643   -693106.09842  24976145.8424   24976153.7244
     -2750.9444      -2143.5804         42.0004         37.0004
  23048660.3454   -3132668.40443  -2424504.47842  23048658.6794   23048662.1154
     -3189.9994      -2485.7134         50.0004         44.0004
  24642495.6654   -5228157.50043  -4051898.50442  24642494.0634   24642502.0874
     -2233.2604      -1740.1614         43.0004         38.0004
  20922393.5314  -24463500.79743 -19053509.49542  20922392.4834   20922396.1484
       -72.5724        -56.5454         56.0004         51.0004
  23617075.1354   -6435209.58343  -5005531.32242  23617073.9834   23617078.6434
     -3558.2034      -2772.6244         47.0004         41.0004
 03 10 28  1 44  0.0000000  0  9G 1G 4G 5G 7G 9G11G14G20G28
  25015850.6074   -3005217.68543  -2275710.51242  25015848.1314   25015852.5504
      3497.3954       2725.2534         41.0004         36.0004
  22309441.2264  -16717471.21643 -13001276.79242  22309440.4844   22309443.0194
      2976.9984       2319.7444         52.0004         46.0004
  24499206.4264   -5615385.17343  -4321643.27242  24499205.6614   24499211.0414
      2821.4254       2198.5024         45.0004         39.0004
  20545467.3584  -23272816.04144 -18126727.87642  20545466.2344   20545470.5414
       140.6894        109.6284         57.0004         52.0004
  24991887.8364    -819653.67143   -628652.68642  24991887.8044   24991891.8214
     -2762.5394      -2152.6284         43.0004         37.0004
  23066891.3794   -3036869.70543  -2349856.15142  23066889.9854   23066890.9264
     -3196.0724      -2490.4374         51.0004         44.0004
  24655291.9024   -5160916.52043  -3999503.56342  24655290.8824   24655295.3564
     -2248.5964      -1752.1464         44.0004         39.0004
  20922868.2664  -24461007.92243 -19051567.01842  20922866.8344   20922870.4714
       -92.9214        -72.4004         56.0004         51.0004
  23637407.6644   -6328357.51743  -4922270.01642  23637406.4344   23637411.9304
     -3564.8954      -2777.8184         46.0004         41.0004
 03 10 28  1 44 30.0000000  0  9G 1G 4G 5G 7G 9G11G14G20G28
  24995892.3524   -3110079.67943  -2357421.07042  24995890.8644   24995897.6344
      3494.2554       2722.7844         43.0004         36.0004
  22292476.4564  -16806623.47343 -13070746.08742  22292475.0174   22292479.0774
      2967.2154       2312.1174         52.0004         46.0004
  24483137.7054   -5699822.75943  -4387438.76142  24483136.2094   24483143.0214
      2808.2724       2188.2784         45.0004         40.0004
  20544714.2554  -23276773.97144 -18129811.95742  20544712.9234   20544717.4114
       123.7404         96.4254         57.0004         52.0004
  25007694.8134    -736588.32043   -563926.61242  25007695.2574   25007700.0324
     -2774.4374      -2161.8894         43.0004         37.0004
  23085156.3484   -2940882.98143  -2275061.30542  23085155.2114   23085158.4074
     -3202.5254      -2495.4874         50.0004         44.0004
  24668176.7464   -5093210.90643  -3946745.72242  24668176.0274   24668180.7564
     -2264.4684      -1764.5334         45.0004         38.0004
  20923460.7664  -24457895.46544 -19049141.73542  20923459.1264   20923462.8034
      -113.9454        -88.7864         57.0004         51.0004
  23657781.3324   -6221298.08343  -4838847.09942  23657779.1284   23657783.2094
     -3571.9764      -2783.3634         47.0004         41.0004
 03 10 28  1 45  0.0000000  0  9G 1G 4G 5G 7G 9G11G14G20G28
  24975956.1274   -3214862.49043  -2439069.98242  24975954.3494   24975956.4164
      3491.4514       2720.6244         42.0004         37.0004
  22275565.6284  -16895494.08443 -13139995.92642  22275564.7784   22275568.6384
      2957.7264       2304.7174         53.0004         46.0004
  24467141.9214   -5783882.23843  -4452939.53842  24467140.5954   24467147.8304
      2795.8314       2178.5544         44.0004         40.0004
  20544055.0654  -23280237.65244 -18132510.91242  20544053.6194   20544058.2504
       107.3544         83.6534         57.0004         52.0004
  25023567.1314    -653175.33443   -498929.40142  25023566.2504   25023573.9634
     -2785.7584      -2170.7114         42.0004         36.0004
  23103456.7394   -2844710.21043  -2200121.48942  23103456.2464   23103458.2964
     -3208.7144      -2500.3234         50.0004         43.0004
  24681147.6194   -5025046.16843  -3893630.95342  24681147.2254   24681149.8864
     -2279.6754      -1776.3534         45.0004         38.0004
  20924170.6624  -24454164.53744 -19046234.52842  20924169.1394   20924173.0284
      -134.5694       -104.8524         57.0004         51.0004
  23678192.5884   -6114034.50343  -4755265.14042  23678191.1394   23678195.0154
     -3578.7404      -2788.6344         47.0004         41.0004
 03 10 28  1 45 30.0000000  0  9G 1G 4G 5G 7G 9G11G14G20G28
  24956029.7684   -3319561.81343  -2520653.83242  24956027.7234   24956033.2034
      3488.2824       2718.1444         42.0004         36.0004
  22258706.5104  -16984080.03143 -13209023.94142  22258705.9554   22258710.8474
      2947.6224       2296.8504         52.0004         46.0004
  24451218.2834   -5867560.58743  -4518143.38242  24451216.6554   24451223.4944
      2782.5454       2168.2144         44.0004         40.0004
  20543490.4254  -23283204.91944 -18134823.05242  20543488.9604   20543493.5904
        90.1614         70.2514         57.0004         52.0004
  25039506.7264    -569416.60843   -433663.06742  25039504.6764   25039510.9774
     -2797.6244      -2179.9664         42.0004         36.0004
  23121792.9414   -2748351.55243  -2125036.80942  23121791.4894   23121795.8004
     -3215.4954      -2505.5854         50.0004         43.0004
  24694207.1094   -4956420.72443  -3840156.69442  24694205.6184   24694210.2144
     -2295.5404      -1788.7434         45.0004         39.0004
  20924998.5564  -24449813.93144 -19042844.45842  20924997.1394   20925000.8044
      -155.7834       -121.3894         57.0004         51.0004
  23698643.3964   -6006568.16543  -4671525.15242  23698643.0134   23698645.1154
     -3586.0264      -2794.3134         47.0004         41.0004
 03 10 28  1 46  0.0000000  0  9G 1G 4G 5G 7G 9G11G14G20G28
  24936120.4184   -3424176.23843  -2602171.46142  24936119.1514   24936124.8144
      3485.2664       2715.7914         40.0004         36.0004
  22241903.8834  -17072381.38943 -13277830.22742  22241902.7694   22241908.1694
      2938.5504       2289.7984         52.0004         46.0004
  24435368.9004   -5950856.13443  -4583048.95742  24435367.8634   24435371.7424
      2769.6554       2158.1824         46.0004         40.0004
  20543019.9394  -23285676.83744 -18136749.20742  20543018.6674   20543023.1714
        74.1074         57.7474         57.0004         52.0004
  25055510.5574    -485315.97943   -368129.83642  25055509.1624   25055514.9594
     -2809.0574      -2188.8854         41.0004         36.0004
  23140165.3634   -2651809.92843  -2049809.57742  23140164.1864   23140167.3704
     -3221.2784      -2510.0914         50.0004         43.0004
  24707352.2164   -4887339.46243  -3786327.18742  24707351.3774   24707356.5524
     -2310.1294      -1800.0954         43.0004         38.0004
  20925944.0294  -24444845.59044 -19038973.03442  20925942.5564   20925946.2184
      -175.9164       -137.0764         57.0004         51.0004
  23719131.7734   -5898903.38643  -4587630.50342  23719130.9424   23719133.6154
     -3592.1794      -2799.0904         48.0004         41.0004
 03 10 28  1 46 30.0000000  0  9G 1G 4G 5G 7G 9G11G14G20G28
  24916233.9874   -3528702.25343  -2683620.21942  24916231.2674   24916232.8004
      3482.0694       2713.2984         43.0004         37.0004
  22225154.2534  -17160396.41243 -13346413.38442  22225154.0944   22225159.0054
      2928.7434       2282.1414         52.0004         46.0004
  24419590.3294   -6033765.16443  -4647653.21742  24419588.1954   24419595.0024
      2756.3174       2147.7674         46.0004         40.0004
  20542643.9564  -23287652.39644 -18138288.58642  20542642.6704   20542647.3454
        57.2204         44.5904         57.0004         52.0004
  25071578.6544    -400877.55843   -302333.95742  25071578.5304   25071582.7504
     -2820.6004      -2197.8774         42.0004         37.0004
  23158570.5394   -2555086.47043  -1974440.66442  23158570.4954   23158570.5584
     -3227.5124      -2514.9504         49.0004         43.0004
  24720584.6344   -4817803.89643  -3732143.53842  24720583.6994   24720588.7614
     -2325.5184      -1812.0904         45.0004         38.0004
  20927006.9514  -24439259.52643 -19034620.26342  20927005.5124   20927009.0074
      -196.7984       -153.3514         56.0004         51.0004
  23739656.1714   -5791042.76643  -4503583.28642  23739655.4284   23739657.9494
     -3598.9304      -2804.3314         47.0004         40.0004
 03 10 28  1 47  0.0000000  0  9G 1G 4G 5G 7G 9G11G14G20G28
  24896356.7644   -3633135.26243  -2764996.56242  24896355.9724   24896359.1384
      3479.3584       2711.1894         43.0004         36.0004
  22208462.1784  -17248121.44543 -13414770.61242  22208461.8544   22208464.5674
      2919.2514       2274.7454         53.0004         46.0004
  24403888.3984   -6116285.15243  -4711954.61142  24403886.7014   24403892.5914
      2744.1474       2138.3044         45.0004         40.0004
  20542362.9884  -23289129.22944 -18139439.35242  20542361.5024   20542366.3434
        40.7974         31.7904         57.0004         52.0004
  25087711.2324    -316101.23043   -236274.36042  25087709.7354   25087716.2064
     -2831.5564      -2206.4124         43.0004         38.0004
  23177011.5124   -2458180.87643  -1898929.79742  23177010.2494   23177013.5074
     -3233.2884      -2519.4354         50.0004         43.0004
  24733903.9254   -4747815.59143  -3677607.24642  24733902.6664   24733907.2214
     -2340.5084      -1823.7554         45.0004         39.0004
  20928187.6384  -24433054.36044 -19029785.07242  20928186.2114   20928189.8954
      -217.3284       -169.3474         57.0004         51.0004
  23760217.6004   -5682987.23443  -4419384.20742  23760217.8594   23760221.1934
     -3605.1804      -2809.2344         45.0004         40.0004
 03 10 28  1 47 30.0000000  0  9G 1G 4G 5G 7G 9G11G14G20G28
  24876505.4774   -3737475.67243  -2846300.77742  24876505.0104   24876507.7274
      3476.8244       2709.2134         43.0004         37.0004
  22191823.2854  -17335558.91143 -13482903.76142  22191822.2314   22191826.5714
      2910.0114       2267.5504         53.0004         47.0004
  24388258.8864   -6198415.40143  -4775952.14042  24388255.5184   24388263.2944
      2731.1824       2128.1944         45.0004         39.0004
  20542176.3114  -23290110.36144 -18140203.86542  20542174.8654   20542179.4554
        24.5684         19.1474         57.0004         52.0004
  25103906.4204    -230994.29443   -169957.28942  25103905.4514   25103910.2434
     -2842.2124      -2214.7094         44.0004         38.0004
  23195485.0804   -2361098.25443  -1823281.00942  23195483.3764   23195486.8934
     -3238.8404      -2523.7594         49.0004         43.0004
  24747307.6634   -4677380.08143  -3622722.87042  24747305.6414   24747309.3164
     -2355.0554      -1835.1124         44.0004         39.0004
  20929485.3414  -24426233.94643 -19024470.46342  20929484.2274   20929487.7414
      -237.4234       -185.0074         56.0004         51.0004
  23780817.1074   -5574742.96943  -4335038.03842  23780817.0844   23780818.7604
     -3611.0514      -2813.8034         46.0004         40.0004
 03 10 28  1 48  0.0000000  0  9G 1G 4G 5G 7G 9G11G14G20G28
  24856667.5014   -3841711.24643  -2927523.20642  24856667.2604   24856674.3194
      3473.6944       2706.7784         43.0004         37.0004
  22175240.7924  -17422697.63043 -13550804.02342  22175240.2294   22175244.3834
      2900.4864       2260.1244         52.0004         46.0004
  24372705.9624   -6280144.57543  -4839637.19742  24372704.7634   24372711.5024
      2718.7724       2118.5294         44.0004         39.0004
  20542085.8544  -23290585.76644 -18140574.30142  20542084.4624   20542089.1704
         8.3614          6.5114         57.0004         52.0004
  25120165.7454    -145550.58843   -103377.90642  25120163.9534   25120171.0584
     -2852.8294      -2222.9674         44.0004         39.0004
  23213995.3954   -2263830.58143  -1747488.02142  23213994.1474   23213997.1184
     -3244.2984      -2528.0444         50.0004         43.0004
  24760797.1654   -4606490.09043  -3567484.21742  24760795.6404   24760801.2734
     -2369.4954      -1846.3494         44.0004         39.0004
  20930902.4064  -24418789.62244 -19018669.68342  20930900.8284   20930904.4424
      -257.7034       -200.8034         57.0004         51.0004
  23801452.7364   -5466303.43043  -4250539.71242  23801450.6894   23801453.8694
     -3616.9524      -2818.4034         47.0004         41.0004
 03 10 28  1 48 30.0000000  0  9G 1G 4G 5G 7G 9G11G14G20G28
  24836849.8124   -3945853.64543  -3008673.05342  24836848.7134   24836854.5674
      3469.5134       2703.5164         41.0004         37.0004
  22158713.3744  -17509551.15543 -13618482.00942  22158712.5854   22158715.7954
      2890.2564       2252.1514         53.0004         46.0004
  24357228.3764   -6361484.51743  -4903018.73942  24357226.0584   24357233.4604
      2704.8024       2107.6324         46.0004         40.0004
  20542088.8644  -23290569.89344 -18140561.92142  20542087.4184   20542092.0994
        -8.7434         -6.8104         57.0004         52.0004
  25136486.4144     -59787.32043    -36549.73742  25136485.8304   25136489.2884
     -2864.2064      -2231.8544         44.0004         38.0004
  23232536.2704   -2166394.41743  -1671563.75742  23232534.4974   23232538.1344
     -3250.6394      -2532.9544         49.0004         43.0004
  24774370.3764   -4535162.10243                  24774368.9994
     -2385.0664                         44.0004
  20932434.8704  -24410736.64344 -19012394.62542  20932433.2074   20932436.8514
      -278.5944       -217.0904         57.0004         51.0004
  23822122.2354   -5357686.51143  -4165903.13942  23822120.2054   23822123.0594
     -3623.5214      -2823.5134         47.0004         41.0004
 03 10 28  1 49  0.0000000  0  9G 1G 4G 5G 7G 9G11G14G20G28
  24817053.9114   -4049891.02243  -3089741.05442  24817052.9954   24817058.3094
      3466.2184       2700.9504         45.0004         38.0004
  22142241.7344  -17596108.85643 -13685929.56142  22142241.1624   22142245.3044
      2880.4664       2244.5164         53.0004         47.0004
  24341823.8224   -6442423.75743  -4966088.14342  24341822.9874   24341830.3474
      2691.5264       2097.2674         44.0004         39.0004
  20542187.2954  -23290052.88544 -18140159.05342  20542185.8624   20542190.6354
       -25.4874        -19.8624         57.0004         52.0004
  25152868.5374      26301.51043     30532.43442  25152867.1024   25152874.6314
     -2874.9354      -2240.1934         44.0004         38.0004
  23251111.7034   -2068781.96543  -1595502.10342  23251110.6284   23251113.4974
     -3256.3614      -2537.4494         50.0004         43.0004
  24788028.4164   -4463390.35043  -3455978.03542  24788026.5224   24788033.7854
     -2399.3964      -1869.6444         44.0004         39.0004
  20934084.4364  -24402066.43543 -19005638.62942  20934083.0724   20934086.6994
      -299.1674       -233.1124         56.0004         51.0004
  23842825.5104   -5248885.74543  -4081123.37442  23842823.6674   23842828.6264
     -3629.6254      -2828.2704         46.0004         41.0004
 03 10 28  1 49 30.0000000  0  9G 1G 4G 5G 7G 9G11G14G20G28
  24797275.0114   -4153824.11743  -3170727.84442  24797272.8524   24797275.8794
      3462.8894       2698.3564         42.0004         38.0004
  22125827.1354  -17682373.21443 -13753148.56142  22125825.9824   22125829.0714
      2870.5244       2236.7694         53.0004         47.0004
  24326499.1944   -6522963.73243  -5028846.42242  24326497.4724   24326502.5114
      2678.1504       2086.8804         46.0004         39.0004
  20542380.2264  -23289038.37844 -18139368.52542  20542378.8484   20542383.4904
       -42.2754        -32.9484         57.0004         52.0004
  25169311.5944     112709.31443     97863.34842  25169310.8714   25169316.6114
     -2885.6734      -2248.5734         43.0004         37.0004
  23269719.3344   -1970998.25643  -1519307.00942  23269718.0764   23269720.4904
     -3262.5384      -2542.2294         50.0004         43.0004
  24801768.9424   -4391180.81443  -3399711.19642  24801766.3324   24801773.9134
     -2414.6464      -1881.5444         44.0004         38.0004
  20935850.6074  -24392783.39343 -18998405.10542  20935849.5584   20935853.0944
      -319.6804       -249.1084         56.0004         51.0004
  23863563.1224   -5139907.69443  -3996205.43942  23863561.5864   23863566.5594
     -3635.4294      -2832.8014         46.0004         40.0004
 03 10 28  1 50  0.0000000  0  9G 1G 4G 5G 7G 9G11G14G20G28
  24777519.5304   -4257648.22943  -3251629.69842  24777519.4404   24777523.7824
      3458.8884       2695.2384         43.0004         38.0004
  22109467.6534  -17768340.94143 -13820136.45942  22109466.3504   22109470.5034
      2860.5874       2229.0264         53.0004         47.0004
  24311249.2394   -6603099.71843  -5091289.99642  24311248.0774   24311253.7924
      2664.1424       2075.9354         45.0004         40.0004
  20542668.5644  -23287523.93244 -18138188.44242  20542667.2474   20542671.6854
       -58.8904        -45.8844         57.0004         52.0004
  25185814.4664     199433.76943    165440.60442  25185813.9274   25185819.7084
     -2896.3284      -2256.8864         42.0004         37.0004
  23288359.5724   -1873043.49343  -1442978.62642  23288358.5634   23288360.5984
     -3268.1244      -2546.5894         49.0004         43.0004
  24815593.7464   -4318534.76943  -3343104.20942  24815591.2984   24815599.3554
     -2428.8864      -1892.6074         44.0004         38.0004
  20937734.4734  -24382886.61043 -18990693.34942  20937732.9194   20937736.6754
      -340.1734       -265.0664         56.0004         51.0004
  23884335.2674   -5030753.45043  -3911150.21542  23884333.2414   23884336.8424
     -3641.3284      -2837.3864         46.0004         40.0004
 03 10 28  1 50 30.0000000  0  9G 1G 4G 5G 7G 9G11G14G20G28
  24757782.1524   -4361359.22343  -3332443.38242  24757779.9784   24757784.7244
      3455.3984       2692.5114         43.0004         37.0004
  22093165.1184  -17854009.59543 -13886891.35742  22093164.0664   22093168.5604
      2850.8474       2221.4514         53.0004         47.0004
  24296077.3534   -6682828.14443  -5153415.92442  24296074.6644   24296081.7654
      2651.0874       2065.7834         44.0004         39.0004
  20543052.1564  -23285508.04844 -18136617.61542  20543050.6914   20543055.3144
       -75.3144        -58.6914         57.0004         52.0004
  25202378.3054     286473.58343    233263.71442  25202376.4034   25202382.5304
     -2906.2654      -2264.6174         42.0004         36.0004
  23307032.0534   -1774918.00543  -1366517.22342  23307031.9364   23307033.5694
     -3273.4364      -2550.7264         49.0004         43.0004
  24829501.0094   -4245452.13343  -3286156.84842  24829499.2714   24829504.6804
     -2442.9904      -1903.6384         44.0004         38.0004
  20939734.5174  -24372375.27343 -18982502.72542  20939733.2384   20939736.7184
      -360.4034       -280.8384         56.0004         51.0004
  23905138.1474   -4921424.84243  -3825959.12142  23905137.3394   23905140.5864
     -3646.8024      -2841.6744         45.0004         39.0004
 03 10 28  1 51  0.0000000  0  9G 1G 4G 5G 7G 9G11G14G20G28
  24738068.8104   -4464956.57743  -3413168.53442  24738068.4164   24738073.2114
      3451.0794       2689.1514         44.0004         38.0004
  22076920.0224  -17939380.06843 -13953413.93542  22076919.4764   22076923.0074
      2840.5274       2213.4044         53.0004         47.0004
  24280983.1784   -6762149.33143  -5215224.40942  24280981.2974   24280987.4364
      2637.0204       2054.8094         45.0004         39.0004
  20543530.8614  -23282992.69944 -18134657.58742  20543529.2794   20543534.1334
       -92.2894        -71.9174         57.0004         52.0004
  25218999.6534     373823.66943    301329.24842  25218999.8254   25219004.9394
     -2916.6744      -2272.7544         40.0004         35.0004
  23325735.0514   -1676625.58643  -1289925.71742  23325733.7914   23325735.7774
     -3279.4414      -2555.4054         48.0004         42.0004
  24843489.7574   -4171937.88743  -3228872.74142  24843488.0314   24843494.7244
     -2457.8834      -1915.2504         43.0004         37.0004
  20941850.9354  -24361252.65343 -18973835.77642  20941849.9044   20941853.3294
      -381.1024       -296.9584         56.0004         51.0004
  23925976.0354   -4811927.11243  -3740636.20342  23925974.9844   23925978.0774
     -3652.8924      -2846.4024         46.0004         40.0004
 03 10 28  1 51 30.0000000  0  8G 1G 4G 5G 7G11G14G20G28
  24718376.5964   -4568435.86843  -3493801.66542  24718375.5504   24718381.3584
      3447.3544       2686.2514         44.0004         38.0004
  22060732.0144  -18024449.56343 -14019701.99442  22060731.0744   22060734.6794
      2830.6934       2205.7414         53.0004         47.0004
  24265965.9414   -6841059.12343  -5276712.39842  24265965.0354   24265971.0544
      2623.3584       2044.1574         46.0004         40.0004
  20544104.7084  -23279976.19044 -18132307.05842  20544103.3024   20544107.8764
      -108.9124        -84.8694         57.0004         52.0004
  23344473.3214   -1578166.23443  -1213204.15342  23344472.3684   23344475.1114
     -3284.7804      -2559.5884         49.0004         43.0004
  24857560.7054   -4097994.45943  -3171254.54342  24857559.0794   24857567.2754
     -2471.7144      -1925.9984         43.0004         37.0004
  20944084.1574  -24349517.77144 -18964691.73542  20944082.8144   20944086.4914
      -401.3724       -312.7624         57.0004         51.0004
  23946844.7244   -4702261.50543  -3655182.50442  23946844.2694   23946846.4244
     -3658.3444      -2850.6544         47.0004         40.0004
 03 10 28  1 52  0.0000000  0  8G 1G 4G 5G 7G11G14G20G28
  24698708.2514   -4671793.57643  -3574340.06842  24698705.7614   24698710.5724
      3443.4414       2683.2094         43.0004         38.0004
  22044601.2554  -18109215.99943 -14085753.83542  22044600.8614   22044604.8074
      2820.7154       2197.9614         53.0004         47.0004
  24251029.3814   -6919553.93943  -5337876.79742  24251027.9574   24251032.7874
      2610.1044       2033.8344         45.0004         39.0004
  20544774.5294  -23276457.38444 -18129565.12842  20544772.9634   20544777.5714
      -125.5074        -97.8014         57.0004         52.0004
  23363239.8344   -1479541.05043  -1136353.34942  23363240.4754   23363242.5884
     -3290.0324      -2563.6844         49.0004         42.0004
  24871714.2664   -4023624.27843  -3113304.59742  24871712.3394   24871719.8784
     -2486.0724      -1937.1614         44.0004         38.0004
  20946433.7534  -24337170.92743 -18955070.84842  20946432.3634   20946436.0344
      -421.6054       -328.5174         56.0004         51.0004
  23967744.7774   -4592430.41843  -3569599.82342  23967743.4174   23967747.7104
     -3663.7064      -2854.8304         46.0004         40.0004
 03 10 28  1 52 30.0000000  0  8G 1G 4G 5G 7G11G14G20G28
  24679064.5784   -4775028.22643  -3654782.62542  24679062.2404   24679067.3294
      3438.5304       2679.3814         44.0004         37.0004
  22028528.5534  -18193679.34743 -14151569.50342  22028527.9434   22028530.7604
      2809.9614       2189.5834         54.0004         47.0004
  24236171.8014   -6997633.45343  -5398717.94342  24236170.6774   24236174.7374
      2595.2344       2022.2364         46.0004         40.0004
  20545539.4194  -23272437.46144 -18126432.71742  20545537.9294   20545542.5174
      -142.8284       -111.2984         57.0004         52.0004
  23382038.6724   -1380752.76243  -1059375.47742  23382037.8354   23382040.6454
     -3296.0184      -2568.3374         48.0004         42.0004
  24885946.7734   -3948828.48343                  24885944.4234
     -2500.6614                         44.0004
  20948899.4504  -24324214.26643 -18944974.76842  20948897.9444   20948901.7554
      -442.4944       -344.7974         56.0004         51.0004
  23988675.8104   -4482438.33143  -3483891.74542  23988674.2424   23988677.4254
     -3669.4404      -2859.2934         46.0004         40.0004
 03 10 28  1 53  0.0000000  0  8G 1G 4G 5G 7G11G14G20G28
  24659440.5944   -4878136.78643  -3735126.92142  24659438.9004   24659444.9034
      3434.7534       2676.4334         41.0004         37.0004
  22012513.3034  -18277838.03243 -14217147.69242  22012512.8074   22012517.6164
      2800.2554       2182.0224         53.0004         47.0004
  24221392.4564   -7075295.19143  -5459233.49142  24221390.8294   24221396.6544
      2581.7034       2011.7184         45.0004         39.0004
  20546399.8244  -23267915.96244 -18122909.47142  20546398.2094   20546403.0994
      -159.0734       -123.9484         57.0004         52.0004
  23400867.8204   -1281803.32343   -982272.02642  23400867.5564   23400871.5604
     -3301.0754      -2572.2424         48.0004         43.0004
  24900259.6604   -3873610.40143  -2996410.33042  24900258.8274   24900265.1894
     -2513.8114      -1958.8174         43.0004         38.0004
  20951480.8234  -24310648.57443 -18934404.11742  20951479.4444   20951483.1214
      -462.3414       -360.2634         56.0004         51.0004
  24009636.0194   -4372287.84243  -3398060.17242  24009634.5384   24009638.0804
     -3674.0894      -2862.9144         45.0004         39.0004
 03 10 28  1 53 30.0000000  0  8G 1G 4G 5G 7G11G14G20G28
  24639846.0374   -4981121.41943  -3815374.63542  24639847.0094   24639849.8664
      3430.4104       2673.0374         43.0004         37.0004
  21996555.3554  -18361695.95043 -14282491.41542  21996555.0674   21996558.9474
      2790.2084       2174.1864         53.0004         47.0004
  24206692.1594   -7152541.80443  -5519425.55142  24206691.7314   24206697.3084
      2567.7974       2000.8684         45.0004         40.0004
  20547354.8154  -23262897.78844 -18118999.20442  20547353.1604   20547357.8304
      -175.6474       -136.8714         57.0004         52.0004
  23419726.7904   -1182699.17943   -905048.02842  23419724.9474   23419729.9964
     -3306.0334      -2576.1204         48.0004         42.0004
  24914652.6734   -3797979.20143  -2937476.96442  24914650.6434   24914657.6194
     -2528.4314      -1970.2084         43.0004         37.0004
  20954177.0384  -24296479.77743 -18923363.50942  20954175.8054   20954179.5084
      -482.4364       -375.9324         56.0004         51.0004
  24030626.7564   -4261986.92843  -3312111.45242  24030624.8544   24030628.0234
     -3679.4354      -2867.0904         46.0004         40.0004
 03 10 28  1 54  0.0000000  0  8G 1G 4G 5G 7G11G14G20G28
  24620273.5114   -5083965.03943  -3895512.47942  24620273.3714   24620277.5044
      3426.1794       2669.7484         44.0004         38.0004
  21980658.0814  -18445237.77343 -14347588.84942  21980657.4064   21980661.7244
      2779.9464       2166.1934         53.0004         47.0004
  24192076.3564   -7229356.02243  -5579280.61942  24192075.0764   24192080.1544
      2553.7564       1989.9244         46.0004         40.0004
  20548406.7134  -23257368.42044 -18114690.60542  20548405.5744   20548409.9014
      -192.2734       -149.8274         57.0004         52.0004
  23438617.9344   -1083427.82543   -827693.72142  23438616.6094   23438620.6404
     -3311.4094      -2580.3284         48.0004         42.0004
  24929125.0724   -3721922.31943  -2878211.89242  24929124.0254   24929129.1874
     -2541.6324      -1980.5084         43.0004         37.0004
  20956990.4804  -24281694.37043 -18911842.41942  20956989.3914   20956992.9654
      -502.4964       -391.5564         56.0004         51.0004
  24051645.3984   -4151524.51643  -3226036.87142  24051644.4204   24051648.5004
     -3684.1124      -2870.7374         45.0004         40.0004
 03 10 28  1 54 30.0000000  0  8G 1G 4G 5G 7G11G14G20G28
  24600732.3074   -5186675.16543  -3975546.32242  24600730.8744   24600734.2624
      3421.0644       2665.7584         45.0004         38.0004
  21964819.0154  -18528472.60743 -14412447.10842  21964818.6124   21964822.7884
      2768.9814       2157.6394         53.0004         47.0004
  24177539.5094   -7305746.25743  -5638805.14442  24177538.3254   24177544.2334
      2538.9904       1978.4294         46.0004         40.0004
  20549554.4394  -23251338.15844 -18109991.69442  20549553.0174   20549557.6664
      -209.7294       -163.4254         57.0004         52.0004
  23457537.7384    -984000.84543   -750218.14942  23457537.2614   23457539.7204
     -3317.1144      -2584.7744         48.0004         42.0004
  24943677.7054   -3645452.61043  -2818624.81742  24943675.0884   24943680.3614
     -2556.2944      -1991.9314         44.0004         37.0004
  20959919.3964  -24266303.87543 -18899849.82042  20959918.0474   20959921.7604
      -523.4064       -407.8494         56.0004         51.0004
  24072695.5214   -4040914.03543  -3139846.89342  24072694.5694   24072696.6014
     -3689.6844      -2875.0754         46.0004         40.0004
 03 10 28  1 55  0.0000000  0  8G 1G 4G 5G 7G11G14G20G28
  24581212.6444   -5289245.16143  -4055470.93542  24581210.0394   24581215.4944
      3416.5474       2662.2374         45.0004         39.0004
  21949039.2654  -18611395.01043 -14477061.88042  21949038.9134   21949042.6704
      2758.8694       2149.7564         53.0004         47.0004
  24163082.7464   -7381706.74243  -5697994.96042  24163081.8694   24163087.9324
      2524.5754       1967.1954         45.0004         40.0004
  20550798.0434  -23244802.76544 -18104899.17042  20550796.8224   20550801.1544
      -226.4494       -176.4494         57.0004         52.0004
  23476490.3584    -884416.29043   -672619.78842  23476488.6344   23476490.1394
     -3322.3714      -2588.8524         49.0004         43.0004
  24958306.9484   -3568568.76343  -2758714.75842  24958306.0214   24958313.0454
     -2569.7854      -2002.4444         43.0004         37.0004
  20962963.5874  -24250305.26143 -18887383.35342  20962962.3384   20962966.1324
      -543.6184       -423.5954         56.0004         51.0004
  24093771.7694   -3930154.27943  -3053540.61242  24093770.3904   24093774.4184
     -3694.6074      -2878.9044         45.0004         39.0004
 03 10 28  1 55 30.0000000  0  8G 1G 4G 5G 7G11G14G20G28
  24561721.0524   -5391673.79243  -4135285.42242  24561719.6014   24561723.5674
      3412.3774       2658.9924         44.0004         38.0004
  21933318.6074  -18694005.76343 -14541433.85942  21933318.1294   21933322.9464
      2748.6324       2141.7994         54.0004         47.0004
  24148711.8864   -7457236.11143  -5756848.80242  24148710.7474   24148715.6614
      2510.5994       1956.3174         46.0004         40.0004
  20552137.5284  -23237763.80844 -18099414.26642  20552136.2044   20552140.6394
      -242.8484       -189.2304         57.0004         52.0004
  23495467.5684    -784677.45243   -594901.24842  23495467.9864   23495470.9194
     -3326.9074      -2592.3894         48.0004         42.0004
  24973016.1304   -3491275.67543  -2698485.81942  24973014.4224   24973021.0534
     -2583.2174      -2012.9034         44.0004         39.0004
  20966123.2634  -24233701.09144 -18874445.02542  20966122.1994   20966125.5534
      -563.3814       -438.9984         57.0004         51.0004
  24114876.1494   -3819249.96843  -2967121.68242  24114875.4764   24114878.9894
     -3699.0704      -2882.4044         45.0004         39.0004
 03 10 28  1 56  0.0000000  0  8G 1G 4G 5G 7G11G14G20G28
  24542256.8304   -5493958.31243  -4214987.60942  24542255.4854   24542260.5254
      3406.9744       2654.7924         45.0004         38.0004
  21917658.2234  -18776303.40443 -14605561.93242  21917658.1704   21917660.9454
      2738.2464       2133.7054         54.0004         47.0004
  24134420.9054   -7532332.39443  -5815365.31642  24134419.7974   24134424.6204
      2495.9074       1944.8644         46.0004         41.0004
  20553572.7744  -23230221.11144 -18093536.84142  20553571.5624   20553576.0944
      -259.7994       -202.4384         57.0004         52.0004
  23514477.8524    -684785.88443   -517063.64742  23514477.0544   23514477.1284
     -3332.1094      -2596.4564         49.0004         42.0004
  24987800.5244   -3413575.79643  -2637940.12642  24987798.2614   24987804.5834
     -2596.8534      -2023.5424         43.0004         38.0004
  20969398.4724  -24216492.27744 -18861035.55042  20969396.8484   20969400.3334
      -583.6134       -454.7654         57.0004         51.0004
  24136007.9554   -3708204.03943  -2880592.41642  24136006.5724   24136009.6774
     -3703.7314      -2886.0264         45.0004         39.0004
 03 10 28  1 56 30.0000000  0  8G 1G 4G 5G 7G11G14G20G28
  24522818.2304   -5596096.06543  -4294575.44142  24522817.9814   24522822.9924
      3402.0014       2650.9134         44.0004         38.0004
  21902057.5384  -18858286.83243 -14669445.13042  21902057.1004   21902061.6034
      2727.5504       2125.3574         54.0004         48.0004
  24120213.4534   -7606993.70743  -5873542.72642  24120211.9844   24120217.7954
      2481.4134       1933.5604         45.0004         41.0004
  20555104.0704  -23222174.83944 -18087267.01442  20555102.6464   20555106.9974
      -276.6874       -215.6024         57.0004         52.0004
  23533514.8154    -584743.30843   -439108.40842  23533514.0044   23533516.3434
     -3337.4104      -2600.5944         48.0004         42.0004
  25002661.7254   -3335471.26743  -2577078.34442  25002660.0454   25002666.4514
     -2609.4624      -2033.3714         42.0004         37.0004
  20972787.9284  -24198680.32143 -18847156.10342  20972786.2664   20972790.0904
      -603.8564       -470.5354         56.0004         51.0004
  24157164.7414   -3597019.82043  -2793955.37442  24157164.0114   24157168.7444
     -3708.2454      -2889.5254         44.0004         39.0004
 03 10 28  1 57  0.0000000  0  8G 1G 4G 5G 7G11G14G20G28
  24503413.4274   -5698081.12843  -4374044.30942  24503413.3174   24503417.4244
      3397.2704       2647.2264         44.0004         38.0004
  21886516.9754  -18939951.84943 -14733080.21342  21886516.6474   21886520.3644
      2717.0244       2117.1514         54.0004         47.0004
  24106089.3204   -7681214.94143  -5931377.33942  24106088.5304   24106094.1114
      2466.8984       1922.2594         47.0004         41.0004
  20556731.8634  -23213621.87144 -18080602.34842  20556730.2214   20556734.6744
      -293.3714       -228.6004         57.0004         52.0004
  23552580.9534    -484548.40643   -361034.44142  23552579.0014   23552583.1014
     -3342.2054      -2604.3334         48.0004         42.0004
  25017600.7964   -3256964.09643  -2515903.63642  25017600.0314   25017607.2144
     -2623.2704      -2044.1164         41.0004         37.0004
  20976292.2494  -24180263.31344 -18832805.18842  20976291.1454   20976294.6364
      -623.7814       -486.0604         57.0004         51.0004
  24178349.3104   -3485697.14743  -2707210.45942  24178348.4214   24178351.6764
     -3712.9054      -2893.1814         45.0004         39.0004
 03 10 28  1 57 30.0000000  0  8G 1G 4G 5G 7G11G14G20G28
  24484031.8654   -5799914.12943  -4453394.64042  24484031.7714   24484039.7994
      3391.8834       2643.0154         42.0004         38.0004
  21871037.0344  -19021300.58043 -14796468.84542  21871036.9124   21871040.4094
      2706.5404       2108.9954         54.0004         47.0004
  24092049.1634   -7754996.74743  -5988869.47442  24092047.8934   24092052.5674
      2452.1714       1910.7824         47.0004         41.0004
  20558455.0594  -23204565.48544 -18073545.40742  20558453.6854   20558458.0984
      -310.2354       -241.7394         57.0004         52.0004
  23571675.2334    -384206.20543   -282845.73842  23571674.6514   23571676.9984
     -3347.1044      -2608.1524         48.0004         42.0004
  25032617.0314   -3178058.27643  -2454417.99042  25032616.0294   25032621.2574
     -2636.4664      -2054.4014         44.0004         38.0004
  20979911.2924  -24161245.63144 -18817986.20242  20979910.2174   20979913.6104
      -643.9164       -501.7484         57.0004         51.0004
  24199558.1694   -3374242.61343  -2620362.76442  24199556.1804   24199561.2234
     -3717.2264      -2896.5264         44.0004         39.0004
 03 10 28  1 58  0.0000000  0  8G 1G 4G 5G 7G11G14G20G28
  24464685.9024   -5901590.68043  -4532623.05042  24464684.5064   24464690.3614
      3386.1944       2638.5954         43.0004         39.0004
  21855617.6554  -19102330.35743 -14859608.94342  21855617.0024   21855621.5094
      2695.2844       2100.2284         54.0004         48.0004
  24078092.6844   -7828335.82143  -6046016.72042  24078091.3514   24078096.3984
      2436.6814       1898.7024         47.0004         41.0004
  20560274.6364  -23195004.22644 -18066095.05742  20560272.9544   20560277.5014
      -327.5004       -255.1894         57.0004         52.0004
  23590798.0404    -283717.27243   -204542.67642  23590795.9844   23590799.6614
     -3352.6364      -2612.4284         48.0004         42.0004
  25047707.187                    -2392624.75642                  25047722.6014
                     -2065.1114         44.000          37.0004
  20983644.6694  -24141627.10444 -18802699.02642  20983643.1944   20983646.9034
      -664.3564       -517.6784         57.0004         51.0004
  24220792.7284   -3262657.69243  -2533413.49342  24220790.3924   24220795.3884
     -3721.7764      -2900.0784         46.0004         40.0004
 03 10 28  1 58 30.0000000  0  8G 1G 4G 5G 7G11G14G20G28
  24445367.1544   -6003107.05343  -4611726.64542  24445367.8204   24445372.4614
      3381.3084       2634.7914         44.0004         38.0004
  21840259.1794  -19183039.09243 -14922498.89042  21840258.8834   21840262.7574
      2685.0524       2092.2474         54.0004         48.0004
  24064221.6964   -7901228.85243  -6102816.44842  24064220.1644   24064225.1894
      2422.4534       1887.6224         46.0004         40.0004
  20562190.1674  -23184936.74544 -18058250.25442  20562188.8244   20562193.2444
      -343.9574       -268.0224         57.0004         52.0004
  23609948.1574    -183081.74843   -126125.37442  23609946.3244   23609950.6894
     -3356.6634      -2615.5784         47.0004         41.0004
  25062871.9554   -3019061.15143  -2330524.13042  25062870.8584   25062875.2964
     -2663.0844      -2075.1404         41.0004         37.0004
  20987492.1704  -24121407.41644 -18786943.41342  20987491.0094   20987494.3354
      -683.9724       -532.9624         57.0004         51.0004
  24242050.6584   -3150944.09743  -2446363.94542  24242048.8494   24242053.6434
     -3726.0894      -2903.4594         45.0004         40.0004
 03 10 28  1 59  0.0000000  0  8G 1G 4G 5G 7G11G14G20G28
  24426079.7674   -6104462.15943  -4690704.64442  24426078.3364   24426083.6954
      3375.9114       2630.5794         43.0004         38.0004
  21824961.1624  -19263427.15043 -14985138.94642  21824961.0474   21824965.2934
      2674.2244       2083.8094         54.0004         48.0004
  24050435.9404   -7973675.08143  -6159268.01242  24050434.1564   24050439.7004
      2407.3114       1875.8124         47.0004         41.0004
  20564202.0264  -23174365.15944 -18050012.64142  20564200.6234   20564205.1294
      -360.7654       -281.1174         57.0004         52.0004
  23629125.8814     -82303.10343    -47596.57442  23629123.9014   23629129.6894
     -3361.6464      -2619.4494         47.0004         42.0004
  25078112.0184   -2938975.15343  -2268119.26742  25078112.5704   25078117.6054
     -2675.9784      -2085.1634         42.0004         36.0004
  20991453.7584  -24100589.83644 -18770721.90842  20991452.4564   20991455.8824
      -703.8054       -548.4234         57.0004         51.0004
  24263332.1984   -3039106.85443  -2359218.02442  24263332.0354   24263334.6944
     -3729.8734      -2906.3884         46.0004         39.0004
 03 10 28  1 59 30.0000000  0  8G 1G 4G 5G 7G11G14G20G28
  24406825.3994   -6205650.00743  -4769552.27642  24406824.9784   24406830.0114
      3370.0124       2625.9804         44.0004         38.0004
  21809726.1744  -19343490.21543 -15047525.74142  21809725.4344   21809729.7684
      2663.3184       2075.3134         54.0004         48.0004
  24036734.3564   -8045669.77743  -6215367.76242  24036734.2444   24036738.7024
      2392.2894       1864.1274         46.0004         40.0004
  20566310.2884  -23163286.27944 -18041379.73842  20566308.8484   20566313.2594
      -377.8644       -294.4394         57.0004         52.0004
  23648330.8084      18619.85443     31044.67142  23648330.4364   23648330.1964
     -3366.7914      -2623.4714         47.0004         41.0004
  25093426.4444   -2858498.11943                  25093426.5504
     -2688.9074                         43.0004
  20995529.2964  -24079172.31744 -18754032.92942  20995528.0334   20995531.6484
      -724.1254       -564.2574         57.0004         51.0004
  24284638.4234   -2927145.75143  -2271975.62142  24284636.9644   24284641.1354
     -3734.2954      -2909.8344         45.0004         39.0004
 03 10 28  2  0  0.0000000  1  8G 1G 4G 5G 7G11G14G20G28
  24387600.6974   -6306670.29643  -4848269.34942  24387598.9514   24387604.5694
      3364.0814       2621.3664         43.0004         38.0004
  21794553.1634  -19423229.79643 -15109660.47342  21794552.2604   21794555.8054
      2652.1734       2066.6294         54.0004         48.0004
  24023120.4784   -8117212.81543  -6271115.62642  24023119.6834   24023125.6864
      2376.8324       1852.0844         46.0004         40.0004
  20568514.6094  -23151702.53544 -18032353.43542  20568513.2754   20568517.6334
      -395.0074       -307.7994         57.0004         52.0004
  23667562.0044     119683.16643    109795.30342  23667560.7384   23667564.0424
     -3371.2434      -2626.9264         47.0004         41.0004
  25108814.4724   -2777635.74743  -2142400.04042  25108811.7464   25108818.8014
     -2702.1634      -2105.5864         42.0004         37.0004
  20999718.4414  -24057158.55444 -18736879.34942  20999717.1684   20999720.5794
      -744.1354       -579.8444         57.0004         51.0004
  24305966.3624   -2815066.29743  -2184640.96442  24305964.8474   24305967.1214
     -3738.5144      -2913.1354         45.0004         38.0004
 03 10 28  2  0 30.0000000  0  8G 1G 4G 5G 7G11G14G20G28
  24368410.7534   -6407519.14443  -4926852.83942  24368409.2064   24368414.1494
      3358.3484       2616.8944         44.0004         39.0004
  21779440.7584  -19502643.66943 -15171541.39542  21779439.9424   21779444.1504
      2641.4194       2058.2624         54.0004         48.0004
  24009593.6984   -8188301.19843  -6326509.25042  24009591.9844   24009597.8924
      2361.5244       1840.1504         46.0004         40.0004
  20570815.1414  -23139613.00344 -18022933.01442  20570813.8504   20570818.2034
      -411.7284       -320.8214         57.0004         52.0004
  23686820.0424     220886.35843    188654.92842  23686819.8594   23686822.3814
     -3376.1194      -2630.7324         46.0004         41.0004
  25124274.4274   -2696390.31443  -2079092.24842  25124274.1574   25124276.4264
     -2714.8944      -2115.5114         44.0004         36.0004
  21004020.8574  -24034548.84544 -18719261.38842  21004019.4124   21004023.0174
      -763.9064       -595.2474         57.0004         51.0004
  24327315.1094   -2702870.45043  -2097215.59042  24327313.6864   24327317.9914
     -3742.0624      -2915.8944         42.0004         38.0004
 03 10 28  2  1  0.0000000  0  8G 1G 4G 5G 7G11G14G20G28
  24349253.1284   -6508194.11943  -5005300.82642  24349251.8924   24349255.6884
      3352.9044       2612.6554         46.0004         39.0004
  21764390.3994  -19581730.78143 -15233167.72742  21764390.0554   21764394.5074
      2630.5184       2049.7434         54.0004         48.0004
  23996151.5794   -8258932.59543  -6381546.63542  23996151.6054   23996156.9624
      2346.2544       1828.2384         46.0004         40.0004
  20573211.9984  -23127017.95844 -18013118.68742  20573210.3424   20573214.8954
      -428.6264       -333.9984         57.0004         52.0004
  23706104.8944     322227.41443    267621.96842  23706104.2044   23706106.8744
     -3380.7094      -2634.3004         47.0004         41.0004
  25139806.7274   -2614762.74143                  25139805.9734
     -2725.4364                         43.0004
  21008436.2904  -24011344.80443 -18701180.32442  21008434.9324   21008438.7134
      -783.7344       -610.7014         56.0004         51.0004
  24348688.8914   -2590561.62843  -2009702.27042  24348686.6184   24348690.3034
     -3745.5344      -2918.6004         44.0004         39.0004
 03 10 28  2  1 30.0000000  0  8G 1G 4G 5G 7G11G14G20G28
  24330129.3544   -6608691.18243  -5083610.18442  24330127.7514   24330132.9064
      3347.2844       2608.2754         45.0004         39.0004
  21749403.8064  -19660488.83143 -15294537.64442  21749403.2574   21749406.6434
      2620.0884       2041.6264         54.0004         48.0004
  23982800.5174   -8329103.71343  -6436225.21342  23982798.5104   23982802.8984
      2331.5894       1816.8254         46.0004         41.0004
  20575704.9154  -23113916.29044 -18002909.59342  20575703.4394   20575708.1314
      -445.0204       -346.7714         57.0004         52.0004
  23725416.5764     423705.65343    346695.92042  23725415.9884   23725418.9574
     -3384.7704      -2637.4894         48.0004         42.0004
  25155412.4734   -2532757.55243                  25155410.7654
     -2739.6554                         41.0004
  21012965.1544  -23987546.50344 -18682636.20342  21012963.6614   21012967.4034
      -802.9254       -625.6564         57.0004         51.0004
  24370079.7874   -2478141.61743  -1922102.22942  24370078.3044   24370082.6184
     -3748.8594      -2921.1864         43.0004         38.0004
 03 10 28  2  2  0.0000000  0  8G 1G 4G 5G 7G11G14G20G28
  24311039.1584   -6709008.53843  -5161779.50742  24311037.6904   24311043.1204
      3341.3064       2603.6144         45.0004         39.0004
  21734479.3094  -19738917.77543 -15355651.09742  21734478.5274   21734482.1434
      2609.1684       2033.1074         54.0004         48.0004
  23969534.1854   -8398813.96343  -6490544.77742  23969532.6074   23969538.4404
      2316.2974       1804.8974         46.0004         40.0004
  20578294.4864  -23100309.12544 -17992306.61242  20578292.9004   20578297.4484
      -461.6944       -359.7634         57.0004         52.0004
  23744752.8694     525318.72743    425874.93042  23744751.1274   23744753.8504
     -3389.2164      -2640.9554         48.0004         41.0004
  25171088.2794   -2450377.04243  -1887392.14742  25171085.8934   25171091.8044
     -2751.8974      -2144.3504         43.0004         38.0004
  21017606.4114  -23963156.07443 -18663630.67942  21017605.0394   21017608.8064
      -822.5854       -640.9754         56.0004         51.0004
  24391495.4794   -2365614.05343  -1834418.45542  24391493.0444   24391497.1534
     -3752.4634      -2923.9884         45.0004         40.0004
 03 10 28  2  2 30.0000000  0  8G 1G 4G 5G 7G11G14G20G28
  24291984.4564   -6809141.32143  -5239805.03942  24291983.0674   24291986.5264
      3334.3684       2598.2064         44.0004         39.0004
  21719618.1134  -19817014.02643 -15416505.27142  21719617.4494   21719621.5254
      2597.4754       2024.0024         55.0004         48.0004
  23956356.5644   -8468059.19643  -6544502.09842  23956355.7174   23956359.7964
      2300.1324       1792.3004         46.0004         40.0004
  20580980.2894  -23086194.39444 -17981308.12542  20580978.7304   20580983.4144
      -479.1834       -373.3884         57.0004         52.0004
  23764115.1634     627066.94343    505159.23442  23764112.5304   23764116.3844
     -3393.9594      -2644.6354         48.0004         41.0004
  25186836.4134   -2367622.64943  -1822907.91342  25186832.9264   25186839.1294
     -2764.6064      -2154.2364         41.0004         36.0004
  21022360.7054  -23938172.81244 -18644163.21342  21022359.5584   21022362.7434
      -842.8204       -656.7464         57.0004         51.0004
  24412927.0984   -2252980.04443  -1746651.68542  24412926.9064   24412930.0164
     -3756.4744      -2927.1224         44.0004         39.0004
 03 10 28  2  3  0.0000000  0  8G 1G 4G 5G 7G11G14G20G28
  24272964.7774   -6909089.59243  -5317686.75042  24272963.6924   24272968.8604
      3327.9764       2593.2304         44.0004         39.0004
  21704819.2724  -19894779.53243 -15477101.72042  21704818.5894   21704822.9324
      2586.3124       2015.3024         54.0004         48.0004
  23943267.5654   -8536840.10443  -6598097.66942  23943266.1504   23943273.2884
      2284.4624       1780.0994         46.0004         41.0004
  20583762.1634  -23071575.15044 -17969916.50342  20583760.7564   20583765.1714
      -496.1364       -386.6004         57.0004         52.0004
  23783500.3694     728945.72743    584545.30042  23783499.8994   23783502.5534
     -3398.3294      -2648.0294         46.0004         41.0004
  25202653.7074   -2284500.07443  -1758137.13242  25202652.4594   25202655.7884
     -2777.1974      -2164.0534         41.0004         36.0004
  21027226.4344  -23912600.96043 -18624237.10942  21027225.2394   21027229.1514
      -862.5744       -672.1394         56.0004         51.0004
  24434380.3004   -2140245.63043  -1658806.68342  24434380.1934   24434383.0014
     -3759.7054      -2929.6404         44.0004         38.0004
 03 10 28  2  3 30.0000000  0  8G 1G 4G 5G 7G11G14G20G28
  24253982.4244   -7008846.16343  -5395419.08342  24253981.0704   24253986.0134
      3321.9444       2588.5284         45.0004         40.0004
  21690084.9784  -19972208.72143 -15537436.14142  21690084.5754   21690088.8554
      2575.3974       2006.8044         54.0004         48.0004
  23930270.6544   -8605149.62243  -6651325.85642  23930269.4384   23930273.4984
      2269.1644       1768.1864         47.0004         41.0004
  20586641.0164  -23056447.06644 -17958128.38142  20586639.5524   20586644.0424
      -512.7334       -399.5364         57.0004         52.0004
  23802914.6904     830958.13843    664035.49442  23802912.7154   23802917.5914
     -3402.5914      -2651.3764         48.0004         41.0004
  25218542.0534   -2201008.09243  -1693078.63942  25218543.0184   25218547.0504
     -2789.1724      -2173.3664         43.0004         37.0004
  21032205.2764  -23886437.38243 -18603849.91642  21032204.0464   21032207.9454
      -882.0414       -687.3084         56.0004         50.0004
  24455850.6934   -2027409.54543  -1570882.46642  24455850.4074   24455854.6744
     -3762.7854      -2932.0384         43.0004         37.0004
 03 10 28  2  4  0.0000000  0  8G 1G 4G 5G 7G11G14G20G28
  24235034.9174   -7108411.77143  -5473002.63642  24235032.4414   24235039.7334
      3315.9154       2583.8334         44.0004         39.0004
  21675414.2434  -20049304.14243 -15597510.49542  21675413.5964   21675417.9814
      2564.6574       1998.4354         55.0004         48.0004
  23917360.3074   -8672989.82343  -6704188.40142  23917358.1834   23917364.1234
      2253.7524       1756.1654         47.0004         41.0004
  20589615.8634  -23040813.83844 -17945946.64442  20589614.4914   20589618.8414
      -529.2094       -412.3704         57.0004         51.0004
  23822350.8864     933098.69543    743625.50542  23822350.1874   23822352.3964
     -3406.3884      -2654.3114         48.0004         41.0004
  25234498.9724   -2117151.71743  -1627736.19542  25234497.2784   25234500.6414
     -2800.9384      -2182.5674         42.0004         36.0004
  21037296.1034  -23859687.16544 -18583005.60842  21037294.4094   21037298.1204
      -901.1584       -702.2024         57.0004         51.0004
  24477342.1994   -1914478.16243  -1482884.00942  24477338.8494   24477344.7794
     -3765.6804      -2934.2884         43.0004         36.0004
 03 10 28  2  4 30.0000000  0  8G 1G 4G 5G 7G11G14G20G28
  24216125.6294   -7207781.32343  -5550433.40442  24216124.6844   24216129.9674
      3309.3894       2578.7404         44.0004         39.0004
  21660808.2424  -20126062.17343 -15657321.94642  21660807.1764   21660811.1644
      2553.4074       1989.6654         54.0004         48.0004
  23904541.0914   -8740356.03043  -6756681.48842  23904540.3524   23904545.2804
      2237.9564       1743.8504         47.0004         41.0004
  20592687.1384  -23024673.34844 -17933369.63042  20592685.7334   20592690.2714
      -546.1154       -425.5504         57.0004         52.0004
  23841811.1804    1035368.27043    823316.05542  23841809.5104   23841812.0764
     -3410.7434      -2657.7124         47.0004         40.0004
  25250525.6254   -2032932.89143  -1562111.12442  25250524.8224   25250529.2584
     -2813.1484      -2192.0614         41.0004         35.0004
  21042498.2344  -23832349.34843 -18561703.43042  21042496.6244   21042500.5204
      -920.6584       -717.4014         56.0004         51.0004
  24498849.3634   -1801452.18143  -1394811.73042  24498847.8574   24498853.3204
     -3768.4874      -2936.4804         42.0004         38.0004
 03 10 28  2  5  0.0000000  0  8G 1G 4G 5G 7G11G14G20G28
  24197254.5314   -7306954.00843  -5627710.80442  24197253.4914   24197257.1404
      3302.2944       2573.2144         46.0004         39.0004
  21646265.0744  -20202483.56743 -15716871.05742  21646264.6694   21646268.5034
      2541.5934       1980.4514         54.0004         48.0004
  23891812.1374   -8807247.90743  -6808804.84342  23891811.7844   23891815.6514
      2221.4804       1731.0194         47.0004         41.0004
  20595854.7834  -23008027.74844 -17920399.03142  20595853.4774   20595857.7924
      -563.5174       -439.1034         57.0004         52.0004
  23861296.2704    1137763.26943    903104.40142  23861295.2734   23861299.7674
     -3415.7304      -2661.6104         47.0004         41.0004
  25266619.7774   -1948356.08143  -1496207.55442  25266619.1264   25266623.0964
     -2825.7604      -2201.8804         40.0004         34.0004
  21047811.3864  -23804427.18043 -18539945.91742  21047810.0214   21047813.9214
      -940.7734       -733.0644         56.0004         50.0004
  24520375.9264   -1688336.43443  -1306669.65942  24520375.5294   24520377.7054
     -3771.9254      -2939.1704         44.0004         39.0004
 03 10 28  2  5 30.0000000  0  7G 1G 4G 5G 7G11G20G28
  24178421.3784   -7405918.33943  -5704825.84642  24178419.5544   24178424.9694
      3295.9364       2568.2584         46.0004         39.0004
  21631789.0414  -20278558.63743 -15776150.35042  21631788.2514   21631792.0484
      2531.0154       1972.2164         55.0004         48.0004
  23879175.4224   -8873655.27543  -6860550.74842  23879175.0394   23879178.5974
      2206.4464       1719.3284         48.0004         41.0004
  20599120.0994  -22990868.55244 -17907028.22442  20599118.6144   20599123.1844
      -579.6594       -451.6844         57.0004         52.0004
  23880807.7994    1240290.66643    982995.82542  23880806.6764   23880809.0624
     -3418.9614      -2664.1244         47.0004         41.0004
  21053237.7034  -23775913.53443 -18517727.50242  21053236.2464   21053239.8764
      -959.3314       -747.5304         56.0004         50.0004
  24541920.0814   -1575125.52743  -1218453.30742  24541919.8284   24541920.0684
     -3774.3644      -2941.0654         46.0004         39.0004
 03 10 28  2  6  0.0000000  0  7G 1G 4G 5G 7G11G20G28
  24159626.9084   -7504683.63143  -5781785.77842  24159626.1454   24159631.3254
      3288.5404       2562.4854         45.0004         40.0004
  21617375.5434  -20354298.52543 -15835168.47642  21617375.2094   21617379.6274
      2518.7084       1962.6254         54.0004         48.0004
  23866628.0704   -8939588.37643  -6911927.20942  23866626.0784   23866630.8874
      2189.3364       1705.9644         48.0004         41.0004
  20602480.7914  -22973208.01344 -17893266.74542  20602479.3384   20602483.9334
      -597.3544       -465.4744         57.0004         52.0004
  23900338.5054    1342936.67843   1062979.71842  23900338.0774   23900341.7034
     -3423.9584      -2668.0074         46.0004         40.0004
  21058773.4354  -23746822.19043 -18495058.92842  21058772.0964   21058775.7144
      -979.6054       -763.3354         56.0004         50.0004
  24563477.0694   -1461834.32843  -1130174.48042  24563477.0354   24563481.1364
     -3777.7604      -2943.7094         44.0004         38.0004
 03 10 28  2  6 30.0000000  0  7G 1G 4G 5G 7G11G20G28
  24140871.4954   -7603243.12643  -5858585.33742  24140871.3594   24140875.3954
      3282.1854       2557.5464         45.0004         40.0004
  21603027.9854  -20429697.91543 -15893921.28942  21603027.4184   21603031.5314
      2508.0264       1954.3074         55.0004         48.0004
  23854172.9704   -9005041.27143  -6962929.53542  23854172.0994   23854175.8944
      2174.0294       1694.0364         47.0004         42.0004
  20605937.6644  -22955042.71244 -17879111.96342  20605936.1314   20605940.5624
      -613.4774       -478.0324         57.0004         52.0004
  23919896.9554    1445703.32143   1143057.63242  23919895.9324   23919897.7284
     -3427.2754      -2670.6194         47.0004         41.0004
  21064419.5404  -23717150.74243 -18471938.33142  21064418.3224   21064422.2154
      -998.2754       -777.8774         56.0004         50.0004
  24585050.9634   -1348461.97543  -1041832.44342  24585049.1174   24585054.1394
     -3780.3334      -2945.7204         43.0004         38.0004
 03 10 28  2  7  0.0000000  0  7G 1G 4G 5G 7G11G20G28
  24122156.5844   -7701591.01043  -5935220.01742  24122155.9344   24122159.8694
      3274.5634       2551.6014         45.0004         40.0004
  21588745.5684  -20504752.56343 -15952405.45042  21588745.2044   21588748.9204
      2496.0024       1944.9434         55.0004         48.0004
  23841810.5244   -9070008.51843  -7013553.35342  23841809.7494   23841814.5524
      2157.4594       1681.1264         48.0004         42.0004
  20609490.8774  -22936369.63144 -17864561.49242  20609489.5994   20609493.9724
      -630.9934       -491.6814         57.0004         52.0004
  23939473.8794    1548592.40343   1223230.90942  23939474.0294   23939478.5054
     -3431.7894      -2674.1304         46.0004         41.0004
  21070177.1004  -23686897.33243 -18448364.26042  21070175.5254   21070179.2034
     -1018.2584       -793.4484         56.0004         50.0004
  24606641.5404   -1235008.48543   -953427.11642  24606637.8414   24606645.1594
     -3782.8474      -2947.6764         42.0004         37.0004
 03 10 28  2  7 30.0000000  0  7G 1G 4G 5G 7G11G20G28
  24103481.7884   -7799724.17143  -6011687.35342  24103480.5714   24103485.8014
      3267.5384       2546.1304         45.0004         40.0004
  21574529.2384  -20579461.46543 -16010620.20942  21574528.2634   21574532.4854
      2484.3494       1935.8584         55.0004         49.0004
  23829539.8464   -9134488.02643  -7063797.06042  23829539.0924   23829543.6854
      2140.9834       1668.3134         47.0004         42.0004
  20613141.0894  -22917188.76544 -17849615.35142  20613139.4854   20613143.9924
      -647.9994       -504.9314         57.0004         51.0004
  23959077.3324    1651602.31143   1303498.35942  23959075.7284   23959080.1664
     -3435.8664      -2677.3174         46.0004         41.0004
  21076044.3604  -23656063.29743 -18424337.75942  21076042.9994   21076046.8424
     -1037.6244       -808.5394         56.0004         50.0004
  24628246.8354   -1121476.51943   -864960.70442  24628245.6534   24628251.4164
     -3785.5914      -2949.8064         43.0004         37.0004
 03 10 28  2  8  0.0000000  0  7G 1G 4G 5G 7G11G20G28
  24084848.3284   -7897642.13843  -6087987.01042  24084847.7484   24084852.8534
      3260.6384       2540.7464         44.0004         40.0004
  21560377.9304  -20653825.74343 -16068566.37942  21560377.4114   21560381.4344
      2473.2764       1927.2294         55.0004         49.0004
  23817362.8154   -9198480.19243  -7113660.99342  23817361.8454   23817364.1884
      2125.1804       1655.9734         48.0004         41.0004
  20616886.7964  -22897502.81244 -17834275.62942  20616885.3294   20616889.9934
      -664.4404       -517.7524         57.0004         51.0004
  23978702.4444    1754729.25443   1383856.98742  23978700.3904   23978702.3794
     -3439.4904      -2680.1234         47.0004         40.0004
  21082021.6724  -23624652.50743 -18399861.84542  21082020.2214   21082023.9834
     -1056.3884       -823.1634         56.0004         50.0004
  24649864.8304   -1007871.49143   -776437.30342  24649864.6834   24649866.1134
     -3787.6904      -2951.4474         45.0004         37.0004
