     2              OBSERVATION DATA    G (GPS)             RINEX VERSION / TYPE
ASRINEXO V2.9.5 LH  TAU                 05-MAY- 0 03:41     PGM / RUN BY / DATE
                                                            COMMENT
BIT 2 OF LLI (+4) FLAGS DATA COLLECTED UNDER "AS" CONDITION COMMENT
RAMO                                                        MARKER NAME
20703S001                                                   MARKER NUMBER
SW                  TAU                                     OBSERVER / AGENCY
03223               ASHTECH Z-XII3      CD00                REC # / TYPE / VERS
CR15925             ASH700936D_M                            ANT # / TYPE
  4514721.9622  3133507.7843  3228024.6102                  APPROX POSITION XYZ
        0.0000        0.0000        0.0000                  ANTENNA: DELTA H/E/N
     1     1                                                WAVELENGTH FACT L1/2
     5    C1    L1    L2    P1    P2                        # / TYPES OF OBSERV
    30                                                      INTERVAL
  2000     5     4     0     1    0.000000                  TIME OF FIRST OBS
                                                            END OF HEADER
 00  5  4  0  1  0.0000000  0 10 10 26 27 08 19 07 13 31 18 02
  21910856.550   -18677938.554 8 -14536500.09147  21910856.140    21910866.3674
  24035197.841    -6800975.663 7  -5290284.36745  24035198.090    24035207.6684
  21574043.648   -19190051.488 8 -14232571.69847  21574043.670    21574051.2854
  20790621.681   -18908752.644 9 -13759622.51947  20790621.532    20790629.0004
  24284243.554    -4473081.104 7  -3240099.99245  24284243.687    24284253.5324
  23756068.895    -6908102.541 8  -3341333.25945  23756068.635    23756088.4654
  20557116.260   -26519438.242 9 -20655541.17548  20557116.814    20557122.7264
  24706743.959     -897872.805 7   -589204.14245  24706743.698    24706752.5084
  23169579.745   -10319016.482 8  -8032812.18145  23169579.934    23169591.9654
  20811041.580   -22084470.793 9 -14135602.47248  20811041.356    20811049.7374
 00  5  4  0  1 30.0000000  0 10 10 26 27 08 19 07 13 31 18 02
  21915798.301   -18651969.770 8 -14516264.79447  21915797.919    21915808.1814
  24017488.519    -6894036.979 7  -5362799.60645  24017488.839    24017498.5954
  21579886.955   -19159344.517 8 -14208644.19347  21579886.965    21579894.6304
  20795933.869   -18880836.684 9 -13737869.82247  20795933.765    20795941.2514
  24296930.887    -4406410.036 7  -3188148.53845  24296930.845    24296940.6714
  23738829.441    -6998696.046 7  -3411925.51045  23738829.310    23738849.0234
  20558139.468   -26514061.172 9 -20651351.25348  20558140.036    20558145.9544
  24718250.391     -837407.689 7   -542088.41445  24718249.602    24718258.6034
  23187333.270   -10225722.042 8  -7960115.49745  23187333.502    23187345.6764
  20809313.784   -22093550.356 9 -14142677.40148  20809313.552    20809321.8954
 00  5  4  0  2  0.0000000  0 10 10 26 27 08 19 07 13 31 18 02
  21920839.713   -18625477.290 8 -14495621.41047  21920839.319    21920849.5964
  23999787.161    -6987056.703 7  -5435282.41445  23999787.692    23999797.2784
  21585753.510   -19128515.428 8 -14184621.52847  21585753.564    21585761.2224
  20801275.236   -18852767.847 9 -13715997.99647  20801275.097    20801282.5614
  24309626.167    -4339697.107 7  -3136164.42645  24309625.876    24309635.8764
  23721592.709    -7089275.078 7  -3482506.47045  23721592.514    23721612.4614
  20559248.098   -26508235.267 9 -20646811.59148  20559248.668    20559254.6214
  24729844.132     -776479.492 7   -494611.84645  24729843.915    24729852.8794
  23205134.183   -10132178.682 8  -7887224.83845  23205134.380    23205146.6434
  20807660.932   -22102235.749 9 -14149445.18348  20807660.696    20807669.0444
 00  5  4  0  2 30.0000000  0 10 10 26 27 08 19 07 13 31 18 02
  21925980.533   -18598462.595 8 -14474571.11247  21925980.100    21925990.4414
  23982094.153    -7080033.349 7  -5507731.64945  23982094.521    23982104.1504
  21591643.369   -19097564.220 8 -14160503.71347  21591643.406    21591651.0484
  20806645.531   -18824546.554 9 -13694007.37747  20806645.409    20806652.8624
  24322329.163    -4272942.449 7  -3084147.84545  24322328.792    24322339.0554
  23704359.122    -7179837.235 7  -3553074.26445  23704359.053    23704379.1874
  20560442.327   -26501959.775 9 -20641921.59648  20560442.862    20560448.8084
  24741525.519     -715090.424 7   -446776.16645  24741525.828    24741534.9424
  23222982.064   -10038387.792 8  -7814141.33245  23222982.403    23222994.6904
  20806082.960   -22110528.020 9 -14155906.64748  20806082.729    20806091.0414
 00  5  4  0  3  0.0000000  0 10 10 26 27 08 19 07 13 31 18 02
  21931220.286   -18570927.764 8 -14453115.51547  21931219.872    21931230.2954
  23964409.877    -7172965.232 7  -5580145.97745  23964410.273    23964419.5214
  21597556.451   -19066490.766 8 -14136290.63347  21597556.513    21597564.1304
  20812044.792   -18796172.990 9 -13671898.10047  20812044.711    20812052.1564
  24335040.216    -4206146.185 7  -3032098.85045  24335039.632    24335049.9934
  23687129.440    -7270379.832 8  -3623626.83945  23687129.331    23687149.4834
  20561722.234   -26495233.921 9 -20636680.67148  20561722.756    20561728.7144
  24753294.614     -653242.324 7   -398582.76645  24753295.071    24753304.2064
  23240876.862    -9944351.016 8  -7740866.21345  23240877.185    23240889.6414
  20804579.554   -22118428.277 9 -14162062.63648  20804579.330    20804587.6244
 00  5  4  0  3 30.0000000  0 10 10 26 27 08 19 07 13 31 18 02
  21936558.725   -18542874.374 8 -14431255.85447  21936558.306    21936568.7964
  23946734.426    -7265850.776 7  -5652524.18845  23946734.990    23946743.7834
  21603492.720   -19035295.032 8 -14111982.28147  21603492.833    21603500.5164
  20817472.955   -18767647.845 9 -13649670.71747  20817472.843    20817480.2684
  24347759.186    -4139308.182 7  -2980017.30045  24347758.507    24347768.9144
  23669904.069    -7360900.445 8  -3694162.23745  23669903.897    23669924.0834
  20563087.868   -26488057.150 9 -20631088.38548  20563088.430    20563094.4354
  24765150.738     -590937.252 7   -350033.29445  24765151.143    24765160.4314
  23258818.211    -9850069.741 8  -7667400.58245  23258818.485    23258831.1564
  20803150.599   -22125937.218 9 -14167913.70748  20803150.389    20803158.6504
 00  5  4  0  4  0.0000000  0 10 10 26 27 08 19 07 13 31 18 02
  21941995.575   -18514304.234 8 -14408993.51747  21941995.143    21942005.6514
  23929068.163    -7358688.147 7  -5724864.86745  23929068.731    23929077.3044
  21609452.381   -19003976.782 8 -14087578.46747  21609452.458    21609460.2064
  20822929.868   -18738971.535 9 -13627325.53547  20822929.786    20822937.1684
  24360486.029    -4072428.113 7  -2927902.94545  24360485.486    24360495.6324
  23652683.370    -7451396.157 8  -3764678.20745  23652683.098    23652703.2074
  20564539.499   -26480428.443 9 -20625143.94048  20564540.075    20564546.1104
  24777093.863     -528176.757 7   -301128.90645  24777094.004    24777103.1364
  23276805.883    -9755545.609 8  -7593745.72945  23276806.152    23276818.7694
  20801795.976   -22133055.702 9 -14173460.51948  20801795.757    20801803.9844
 00  5  4  0  4 30.0000000  0 10 10 26 27 08 19 07 13 31 18 02
  21947530.476   -18485218.604 8 -14386329.49847  21947530.091    21947540.5524
  23911411.360    -7451475.519 8  -5797166.55745  23911411.944    23911420.4634
  21615435.364   -18972535.723 8 -14063078.94747  21615435.445    21615443.2234
  20828415.590   -18710143.925 9 -13604862.45947  20828415.478    20828422.8874
  24373220.878    -4005505.542 7  -2875755.46245  24373220.520    24373230.5514
  23635467.730    -7541864.328 8  -3835172.71345  23635467.436    23635487.5754
  20566077.415   -26472346.582 9 -20618846.39148  20566078.000    20566084.0444
  24789123.418     -464962.459 7   -251870.96445  24789123.336    24789132.3124
  23294839.542    -9660780.159 8  -7519902.84645  23294839.697    23294852.2834
  20800515.514   -22139784.430 9 -14178703.62748  20800515.293    20800523.4884
 00  5  4  0  5  0.0000000  0 10 10 26 27 08 19 07 13 31 18 02
  21953163.261   -18455618.589 8 -14363264.66647  21953162.871    21953173.3694
  23893764.320    -7544210.271 7  -5869427.25845  23893765.040    23893773.7934
  21621441.894   -18940971.130 8 -14038483.17247  21621441.987    21621449.7584
  20833930.186   -18681164.705 9 -13582281.24947  20833930.040    20833937.4824
  24385963.876    -3938539.288 7  -2823573.91945  24385963.808    24385973.7104
  23618257.939    -7632301.531 8  -3905643.03545  23618257.641    23618277.7724
  20567701.843   -26463810.272 9 -20612194.72448  20567702.436    20567708.4484
  24801239.007     -401295.584 7   -202260.36645  24801239.099    24801247.3944
  23312918.813    -9565774.612 8  -7445872.88945  23312918.882    23312931.4794
  20799309.143   -22146123.661 9 -14183643.24148  20799308.938    20799317.1204
 00  5  4  0  5 30.0000000  0 10 10 26 27 08 19 07 13 31 18 02
  21958893.572   -18425505.940 8 -14339800.38547  21958893.204    21958903.7364
  23876127.791    -7636890.704 7  -5941645.65445  23876128.480    23876137.7044
  21627472.067   -18909282.628 8 -14013790.83747  21627472.152    21627479.8764
  20839473.520   -18652034.135 9 -13559582.09247  20839473.373    20839480.8194
  24398715.071    -3871529.447 7  -2771358.44845  24398715.311    24398725.3264
  23601054.736    -7722704.986 8  -3976087.10245  23601054.420    23601074.3464
  20569412.933   -26454818.760 9 -20605188.34748  20569413.501    20569419.4494
  24813440.329     -337178.159 7   -152298.64745  24813440.193    24813448.4474
  23331043.458    -9470530.114 8  -7371656.73245  23331043.525    23331056.1334
  20798176.704   -22152074.357 9 -14188280.08848  20798176.482    20798184.6804
 00  5  4  0  6  0.0000000  0 10 10 26 27 08 19 07 13 31 18 02
  21964721.054   -18394882.905 8 -14315938.39447  21964720.650    21964731.1994
  23858501.754    -7729515.555 8  -6013820.73645  23858502.482    23858512.0554
  21633525.814   -18877470.521 8 -13989002.18647  21633525.852    21633533.5414
  20845045.527   -18622753.218 9 -13536765.79247  20845045.375    20845052.7574
  24411474.661    -3804476.340 7  -2719109.26045  24411475.067    24411485.1984
  23583858.262    -7813072.652 8  -4046503.24345  23583857.915    23583877.7664
  20571210.726   -26445371.740 9 -20597827.03048  20571211.237    20571217.1804
  24825726.660     -272612.689 7   -101987.75345  24825726.388    24825734.9424
  23349212.973    -9375048.935 8  -7297256.14645  23349213.125    23349225.8124
  20797117.961   -22157637.905 9 -14192615.26648  20797117.735    20797125.9034
 00  5  4  0  6 30.0000000  0 10 10 26 27 08 19 07 13 31 18 02
  21970645.363   -18363750.835 8 -14291679.74447  21970644.929    21970655.5064
  23840886.698    -7822082.548 7  -6085950.73745  23840887.417    23840897.3444
  21639603.137   -18845534.109 8 -13964116.67547  21639603.155    21639610.9004
  20850646.191   -18593321.622 9 -13513832.07947  20850646.038    20850653.3694
  24424242.604    -3737379.105 7  -2666825.68345  24424243.238    24424253.3394
  23566669.040    -7903401.327 8  -4116888.91345  23566668.755    23566688.7594
  20573095.347   -26435467.869 9 -20590109.72748  20573095.862    20573101.8374
  24838098.237     -207600.458 7    -51328.79145  24838097.873    24838106.6584
  23367427.592    -9279331.591 8  -7222671.56245  23367427.816    23367440.5034
  20796132.859   -22162814.540 9 -14196648.95248  20796132.627    20796140.7994
 00  5  4  0  7  0.0000000  0 10 10 26 27 08 19 07 13 31 18 02
  21976666.094   -18332111.974 8 -14267026.18847  21976665.671    21976676.2564
  23823282.847    -7914590.264 7  -6158034.53345  23823283.614    23823293.8464
  21645704.077   -18813473.426 8 -13939134.33947  21645704.101    21645711.8624
  20856275.387   -18563740.006 9 -13490781.46647  20856275.221    20856282.5564
  24437018.775    -3670238.050 7  -2614507.99345  24437019.604    24437029.9334
  23549487.824    -7993688.592 8  -4187242.37945  23549487.519    23549507.4924
  20575066.976   -26425106.580 9 -20582036.00648  20575067.527    20575073.5444
  24850554.310     -142143.638 7      -323.41145  24850554.039    24850562.4954
  23385686.733    -9183380.350 8  -7147904.72545  23385686.975    23385699.7274
  20795221.065   -22167605.692 9 -14200382.26248  20795220.838    20795229.0114
 00  5  4  0  7 30.0000000  0 10 10 26 27 08 19 07 13 31 18 02
  21982783.046   -18299967.716 8 -14241978.81847  21982782.626    21982793.1794
  23805690.984    -8007036.712 7  -6230070.58845  23805691.682    23805701.6554
  21651828.719   -18781288.398 8 -13914055.10547  21651828.751    21651836.4274
  20861933.093   -18534008.623 9 -13467614.14847  20861932.924    20861940.2084
  24449803.598    -3603052.930 7  -2562155.95945  24449804.393    24449814.8744
  23532314.988    -8083931.795 7  -4257561.50945  23532314.688    23532334.4734
  20577125.785   -26414287.284 9 -20573605.39048  20577126.352    20577132.3804
  24863094.245      -76244.223 7     51026.85845  24863094.109    24863102.3814
  23403990.183    -9087197.042 8  -7072957.06145  23403990.423    23404003.2014
  20794382.456   -22172012.434 9 -14203816.03048  20794382.229    20794390.4054
 00  5  4  0  8  0.0000000  0 10 10 26 27 08 19 07 13 31 18 02
  21988995.660   -18267320.765 8 -14216539.73947  21988995.245    21989005.8224
  23788111.056    -8099420.708 8  -6302057.96745  23788111.633    23788121.3164
  21657976.989   -18748979.113 8 -13888879.04347  21657977.014    21657984.6324
  20867619.182   -18504128.067 9 -13444330.59147  20867619.028    20867626.2764
  24462597.024    -3535823.689 7  -2509769.54445  24462597.785    24462608.0824
  23515150.842    -8174128.534 7  -4327844.34945  23515150.611    23515170.4554
  20579271.894   -26403009.543 9 -20564817.54348  20579272.466    20579278.4724
  24875717.619       -9904.531 7    102720.23545  24875717.790    24875726.1444
  23422337.456    -8990783.500 8  -6997830.00145  23422337.602    23422350.5714
  20793616.755   -22176035.960 9 -14206951.18848  20793616.529    20793624.7344
 00  5  4  0  8 30.0000000  0 10 10 26 27 08 19 07 13 31 18 02
  21995303.686   -18234172.382 8 -14190709.94547  21995303.268    21995313.8704
  23770543.393    -8191739.783 8  -6373994.76445  23770543.835    23770553.1244
  21664149.124   -18716544.637 8 -13863605.43047  21664149.142    21664156.6994
  20873333.707   -18474098.111 9 -13420930.62447  20873333.532    20873340.8024
  24475398.835    -3468549.893 7  -2457348.38145  24475399.544    24475409.8114
  23497996.146    -8264275.661 7  -4398088.55045  23497995.868    23498015.6914
  20581505.451   -26391272.277 9 -20555671.63048  20581506.010    20581512.0144
  24888425.032       56874.024 7    154755.57345  24888425.182    24888433.6724
  23440728.326    -8894140.290 8  -6922523.97845  23440728.501    23440741.5374
  20792923.913   -22179676.767 9 -14209788.13148  20792923.698    20792931.8714
 00  5  4  0  9  0.0000000  0 10 10 26 27 08 19 07 13 31 18 02
  22001706.902   -18200523.861 8 -14164490.43447  22001706.495    22001717.1094
  23752988.183    -8283991.678 8  -6445879.17645  23752988.639    23752997.8564
  21670345.074   -18683984.354 8 -13838233.78947  21670345.082    21670352.7174
  20879076.620   -18443918.751 9 -13397414.25047  20879076.476    20879083.7874
  24488209.217    -3401230.812 7  -2404891.89645  24488210.145    24488220.2324
  23480851.462    -8354370.025 7  -4468291.64145  23480851.316    23480871.0144
  20583826.647   -26379074.201 9 -20546166.63948  20583827.203    20583833.1944
  24901216.075      124089.802 7    207131.59645  24901216.007    24901224.4724
  23459162.601    -8797268.864 8  -6847040.13445  23459162.689    23459175.9094
  20792303.799   -22182935.411 9 -14212327.27948  20792303.558    20792311.6794
 00  5  4  0  9 30.0000000  0 10 10 26 27 08 19 07 13 31 18 02
  22008204.820   -18166377.578 8 -14137883.05447  22008204.407    22008215.0474
  23735446.043    -8376174.520 7  -6517709.81845  23735446.633    23735455.7244
  21676564.971   -18651298.242 8 -13812764.10647  21676565.006    21676572.6754
  20884847.984   -18413590.056 9 -13373781.50247  20884847.821    20884855.1964
  24501028.341    -3333866.557 7  -2352400.21045  24501029.171    24501039.2714
  23463717.350    -8444409.041 8  -4538451.57345  23463717.177    23463736.9334
  20586235.658   -26366414.801 9 -20536302.17048  20586236.245    20586242.2194
  24914089.605      191740.595 7    259846.56845  24914089.435    24914098.0354
  23477639.959    -8700170.972 7  -6771379.80545  23477639.948    23477653.3954
  20791756.171   -22185812.904 9 -14214569.43048  20791755.957    20791764.0444
 00  5  4  0 10  0.0000000  0 10 10 26 27 08 19 07 13 31 18 02
  22014797.201   -18131734.871 8 -14110888.84547  22014796.773    22014807.4644
  23717917.488    -8468286.509 8  -6589485.26245  23717918.157    23717926.9914
  21682808.991   -18618486.007 8 -13787196.14547  21682808.964    21682816.6754
  20890647.693   -18383112.341 9 -13350032.63647  20890647.546    20890654.9654
  24513856.128    -3266456.660 7  -2299872.95645  24513856.740    24513866.8894
  23446594.482    -8534389.728 8  -4608566.04845  23446594.270    23446613.8964
  20588732.625   -26353293.173 9 -20526077.52548  20588733.207    20588739.1844
  24927044.882      259824.621 7    312899.16945  24927045.136    24927053.9384
  23496159.834    -8602848.554 7  -6695544.54845  23496159.867    23496173.5394
  20791280.932   -22188310.061 9 -14216515.21848  20791280.716    20791288.7944
 00  5  4  0 10 30.0000000  0 10 10 26 27 08 19 07 13 31 18 02
  22021483.591   -18096597.968 8 -14083509.56347  22021483.184    22021493.9174
  23700402.885    -8560325.848 8  -6661204.10445  23700403.592    23700412.1804
  21689076.954   -18585547.435 8 -13761529.73547  21689076.964    21689084.6964
  20896475.717   -18352485.903 9 -13326167.88747  20896475.581    20896483.0234
  24526692.590    -3199000.954 7  -2247310.01545  24526693.113    24526703.2734
  23429483.039    -8624309.582 8  -4678633.10545  23429482.878    23429502.4674
  20591317.638   -26339708.841 9 -20515492.33048  20591318.217    20591324.2214
  24940082.282      328339.796 7    366287.70045  24940083.099    24940091.9394
  23514722.279    -8505303.193 8  -6619535.55345  23514722.405    23514736.2244
  20790877.789   -22190428.212 9 -14218165.67248  20790877.585    20790885.6444
 00  5  4  0 11  0.0000000  0 10 10 26 27 08 19 07 13 31 18 02
  22028263.572   -18060969.170 8 -14055746.99247  22028263.151    22028273.9524
  23682902.316    -8652290.726 7  -6732864.92145  23682903.087    23682911.7944
  21695369.174   -18552482.299 8 -13735764.70247  21695369.138    21695376.8184
  20902332.002   -18321710.942 9 -13302187.39647  20902331.877    20902339.3544
  24539537.657    -3131499.327 7  -2194711.35945  24539538.072    24539548.4394
  23412383.543    -8714165.962 8  -4748650.68445  23412383.435    23412403.1294
  20593990.768   -26325661.354 9 -20504546.24048  20593991.366    20593997.3774
  24953201.992      397284.253 7    420010.72645  24953202.847    24953211.3804
  23533327.137    -8407536.086 8  -6543353.79845  23533327.206    23533340.9794
  20790546.632   -22192168.359 9 -14219521.58148  20790546.414    20790554.4814
 00  5  4  0 11 30.0000000  0 10 10 26 27 08 19 07 13 31 18 02
  22035136.859   -18024850.056 8 -14027602.36447  22035136.472    22035147.3314
  23665416.452    -8744178.908 7  -6804465.99845  23665417.163    23665426.0274
  21701685.505   -18519290.131 8 -13709900.68247  21701685.466    21701693.1104
  20908216.529   -18290787.613 9 -13278091.30447  20908216.403    20908223.8694
  24552391.685    -3063951.219 7  -2142076.46645  24552392.043    24552402.4324
  23395296.790    -8803955.898 8  -4818616.48545  23395296.634    23395316.3954
  20596752.232   -26311149.781 9 -20493238.52248  20596752.805    20596758.8514
  24966403.507      466655.770 7    474066.52045  24966403.898    24966412.0964
  23551973.848    -8309548.678 8  -6467000.37645  23551973.947    23551987.7034
  20790287.205   -22193531.328 9 -14220583.58648  20790287.004    20790295.0814
 00  5  4  0 12  0.0000000  0 10 10 26 27 08 19 07 13 31 18 02
  22042102.594   -17988245.656 8 -13999079.57847  22042102.190    22042113.0254
  23647944.998    -8835991.847 8  -6876008.42645  23647945.679    23647954.6454
  21708025.324   -18485973.738 8 -13683939.86747  21708025.317    21708033.0364
  20914128.699   -18259719.179 9 -13253882.12947  20914128.550    20914135.9994
  24565253.960    -2996359.908 7  -2089407.89445  24565254.258    24565264.6774
  23378222.867    -8893679.709 8  -4888530.76045  23378222.594    23378242.0934
  20599601.536   -26296176.520 9 -20481571.04548  20599602.092    20599608.1604
  24979685.160      536449.227 7    528451.11845  24979685.094    24979693.3634
  23570661.702    -8211346.209 8  -6390479.39945  23570661.709    23570675.4164
  20790098.809   -22194521.326 9 -14221354.96148  20790098.574    20790106.6684
 00  5  4  0 12 30.0000000  0 10 10 26 27 08 19 07 13 31 18 02
  22049160.917   -17951154.240 8 -13970177.31147  22049160.533    22049171.4344
  23630489.058    -8927723.939 8  -6947487.85945  23630489.642    23630498.7134
  21714389.593   -18452529.012 8 -13657879.04547  21714389.611    21714397.3604
  20920069.023   -18228502.389 9 -13229557.35647  20920068.878    20920076.2734
  24578125.210    -2928721.263 7  -2036702.45145  24578125.557    24578135.8934
  23361162.564    -8983331.126 8  -4958388.63845  23361162.305    23361181.5644
  20602539.534   -26280737.453 9 -20469540.60248  20602540.078    20602546.1434
  24993047.312      606666.150 7    583165.70245  24993046.674    24993055.2424
  23589390.884    -8112926.083 8  -6313788.84945  23589390.903    23589404.6524
  20789981.868   -22195135.466 9 -14221833.46148  20789981.655    20789989.7524
 00  5  4  0 13  0.0000000  0  9 10 26 27 08 19 07 13 18 02
  22056311.600   -17913577.644 8 -13940896.98947  22056311.214    22056322.1434
  23613048.899    -9019372.877 8  -7018902.50145  23613049.416    23613058.4964
  21720778.451   -18418955.462 8 -13631717.85547  21720778.448    21720786.2004
  20926037.644   -18197136.812 9 -13205116.64747  20926037.496    20926044.8664
  24591005.624    -2861034.306 7  -1983959.34645  24591005.841    24591016.3034
  23344116.349    -9072907.010 7  -5028187.64345  23344116.156    23344135.4814
  20605566.297   -26264831.611 9 -20457146.44648  20605566.863    20605572.9154
  23608161.075    -8014290.095 8  -6236930.03945  23608161.050    23608174.8434
  20789936.369   -22195374.523 9 -14222019.68848  20789936.147    20789944.1984
 00  5  4  0 13 30.0000000  0  9 10 26 27 08 19 07 13 18 02
  22063554.187   -17875517.979 8 -13911240.23747  22063553.809    22063564.7384
  23595624.937    -9110936.697 8  -7090250.82345  23595625.449    23595634.3584
  21727191.861   -18385252.789 8 -13605456.03647  21727191.858    21727199.6084
  20932034.503   -18165622.815 9 -13180560.28047  20932034.364    20932041.7354
  24603895.231    -2793299.195 7  -1931178.71845  24603895.418    24603905.8084
  23327084.964    -9162404.556 8  -5097925.59945  23327084.936    23327104.3104
  20608682.005   -26248458.468 9 -20444388.15948  20608682.576    20608688.6154
  23626971.894    -7915439.793 8  -6159904.28245  23626972.006    23626985.8904
  20789961.947   -22195239.772 9 -14221914.63748  20789961.719    20789969.7974
 00  5  4  0 14  0.0000000  0  9 10 26 27 08 19 07 13 18 02
  22070888.229   -17836977.429 8 -13881208.77347  22070887.892    22070898.9104
  23578217.291    -9202413.955 8  -7161531.68845  23578217.870    23578226.6064
  21733629.815   -18351420.993 8 -13579093.59547  21733629.831    21733637.5744
  20938059.580   -18133960.915 8 -13155888.65947  20938059.413    20938066.7704
  24616793.869    -2725516.013 7  -1878360.64545  24616794.188    24616804.4604
  23310069.363    -9251821.373 8  -5167600.65645  23310069.275    23310088.5404
  20611886.674   -26231617.802 9 -20431265.57148  20611887.237    20611893.2494
  23645822.895    -7816377.235 7  -6082713.11945  23645823.267    23645837.3554
  20790058.432   -22194732.567 9 -14221519.36748  20790058.222    20790066.3014
 00  5  4  0 14 30.0000000  0  9 10 26 27 08 19 07 13 18 02
  22078313.360   -17797958.889 8 -13850804.85247  22078312.972    22078323.9824
  23560826.561    -9293803.023 8  -7232743.84445  23560827.040    23560835.6444
  21740092.311   -18317460.321 8 -13552630.74347  21740092.337    21740100.0764
  20944112.597   -18102151.798 8 -13131102.33047  20944112.463    20944119.8764
  24629701.430    -2657685.130 7  -1825505.38145  24629701.943    24629712.1054
  23293069.717    -9341155.334 8  -5237211.14945  23293069.484    23293088.4244
  20615180.300   -26214309.554 9 -20417778.62648  20615180.857    20615186.8784
  23664714.032    -7717104.332 7  -6005358.06545  23664714.388    23664728.8504
  20790225.517   -22193854.516 9 -14220835.12248  20790225.277    20790233.3464
 00  5  4  0 15  0.0000000  0  9 10 26 27 08 19 07 13 18 02
  22085829.080   -17758464.283 8 -13820029.96347  22085828.669    22085839.6954
  23543452.752    -9385102.059 8  -7303885.85445  23543453.178    23543461.7444
  21746579.437   -18283370.288 8 -13526067.08147  21746579.447    21746587.1834
  20950193.684   -18070195.451 9 -13106201.27247  20950193.563    20950200.9814
  24642618.314    -2589805.993 7  -1772612.54745  24642618.850    24642629.1424
  23276086.115    -9430403.424 7  -5306754.73745  23276085.872    23276104.6274
  20618563.064   -26196533.084 9 -20403926.83748  20618563.635    20618569.6384
  23683645.073    -7617622.571 7  -5927840.26245  23683645.373    23683660.0514
  20790462.935   -22192606.547 9 -14219862.63148  20790462.712    20790470.7484
 00  5  4  0 15 30.0000000  0  9 10 26 27 08 19 07 13 18 02
  22093434.962   -17718495.611 8 -13788885.69047  22093434.553    22093445.6464
  23526096.346    -9476309.074 8  -7374956.17345  23526096.833    23526105.3874
  21753091.190   -18249150.720 8 -13499402.48547  21753091.208    21753098.9674
  20956302.813   -18038092.141 9 -13081185.69747  20956302.664    20956310.0624
  24655544.265    -2521878.434 7  -1719681.96045  24655544.822    24655555.3104
  23259119.395    -9519562.950 8  -5376229.29945  23259119.068    23259137.7074
  20622034.996   -26178288.049 9 -20389709.92548  20622035.542    20622041.5494
  23702615.826    -7517933.856 8  -5850161.21845  23702615.909    23702630.5804
  20790770.486   -22190989.935 9 -14218602.88448  20790770.269    20790778.2964
 00  5  4  0 16  0.0000000  0  9 10 26 27 08 19 07 13 18 02
  22101130.526   -17678055.460 8 -13757374.03147  22101130.145    22101141.3174
  23508757.789    -9567422.345 8  -7445953.45545  23508758.316    23508766.7974
  21759627.688   -18214801.445 8 -13472636.81847  21759627.683    21759635.3864
  20962439.726   -18005842.065 9 -13056055.75947  20962439.635    20962447.1004
  24668479.641    -2453902.333 7  -1666713.52345  24668480.357    24668490.8184
  23242169.916    -9608631.434 8  -5445632.94345  23242169.522    23242188.0584
  20625596.191   -26159574.044 9 -20375127.58248  20625596.727    20625602.7154
  23721625.494    -7418040.248 8  -5772322.54445  23721625.420    23721640.0794
  20791148.004   -22189005.876 9 -14217056.82348  20791147.808    20791155.7784
 00  5  4  0 16 30.0000000  0  9 10 26 27 08 19 07 13 18 02
  22108915.621   -17637144.848 8 -13725495.77547  22108915.246    22108926.4654
  23491437.784    -9658439.114 8  -7516875.54245  23491438.386    23491446.7314
  21766189.072   -18180321.297 8 -13445769.17147  21766189.071    21766196.7674
  20968604.690   -17973444.755 8 -13030811.09247  20968604.597    20968612.0904
  24681424.371    -2385876.755 7  -1613706.57745  24681425.175    24681435.5124
  23225238.492    -9697605.291 8  -5514962.84645  23225238.033    23225256.4454
  20629246.799   -26140389.857 9 -20360178.86348  20629247.349    20629253.3384
  23740673.827    -7317942.509 8  -5694324.79345  23740673.723    23740688.3734
  20791595.383   -22186654.854 9 -14215224.82048  20791595.168    20791603.0734
 00  5  4  0 17  0.0000000  0  9 10 26 27 08 19 07 13 18 02
  22116789.765   -17595766.384 8 -13693252.96147  22116789.375    22116800.6544
  23474136.714    -9749357.467 8  -7587720.96245  23474137.292    23474145.5724
  21772775.204   -18145710.162 8 -13418799.45747  21772775.281    21772783.0664
  20974797.636   -17940900.470 8 -13005451.90147  20974797.570    20974805.0484
  24694378.645    -2317801.659 7  -1560661.01545  24694379.547    24694389.6064
  23208325.536    -9786481.794 8  -5584216.89445  23208325.152    23208343.4934
  20632986.957   -26120735.131 9 -20344863.49248  20632987.520    20632993.5054
  23759760.651    -7217642.252 8  -5616169.25645  23759760.649    23759775.3874
  20792112.340   -22183938.024 9 -14213107.76248  20792112.110    20792119.9854
 00  5  4  0 17 30.0000000  0  9 10 26 27 08 19 07 13 18 02
  22124752.415   -17553923.193 8 -13660648.01247  22124752.003    22124763.2574
  23456854.667    -9840176.352 8  -7658488.85445  23456855.167    23456863.4294
  21779386.465   -18110968.408 8 -13391727.96947  21779386.474    21779394.2634
  20981018.409   -17908210.253 8 -12979978.99747  20981018.313    20981025.7964
  24707342.299    -2249677.579 7  -1507577.32245  24707343.092    24707353.2144
  23191431.515    -9875259.094 8  -5653393.63246  23191431.197    23191449.4994
  20636816.534   -26100610.262 9 -20329181.77848  20636817.109    20636823.1134
  23778885.461    -7117142.143 8  -5537857.99745  23778885.599    23778900.3814
  20792698.561   -22180857.415 9 -14210707.24148  20792698.334    20792706.1744
 00  5  4  0 18  0.0000000  0  9 10 26 27 08 19 07 13 18 02
  22132803.180   -17511616.846 8 -13627682.16647  22132802.779    22132814.0594
  23439591.845    -9930893.329 8  -7729177.34445  23439592.308    23439600.7274
  21786022.515   -18076095.598 8 -13364554.35847  21786022.541    21786030.3464
  20987266.931   -17875373.821 8 -12954392.15947  20987266.828    20987274.3324
  24720315.444    -2181503.988 7  -1454455.02345  24720316.142    24720326.3914
  23174556.947    -9963933.991 8  -5722490.59846  23174556.598    23174574.8784
  20640735.764   -26080014.514 9 -20313133.14648  20640736.365    20640742.3754
  23798048.071    -7016443.538 7  -5459392.05845  23798048.273    23798063.1694
  20793353.786   -22177413.703 9 -14208023.78148  20793353.571    20793361.4634
 00  5  4  0 18 30.0000000  0  9 10 26 27 08 19 07 13 18 02
  22140941.732   -17468849.186 8 -13594356.85847  22140941.335    22140952.6194
  23422348.751   -10021505.799 8  -7799784.41045  23422349.275    23422357.7754
  21792683.756   -18041090.562 8 -13337277.70447  21792683.769    21792691.5404
  20993543.389   -17842390.754 8 -12928691.06147  20993543.272    20993550.8034
  24733297.968    -2113280.210 7  -1401293.63645  24733298.704    24733308.9394
  23157702.472   -10052503.172 8  -5791505.20446  23157702.216    23157720.4714
  20644744.769   -26058946.992 9 -20296716.89648  20644745.380    20644751.3824
  23817248.185    -6915547.560 7  -5380772.33245  23817248.432    23817263.5884
  20794078.031   -22173607.505 9 -14205057.86848  20794077.810    20794085.7054
 00  5  4  0 19  0.0000000  0  9 10 26 27 08 19 07 13 18 02
  22149167.575   -17425622.432 8 -13560673.80847  22149167.201    22149178.5064
  23405125.871   -10112011.871 8  -7870308.55645  23405126.399    23405134.9304
  21799370.321   -18005953.082 8 -13309897.85547  21799370.250    21799377.9634
  20999847.792   -17809261.012 9 -12902875.67047  20999847.698    20999855.2014
  24746290.079    -2045005.752 7  -1348092.74845  24746290.790    24746301.1134
  23140868.594   -10140963.906 8  -5860435.30646  23140868.401    23140886.5264
  20648843.638   -26037407.210 9 -20279932.65248  20648844.243    20648850.2704
  23836485.481    -6814456.323 7  -5302000.44245  23836485.773    23836501.1734
  20794871.051   -22169440.116 9 -14201810.50548  20794870.811    20794878.7304
 00  5  4  0 19 30.0000000  0  9 10 26 27 08 19 07 13 18 02
  22157480.360   -17381938.652 8 -13526634.63647  22157480.006    22157491.3864
  23387923.613   -10202409.436 8  -7940748.16945  23387924.118    23387932.5254
  21806081.908   -17970682.574 8 -13282414.34647  21806081.944    21806089.6914
  21006180.110   -17775984.849 9 -12876946.18147  21006179.994    21006187.4174
  24759291.891    -1976680.371 7  -1294852.22445  24759292.479    24759302.8294
  23124055.969   -10229313.153 8  -5929278.52746  23124055.810    23124073.8534
  20653032.442   -26015394.939 9 -20262780.23448  20653033.033    20653039.0954
  23855759.782    -6713171.306 7  -5223077.54245  23855759.840    23855775.6694
  20795732.577   -22164912.598 9 -14198282.51948  20795732.344    20795740.2594
 00  5  4  0 20  0.0000000  0  9 10 26 27 08 19 07 13 18 02
  22165879.658   -17337800.710 8 -13492241.58247  22165879.261    22165890.7174
  23370742.258   -10292696.823 8  -8011101.90145  23370742.733    23370751.2094
  21812818.874   -17935279.293 8 -13254827.37947  21812818.950    21812826.7004
  21012540.157   -17742562.543 8 -12850902.81447  21012540.021    21012547.4224
  24772303.363    -1908304.513 7  -1241572.35045  24772304.080    24772314.2984
  23107265.066   -10317548.770 8  -5998033.20146  23107264.854    23107282.8064
  20657311.190   -25992909.944 9 -20245259.46048  20657311.791    20657317.8654
  23875070.823    -6611694.316 7  -5144005.07945  23875070.661    23875086.5184
  20796662.357   -22160026.451 9 -14194475.09048  20796662.140    20796669.9944
 00  5  4  0 20 30.0000000  0  9 10 26 27 08 19 07 13 18 02
  22174364.930   -17293210.584 8 -13457496.17247  22174364.546    22174376.0374
  23353582.370   -10382871.943 8  -8081368.16445  23353582.861    23353591.2594
  21819581.331   -17899742.674 8 -13227136.51447  21819581.378    21819589.0794
  21018927.930   -17708994.240 8 -12824745.69047  21018927.819    21018935.2074
  24785324.575    -1839877.756 7  -1188252.80245  24785325.286    24785335.3374
  23090496.383   -10405667.709 8  -6066696.94946  23090496.062    23090513.9464
  20661679.982   -25969951.861 9 -20227370.04848  20661680.566    20661686.6404
  23894418.020    -6510027.245 7  -5064784.47545  23894417.709    23894433.5034
  20797660.128   -22154782.995 9 -14190389.23948  20797659.890    20797667.7404
 00  5  4  0 21  0.0000000  0  9 10 26 27 08 19 07 13 18 02
  22182935.827   -17248171.001 8 -13422400.52547  22182935.433    22182946.9444
  23336444.368   -10472932.809 8  -8151545.40245  23336444.915    23336453.0214
  21826369.099   -17864072.475 8 -13199341.56147  21826369.199    21826376.8804
  21025343.528   -17675280.089 8 -12798474.91647  21025343.428    21025350.7914
  24798355.557    -1771399.556 7  -1134893.17945  24798356.205    24798366.3494
  23073750.373   -10493667.277 8  -6135267.67146  23073750.016    23073767.8174
  20666138.828   -25946520.560 9 -20209111.89148  20666139.389    20666145.5004
  23913800.801    -6408171.820 7  -4985417.13445  23913800.460    23913816.4294
  20798725.681   -22149183.357 9 -14186025.84048  20798725.442    20798733.2844
 00  5  4  0 21 30.0000000  0  9 10 26 27 08 19 07 13 18 02
  22191591.749   -17202684.135 8 -13386956.35347  22191591.361    22191602.9034
  23319328.621   -10562877.345 8  -8221631.97345  23319329.124    23319337.0594
  21833182.476   -17828268.240 8 -13171442.16047  21833182.522    21833190.2184
  21031786.795   -17641420.314 8 -12772090.66547  21031786.717    21031794.1044
  24811396.277    -1702870.198 7  -1081493.70045  24811396.868    24811406.9634
  23057027.499   -10581544.672 8  -6203743.17846  23057027.133    23057044.8564
  20670687.774   -25922615.626 9 -20190484.67048  20670688.330    20670694.4624
  23933218.879    -6306129.776 8  -4905904.40045  23933218.816    23933234.8784
  20799858.754   -22143228.672 9 -14181385.78248  20799858.538    20799866.3794
 00  5  4  0 22  0.0000000  0  9 10 26 27 08 19 07 13 18 02
  22200332.490   -17156751.988 8 -13351165.20647  22200332.109    22200343.6434
  23302235.470   -10652703.412 8  -8291626.23045  23302235.928    23302243.7354
  21840021.476   -17792329.295 8 -13143437.79747  21840021.478    21840029.2134
  21038257.836   -17607414.592 8 -12745592.69547  21038257.757    21038265.1514
  24824446.975    -1634288.961 7  -1028053.81745  24824447.582    24824457.8004
  23040328.507   -10669296.826 8  -6272121.11446  23040328.203    23040345.8384
  20675326.990   -25898236.460 9 -20171487.91648  20675327.559    20675333.6764
  23952672.242    -6203902.492 8  -4826247.30045  23952672.478    23952688.6294
  20801059.257   -22136919.870 9 -14176469.78948  20801059.037    20801066.8484
 00  5  4  0 22 30.0000000  0  9 10 26 27 08 19 07 13 18 02
  22209157.478   -17110376.946 8 -13315028.95547  22209157.100    22209168.7094
  23285164.967   -10742408.683 8  -8361526.36546  23285165.426    23285173.5274
  21846886.019   -17756255.297 8 -13115328.19747  21846886.145    21846893.8764
  21044756.703   -17573262.943 8 -12718981.01847  21044756.598    21044764.0124
  24837507.516    -1565655.282 7   -974573.04545  24837508.111    24837518.3844
  23023653.928   -10756920.904 8  -6340399.18146  23023653.668    23023671.1124
  20680056.459   -25873382.823 9 -20152121.43648  20680057.024    20680063.1464
  23972160.835    -6101491.844 7  -4746447.29445  23972161.116    23972177.2734
  20802326.886   -22130258.212 9 -14171278.84248  20802326.669    20802334.4914
 00  5  4  0 23  0.0000000  0  9 10 26 27 08 19 07 13 18 02
  22218066.281   -17063561.332 8 -13278549.39847  22218065.893    22218077.6044
  23268117.794   -10831991.113 8  -8431330.80046  23268118.257    23268126.7344
  21853776.476   -17720045.760 8 -13087112.98647  21853776.575    21853784.3004
  21051283.244   -17538965.411 8 -12692255.65947  21051283.150    21051290.6194
  24850578.134    -1496969.114 7   -921051.36345  24850578.632    24850588.9304
  23007004.160   -10844414.059 8  -6408575.24546  23007003.973    23007021.3364
  20684876.244   -25848054.593 9 -20132385.14448  20684876.818    20684882.9504
  23991684.310    -5998899.411 7  -4666505.62245  23991684.332    23991700.5454
  20803661.465   -22123244.861 9 -14165813.85548  20803661.245    20803669.0214
 00  5  4  0 23 30.0000000  0  9 10 26 27 08 19 07 13 18 02
  22227058.522   -17016307.385 8 -13241728.28147  22227058.148    22227069.8424
  23251094.344   -10921448.694 8  -8501037.91946  23251094.843    23251103.6404
  21860692.838   -17683700.381 8 -13058791.92547  21860692.917    21860700.6364
  21057837.563   -17504522.156 8 -12665416.75547  21057837.492    21057844.9664
  24863658.693    -1428229.978 7   -867488.45445  24863659.227    24863669.7074
  22990379.830   -10931773.614 8  -6476647.18046  22990379.692    22990397.0304
  20689786.468   -25822251.357 9 -20112278.71748  20689787.038    20689793.1354
  24011241.627    -5896127.299 7  -4586423.92245  24011241.533    24011257.9154
  20805062.664   -22115881.188 9 -14160075.88748  20805062.445    20805070.2094
 00  5  4  0 24  0.0000000  0  9 10 26 27 08 19 07 13 18 02
  22236133.781   -16968617.187 8 -13204567.22546  22236133.415    22236145.1004
  23234095.187   -11010779.079 8  -8570645.93746  23234095.670    23234104.5954
  21867635.120   -17647218.383 8 -13030364.40447  21867635.241    21867642.9634
  21064419.713   -17469932.781 8 -12638463.99047  21064419.626    21064427.0804
  24876749.564    -1359437.677 7   -813884.15045  24876750.134    24876760.5354
  22973781.561   -11018996.349 8  -6544612.48646  22973781.373    22973798.6944
  20694787.159   -25795972.574 9 -20091801.73548  20694787.736    20694793.8194
  24030832.677    -5793176.816 7  -4506203.21945  24030832.640    24030849.3164
  20806530.366   -22108168.082 9 -14154065.63348  20806530.159    20806537.9124
 00  5  4  0 24 30.0000000  0  9 10 26 27 08 19 07 13 18 02
  22245291.476   -16920493.865 8 -13167068.67646  22245291.085    22245302.7584
  23217120.671   -11099980.382 8  -8640153.36746  23217121.202    23217130.0624
  21874603.481   -17610599.599 8 -13001830.30147  21874603.567    21874611.2994
  21071029.634   -17435197.870 9 -12611397.81247  21071029.530    21071036.8894
  24889850.623    -1290591.985 7   -760238.22745  24889850.925    24889861.3594
  22957209.890   -11106079.745 8  -6612469.19846  22957209.636    22957226.9344
  20699878.304   -25769218.490 9 -20070954.39148  20699878.872    20699884.9694
  24050457.417    -5690049.951 7  -4425845.08645  24050457.273    24050474.3024
  20808064.276   -22100107.069 9 -14147784.27948  20808064.067    20808071.8184
 00  5  4  0 25  0.0000000  0  9 10 26 27 08 19 07 13 18 02
  22254531.110   -16871939.799 8 -13129234.48246  22254530.699    22254542.4154
  23200171.241   -11189050.746 8  -8709558.76546  23200171.735    23200180.4174
  21881597.790   -17573843.879 8 -12973189.49147  21881597.905    21881605.6804
  21077667.210   -17400317.374 9 -12584218.19247  21077667.105    21077674.4124
  24902961.829    -1221693.046 7   -706550.76945  24902961.740    24902972.3784
  22940665.096   -11193021.302 8  -6680215.37046  22940664.859    22940682.1374
  20705059.831   -25741989.137 9 -20049736.71048  20705060.385    20705066.5104
  24070115.325    -5586748.220 7  -4345350.65745  24070115.305    24070132.4784
  20809664.126   -22091699.679 9 -14141233.02448  20809663.919    20809671.6694
 00  5  4  0 25 30.0000000  0  9 10 26 27 08 19 07 13 18 02
  22263852.247   -16822957.242 8 -13091066.40146  22263851.856    22263863.6534
  23183247.279   -11277987.920 8  -8778860.36346  23183247.691    23183256.0924
  21888618.316   -17536950.613 8 -12944441.49947  21888618.435    21888626.2314
  21084332.410   -17365291.402 8 -12556925.20647  21084332.321    21084339.6154
  24916083.376    -1152740.289 7   -652821.38145  24916083.084    24916093.5504
  22924147.957   -11279817.935 8  -6747848.61546  22924147.703    22924164.8594
  20710331.892   -25714284.174 9 -20028148.42148  20710332.455    20710338.5934
  24089805.931    -5483273.706 7  -4264721.57045  24089806.263    24089823.4684
  20811329.721   -22082947.022 9 -14134412.72748  20811329.496    20811337.2194
 00  5  4  0 26  0.0000000  0  9 10 26 27 08 19 07 13 18 02
  22273254.392   -16773549.027 8 -13052566.65246  22273254.027    22273265.8764
  23166348.950   -11366789.907 8  -8848056.63746  23166349.280    23166357.5264
  21895665.162   -17499919.641 8 -12915586.19747  21895665.236    21895672.9974
  21091025.332   -17330119.977 8 -12529518.88547  21091025.247    21091032.5154
  24929215.075    -1083733.898 7   -599050.15945  24929214.733    24929225.1154
  22907658.964   -11366466.980 8  -6815366.83046  22907658.649    22907675.6224
  20715694.467   -25686103.446 9 -20006189.40548  20715695.053    20715701.2104
  24109529.260    -5379628.354 8  -4183959.35645  24109529.649    24109546.8794
  20813060.735   -22073850.347 9 -14127324.36848  20813060.498    20813068.2404
 00  5  4  0 26 30.0000000  0  9 10 26 27 08 19 07 13 18 02
  22282737.187   -16723717.204 8 -13013736.82446  22282736.842    22282748.7474
  23149476.521   -11455454.411 8  -8917145.75746  23149476.950    23149485.1424
  21902738.266   -17462750.271 8 -12886623.05747  21902738.340    21902746.1244
  21097745.896   -17294802.988 8 -12501999.13547  21097745.804    21097753.1394
  24942356.935    -1014673.164 7   -545236.61545  24942356.546    24942366.8244
  22891198.486   -11452965.503 8  -6882767.72546  22891198.154    22891214.9534
  20721147.644   -25657446.685 9 -19983859.45848  20721148.238    20721154.4234
  24129284.959    -5275813.733 7  -4103065.22945  24129285.362    24129302.5404
  20814856.980   -22064410.874 9 -14119968.89748  20814856.745    20814864.4524
 00  5  4  0 27  0.0000000  0  9 10 26 27 08 19 07 13 18 02
  22292300.225   -16673463.852 8 -12974578.52946  22292299.872    22292311.8484
  23132630.675   -11543979.027 8  -8986125.89046  23132631.173    23132639.3434
  21909837.829   -17425441.923 8 -12857551.62347  21909837.905    21909845.6564
  21104494.149   -17259340.344 8 -12474365.89347  21104494.073    21104501.4234
  24955509.215     -945557.417 7   -491380.18345  24955509.130    24955519.0114
  22874767.212   -11539310.514 8  -6950048.99346  22874766.900    22874783.5544
  20726691.452   -25628313.635 9 -19961158.37448  20726692.060    20726698.2654
  24149072.625    -5171831.198 8  -4022040.24945  24149072.855    24149090.1474
  20816718.312   -22054629.605 9 -14112347.09148  20816718.076    20816725.7714
 00  5  4  0 27 30.0000000  0  9 10 26 27 08 19 07 13 18 02
  22301942.922   -16622791.839 8 -12935094.00346  22301942.536    22301954.5714
  23115811.920   -11632361.771 8  -9054995.48546  23115812.306    23115820.6094
  21916963.842   -17387994.273 8 -12828371.63547  21916963.951    21916971.6854
  21111270.211   -17223731.854 8 -12446619.00247  21111270.132    21111277.5124
  24968672.033     -876386.713 7   -437480.96445  24968672.037    24968681.9444
  22858365.681   -11625499.253 8  -7017208.48846  22858365.384    22858381.8854
  20732325.847   -25598704.330 9 -19938086.18448  20732326.489    20732332.6974
  24168891.720    -5067682.917 8  -3940886.09445  24168891.953    24168909.2574
  20818644.303   -22044508.177 9 -14104460.22448  20818644.063    20818651.7464
 00  5  4  0 28  0.0000000  0  9 10 26 27 08 19 07 13 18 02
  22311664.900   -16571703.535 8 -12895285.10247  22311664.486    22311676.5304
  23099020.492   -11720600.345 8  -9123752.75046  23099020.891    23099029.3714
  21924116.572   -17350406.689 8 -12799082.61047  21924116.670    21924124.3764
  21118073.995   -17187977.460 8 -12418758.42047  21118073.921    21118081.3614
  24981845.199     -807160.822 7   -383538.70444  24981844.899    24981855.3204
  22841994.308   -11711528.664 8  -7084243.80946  22841994.048    22842010.4904
  20738050.976   -25568618.402 9 -19914642.59948  20738051.606    20738057.8214
  24188742.052    -4963370.224 7  -3859603.79445  24188742.292    24188759.5724
  20820634.864   -22034047.513 9 -14096309.02048  20820634.635    20820642.3104
 00  5  4  0 28 30.0000000  0  9 10 26 27 08 19 07 13 18 02
  22321465.612   -16520201.422 8 -12855153.75346  22321465.171    22321477.2104
  23082256.884   -11808692.662 8  -9192396.03746  23082257.356    23082265.7974
  21931296.009   -17312678.693 8 -12769684.16847  21931296.070    21931303.7744
  21124905.525   -17152077.302 8 -12390784.24547  21124905.462    21124912.9434
  24995028.988     -737879.150 7   -329552.97144  24995028.851    24995039.0204
  22825653.894   -11797396.037 8  -7151152.85946  22825653.630    22825669.9174
  20743866.835   -25538055.909 9 -19890827.67048  20743867.469    20743873.6794
  24208623.117    -4858895.195 7  -3778194.98245  24208623.399    24208640.7134
  20822689.675   -22023249.234 9 -14087894.73848  20822689.442    20822697.1334
 00  5  4  0 29  0.0000000  0  9 10 26 27 08 19 07 13 18 02
  22331344.476   -16468288.229 8 -12814702.08346  22331344.062    22331356.0844
  23065521.592   -11896636.749 8  -9260923.82046  23065522.071    23065530.4784
  21938502.106   -17274810.114 8 -12740176.19347  21938502.201    21938509.9554
  21131764.831   -17116031.412 8 -12362696.51247  21131764.754    21131772.2104
  25008223.379     -668541.694 7   -275523.80844  25008223.677    25008233.6154
  22809344.825   -11883098.727 8  -7217933.57246  22809344.520    22809360.7564
  20749773.331   -25507016.930 9 -19866641.45248  20749773.970    20749780.1794
  24228534.850    -4754259.751 7  -3696661.13545  24228535.113    24228552.5194
  20824808.428   -22012114.617 9 -14079218.37548  20824808.205    20824815.9224
 00  5  4  0 29 30.0000000  0  9 10 26 27 08 19 07 13 18 02
  22341301.093   -16415966.639 8 -12773932.18246  22341300.679    22341312.7184
  23048814.979   -11984430.532 8  -9329334.46846  23048815.427    23048823.7084
  21945735.096   -17236800.737 8 -12710558.51247  21945735.144    21945742.9054
  21138651.760   -17079840.047 8 -12334495.42347  21138651.696    21138659.1514
  25021428.195     -599148.708 7   -221451.35344  25021428.565    25021438.7884
  22793067.546   -11968634.129 8  -7284583.89946  22793067.229    22793083.4084
  20755770.539   -25475501.679 9 -19842084.11348  20755771.169    20755777.3434
  24248476.784    -4649466.286 7  -3615004.10745  24248476.938    24248494.5434
  20826990.957   -22000645.162 9 -14070281.09948  20826990.724    20826998.4144
 00  5  4  0 30  0.0000000  0  9 10 26 27 08 19 07 13 18 02
  22351334.907   -16363238.961 8 -12732845.86146  22351334.483    22351346.5714
  23032137.438   -12072071.612 8  -9397626.15146  23032137.893    23032145.9864
  21952994.945   -17198649.729 8 -12680830.46347  21952995.048    21953002.8374
  21145566.497   -17043502.856 8 -12306180.70947  21145566.409    21145573.8294
  25034643.807     -529699.343 7   -167335.02144  25034644.365    25034654.4404
  22776822.688   -12053999.115 8  -7351101.46946  22776822.425    22776838.3444
  20761858.461   -25443509.562 9 -19817155.19248  20761859.074    20761865.2214
  24268448.439    -4544515.861 7  -3533224.74845  24268448.583    24268466.2364
  20829237.039   -21988841.802 9 -14061083.64648  20829236.819    20829244.4824
 00  5  4  0 30 30.0000000  0  9 10 26 27 08 19 07 13 18 02
  22361445.522   -16310107.804 8 -12691445.13846  22361445.164    22361457.2454
  23015489.303   -12159557.776 8  -9465797.10446  23015489.798    23015497.8314
  21960281.851   -17160356.749 8 -12650991.77747  21960281.983    21960289.7684
  21152509.017   -17007019.922 8 -12277752.42547  21152508.923    21152516.3094
  25047870.336     -460193.526 7   -113174.68344  25047870.979    25047880.7794
  22760610.810   -12139190.813 8  -7417484.00146  22760610.558    22760626.2324
  20768037.113   -25411040.962 9 -19791854.98648  20768037.687    20768043.7864
  24288449.671    -4439410.179 7  -3451324.39445  24288449.655    24288467.5474
  20831546.449   -21976705.821 9 -14051627.00248  20831546.221    20831553.8184
 00  5  4  0 31  0.0000000  0  9 10 26 27 08 19 07 13 18 02
  22371632.531   -16256575.522 8 -12649731.85546  22371632.151    22371644.2624
  22998871.163   -12246886.595 8  -9533845.46546  22998871.643    22998879.6594
  21967596.055   -17121921.007 8 -12621041.84147  21967596.119    21967603.8534
  21159479.311   -16970390.731 8 -12249210.17847  21159479.217    21159486.6344
  25061107.764     -390630.718 7    -58969.91644  25061108.486    25061118.3084
  22744432.455   -12224206.285 8  -7483729.19646  22744432.209    22744447.6754
  20774306.419   -25378095.629 9 -19766183.29948  20774306.967    20774313.0734
  24308479.959    -4334150.970 7  -3369304.41745  24308479.990    24308498.0704
  20833918.933   -21964238.378 9 -14041912.07548  20833918.688    20833926.2784
 00  5  4  0 31 30.0000000  0  8 10 26 27 08 07 13 18 02
  22381895.352   -16202644.987 8 -12607708.25446  22381894.956    22381907.1064
  22982283.249   -12334056.443 8  -9601769.94346  22982283.716    22982291.7964
  21974937.407   -17083342.367 8 -12590980.55046  21974937.417    21974945.1294
  21166477.331   -16933615.738 8 -12220554.33047  21166477.263    21166484.7094
  22728288.036   -12309043.116 8  -7549835.20046  22728287.815    22728303.1624
  20780666.315   -25344674.054 9 -19740140.51748  20780666.884    20780672.9734
  24328539.011    -4228740.485 8  -3287166.57045  24328539.112    24328557.3814
  20836354.099   -21951441.337 9 -14031940.32748  20836353.852    20836361.4434
 00  5  4  0 32  0.0000000  0  8 10 26 27 08 07 13 18 02
  22392233.368   -16148319.055 8 -12565376.54046  22392232.949    22392245.1494
  22965726.052   -12421065.080 8  -9669568.81646  22965726.479    22965734.6284
  21982305.866   -17044620.354 8 -12560807.55846  21982305.926    21982313.6664
  21173502.989   -16896695.122 8 -12191785.00747  21173502.969    21173510.4174
  22712178.164   -12393698.500 8  -7615799.81446  22712177.928    22712193.1664
  20787116.896   -25310776.168 9 -19713726.58148  20787117.458    20787123.5424
  24348626.610    -4123180.706 7  -3204912.35145  24348626.646    24348645.1234
  20838851.697   -21938316.097 9 -14021712.82948  20838851.463    20838859.0914
 00  5  4  0 32 30.0000000  0  8 10 26 27 08 07 13 18 02
  22402646.282   -16093599.799 8 -12522738.33746  22402645.850    22402658.0544
  22949199.929   -12507909.768 8  -9737239.94346  22949200.479    22949208.6844
  21989701.825   -17005753.937 8 -12530522.03446  21989701.946    21989709.6814
  21180556.588   -16859628.118 8 -12162901.60947  21180556.566    21180563.9964
  22696103.325   -12478169.121 8  -7681620.45246  22696103.176    22696118.4034
  20793658.185   -25276401.584 9 -19686941.19448  20793658.720    20793664.8014
  24368742.190    -4017472.699 7  -3122542.60945  24368742.391    24368760.7584
  20841411.579   -21924863.503 9 -14011230.25448  20841411.351    20841419.0274
 00  5  4  0 33  0.0000000  0  8 10 26 27 08 07 13 18 02
  22413133.520   -16038489.605 8 -12479795.50846  22413133.100    22413145.2874
  22932705.443   -12594588.353 8  -9804781.63246  22932706.068    22932714.4034
  21997125.358   -16966742.802 8 -12500123.74046  21997125.467    21997133.2374
  21187638.030   -16822414.782 8 -12133904.18847  21187638.004    21187645.3874
  22680064.385   -12562452.104 8  -7747294.88946  22680064.219    22680079.3124
  20800290.153   -25241550.409 9 -19659784.43347  20800290.678    20800296.7344
  24388885.605    -3911618.650 7  -3040059.11845  24388885.816    24388904.3674
  20844033.551   -21911084.897 9 -14000493.64448  20844033.316    20844040.9554
 00  5  4  0 33 30.0000000  0  8 10 26 27 08 07 13 18 02
  22423694.445   -15982992.303 8 -12436551.03346  22423694.030    22423706.2174
  22916242.932   -12681099.453 8  -9872192.82046  22916243.625    22916251.9514
  22004576.392   -16927587.519 8 -12469613.13247  22004576.499    22004584.3214
  21194747.123   -16785056.073 8 -12104793.49347  21194747.072    21194754.4984
  22664061.610   -12646545.734 8  -7812821.77046  22664061.357    22664076.1984
  20807012.587   -25206223.582 9 -19632257.03247  20807013.105    20807019.2184
  24409056.500    -3805621.320 7  -2957463.95645  24409056.603    24409075.0634
  20846717.125   -21896982.508 9 -13989504.73048  20846716.888    20846724.5034
 00  5  4  0 34  0.0000000  0  8 10 26 27 08 07 13 18 02
  22434328.632   -15927109.981 8 -12393006.54646  22434328.188    22434340.4754
  22899812.829   -12767440.511 8  -9939471.51046  22899813.499    22899821.6634
  22012055.003   -16888286.944 8 -12438989.31146  22012055.111    22012062.9454
  21201884.033   -16747551.163 8 -12075568.88547  21201884.001    21201891.4174
  22648095.317   -12730446.599 8  -7878198.45946  22648095.071    22648109.7944
  20813825.551   -25170420.898 9 -19604358.83547  20813826.098    20813832.2324
  24429254.430    -3699481.760 7  -2874757.94345  24429254.439    24429272.8914
  20849462.153   -21882557.167 9 -13978264.17148  20849461.908    20849469.4864
 00  5  4  0 34 30.0000000  0  8 10 26 27 08 07 13 18 02
  22445035.591   -15870845.225 8 -12349164.06346  22445035.155    22445047.4954
  22883415.499   -12853609.135 8 -10006615.82746  22883416.081    22883424.1684
  22019561.424   -16848840.617 8 -12408251.92346  22019561.505    22019569.3204
  21209048.818   -16709900.136 8 -12046230.41147  21209048.761    21209056.1484
  22632166.176   -12814151.879 8  -7943422.75346  22632165.989    22632180.5854
  20820729.034   -25134142.409 9 -19576089.88947  20820729.659    20820735.8054
  24449478.721    -3593202.022 7  -2791942.69545  24449478.739    24449497.1374
  20852268.368   -21867810.242 9 -13966773.03248  20852268.165    20852275.6824
 00  5  4  0 35  0.0000000  0  8 10 26 27 08 07 13 18 02
  22455814.867   -15814200.408 8 -12305025.43046  22455814.403    22455826.8454
  22867051.335   -12939602.632 8 -10073623.69246  22867051.919    22867060.0334
  22027095.843   -16809247.700 8 -12377400.29146  22027095.809    22027103.6144
  21216241.527   -16672102.408 8 -12016777.62147  21216241.482    21216248.8204
  22616274.962   -12897658.323 8  -8008492.12146  22616274.750    22616289.1784
  20827723.169   -25097387.966 9 -19547450.06547  20827723.797    20827729.9714
  24469729.684    -3486783.180 7  -2709019.03145  24469729.740    24469748.1264
  20855135.609   -21852742.699 9 -13955032.05148  20855135.370    20855142.9104
 00  5  4  0 35 30.0000000  0  8 10 26 27 08 07 13 18 02
  22466665.809   -15757178.943 8 -12260593.31646  22466665.361    22466677.8944
  22850720.861   -13025419.304 8 -10140493.78046  22850721.435    22850729.5784
  22034658.061   -16769508.003 8 -12346434.28646  22034658.064    22034665.8084
  21223462.091   -16634158.296 8 -11987210.76847  21223462.003    21223469.3344
  22600422.099   -12980963.491 8  -8073404.65546  22600421.815    22600436.1014
  20834807.857   -25060157.931 9 -19518439.65047  20834808.472    20834814.6394
  24490006.720    -3380227.626 7  -2625988.79245  24490006.601    24490025.1094
  20858063.516   -21837356.223 9 -13943042.55948  20858063.283    20858070.8164
 00  5  4  0 36  0.0000000  0  8 10 26 27 08 07 13 18 02
  22477588.072   -15699782.584 8 -12215869.07146  22477587.670    22477600.2654
  22834424.666   -13111056.374 8 -10207223.90246  22834425.197    22834433.4074
  22042248.225   -16729620.566 8 -12315353.16246  22042248.349    22042256.1004
  21230710.613   -16596067.124 8 -11957529.32647  21230710.555    21230717.8144
  22584608.114   -13064064.209 8  -8138157.88046  22584607.822    22584622.0304
  20841983.011   -25022452.328 9 -19489058.66147  20841983.625    20841989.7704
  24510309.200    -3273537.053 7  -2542853.33145  24510309.206    24510327.9034
  20861051.963   -21821651.821 9 -13930805.33048  20861051.704    20861059.2524
 00  5  4  0 36 30.0000000  0  8 10 26 27 08 07 13 18 02
  22488581.169   -15642014.323 8 -12170855.04446  22488580.739    22488593.3354
  22818162.922   -13196511.868 8 -10273812.53846  22818163.494    22818171.8164
  22049866.676   -16689585.179 8 -12284156.75846  22049866.805    22049874.5314
  21237987.059   -16557829.285 8 -11927733.60447  21237986.938    21237994.1914
  22568833.490   -13146957.844 8  -8202749.74546  22568833.243    22568847.3024
  20849248.601   -24984271.459 9 -19459307.33747  20849249.225    20849255.3704
  24530637.228    -3166712.943 7  -2459613.66345  24530637.123    24530655.8124
  20864100.571   -21805631.177 9 -13918321.68148  20864100.334    20864107.8554
 00  5  4  0 37  0.0000000  0  8 10 26 27 08 07 13 18 02
  22499644.396   -15583877.454 8 -12125553.78446  22499643.980    22499656.6224
  22801936.178   -13281784.002 8 -10340258.29646  22801936.758    22801944.9804
  22057513.421   -16649401.808 8 -12252845.05046  22057513.462    22057521.1864
  21245291.368   -16519444.909 8 -11897823.69347  21245291.221    21245298.4664
  22553098.839   -13229642.080 8  -8267178.44646  22553098.615    22553112.4434
  20856604.423   -24945616.126 9 -19429186.29947  20856605.063    20856611.2344
  24550990.125    -3059757.941 7  -2376271.91645  24550990.013    24551008.9314
  20867208.959   -21789296.352 9 -13905593.21148  20867208.722    20867216.2514
 00  5  4  0 37 30.0000000  0  8 10 26 27 08 07 13 18 02
  22510777.305   -15525374.468 8 -12079967.25046  22510776.873    22510789.5934
  22785744.798   -13366870.309 8 -10406559.25746  22785745.427    22785753.4994
  22065188.252   -16609069.883 8 -12221417.58046  22065188.368    22065196.1374
  21252623.550   -16480913.827 8 -11867799.46947  21252623.435    21252630.6654
  22537404.538   -13312113.959 8  -8331441.67946  22537404.291    22537417.9654
  20864050.625   -24906486.382 9 -19398695.59347  20864051.238    20864057.3974
  24571367.384    -2952673.672 7  -2292829.51645  24571367.456    24571386.5214
  20870376.945   -21772648.359 9 -13892620.71648  20870376.719    20870384.2154
 00  5  4  0 38  0.0000000  0  8 10 26 27 08 07 13 18 02
  22521979.392   -15466507.700 8 -12034097.25146  22521978.988    22521991.8174
  22769589.257   -13451768.188 8 -10472713.39046  22769589.871    22769597.8524
  22072891.547   -16568588.469 8 -12189873.62446  22072891.655    22072899.5294
  21259983.731   -16442235.585 8 -11837660.57947  21259983.640    21259990.8564
  22521751.270   -13394370.301 8  -8395536.99146  22521751.037    22521764.4844
  20871587.109   -24866882.049 9 -19367835.07847  20871587.701    20871593.8694
  24591769.138    -2845461.584 7  -2209287.37245  24591769.402    24591788.2924
  20873604.337   -21755688.214 9 -13879404.98548  20873604.095    20873611.5514
 00  5  4  0 38 30.0000000  0  8 10 26 27 08 07 13 18 02
  22533249.983   -15407280.659 8 -11987946.52846  22533249.596    22533262.4774
  22753469.869   -13536475.974 8 -10538719.38446  22753470.421    22753478.3874
  22080623.406   -16527957.533 8 -12158213.16146  22080623.462    22080631.3714
  21267371.936   -16403410.686 8 -11807407.40647  21267371.825    21267379.0214
  22506139.378   -13476408.928 8  -8459462.64746  22506139.125    22506152.4934
  20879213.724   -24826803.999 9 -19336605.42947  20879214.311    20879220.4684
  24612194.992    -2738124.388 7  -2125647.77745  24612195.062    24612213.9494
  20876890.750   -21738417.862 9 -13865947.53348  20876890.539    20876897.9654
 00  5  4  0 39  0.0000000  0  8 10 26 27 08 07 13 18 02
  22544588.680   -15347695.872 8 -11941517.03446  22544588.306    22544601.2384
  22737387.075   -13620991.114 8 -10604575.26046  22737387.605    22737395.6464
  22088383.884   -16487176.357 8 -12126435.62546  22088383.900    22088391.7744
  21274788.135   -16364438.433 8 -11777039.40047  21274787.991    21274795.2004
  22490569.506   -13558226.739 8  -8523216.26846  22490569.234    22490582.4674
  20886930.478   -24786252.264 9 -19305006.67447  20886931.049    20886937.2174
  24632643.995    -2630664.064 7  -2041912.24445  24632644.105    24632662.9254
  20880235.961   -21720838.631 9 -13852249.39948  20880235.734    20880243.1784
 00  5  4  0 39 30.0000000  0  8 10 26 27 08 07 13 18 02
  22555995.091   -15287755.540 8 -11894810.49446  22555994.730    22556007.6784
  22721341.483   -13705310.851 8 -10670278.89546  22721342.012    22721350.0984
  22096173.094   -16446244.056 8 -12094540.31346  22096173.128    22096180.9454
  21282232.326   -16325318.733 8 -11746556.51047  21282232.197    21282239.4444
  22475042.327   -13639820.484 8  -8586795.28746  22475042.083    22475055.0974
  20894737.317   -24745226.760 9 -19273038.75147  20894737.924    20894744.0854
  24653116.052    -2523081.420 7  -1958081.39445  24653116.104    24653135.0524
  20883639.701   -21702951.525 9 -13838311.36148  20883639.477    20883646.9694
 00  5  4  0 40  0.0000000  0  8 10 26 27 08 07 13 18 02
  22567468.540   -15227463.009 8 -11847829.52246  22567468.186    22567481.1954
  22705333.520   -13789433.518 8 -10735828.92846  22705334.044    22705342.0194
  22103991.023   -16405160.533 8 -12062527.16546  22103991.065    22103998.8874
  21289704.543   -16286051.614 8 -11715958.75147  21289704.444    21289711.7294
  22459558.268   -13721187.848 8  -8650197.91946  22459558.023    22459570.8154
  20902634.171   -24703728.460 9 -19240702.41547  20902634.767    20902640.9214
  24673610.833    -2415379.149 7  -1874157.05245  24673610.906    24673629.6404
  20887101.603   -21684758.554 9 -13824134.98747  20887101.401    20887108.9434
 00  5  4  0 40 30.0000000  0  8 10 26 27 08 07 13 18 02
  22579008.523   -15166820.942 8 -11800576.18446  22579008.147    22579021.1914
  22689363.502   -13873356.751 8 -10801223.56846  22689364.070    22689371.8244
  22111837.751   -16363925.362 8 -12030395.86146  22111837.823    22111845.6534
  21297204.922   -16246637.023 8 -11685246.08047  21297204.792    21297212.1364
  22444117.735   -13802326.191 8  -8713422.10746  22444117.502    22444130.1714
  20910621.005   -24661757.488 9 -19207997.76147  20910621.598    20910627.7384
  24694128.137    -2307558.786 7  -1790140.89045  24694128.272    24694146.8784
  20890621.575   -21666261.003 9 -13809721.28047  20890621.364    20890628.9394
 00  5  4  0 41  0.0000000  0  8 10 26 27 08 07 13 18 02
  22590614.508   -15105831.745 8 -11753052.36146  22590614.123    22590627.2354
  22673431.901   -13957078.023 8 -10866460.82346  22673432.449    22673440.0024
  22119713.533   -16322537.931 8 -11998145.92046  22119713.551    22119721.3974
  21304733.385   -16207074.531 8 -11654418.15547  21304733.280    21304740.6624
  22428721.481   -13883232.317 8  -8776465.36646  22428721.220    22428733.7814
  20918697.728   -24619314.140 9 -19174925.02347  20918698.287    20918704.4164
  24714667.442    -2199621.643 7  -1706033.38944  24714667.754    24714686.1154
  20894199.209   -21647460.211 9 -13795071.28448  20894199.007    20894206.5554
 00  5  4  0 41 30.0000000  0  8 10 26 27 08 07 13 18 02
  22602286.145   -15044497.840 8 -11705259.93346  22602285.763    22602298.9124
  22657539.174   -14040594.393 8 -10931538.41646  22657539.712    22657547.2004
  22127618.546   -16280996.825 8 -11965776.22946  22127618.558    22127626.3964
  21312290.081   -16167363.416 8 -11623474.42647  21312290.038    21312297.4084
  22413369.919   -13963902.877 8  -8839325.06046  22413369.668    22413382.2454
  20926864.350   -24576398.098 9 -19141483.95147  20926864.923    20926871.0354
  24735228.735    -2091569.421 7  -1621836.06444  24735229.037    24735247.0704
  20897834.500   -21628356.712 9 -13780185.41448  20897834.290    20897841.7974
 00  5  4  0 42  0.0000000  0  8 10 26 27 08 07 13 18 02
  22614024.116   -14982815.309 8 -11657195.83846  22614023.767    22614036.8804
  22641687.025   -14123896.802 8 -10996449.27446  22641687.597    22641695.0754
  22135554.198   -16239294.794 8 -11933281.12846  22135554.235    22135562.0194
  21319876.400   -16127496.799 8 -11592409.52047  21319876.367    21319883.7164
  22398065.080   -14044328.375 8  -8901993.81646  22398064.793    22398077.3284
  20935122.105   -24533003.172 9 -19107669.72347  20935122.706    20935128.7874
  24755812.863    -1983398.012 7  -1537546.27544  24755813.060    24755831.4174
  20901528.397   -21608945.163 9 -13765059.50448  20901528.183    20901535.6544
 00  5  4  0 42 30.0000000  0  8 10 26 27 08 07 13 18 02
  22625825.915   -14920797.712 8 -11608870.65246  22625825.556    22625838.6334
  22625873.978   -14206993.894 8 -11061200.15246  22625874.563    22625882.0494
  22143518.416   -16197442.149 8 -11900668.67946  22143518.472    22143526.2224
  21327490.371   -16087485.094 8 -11561231.56247  21327490.306    21327497.6254
  22382805.337   -14124516.826 8  -8964477.87946  22382805.087    22382817.4804
  20943468.860   -24489140.595 9 -19073491.09147  20943469.458    20943475.5194
  24776417.578    -1875119.146 7  -1453172.79244  24776418.023    24776435.6774
  20905278.564   -21589238.016 9 -13749703.25848  20905278.327    20905285.7574
 00  5  4  0 43  0.0000000  0  8 10 26 27 08 07 13 18 02
  22637691.056   -14858446.981 8 -11560285.88446  22637690.692    22637703.8494
  22610100.723   -14289882.219 8 -11125788.35746  22610101.253    22610108.7644
  22151511.670   -16155437.268 8 -11867937.59346  22151511.738    22151519.4764
  21335132.189   -16047327.361 8 -11529939.80547  21335132.115    21335139.3674
  22367591.514   -14204464.447 8  -9026774.29646  22367591.259    22367603.4734
  20951904.707   -24444809.784 9 -19038947.59947  20951905.308    20951911.3374
  24797042.291    -1766733.835 7  -1368716.10344  24797042.496    24797060.1054
  20909084.833   -21569235.574 9 -13734116.91147  20909084.602    20909092.0784
 00  5  4  0 43 30.0000000  0  8 10 26 27 08 07 13 18 02
  22649619.155   -14795765.193 8 -11511443.14846  22649618.785    22649632.0134
  22594367.768   -14372558.781 8 -11190211.55546  22594368.324    22594375.8874
  22159534.159   -16113278.874 8 -11835086.88446  22159534.193    22159541.9274
  21342801.981   -16007022.575 8 -11498533.46347  21342801.866    21342809.0714
  22352424.146   -14284167.668 8  -9088880.27346  22352423.930    22352435.9524
  20960429.782   -24400010.466 9 -19004039.04047  20960430.346    20960436.3664
  24817687.157    -1658242.312 7  -1284176.29944  24817687.274    24817704.9694
  20912947.151   -21548938.654 9 -13718301.09947  20912946.928    20912954.4114
 00  5  4  0 44  0.0000000  0  8 10 26 27 08 07 13 18 02
  22661609.954   -14732754.070 8 -11462343.80346  22661609.583    22661622.8764
  22578675.780   -14455020.311 8 -11254467.20446  22578676.307    22578684.0054
  22167586.138   -16070965.533 8 -11802115.44246  22167586.149    22167593.9384
  21350499.838   -15966569.777 8 -11467011.80747  21350499.757    21350507.0314
  22337303.871   -14363622.916 8  -9150793.03746  22337303.687    22337315.6334
  20969044.049   -24354742.179 9 -18968765.04747  20969044.603    20969050.6594
  24838351.729    -1549647.035 7  -1199555.61745  24838351.627    24838369.4924
  20916865.419   -21528347.848 9 -13702256.28647  20916865.196    20916872.6914
 00  5  4  0 44 30.0000000  0  8 10 26 27 08 07 13 18 02
  22673662.819   -14669416.440 8 -11412990.02746  22673662.440    22673675.8714
  22563025.123   -14537264.243 8 -11318553.28546  22563025.693    22563033.5674
  22175667.658   -16028496.607 8 -11769022.77346  22175667.685    22175675.4894
  21358226.040   -15925968.302 8 -11435374.28747  21358225.968    21358233.2764
  22322231.474   -14442827.000 8  -9212510.11346  22322231.332    22322243.1194
  20977747.496   -24309005.179 9 -18933125.82647  20977748.037    20977754.1674
  24859035.893    -1440948.353 7  -1114854.02245  24859035.759    24859053.6874
  20920839.442   -21507464.280 9 -13685983.35247  20920839.195    20920846.6444
 00  5  4  0 45  0.0000000  0  8 10 26 27 08 07 13 18 02
  22685777.292   -14605755.078 8 -11363384.00846  22685776.943    22685790.4764
  22547416.440   -14619288.175 8 -11382467.93846  22547416.948    22547424.9374
  22183778.892   -15985871.423 8 -11735808.34146  22183778.939    22183786.7494
  21365980.580   -15885218.081 8 -11403620.86547  21365980.480    21365987.8244
  22307207.483   -14521777.143 8  -9274029.31746  22307207.282    22307218.9744
  20986540.078   -24262799.740 9 -18897121.59347  20986540.620    20986546.8284
  24879738.715    -1332149.742 7  -1030075.09045  24879738.907    24879757.1104
  20924868.849   -21486289.407 9 -13669483.42847  20924868.635    20924876.0734
 00  5  4  0 45 30.0000000  0  8 10 26 27 08 07 13 18 02
  22697952.885   -14541772.741 8 -11313527.87446  22697952.534    22697966.0924
  22531849.992   -14701090.083 8 -11446209.59246  22531850.485    22531858.4144
  22191919.947   -15943089.783 8 -11702471.99146  22191920.014    22191927.8364
  21373763.382   -15844319.048 8 -11371751.48247  21373763.322    21373770.6514
  22292232.201   -14600471.011 8  -9335348.83246  22292231.980    22292243.6394
  20995421.554   -24216126.931 9 -18860753.17447  20995422.142    20995428.3734
  24900460.296    -1223251.895 7   -945218.55145  24900460.471    24900478.4514
  20928953.420   -21464824.843 9 -13652757.77347  20928953.197    20928960.6144
 00  5  4  0 46  0.0000000  0  8 10 26 27 08 07 13 18 02
  22710188.969   -14477472.678 8 -11263424.15246  22710188.613    22710202.1654
  22516326.363   -14782667.299 8 -11509776.15946  22516326.851    22516334.5604
  22200091.010   -15900150.727 8 -11669012.98646  22200091.097    22200098.9164
  21381574.621   -15803270.829 8 -11339765.83947  21381574.534    21381581.8284
  22277306.290   -14678905.354 8  -9396466.13646  22277306.083    22277317.6884
  21004392.010   -24168986.896 9 -18824020.67947  21004392.592    21004398.8224
  24921200.182    -1114258.108 7   -860287.36644  24921200.604    24921218.7044
  20933092.947   -21443071.586 9 -13635807.15747  20933092.712    20933100.1304
 00  5  4  0 46 30.0000000  0  8 10 26 27 08 07 13 18 02
  22722484.999   -14412857.659 8 -11213075.02346  22722484.621    22722498.1754
  22500845.891   -14864017.552 8 -11573165.88646  22500846.378    22500853.9254
  22208292.145   -15857053.679 8 -11635430.85846  22208292.189    22208300.0364
  21389414.274   -15762073.202 8 -11307663.78247  21389414.167    21389421.4614
  22262430.329   -14757077.672 8  -9457379.27646  22262430.131    22262441.6134
  21013451.262   -24121380.174 9 -18786924.52547  21013451.820    21013458.0714
  24941958.638    -1005168.333 7   -775281.18044  24941958.893    24941976.3184
  20937287.070   -21421031.286 9 -13618632.87448  20937286.838    20937294.2314
 00  5  4  0 47  0.0000000  0  8 10 26 27 08 07 13 18 02
  22734840.494   -14347930.242 8 -11162482.46546  22734840.108    22734853.6424
  22485409.050   -14945138.615 8 -11636377.01846  22485409.525    22485416.9884
  22216523.376   -15813798.396 8 -11601725.43646  22216523.371    22216531.2214
  21397282.383   -15720726.232 8 -11275445.35647  21397282.250    21397289.4824
  22247604.770   -14834985.175 8  -9518086.08346  22247604.544    22247615.8994
  21022599.149   -24073307.749 9 -18749465.49247  21022599.717    21022605.9384
  24962734.733     -895985.366 7   -690201.95844  24962734.999    24962751.5944
  20941535.530   -21398705.493 9 -13601236.12648  20941535.307    20941542.6564
 00  5  4  0 47 30.0000000  0  8 10 26 27 08 07 13 18 02
  22747254.957   -14282692.781 8 -11111648.31246  22747254.553    22747268.1104
  22470016.201   -15026027.795 8 -11699407.47446  22470016.731    22470024.2494
  22224784.845   -15770383.855 8 -11567895.92946  22224784.862    22224792.7944
  21405179.019   -15679228.964 8 -11243109.82347  21405178.883    21405186.1014
  22232830.101   -14912624.753 8  -9578584.11646  22232829.913    22232841.1884
  21031835.666   -24024769.582 9 -18711643.54347  21031836.233    21031842.4534
  24983528.097     -786711.953 7   -605052.50144  24983528.112    24983545.2684
  20945838.057   -21376095.474 9 -13583617.90847  20945837.808    20945845.1724
 00  5  4  0 48  0.0000000  0  8 10 26 27 08 07 13 18 02
  22759727.686   -14217149.175 8 -11060575.60246  22759727.318    22759740.8364
  22454667.868   -15106682.964 8 -11762255.57546  22454668.427    22454676.0974
  22233076.687   -15726809.762 8 -11533942.07946  22233076.741    22233084.6784
  21413104.171   -15637581.811 8 -11210657.48447  21413104.047    21413111.3224
  22218106.912   -14989993.908 8  -9638871.43646  22218106.755    22218117.9674
  21041160.570   -23975766.738 9 -18673459.50947  21041161.177    21041167.3924
  25004338.701     -677348.315 7   -519832.91444  25004338.758    25004355.3734
  20950194.306   -21353202.883 9 -13565779.50347  20950194.083    20950201.4254
 00  5  4  0 48 30.0000000  0  8 10 26 27 08 07 13 18 02
  22772258.184   -14151302.019 8 -11009266.36546  22772257.784    22772271.3164
  22439364.534   -15187101.787 8 -11824919.53146  22439365.140    22439372.8594
  22241399.014   -15683075.627 8 -11499863.53046  22241399.090    22241406.9854
  21421057.904   -15595784.320 8 -11178088.00447  21421057.840    21421065.1364
  22203435.752   -15067089.976 8  -9698945.98546  22203435.642    22203446.7404
  21050573.826   -23926299.692 9 -18634913.76247  21050574.451    21050580.6454
  25025165.493     -567898.144 7   -434546.03944  25025165.681    25025182.0454
  20954604.029   -21330029.427 9 -13547722.24147  20954603.810    20954611.1954
 00  5  4  0 49  0.0000000  0  8 10 26 27 08 07 13 18 02
  22784845.841   -14085154.637 8 -10957723.19046  22784845.389    22784859.0124
  22424106.611   -15267282.472 8 -11887397.91346  22424107.194    22424114.8754
  22249751.842   -15639181.513 8 -11465660.32046  22249751.897    22249759.7724
  21429040.299   -15553836.769 8 -11145401.59547  21429040.174    21429047.4994
  22188817.151   -15143910.733 8  -9758805.99846  22188816.922    22188827.9164
  21060075.190   -23876369.775 9 -18596007.33547  21060075.813    21060082.0284
  25046008.526     -458362.791 7   -349192.81744  25046008.601    25046024.3414
  20959066.882   -21306576.816 9 -13529447.45647  20959066.650    20959074.0414
 00  5  4  0 49 30.0000000  0  8 10 26 27 08 07 13 18 02
  22797490.087   -14018709.659 8 -10905948.10746  22797489.646    22797503.3434
  22408894.507   -15347222.458 8 -11949688.73146  22408895.085    22408902.6564
  22258135.230   -15595126.692 8 -11431331.88146  22258135.263    22258143.0844
  21437051.184   -15511738.878 8 -11112598.03147  21437051.088    21437058.4404
  22174251.305   -15220453.175 8  -9818449.14746  22174251.086    22174261.9734
  21069664.592   -23825977.234 9 -18556740.42347  21069665.204    21069671.4364
  25066867.297     -348745.375 7   -263775.74144  25066867.160    25066883.2074
  20963582.581   -21282846.259 9 -13510956.09147  20963582.384    20963589.7924
 00  5  4  0 50  0.0000000  0  8 10 26 27 08 07 13 18 02
  22810190.420   -13951969.829 8 -10853943.28446  22810190.004    22810203.7324
  22393728.761   -15426919.082 8 -12011789.92846  22393729.284    22393736.8084
  22266549.340   -15550910.209 8 -11396877.47746  22266549.389    22266557.1584
  21445090.855   -15469490.164 8 -11079676.95647  21445090.743    21445098.1184
  22159739.071   -15296714.578 8  -9877873.31046  22159738.812    22159749.5324
  21079341.841   -23775122.861 9 -18517113.64447  21079342.435    21079348.7034
  25087741.909     -239045.149 7                  25087741.728    25087761.5784
  20968150.995   -21258839.224 9 -13492249.28747  20968150.761    20968158.1684
 00  5  4  0 50 30.0000000  0  8 10 26 27 08 07 13 18 02
  22822946.308   -13884938.384 8 -10801711.21646  22822945.873    22822959.6684
  22378609.650   -15506370.278 8 -12073699.88946  22378610.161    22378617.7374
  22274994.278   -15506531.508 8 -11362296.65346  22274994.342    22275002.1034
  21453159.273   -15427090.533 8 -11046638.27847  21453159.127    21453166.5104
  22145280.857   -15372692.061 8  -9937076.26246  22145280.612    22145291.1334
  21089106.882   -23723807.125 9 -18477127.36247  21089107.505    21089113.7804
  25108631.596     -129265.723 7    -92751.35054  25108631.627    25108648.4194
  20972771.701   -21234557.090 9 -13473328.12747  20972771.492    20972778.8674
 00  5  4  0 51  0.0000000  0  8 10 26 27 08 07 13 18 02
  22835757.176   -13817617.989 8 -10749253.97546  22835756.734    22835770.5444
  22363537.806   -15585573.255 8 -12135416.43146  22363538.305    22363545.9504
  22283470.248   -15461989.784 8 -11327588.82046  22283470.354    22283478.1254
  21461256.442   -15384539.310 8 -11013481.48247  21461256.351    21461263.7544
  22130877.131   -15448382.867 8  -9996055.82446  22130876.873    22130887.3804
  21098959.643   -23672030.685 9 -18436782.09147  21098960.274    21098966.5564
  25129535.908      -19410.037 7                  25129535.567    25129554.2064
  20977444.528   -21210001.195 9 -13454193.64047  20977444.308    20977451.7084
 00  5  4  0 51 30.0000000  0  8 10 26 27 08 07 13 18 02
  22848622.397   -13750012.016 8 -10696574.21346  22848621.967    22848635.7624
  22348513.552   -15664526.314 8 -12196938.22146  22348514.016    22348521.6974
  22291977.270   -15417285.062 8 -11292753.97146  22291977.375    22291985.1664
  21469382.478   -15341836.814 8 -10980206.80747  21469382.396    21469389.7354
  22116528.335   -15523784.746 8 -10054810.25946  22116528.117    22116538.5914
  21108899.796   -23619794.849 9 -18396078.84547  21108900.442    21108906.7324
  25150454.689       90521.134 7     78511.17454  25150454.024    25150473.9264
  20982169.038   -21185173.434 9 -13434847.30747  20982168.847    20982176.2394
 00  5  4  0 52  0.0000000  0  8 10 26 27 08 07 13 18 02
  22861541.358   -13682123.497 8 -10643674.28146  22861540.924    22861554.7894
  22333537.342   -15743227.218 8 -12258263.52546  22333537.753    22333545.3734
  22300515.397   -15372416.939 8 -11257791.77446  22300515.515    22300523.2774
  21477537.335   -15298983.032 8 -10946814.25047  21477537.181    21477544.4824
  22102235.125   -15598895.219 8 -10113337.64847  22102234.892    22102245.2524
  21118927.222   -23567100.562 9 -18355018.36247  21118927.870    21118934.1384
  25171387.450      200525.316 7    164228.75344  25171386.870    25171404.8604
  20986944.944   -21160075.677 9 -13415290.58447  20986944.751    20986952.1524
 00  5  4  0 52 30.0000000  0  8 10 26 27 08 07 13 18 02
  22874513.573   -13613955.159 8 -10590556.29846  22874513.123    22874527.0744
  22318609.593   -15821673.039 8 -12319390.08146  22318610.008    22318617.5444
  22309084.868   -15327384.523 8 -11222701.61346  22309084.892    22309092.6264
  21485720.983   -15255977.325 8 -10913303.30447  21485720.875    21485728.1804
  22087997.960   -15673711.060 8 -10171635.44547  22087997.678    22088008.0214
  21129041.807   -23513948.146 9 -18313600.90247  21129042.438    21129048.6884
  25192333.801      310602.502 7    250003.45944  25192333.641    25192350.4554
  20991772.107   -21134708.679 9 -13395524.06847  20991771.909    20991779.3154
 00  5  4  0 53  0.0000000  0  8 10 26 27 08 07 13 18 02
  22887538.470   -13545509.623 8 -10537222.32146  22887538.037    22887552.1044
  22303730.752   -15899861.130 8 -12380315.78946  22303731.209    22303738.7324
  22317685.729   -15282186.921 8 -11187482.72446  22317685.738    22317693.4234
  21493933.688   -15212818.909 8 -10879673.36647  21493933.599    21493940.9654
  22073817.371   -15748229.245 8 -10229701.31547  22073817.105    22073827.4414
  21139243.465   -23460338.058 9 -18271826.81347  21139244.086    21139250.3424
  25213293.792      420748.866 7    335831.66644  25213293.461    25213310.7174
  20996650.304   -21109073.694 9 -13375548.73047  20996650.092    20996657.4804
 00  5  4  0 53 30.0000000  0  8 10 26 27 08 07 13 18 02
  22900615.501   -13476789.990 8 -10483674.76146  22900615.054    22900629.2144
  22288901.302   -15977789.636 8 -12441039.23546  22288901.764    22288909.2604
  22326317.933   -15236823.938 8 -11152134.95646  22326318.001    22326325.6944
  21502175.487   -15169508.175 8 -10845924.74047  21502175.354    21502182.7464
  22059693.832   -15822447.737 8 -10287533.65647  22059693.582    22059703.8834
  21149531.974   -23406271.398 9 -18229696.95547  21149532.583    21149538.8254
  25234266.751      530963.885 7    421713.20344  25234267.010    25234282.9254
  21001579.079   -21083172.830 9 -13355366.21747  21001578.869    21001586.2224
 00  5  4  0 54  0.0000000  0  8 10 26 27 08 07 13 18 02
  22913744.173   -13407799.175 8 -10429915.86246  22913743.715    22913757.9374
  22274121.899   -16055455.906 8 -12501558.34146  22274122.385    22274129.6744
  22334981.739   -15191294.848 8 -11116657.73746  22334981.874    22334989.6064
  21510446.340   -15126044.496 8 -10812056.93847  21510446.258    21510453.5824
  22045628.023   -15896363.413 8 -10345130.04347  22045627.740    22045637.9274
  21159907.294   -23351748.834 9 -18187211.84447  21159907.881    21159914.1064
  25255252.587      641245.574 7                  25255252.999    25255267.1534
  21006558.270   -21057007.177 9 -13334977.37547  21006558.033    21006565.3634
 00  5  4  0 54 30.0000000  0  8 10 26 27 08 07 13 18 02
  22926923.814   -13338540.745 8 -10375948.43846  22926923.321    22926937.5504
  22259392.813   -16132858.129 8 -12561871.68146  22259393.313    22259400.4074
  22343677.243   -15145599.645 8 -11081051.08746  22343677.404    22343685.1304
  21518746.285   -15082428.250 8 -10778070.25147  21518746.162    21518753.4444
  22031620.081   -15969974.259 8 -10402488.90247  22031619.848    22031629.9524
  21170369.047   -23296771.898 9 -18144372.68047  21170369.628    21170375.8604
  25276250.470                                    25276255.990    25276258.6274
  21011587.378   -21030578.889 9 -13314383.88947  21011587.131    21011594.4644
 00  5  4  0 55  0.0000000  0  7 10 26 27 08 07 13 02
  22940153.679   -13269017.623 8 -10321774.73846  22940153.212    22940167.5914
  22244714.444   -16209994.120 8 -12621977.57346  22244714.934    22244721.7984
  22352404.511   -15099737.984 8 -11045314.72646  22352404.632    22352412.3344
  21527075.274   -15038659.326 8 -10743964.59047  21527075.136    21527082.3784
  22017670.650   -16043277.864 8 -10459608.35647  22017670.424    22017680.4554
  21180917.016   -23241341.672 9 -18101180.29947  21180917.616    21180923.9034
  21016666.137   -21003889.547 9 -13293586.97547  21016665.895    21016673.2504
 00  5  4  0 55 30.0000000  0  7 10 26 27 08 07 13 02
  22953433.231   -13199233.213 8 -10267397.46546  22953432.779    22953447.4144
  22230086.996   -16286861.600 8 -12681874.23746  22230087.461    22230094.3554
  22361163.590   -15053709.412 8 -11009448.32046  22361163.609    22361171.2574
  21535433.357   -14994737.360 8 -10709739.68547  21535433.230    21535440.5074
  22003780.188   -16116271.593 8 -10516486.36247  22003779.990    22003789.9314
  21191551.051   -23185459.027 9 -18057635.38447  21191551.674    21191558.0064
  21021794.278   -20976940.777 9 -13272587.91047  21021794.035    21021801.4234
 00  5  4  0 56  0.0000000  0  7 10 26 27 08 07 13 02
  22966762.238   -13129189.643 8 -10212818.24646  22966761.732    22966776.5324
  22215511.070   -16363457.590 8 -12741559.35246  22215511.512    22215518.5824
  22369954.545   -15007512.680 8 -10973450.86746  22369954.553    22369962.2284
  21543820.654   -14950661.822 8 -10675395.12147  21543820.533    21543827.8164
  21989949.327   -16188952.246 8 -10573120.41647  21989949.145    21989959.0314
  21202271.223   -23129124.393 9 -18013738.27147  21202271.822    21202278.1374
  21026971.659   -20949733.381 9 -13251387.32147  21026971.431    21026978.7804
 00  5  4  0 56 30.0000000  0  7 10 26 27 08 07 13 02
  22980140.048   -13058889.438 8 -10158039.05746  22980139.550    22980154.4664
  22200987.237   -16439779.243 8 -12801030.70546  22200987.747    22200995.0024
  22378777.569   -14961146.782 8 -10937321.59746  22378777.705    22378785.4074
  21552237.317   -14906431.670 8 -10640930.07547  21552237.247    21552244.5404
  21976178.743   -16261316.582 8 -10629507.99847  21976178.529    21976188.3264
  21213077.368   -23072337.876 9 -17969489.04047  21213077.942    21213084.2364
  21032198.105   -20922268.223 9 -13229985.88447  21032197.862    21032205.1894
 00  5  4  0 57  0.0000000  0  7 10 26 27 08 07 13 02
  22993566.040   -12988336.112 8 -10103062.63846  22993565.545    22993580.5224
  22186516.073   -16515824.640 8 -12860286.80646  22186516.664    22186523.9634
  22387632.829   -14914611.609 8 -10901060.42446  22387632.984    22387640.7654
  21560683.462   -14862047.031 8 -10606344.64747  21560683.379    21560690.6504
  21962468.638   -16333362.616 8 -10685647.55547  21962468.420    21962478.1684
  21223969.142   -23015101.130 9 -17924888.97947  21223969.702    21223975.9774
  21037473.168   -20894547.554 9 -13208385.34647  21037472.921    21037480.2244
 00  5  4  0 57 30.0000000  0  7 10 26 27 08 07 13 02
  23007039.574   -12917532.977 8 -10047891.54146  23007039.068    23007054.1284
  22172098.016   -16591591.932 8 -12919326.19146  22172098.556    22172105.7774
  22396520.314   -14867907.205 8 -10864667.38746  22396520.492    22396528.3194
  21569158.970   -14817508.304 8 -10571639.15647  21569158.822    21569166.0374
  21948819.589   -16405088.061 8 -10741537.31447  21948819.379    21948829.0404
  21234946.296   -22957415.633 9 -17879939.24747  21234946.862    21234953.1454
  21042796.515   -20866573.210 9 -13186587.13947  21042796.285    21042803.5584
 00  5  4  0 58  0.0000000  0  7 10 26 27 08 07 13 02
  23020559.957   -12846483.444 8  -9992528.47646  23020559.478    23020574.5994
  22157733.359   -16667078.971 8 -12978147.17946  22157733.910    22157740.9274
  22405440.162   -14821033.255 8 -10828142.25546  22405440.296    22405448.0974
  21577663.783   -14772815.421 8 -10536813.53247  21577663.624    21577670.7794
  21935231.950   -16476490.718 8 -10797175.54247  21935231.725    21935241.3824
  21246008.573   -22899282.665 9 -17834640.83147  21246009.184    21246015.4614
  21048167.758   -20838347.020 9 -13164592.68347  21048167.557    21048174.8234
 00  5  4  0 58 30.0000000  0  7 10 26 27 08 07 13 02
  23034126.603   -12775190.327 8  -9936975.57846  23034126.166    23034141.3914
  22143422.463   -16742283.330 8 -13036747.91746  22143422.987    22143429.8684
  22414392.435   -14773989.015 8 -10791484.41646  22414392.519    22414400.3174
  21586197.893   -14727968.057 8 -10501867.53147  21586197.766    21586204.9104
  21921706.188   -16547567.923 8 -10852560.18047  21921705.969    21921715.5734
  21257155.909   -22840702.842 9 -17788994.21947  21257156.567    21257162.8354
  21053586.668   -20809870.361 9 -13142403.06447  21053586.435    21053593.7464
 00  5  4  0 59  0.0000000  0  7 10 26 27 08 07 13 02
  23047739.110   -12703656.466 8  -9881235.11646  23047738.732    23047754.0014
  22129165.761   -16817202.413 8 -13095126.35546  22129166.317    22129173.1334
  22423377.267   -14726773.754 8 -10754693.31946  22423377.299    22423385.0924
  21594761.591   -14682965.615 8 -10466800.70147  21594761.468    21594768.5954
  21908242.980   -16618316.694 8 -10907688.89947  21908242.759    21908252.2864
  21268388.121   -22781677.298 9 -17743000.29347  21268388.781    21268395.0194
  21059052.970   -20781144.576 9 -13120019.31747  21059052.771    21059060.0744
 00  5  4  0 59 30.0000000  0  7 10 26 27 08 07 13 02
  23061397.006   -12631884.610 8  -9825309.19146  23061396.647    23061411.9004
  22114963.805   -16891833.636 8 -13153280.50446  22114964.419    22114971.2504
  22432394.789   -14679386.591 8 -10717768.28146  22432394.796    22432402.6334
  21603354.844   -14637807.632 8 -10431612.67147  21603354.739    21603361.8874
  21894842.784   -16688734.348 8 -10962559.61447  21894842.586    21894852.1014
  21279705.095   -22722206.573 9 -17696659.47047  21279705.706    21279711.9494
  21064566.481   -20752170.897 9 -13097442.40847  21064566.254    21064573.5454
 00  5  4  1  0  0.0000000  0  7 10 26 27 08 07 13 02
  23075099.405   -12559878.695 8  -9769200.90846  23075099.071    23075114.3604
  22100817.011   -16966175.304 8 -13211209.02346  22100817.612    22100824.4584
  22441444.926   -14631827.879 8 -10680709.55446  22441444.981    22441452.7664
  21611977.677   -14592494.420 8 -10396303.68647  21611977.579    21611984.7364
  21881505.968   -16758819.034 8 -11017170.86947  21881505.739    21881515.2334
  21291106.457   -22662292.541 9 -17649973.21447  21291107.043    21291113.2334
  21070126.719   -20722951.655 9 -13074674.15547  21070126.495    21070133.7594
 00  5  4  1  0 30.0000000  0  7 10 26 27 08 07 13 02
  23088845.957   -12487641.092 8  -9712912.07646  23088845.594    23088860.8814
  22086725.875   -17040224.733 8 -13268909.83146  22086726.418    22086733.3414
  22450527.933   -14584096.611 8 -10643516.36746  22450527.993    22450535.7384
  21620630.206   -14547025.214 8 -10360873.15147  21620630.080    21620637.2514
  21868233.113   -16828567.813 8 -11071520.39147  21868232.868    21868242.3214
  21302592.036   -22601935.799 9 -17602941.99047  21302592.582    21302598.7314
  21075733.464   -20693487.865 9 -13051715.34147  21075733.244    21075740.4774
 00  5  4  1  1  0.0000000  0  7 10 26 27 08 07 13 02
  23102635.813   -12415175.501 8  -9656445.59846  23102635.458    23102650.8114
  22072690.804   -17113979.863 8 -13326381.31846  22072691.324    22072698.2634
  22459643.750   -14536192.531 8 -10606188.52946  22459643.882    22459651.6064
  21629312.342   -14501400.193 8 -10325321.19347  21629312.199    21629319.4054
  21855024.562   -16897978.483 8 -11125606.44847  21855024.332    21855033.7124
  21314161.515   -22541137.869 9 -17555566.98447  21314162.083    21314168.1834
  21081386.400   -20663781.394 9 -13028567.42447  21081386.160    21081393.4014
 00  5  4  1  1 30.0000000  0  7 10 26 27 08 07 13 02
  23116468.623   -12342484.231 8  -9599803.26146  23116468.282    23116483.7164
  22058712.220   -17187437.725 8 -13383621.16246  22058712.701    22058719.6684
  22468792.552   -14488114.425 8 -10568725.07346  22468792.759    22468800.5614
  21638024.281   -14455618.572 8 -10289647.21247  21638024.188    21638031.4114
  21841880.935   -16967047.837 8 -11179426.55347  21841880.751    21841890.0264
  21325814.892   -22479899.183 9 -17507848.53647  21325815.455    21325821.5084
  21087085.325   -20633832.976 9 -13005230.97847  21087085.125    21087092.4084
 00  5  4  1  2  0.0000000  0  7 10 26 27 08 07 13 02
  23130343.742   -12269570.374 8  -9542987.46446  23130343.426    23130358.9154
  22044790.583   -17260596.218 8 -13440627.73646  22044791.049    22044797.9884
  22477974.639   -14439862.231 8 -10531125.97346  22477974.862    22477982.6734
  21646766.075   -14409680.141 8 -10253851.05647  21646765.956    21646773.2364
  21828802.822   -17035773.595 8 -11232978.93247  21828802.575    21828811.7194
  21337551.736   -22418221.290 9 -17459787.85247  21337552.350    21337558.4334
  21092829.974   -20603644.649 9 -12981707.59847  21092829.758    21092837.0624
 00  5  4  1  2 30.0000000  0  7 10 26 27 08 07 13 02
  23144260.581   -12196437.823 8  -9486001.28446  23144260.232    23144275.7634
  22030926.308   -17333453.476 8 -13497399.58046  22030926.767    22030933.5974
  22487189.949   -14391435.862 8 -10493391.15446  22487190.122    22487197.8824
  21655537.661   -14363585.139 8 -10217932.88047  21655537.563    21655544.8004
  21815790.374   -17104153.864 8 -11286262.10147  21815790.133    21815799.2064
  21349371.975   -22356105.604 9 -17411386.03447  21349372.577    21349378.7344
  21098619.940   -20573218.115 9 -12957998.59347  21098619.739    21098627.0614
 00  5  4  1  3  0.0000000  0  7 10 26 27 08 07 13 02
  23158218.595   -12123089.025 8  -9428846.59246  23158218.209    23158233.7614
  22017119.867   -17406006.841 8 -13553934.62546  22017120.275    22017127.1104
  22496438.565   -14342834.303 8 -10455519.83046  22496438.740    22496446.4034
  21664339.213   -14317332.918 8 -10181892.20247  21664339.100    21664346.3464
  21802844.230   -17172185.723 8 -11339273.77947  21802843.985    21802852.9984
  21361275.386   -22293552.930 9 -17362643.70447  21361275.936    21361282.1604
  21104455.038   -20542554.606 9 -12934104.93547  21104454.810    21104462.1574
 00  5  4  1  3 30.0000000  0  7 10 26 27 08 07 13 02
  23172217.133   -12049526.694 8  -9371525.49846  23172216.787    23172232.3594
  22003371.653   -17478253.984 8 -13610231.05947  22003372.063    22003378.9824
  22505720.581   -14294056.953 8 -10417511.51246  22505720.784    22505728.4214
  21673170.652   -14270923.230 8 -10145728.83647  21673170.537    21673177.8354
  21789964.866   -17239866.510 8 -11392011.90047  21789964.642    21789973.6484
  21373261.659   -22230564.424 9 -17313561.76447  21373262.258    21373268.5014
  21110334.890   -20511655.716 9 -12910027.86347  21110334.679    21110341.9914
 00  5  4  1  4  0.0000000  0  7 10 26 27 08 07 13 02
  23186255.691   -11975754.114 8  -9314040.58346  23186255.398    23186270.9714
  21989682.224   -17550192.095 8 -13666286.68747  21989682.699    21989689.6364
  22515036.116   -14245103.152 8 -10379365.71546  22515036.355    22515044.0924
  21682032.220   -14224355.350 8 -10109442.18347  21682032.122    21682039.4434
  21777152.756   -17307193.705 8 -11444474.49647  21777152.551    21777161.5234
  21385330.663   -22167141.161 9 -17264141.05847  21385331.283    21385337.5544
  21116259.305   -20480522.666 9 -12885768.32747  21116259.098    21116266.4324
 00  5  4  1  4 30.0000000  0  7 10 26 27 08 07 13 02
  23200333.704   -11901774.415 8  -9256394.27346  23200333.423    23200348.9654
  21976051.996   -17621819.244 8 -13722100.01047  21976052.485    21976059.3964
  22524385.242   -14195972.677 8 -10341082.25246  22524385.542    22524393.3774
  21690923.846   -14177629.466 8 -10073032.42947  21690923.756    21690931.1074
  21764408.407   -17374165.080 8 -11496659.84147  21764408.214    21764417.1484
  21397482.181   -22103284.587 9 -17214382.70547  21397482.811    21397489.0614
  21122227.901   -20449157.330 9 -12861327.79747  21122227.686    21122235.0214
 00  5  4  1  5  0.0000000  0  7 10 26 27 08 07 13 02
  23214450.516   -11827590.825 8  -9198589.13246  23214450.210    23214465.7764
  21962481.377   -17693133.312 8 -13777669.36847  21962481.840    21962488.7104
  22533768.148   -14146665.011 8 -10302660.71746  22533768.447    22533776.3424
  21699845.661   -14130745.253 8 -10036499.30147  21699845.520    21699852.9174
  21751732.264   -17440778.352 8 -11548566.14547  21751732.039    21751740.8704
  21409715.888   -22038996.019 9 -17164287.72747  21409716.502    21409722.7804
  21128240.395   -20417561.262 9 -12836707.47047  21128240.184    21128247.5194
 00  5  4  1  5 30.0000000  0  7 10 26 27 08 07 13 02
  23228605.611   -11753206.598 8  -9140627.60846  23228605.290    23228620.8194
  21948970.580   -17764132.326 8 -13832993.23646  21948971.084    21948977.8954
  22543184.955   -14097180.174 8 -10264101.12546  22543185.138    22543193.0424
  21708797.519   -14083702.895 8  -9999842.95347  21708797.402    21708804.8374
  21739124.670   -17507031.328 8 -11600191.70247  21739124.418    21739133.1704
  21422031.496   -21974277.155 9 -17113857.46447  21422032.056    21422038.4174
  21134296.458   -20385736.349 9 -12811908.82947  21134296.241    21134303.5444
 00  5  4  1  6  0.0000000  0  7 10 26 27 08 07 13 02
  23242798.295   -11678624.852 8  -9082512.16146  23242797.926    23242813.4404
  21935520.273   -17834813.524 8 -13888069.44747  21935520.805    21935527.5854
  22552635.566   -14047517.250 8 -10225402.76246  22552635.665    22552643.5964
  21717779.552   -14036501.717 8  -9963062.83147  21717779.494    21717786.9254
  21726586.105   -17572921.302 8 -11651534.40547  21726585.838    21726594.5594
  21434428.856   -21909128.689 9 -17063092.44247  21434429.403    21434435.7774
  21140395.841   -20353683.705 9 -12786932.73647  21140395.619    21140402.9164
 00  5  4  1  6 30.0000000  0  7 10 26 27 08 07 13 02
  23257028.035   -11603848.476 8  -9024245.05746  23257027.614    23257043.1874
  21922131.043   -17905174.784 8 -13942896.35447  21922131.534    21922138.2434
  22562120.076   -13997675.819 8 -10186565.29946  22562120.249    22562128.1804
  21726791.929   -13989141.568 8  -9926158.83547  21726791.875    21726799.2804
  21714117.018   -17638445.974 8 -11702592.45647  21714116.800    21714125.5004
  21446907.615   -21843552.223 9 -17011993.91647  21446908.194    21446914.5674
  21146538.240   -20321405.060 9 -12761780.53747  21146538.036    21146545.3504
 00  5  4  1  7  0.0000000  0  7 10 26 27 08 07 13 02
  23271294.177   -11528880.540 8  -8965828.73646  23271293.778    23271309.3414
  21908803.173   -17975213.648 8 -13997472.04247  21908803.611    21908810.3144
  22571638.652   -13947655.230 8 -10147588.24646  22571638.800    22571646.7754
  21735834.671   -13941621.843 8  -9889130.49847  21735834.624    21735842.0154
  21701717.921   -17703602.884 8 -11753363.94547  21701717.704    21701726.4524
  21459467.623   -21777548.923 9 -16960562.78447  21459468.219    21459474.5894
  21152723.412   -20288901.766 9 -12736453.28447  21152723.204    21152730.5064
 00  5  4  1  7 30.0000000  0  7 10 26 27 08 07 13 02
  23285596.206   -11453724.000 8  -8907265.43246  23285595.777    23285611.4174
  21895537.008   -18044927.799 8 -14051794.71247  21895537.455    21895544.1584
  22581191.473   -13897455.037 8 -10108471.23946  22581191.586    22581199.5454
  21744907.763   -13893942.496 8  -9851977.79247  21744907.704    21744915.1364
  21689389.257   -17768389.528 8 -11803846.91747  21689389.079    21689397.8224
  21472108.610   -21711120.148 9 -16908800.11547  21472109.188    21472115.5784
  21158951.018   -20256175.399 9 -12710952.21147  21158950.813    21158958.1424
 00  5  4  1  8  0.0000000  0  7 10 26 27 08 07 13 02
  23299933.582   -11378381.690 8  -8848557.35746  23299933.131    23299948.9164
  21882333.033   -18114314.611 8 -14105862.31147  21882333.526    21882340.2554
  22590778.648   -13847074.395 8 -10069213.61746  22590778.709    22590786.6394
  21754011.323   -13846102.823 8  -9814700.16046  21754011.261    21754018.7294
  21677131.654   -17832803.331 8 -11854039.36847  21677131.464    21677140.1164
  21484830.313   -21644266.853 9 -16856706.65547  21484830.921    21484837.3484
  21165220.875   -20223227.112 9 -12685278.20947  21165220.653    21165227.9984
 00  5  4  1  8 30.0000000  0  7 10 26 27 08 07 13 02
  23314305.636   -11302856.990 8  -8789707.15546  23314305.112    23314320.9774
  21869191.746   -18183372.337 8 -14159673.46747  21869192.264    21869198.9594
  22600400.205   -13796513.198 8 -10029815.30246  22600400.228    22600408.1214
  21763145.448   -13798102.840 8  -9777297.60146  21763145.358    21763152.8474
  21664945.399   -17896842.286 8 -11903939.73547  21664945.171    21664953.7594
  21497632.515   -21576990.639 9 -16804283.65047  21497633.148    21497639.5874
  21171532.513   -20190058.964 9 -12659432.88447  21171532.313    21171539.6954
 00  5  4  1  9  0.0000000  0  7 10 26 27 08 07 13 02
  23328711.810   -11227152.866 8  -8730717.15046  23328711.349    23328727.2724
  21856113.608   -18252098.232 8 -14213226.05847  21856114.127    21856120.7504
  22610056.190   -13745770.834 8  -9990275.81846  22610056.224    22610064.1144
  21772310.192   -13749942.229 8  -9739769.87646  21772310.073    21772317.5234
  21652830.846   -17960503.984 8 -11953546.13647  21652830.608    21652839.2204
  21510515.001   -21509293.043 9 -16751532.29247  21510515.590    21510522.0274
  21177885.793   -20156672.289 9 -12633417.27547  21177885.585    21177892.9564
 00  5  4  1  9 30.0000000  0  7 10 26 27 08 07 13 02
  23343151.456   -11151272.549 8  -8671589.84046  23343151.023    23343167.0434
  21843099.052   -18320490.298 8 -14266518.51747  21843099.527    21843106.0904
  22619746.771   -13694846.982 8  -9950594.92746  22619746.755    22619754.6384
  21781505.494   -13701620.707 8  -9702116.75346  21781505.388    21781512.8294
  21640788.467   -18023786.119 8 -12002856.77547  21640788.264    21640796.9194
  21523477.450   -21441175.455 9 -16698453.66747  21523477.996    21523484.3884
  21184280.309   -20123068.744 9 -12607232.67947  21184280.098    21184287.4844
 00  5  4  1 10  0.0000000  0  7 10 26 27 08 07 13 02
  23357624.187   -11075219.190 8  -8612327.68546  23357623.733    23357639.7274
  21830148.411   -18388546.256 8 -14319549.08347  21830148.803    21830155.4444
  22629471.857   -13643741.127 8  -9910772.20546  22629471.853    22629479.7824
  21790731.439   -13653137.998 8  -9664338.03246  21790731.331    21790738.7394
  21628818.866   -18086686.310 8 -12051869.80247  21628818.661    21628827.2894
  21536519.467   -21372639.222 9 -16645048.82247  21536520.007    21536526.3774
  21190715.800   -20089249.880 9 -12580880.30147  21190715.573    21190722.9544
 00  5  4  1 10 30.0000000  0  7 10 26 27 08 07 13 02
  23372129.271   -10998995.751 8  -8552932.99146  23372128.761    23372144.7824
  21817262.090   -18456263.852 8 -14372315.98647  21817262.523    21817269.1934
  22639231.659   -13592452.905 8  -9870807.39446  22639231.706    22639239.6514
  21799988.143   -13604493.814 8  -9626433.49646  21799988.022    21799995.3834
  21616922.410   -18149202.280 8 -12100583.43847  21616922.226    21616930.7914
  21549640.800   -21303685.825 9 -16591318.92447  21549641.404    21549647.7994
  21197191.947   -20055217.269 9 -12554361.37347  21197191.749    21197199.1244
 00  5  4  1 11  0.0000000  0  7 10 26 27 08 07 13 02
  23386666.081   -10922605.139 8  -8493408.04546  23386665.628    23386681.7794
  21804440.630   -18523640.519 8 -14424817.22747  21804441.160    21804447.8114
  22649026.379   -13540981.428 8  -9830699.77246  22649026.455    22649034.3794
  21809275.723   -13555687.716 8  -9588402.79746  21809275.543    21809282.9074
  21605099.536   -18211331.572 8 -12148995.76447  21605099.351    21605107.8824
  21562841.375   -21234316.350 9 -16537264.80647  21562841.995    21562848.4054
  21203708.604   -20020972.157 9 -12527676.86247  21203708.388    21203715.7334
 00  5  4  1 11 30.0000000  0  7 10 26 27 08 07 13 02
  23401234.103   -10846050.448 8  -8433755.23546  23401233.603    23401249.9044
  21791684.590   -18590674.062 8 -14477051.09447  21791685.150    21791691.7174
  22658855.960   -13489326.424 8  -9790449.16246  22658856.100    22658863.9914
  21818594.047   -13506719.449 8  -9550245.73346  21818593.922    21818601.2784
  21593350.706   -18273071.915 8 -12197105.01647  21593350.475    21593358.9604
  21576120.865   -21164532.497 9 -16482887.79847  21576121.452    21576127.8724
  21210265.364   -19986516.128 9 -12500827.99647  21210265.139    21210272.4724
 00  5  4  1 12  0.0000000  0  7 10 26 27 08 07 13 02
  23415832.714   -10769334.772 8  -8373976.97045  23415832.247    23415848.5114
  21778994.254   -18657362.323 8 -14529015.91347  21778994.716    21779001.3474
  22668720.710   -13437487.459 8  -9750055.19546  22668720.761    22668728.6554
  21827943.299   -13457588.726 8  -9511962.06846  21827943.229    21827950.5824
  21581676.213   -18334421.215 8 -12244909.56547  21581676.007    21581684.4304
  21589478.897   -21094335.751 9 -16428189.05147  21589479.454    21589485.9494
  21216861.984   -19951850.723 9 -12473815.98347  21216861.792    21216869.0804
 00  5  4  1 12 30.0000000  0  7 10 26 27 08 07 13 02
  23430461.358   -10692461.408 8  -8314075.82945  23430460.919    23430477.1304
  21766369.849   -18723703.219 8 -14580710.07347  21766370.316    21766377.0854
  22678620.500   -13385464.221 8  -9709517.64046  22678620.478    22678628.4344
  21837323.481   -13408295.514 8  -9473551.79046  21837323.436    21837330.7664
  21570076.595   -18395377.321 8 -12292407.72547  21570076.347    21570084.7024
  21602915.062   -21023727.759 8 -16373169.86447  21602915.683    21602922.1994
  21223498.217   -19916977.501 9 -12446642.03847  21223497.998    21223505.2194
 00  5  4  1 13  0.0000000  0  7 10 26 27 08 07 13 02
  23445119.378   -10615433.611 8  -8254054.34545  23445118.931    23445135.2374
  21753812.009   -18789694.306 8 -14632131.65947  21753812.519    21753819.3494
  22688555.450   -13333255.979 8  -9668835.91946  22688555.390    22688563.3444
  21846734.790   -13358839.045 8  -9435014.29246  21846734.750    21846742.0634
  21558552.207   -18455937.843 8 -12339597.64347  21558552.005    21558560.3084
  21616429.293   -20952709.794 8 -16317831.21547  21616429.957    21616436.4524
  21230173.648   -19881897.727 9 -12419307.13747  21230173.447    21230180.6674
 00  5  4  1 13 30.0000000  0  7 10 26 27 08 07 13 02
  23459806.211   -10538254.114 8  -8193914.65345  23459805.734    23459822.1944
  21741321.348   -18855333.262 8 -14683278.84347  21741321.896    21741328.6224
  22698525.682   -13280862.268 8  -9628009.67646  22698525.618    22698533.5974
  21856177.228   -13309219.251 8  -9396349.54546  21856177.134    21856184.3954
  21547103.519   -18516100.453 8 -12386477.49747  21547103.351    21547111.6624
  21630021.320   -20881283.349 9 -16262174.26147  21630022.007    21630028.4264
  21236888.084   -19846613.043 9 -12391812.56347  21236887.868    21236895.0834
 00  5  4  1 14  0.0000000  0  7 10 26 27 08 07 13 02
  23474521.438   -10460926.159 8  -8133659.28545  23474520.947    23474537.3624
  21728898.181   -18920618.008 8 -14734150.02547  21728898.706    21728905.2544
  22708531.234   -13228282.984 8  -9587038.81946  22708531.141    22708539.0764
  21865650.681   -13259435.975 8  -9357557.40646  21865650.575    21865657.8184
  21535731.050   -18575863.150 8 -12433045.73947  21535730.834    21535739.1314
  21643690.915   -20809449.992 9 -16206200.23347  21643691.524    21643697.8884
  21243641.214   -19811125.041 9 -12364159.56747  21243640.993    21243648.2524
 00  5  4  1 14 30.0000000  0  7 10 26 27 08 07 13 02
  23489264.282   -10383452.443 8  -8073290.33745  23489263.831    23489280.2804
  21716542.867   -18985545.883 8 -14784743.12147  21716543.320    21716549.7684
  22718572.279   -13175517.072 8  -9545922.53146  22718572.220    22718580.1174
  21875155.336   -13209488.628 8  -9318637.39046  21875155.295    21875162.5004
  21524435.126   -18635223.247 8 -12479300.26947  21524434.894    21524443.1964
  21657437.595   -20737211.025 9 -16149910.14947  21657438.138    21657444.4754
  21250432.736   -19775435.067 9 -12336349.18747  21250432.532    21250439.8244
 00  5  4  1 15  0.0000000  0  7 10 26 27 08 07 13 02
  23504034.236   -10305836.791 8  -8012810.79245  23504033.785    23504050.2714
  21704255.676   -19050115.244 8 -14835056.86547  21704256.076    21704262.5654
  22728648.810   -13122564.716 8  -9504660.99246  22728648.724    22728656.6654
  21884691.207   -13159377.340 8  -9279589.64846  21884691.143    21884698.4014
  21513216.056   -18694179.262 8 -12525239.92547  21513215.801    21513224.1404
  21671261.030   -20664568.387 9 -16093305.52147  21671261.618    21671267.9264
  21257262.363   -19739545.003 9 -12308382.89547  21257262.164    21257269.4944
 00  5  4  1 15 30.0000000  0  7 10 26 27 08 07 13 02
  23518830.772   -10228081.685 8  -7952222.56345  23518830.292    23518846.7404
  21692037.130   -19114323.536 8 -14885089.26847  21692037.575    21692044.1754
  22738760.874   -13069425.183 8  -9463253.59946  22738760.794    22738768.8344
  21894258.418   -13109101.354 8  -9240413.56546  21894258.380    21894265.6724
  21502074.330   -18752728.716 8 -12570862.78547  21502074.124    21502082.4704
  21685160.922   -20591523.594 9 -16036387.52247  21685161.565    21685167.9134
  21264129.804   -19703456.087 9 -12280261.65647  21264129.599    21264136.9614
 00  5  4  1 16  0.0000000  0  7 10 26 27 08 07 13 02
  23533653.169   -10150190.207 8  -7891528.06045  23533652.731    23533669.1654
  21679887.780   -19178168.433 8 -14934838.50647  21679888.276    21679894.9704
  22748908.802   -13016097.843 8  -9421699.84846  22748908.658    22748916.7234
  21903856.965   -13058660.486 8  -9201109.00346  21903856.895    21903864.2524
  21491010.536   -18810869.081 8 -12616166.86947  21491010.343    21491018.6484
  21699137.213   -20518078.049 9 -15979157.25147  21699137.829    21699144.2094
  21271034.869   -19667169.635 9 -12251986.48847  21271034.659    21271042.0134
 00  5  4  1 16 30.0000000  0  7 10 26 27 08 07 13 02
  23548500.887   -10072165.569 8  -7830729.80845  23548500.462    23548516.9704
  21667808.070   -19241647.688 8 -14984302.83047  21667808.538    21667815.2904
  22759092.542   -12962582.272 8  -9379999.42846  22759092.388    22759100.3994
  21913487.079   -13008054.240 8  -9161675.58646  21913486.909    21913494.2944
  21480025.033   -18868598.351 8 -12661150.62547  21480024.818    21480032.9954
  21713189.459   -20444233.374 9 -15921615.97147  21713190.051    21713196.3834
  21277977.273   -19630687.093 9 -12223558.53047  21277977.053    21277984.3934
 00  5  4  1 17  0.0000000  0  7 10 26 27 08 07 13 02
  23563373.353    -9994010.782 8  -7769830.10445  23563372.886    23563389.5544
  21655798.353   -19304759.152 8 -15033480.56147  21655798.832    21655805.5524
  22769312.092   -12908878.170 8  -9338152.12246  22769311.953    22769319.9264
  21923148.642   -12957282.386 8  -9122113.10746  21923148.480    21923155.8204
  21469118.101   -18925914.418 8 -12705812.40747  21469117.869    21469125.9954
  21727317.283   -20369991.155 9 -15863764.91347  21727317.861    21727324.2234
  21284956.686   -19594010.030 9 -12194978.98747  21284956.461    21284963.7814
 00  5  4  1 17 30.0000000  0  7 10 26 27 08 07 13 02
  23578270.073    -9915728.583 8  -7708831.14345  23578269.593    23578286.3304
  21643859.081   -19367500.231 8 -15082369.67547  21643859.538    21643866.2124
  22779567.662   -12854984.702 8  -9296157.24546  22779567.523    22779575.5534
  21932841.722   -12906344.340 8  -9082421.11246  21932841.660    21932849.0234
  21458290.218   -18982814.830 8 -12750150.30247  21458289.985    21458298.1084
  21741520.511   -20295352.593 8 -15805605.02147  21741521.118    21741527.4944
  21291972.869   -19557139.637 9 -12166248.80247  21291972.674    21291979.9774
 00  5  4  1 18  0.0000000  0  8 10 26 27 09 08 07 13 02
  23593190.426    -9837322.159 8  -7647735.36745  23593189.944    23593206.7214
  21631990.658   -19429869.067 8 -15130968.72747  21631991.134    21631997.7554
  22789859.296   -12800901.656 8  -9254014.64546  22789859.178    22789867.2184
  24957319.729    -2032682.776 7  -1568575.26345  24957319.677    24957330.6354
  21942566.475   -12855240.159 8  -9042599.68346  21942566.457    21942573.8724
  21447541.723   -19039297.903 8 -12794163.00147  21447541.516    21447549.6344
  21755798.829   -20220319.600 9 -15747137.78047  21755799.463    21755805.8354
  21299025.499   -19520077.909 9 -12137369.53047  21299025.282    21299032.6044
 00  5  4  1 18 30.0000000  0  8 10 26 27 09 08 07 13 02
  23608133.707    -9758795.216 8  -7586545.68145  23608133.239    23608150.0304
  21620193.374   -19491863.848 8 -15179276.31447  21620193.831    21620200.4274
  22800187.070   -12746629.035 8  -9211724.31846  22800186.939    22800194.9604
  24942441.421    -2110867.558 7  -1629498.26145  24942441.468    24942452.3334
  21952322.945   -12803969.916 8  -9002648.84946  21952322.843    21952330.3184
  21436873.048   -19095361.865 8 -12837849.12447  21436872.842    21436880.9174
  21770151.877   -20144894.402 9 -15688364.91747  21770152.437    21770158.8014
  21306114.199   -19482826.442 9 -12108342.40547  21306114.004    21306121.3544
 00  5  4  1 19  0.0000000  0  8 10 26 27 09 08 07 13 02
  23623099.501    -9680150.156 8  -7525263.94445  23623099.019    23623115.7814
  21608467.807   -19553481.883 8 -15227290.32847  21608468.269    21608474.8554
  22810551.046   -12692165.969 8  -9169285.59046  22810550.944    22810558.9584
  24927558.012    -2189079.492 7  -1690442.46445  24927557.912    24927568.9154
  21962111.221   -12752532.660 8  -8962567.87746  21962111.077    21962118.5114
  21426284.649   -19151004.183 8 -12881206.68647  21426284.432    21426292.4774
  21784579.243   -20069078.198 8 -15629287.38347  21784579.819    21784586.1994
  21313238.820   -19445386.274 9 -12079168.24347  21313238.612    21313245.9894
 00  5  4  1 19 30.0000000  0  8 10 26 27 09 08 07 13 02
  23638087.008    -9601390.451 8  -7463892.86645  23638086.483    23638103.4424
  21596814.255   -19614721.171 8 -15275009.21747  21596814.766    21596821.3784
  22820951.388   -12637512.172 8  -9126698.26146  22820951.284    22820959.2044
  24912669.414    -2267318.598 7  -1751407.83345  24912669.308    24912680.3744
  21971931.167   -12700928.556 8  -8922356.92546  21971930.999    21971938.4154
  21415776.796   -19206222.862 8 -12924234.14747  21415776.586    21415784.6334
  21799080.613   -19992872.858 8 -15569906.62347  21799081.210    21799087.6264
  21320399.054   -19407759.152 9 -12049848.40347  21320398.855    21320406.2184
 00  5  4  1 20  0.0000000  0  8 10 26 27 09 08 07 13 02
  23653095.855    -9522519.008 8  -7402434.72145  23653095.333    23653112.3414
  21585233.279   -19675579.545 8 -15322431.28947  21585233.774    21585240.4054
  22831388.045   -12582667.155 8  -9083961.91746  22831387.919    22831395.9124
  24897775.665    -2345584.794 7  -1812394.26945  24897775.609    24897786.7594
  21981782.907   -12649157.069 8  -8882015.52146  21981782.789    21981790.2224
  21405349.943   -19261015.848 8 -12966929.89747  21405349.775    21405357.7894
  21813655.819   -19916279.894 9 -15510223.82247  21813656.380    21813662.8104
  21327594.557   -19369946.529 9 -12020384.01747  21327594.334    21327601.6924
 00  5  4  1 20 30.0000000  0  8 10 26 27 09 08 07 13 02
  23668125.270    -9443539.124 8  -7340892.06445  23668124.769    23668141.9214
  21573725.240   -19736054.839 8 -15369554.86647  21573725.720    21573732.3914
  22841861.151   -12527630.526 8  -9041076.28146  22841861.108    22841869.0774
  24882876.697    -2423877.831 7  -1873401.66545  24882876.593    24882888.0254
  21991666.550   -12597217.959 8  -8841543.49546  21991666.496    21991673.9224
  21395004.499   -19315381.343 8 -13009292.54047  21395004.297    21395012.3094
  21828304.378   -19839301.220 8 -15450240.46547  21828304.949    21828311.3524
  21334825.029   -19331950.010 9 -11990776.33347  21334824.838    21334832.1654
 00  5  4  1 21  0.0000000  0  8 10 26 27 09 08 07 13 02
  23683174.829    -9364453.409 8  -7279266.94745  23683174.409    23683191.6164
  21562290.462   -19796144.925 8 -15416378.27547  21562290.917    21562297.6544
  22852370.874   -12472401.761 8  -8998040.91346  22852370.862    22852378.8244
  24867972.658    -2502197.729 7  -1934429.97145  24867972.631    24867984.1644
  22001582.236   -12545110.694 8  -8800940.43946  22001582.181    22001589.6244
  21384740.751   -19369317.181 8 -13051320.38847  21384740.572    21384748.5654
  21843026.047   -19761938.454 8 -15389957.81847  21843026.607    21843033.0214
  21342090.314   -19293770.920 9 -11961026.39247  21342090.098    21342097.3674
 00  5  4  1 21 30.0000000  0  8 10 26 27 09 08 07 13 02
  23698243.919    -9285265.162 8  -7217561.93145  23698243.487    23698260.7474
  21550929.375   -19855847.541 8 -15462899.75247  21550929.822    21550936.5804
  22862916.967   -12416980.824 8  -8954855.79146  22862917.132    22862925.0944
  24853063.575    -2580544.399 7  -1995479.15745  24853063.693    24853075.1004
  22011529.933   -12492835.419 8  -8760206.45246  22011529.875    22011537.2894
  21374559.168   -19422821.374 9 -13093011.89147  21374558.991    21374566.9354
  21857820.444   -19684193.266 8 -15329377.17947  21857821.035    21857827.4794
  21349390.038   -19255410.707 9 -11931135.30947  21349389.805    21349397.0584
 00  5  4  1 22  0.0000000  0  8 10 26 27 09 08 07 13 02
  23713332.050    -9205977.603 8  -7155779.51345  23713331.642    23713348.8904
  21539642.419   -19915160.698 8 -15509117.75147  21539642.876    21539649.5884
  22873499.874   -12361367.162 8  -8911520.49946  22873500.115    22873508.0194
  24838149.506    -2658917.556 7  -2056548.95745  24838149.657    24838161.0744
  22021509.732   -12440391.637 8  -8719341.19546  22021509.606    22021517.0174
  21364460.166   -19475891.902 9 -13134365.47247  21364459.952    21364467.8514
  21872687.282   -19606067.558 8 -15268500.03547  21872687.863    21872694.3334
  21356723.927   -19216870.902 9 -11901104.29347  21356723.688    21356730.9224
 00  5  4  1 22 30.0000000  0  8 10 26 27 09 08 07 13 02
  23728438.334    -9126594.218 8  -7093922.41545  23728437.944    23728455.1754
  21528429.883   -19974082.620 8 -15555030.89347  21528430.368    21528436.9764
  22884119.474   -12305560.660 8  -8868034.93846  22884119.773    22884127.6174
  24823230.573    -2737317.352 7  -2117639.55545  24823230.695    24823241.9504
  22031521.577   -12387779.350 8  -8678344.61746  22031521.415    22031528.8124
  21354443.941   -19528527.261 9 -13175379.96147  21354443.746    21354451.6204
  21887626.098   -19527563.525 8 -15207328.08447  21887626.701    21887633.1454
  21364091.546   -19178153.518 9 -11870934.89947  21364091.337    21364098.5774
 00  5  4  1 23  0.0000000  0  8 10 26 27 09 08 07 13 02
  23743562.405    -9047116.692 7  -7031991.96745  23743562.024    23743579.2714
  21517292.409   -20032610.176 8 -15600636.73647  21517292.898    21517299.4894
  22894775.946   -12249560.044 8  -8824398.12846  22894776.306    22894784.2334
  24808306.816    -2815743.065 7  -2178750.32145  24808306.926    24808317.9904
  22041565.600   -12334997.384 8  -8637215.83246  22041565.491    22041572.9284
  21344511.083   -19580724.603 9 -13216053.14347  21344510.893    21344518.7114
  21902636.819   -19448681.878 9 -15145861.89447  21902637.380    21902643.8104
  21371492.966   -19139258.830 9 -11840627.34447  21371492.743    21371499.9884
 00  5  4  1 23 30.0000000  0  8 10 26 27 09 08 07 13 02
  23758703.703    -8967548.829 7  -6969991.11545  23758703.292    23758720.7044
  21506230.293   -20090741.727 8 -15645934.01047  21506230.806    21506237.3774
  22905469.423   -12193365.552 8  -8780610.23646  22905469.833    22905477.7414
  24793377.873    -2894194.543 7  -2239881.16445  24793378.052    24793388.9264
  22051641.809   -12282045.787 8  -8595954.85746  22051641.796    22051649.3044
  21334661.929   -19632482.267 9 -13256383.71447  21334661.701    21334669.4674
  21917719.001   -19369424.672 8 -15084103.06347  21917719.519    21917725.9564
  21378927.672   -19100188.886 9 -11810183.23147  21378927.457    21378934.7164
 00  5  4  1 24  0.0000000  0  8 10 26 27 09 08 07 13 02
  23773861.608    -8887893.482 7  -6907922.09445  23773861.169    23773878.6444
  21495244.004   -20148475.054 8 -15690920.97647  21495244.462    21495251.1034
  22916199.924   -12136976.640 8  -8736670.86746  22916200.385    22916208.2414
  24778444.043    -2972671.855 7  -2301032.12045  24778444.270    24778455.0254
  22061750.411   -12228924.380 8  -8554561.57946  22061750.488    22061757.9734
  21324896.742   -19683798.415 9 -13296370.25147  21324896.502    21324904.2634
  21932872.194   -19289794.067 8 -15022053.27147  21932872.748    21932879.2044
  21386395.557   -19060944.920 9 -11779603.51247  21386395.367    21386402.5984
 00  5  4  1 24 30.0000000  0  8 10 26 27 09 08 07 13 02
  23789035.427    -8808153.929 7  -6845787.44445  23789035.084    23789052.7774
  21484333.818   -20205808.365 8 -15735596.24647  21484334.305    21484340.9434
  22926967.389   -12080393.101 8  -8692579.84846  22926967.910    22926975.7084
  24763505.315    -3051175.011 7  -2362203.16645  24763505.532    24763516.1404
  22071891.478   -12175633.042 8  -8513035.87546  22071891.537    22071898.9894
  21315215.835   -19734671.308 9 -13336011.39647  21315215.634    21315223.4124
  21948096.060   -19209791.996 8 -14959714.02647  21948096.679    21948103.1334
  21393896.249   -19021528.648 9 -11748889.52647  21393896.034    21393903.2884
 00  5  4  1 25  0.0000000  0  8 10 26 27 09 08 07 13 02
  23804224.863    -8728332.986 7  -6783589.37845  23804224.628    23804242.2744
  21473500.239   -20262739.063 8 -15779957.78847  21473500.735    21473507.3594
  22937772.102   -12023614.198 8  -8648336.58046  22937772.581    22937780.4854
  24748561.640    -3129703.346 7  -2423393.80545  24748561.918    24748572.4864
  22082064.927   -12122171.270 8  -8471377.36446  22082064.965    22082072.4054
  21305619.780   -19785098.744 8 -13375305.43847  21305619.596    21305627.3304
  21963390.381   -19129419.852 8 -14897086.41647  21963391.021    21963397.5164
  21401429.542   -18981941.152 9 -11718042.12347  21401429.319    21401436.5604
 00  5  4  1 25 30.0000000  0  8 10 26 27 09 08 07 13 02
  23819429.109    -8648434.263 8  -6721330.69545  23819428.862    23819446.5644
  21462743.544   -20319265.665 8 -15824004.45047  21462744.022    21462750.6394
  22948613.985   -11966640.126 8  -8603941.23746  22948614.405    22948622.3414
  24733613.072    -3208257.030 7  -2484604.19245  24733613.306    24733623.8904
  22092270.870   -12068538.925 8  -8429585.95346  22092270.889    22092278.3414
  21296108.751   -19835079.324 9 -13414251.28447  21296108.561    21296116.2344
  21978754.789   -19048679.856 8 -14834172.17147  21978755.364    21978761.8954
  21408994.990   -18942184.303 9 -11687062.75247  21408994.771    21409002.0564
 00  5  4  1 26  0.0000000  0  8 10 26 27 09 08 07 13 02
  23834647.837    -8568460.401 8  -6659013.45445  23834647.536    23834665.0474
  21452064.222   -20375385.802 8 -15867734.38347  21452064.704    21452071.2774
  22959493.159   -11909470.141 8  -8559393.21346  22959493.513    22959501.4904
  24718659.770    -3286835.984 7  -2545834.27545  24718660.068    24718670.4824
  22102509.341   -12014735.675 8  -8387661.35946  22102509.311    22102516.7864
  21286683.197   -19884610.929 9 -13452847.27847  21286682.986    21286690.5974
  21994188.909   -18967573.763 8 -14770972.64847  21994189.400    21994195.8844
  21416592.467   -18902259.334 9 -11655952.38347  21416592.242    21416599.5294
 00  5  4  1 26 30.0000000  0  8 10 26 27 09 08 07 13 02
  23849880.213    -8488414.817 8  -6596640.32745  23849879.921    23849897.2044
  21441462.586   -20431097.917 9 -15911146.37547  21441463.044    21441469.5884
  22970409.519   -11852104.493 8  -8514692.72946  22970409.796    22970417.8354
  24703701.650    -3365440.477 7  -2607084.23545  24703701.894    24703712.2434
  22112780.279   -11960761.466 8  -8345603.55646  22112780.261    22112787.7744
  21277343.237   -19933692.290 9 -13491092.43447  21277343.022    21277350.6534
  22009692.071   -18886103.983 8 -14707489.73847  22009692.617    22009699.0534
  21424221.487   -18862168.273 9 -11624712.59647  21424221.280    21424228.5594
 00  5  4  1 27  0.0000000  0  8 10 26 27 09 08 07 13 02
  23865125.734    -8408300.232 8  -6534213.42245  23865125.298    23865142.6114
  21430938.990   -20486399.547 8 -15954238.51347  21430939.459    21430945.9554
  22981363.266   -11794542.447 8  -8469839.21646  22981363.493    22981371.4964
  24688738.899    -3444069.761 7  -2668353.54745  24688739.052    24688749.3504
  22123083.745   -11906616.066 8  -8303412.35546  22123083.778    22123091.3464
  21268089.420   -19982321.231 9 -13528985.05847  21268089.198    21268096.7894
  22025264.129   -18804271.767 8 -14643724.41047  22025264.736    22025271.1914
  21431881.967   -18821912.256 9 -11593344.27047  21431881.767    21431888.9694
 00  5  4  1 27 30.0000000  0  8 10 26 27 09 08 07 13 02
  23880383.842    -8328119.009 8  -6471734.59245  23880383.365    23880400.6204
  21420493.998   -20541288.224 8 -15997008.87447  21420494.430    21420500.9224
  22992354.544   -11736783.126 8  -8424831.99046  22992354.754    22992362.8054
  24673771.296    -3522723.520 7  -2729641.90545  24673771.425    24673781.6684
  22133419.975   -11852298.546 8  -8261087.04746  22133420.042    22133427.6784
  21258922.180   -20030495.405 9 -13566523.31547  21258921.925    21258929.4394
  22040904.995   -18722078.761 8 -14579677.95347  22040905.588    22040912.0254
  21439573.668   -18781492.146 9 -11561848.07547  21439573.482    21439580.6444
 00  5  4  1 28  0.0000000  0  8 10 26 27 09 08 07 13 02
  23895653.994    -8247874.206 8  -6409206.21145  23895653.523    23895670.7394
  21410127.921   -20595761.892 8 -16039455.85047  21410128.387    21410134.8574
  23003383.321   -11678826.101 8  -8379670.71446  23003383.609    23003391.7374
  24658799.147    -3601401.004 7  -2790948.77545  24658799.289    24658809.6044
  22143789.146   -11797808.229 8  -8218627.07646  22143789.244    22143796.8014
  21249841.804   -20078212.948 9 -13603705.76047  21249841.561    21249849.0184
  22056614.247   -18639526.799 8 -14515351.78147  22056614.753    22056621.1934
  21447296.344   -18740909.233 9 -11530225.02347  21447296.136    21447303.3224
 00  5  4  1 28 30.0000000  0  8 10 26 27 09 08 07 13 02
  23910935.538    -8167569.738 7  -6346631.34145  23910935.013    23910952.2334
  21399841.164   -20649819.218 9 -16081578.40447  21399841.618    21399848.0344
  23014449.638   -11620671.893 8  -8334355.77346  23014449.918    23014458.1284
  24643822.382    -3680102.954 7  -2852274.71345  24643822.497    24643832.8794
  22154191.067   -11743145.992 8  -8176033.14446  22154191.122    22154198.6794
  21240848.407   -20125473.044 9 -13640531.75047  21240848.187    21240855.6494
  22072391.235   -18556618.411 8 -14450747.87947  22072391.721    22072398.2264
  21455049.543   -18700165.747 9 -11498476.84647  21455049.328    21455056.5304
 00  5  4  1 29  0.0000000  0  8 10 26 27 09 08 07 13 02
  23926227.812    -8087208.354 7  -6284012.10045  23926227.387    23926244.7124
  21389634.081   -20703457.883 9 -16123374.72947  21389634.494    21389640.8834
  23025553.775   -11562319.651 8  -8288886.53146  23025554.041    23025562.2744
  24628841.165    -3758828.844 7  -2913619.32145  24628841.318    24628851.2474
  22164625.887   -11688311.078 8  -8133304.66246  22164625.898    22164633.4494
  21231942.484   -20172273.479 9 -13676999.56947  21231942.262    21231949.7454
  22088235.640   -18473355.504 8 -14385867.73447  22088236.162    22088242.7384
  21462833.162   -18659262.709 9 -11466604.35747  21462832.960    21462840.1734
 00  5  4  1 29 30.0000000  0  8 10 26 27 09 08 07 13 02
  23941530.263    -8006792.564 7  -6221350.45445  23941529.854    23941547.3624
  21379507.000   -20756675.679 9 -16164843.10647  21379507.475    21379513.8684
  23036695.597   -11503768.985 8  -8243262.68846  23036695.927    23036704.0804
  24613855.572    -3837578.002 7  -2974982.07345  24613855.743    24613865.5614
  22175093.523   -11633303.112 8  -8090441.33746  22175093.612    22175101.1634
  21223124.382   -20218612.330 9 -13713107.70747  21223124.177    21223131.6764
  22104147.160   -18389739.610 8 -14320712.52547  22104147.727    22104154.3464
  21470646.925   -18618201.265 9 -11434608.42247  21470646.720    21470653.9174
 00  5  4  1 30  0.0000000  0  8 10 26 27 09 08 07 13 02
  23956842.456    -7926325.055 7  -6158648.50445  23956842.203    23956859.8354
  21369460.549   -20809470.016 9 -16205981.51947  21369461.020    21369467.4754
  23047875.287   -11445018.954 8  -8197483.46546  23047875.668    23047883.9434
  24598865.561    -3916349.697 7  -3036362.35445  24598865.731    24598875.8804
  22185594.368   -11578121.007 8  -8047442.30446  22185594.452    22185602.0054
  21214394.648   -20264487.301 9 -13748854.38647  21214394.430    21214401.9344
  22120125.628   -18305771.917 8 -14255283.19847  22120126.225    22120132.9164
  21478490.697   -18576982.163 9 -11402489.64647  21478490.480    21478497.6674
 00  5  4  1 30 30.0000000  0  8 10 26 27 09 08 07 13 02
  23972164.146    -7845808.976 7  -6095908.70045  23972163.876    23972181.5034
  21359494.991   -20861838.962 8 -16246788.46047  21359495.449    21359501.9444
  23059092.893   -11386069.514 8  -8151548.85345  23059093.392    23059101.6424
  24583871.551    -3995143.809 7  -3097760.13245  24583871.650    24583881.6854
  22196128.361   -11522764.758 8  -8004307.58246  22196128.390    22196135.9704
  21205753.486   -20309896.775 9 -13784238.34147  21205753.273    21205760.7384
  22136170.654   -18221454.683 8 -14189581.50047  22136171.287    22136178.0374
  21486364.148   -18535607.058 9 -11370249.30447  21486363.920    21486371.1054
 00  5  4  1 31  0.0000000  0  8 10 26 27 09 08 07 13 02
  23987494.490    -7765248.148 7  -6033134.02945  23987494.153    23987511.6364
  21349610.600   -20913781.549 8 -16287263.17547  21349611.072    21349617.5384
  23070348.579   -11326921.100 8  -8105459.22545  23070348.970    23070357.2054
  24568872.981    -4073961.107 7  -3159175.98445  24568873.083    24568882.9924
  22206695.471   -11467235.037 8  -7961037.70446  22206695.405    22206702.9674
  21197200.993   -20354840.229 9 -13819259.15947  21197200.783    21197208.2354
  22152281.722   -18136790.670 8 -14123609.58247  22152282.344    22152289.1064
  21494266.837   -18494078.295 9 -11337889.22647  21494266.599    21494273.7664
 00  5  4  1 31 30.0000000  0  8 10 26 27 09 08 07 13 02
  24002832.758    -7684645.706 7  -5970326.91845  24002832.405    24002849.7624
  21339807.669   -20965296.034 9 -16327404.30047  21339808.129    21339814.5604
  23081642.129   -11267573.670 8  -8059214.48745  23081642.481    23081650.6834
  24553869.683    -4152801.649 7  -3220609.94745  24553869.800    24553879.8144
  22217295.526   -11411531.823 8  -7917632.63446  22217295.386    22217302.9294
  21188737.545   -20399315.995 9 -13853915.55247  21188737.342    21188744.7584
  22168458.287   -18051782.418 8 -14057369.43147  22168458.955    22168465.6784
  21502198.412   -18452397.604 9 -11305410.76847  21502198.198    21502205.3834
 00  5  4  1 32  0.0000000  0  8 10 26 27 09 08 07 13 02
  24018178.330    -7604003.887 7  -5907489.11745  24018177.912    24018195.3194
  21330086.702   -21016379.830 9 -16367209.82347  21330087.168    21330093.5704
  23092973.713   -11208026.188 8  -8012813.87145  23092974.017    23092982.2394
  24538862.472    -4231664.543 7  -3282061.31845  24538862.520    24538872.5094
  22227928.692   -11355654.001 8  -7874091.50846  22227928.575    22227936.1594
  21180363.463   -20443321.892 9 -13888205.80647  21180363.240    21180370.6474
  22184700.139   -17966431.130 8 -13990861.97447  22184700.781    22184707.5214
  21510158.800   -18410565.640 9 -11272814.43247  21510158.577    21510165.7894
 00  5  4  1 32 30.0000000  0  8 10 26 27 09 08 07 13 02
  24033530.837    -7523325.554 7  -5844622.85645  24033530.503    24033547.9804
  21320448.164   -21067030.678 9 -16406677.98947  21320448.660    21320455.0284
  23104343.538   -11148278.168 8  -7966257.01145  23104343.686    23104351.9404
  24523851.243    -4310549.049 7  -3343529.56345  24523851.311    24523861.0684
  22238595.145   -11299601.030 8  -7830413.88446  22238595.071    22238602.6434
  21172079.106   -20486856.063 9 -13922128.48047  21172078.905    21172086.3134
  22201006.935   -17880738.463 8 -13924088.51347  22201007.582    22201014.3614
  21518147.770   -18368583.391 9 -11240100.99047  21518147.546    21518154.8114
 00  5  4  1 33  0.0000000  0  8 10 26 27 09 08 07 13 02
  24048889.569    -7442614.121 7  -5781730.79545  24048889.290    24048906.8934
  21310892.330   -21117247.036 9 -16445807.58847  21310892.816    21310899.1694
  23115751.476   -11088329.657 8  -7919543.91746  23115751.567    23115759.7784
  24508835.665    -4389455.349 7  -3405014.73845  24508835.796    24508845.4664
  22249294.919   -11243373.127 8  -7786599.96546  22249294.904    22249302.4344
  21163884.845   -20529917.174 9 -13955682.53947  21163884.638    21163892.0444
  22217378.257   -17794706.795 8 -13857050.89547  22217378.859    22217385.6894
  21526164.938   -18326452.787 8 -11207271.94947  21526164.676    21526172.0174
 00  5  4  1 33 30.0000000  0  8 10 26 27 09 08 07 13 02
  24064254.169    -7361872.343 7  -5718815.05545  24064253.894    24064271.8014
  21301419.613   -21167026.543 9 -16484596.79347  21301420.104    21301426.4364
  23127197.583   -11028180.135 8  -7872674.17546  23127197.725    23127205.8214
  24493816.247    -4468383.042 7  -3466516.62945  24493816.393    24493825.9334
  22260028.177   -11186969.670 8  -7742649.25146  22260028.103    22260035.6584
  21155780.943   -20572503.330 9 -13988866.50647  21155780.728    21155788.1374
  22233813.692   -17708337.852 8 -13789750.46947  22233814.340    22233821.1694
  21534210.121   -18284174.705 8 -11174327.98147  21534209.887    21534217.3004
 00  5  4  1 34  0.0000000  0  8 10 26 27 09 08 07 13 02
  24079624.005    -7281103.717 7  -5655878.41945  24079623.623    24079641.5264
  21292030.243   -21216367.828 9 -16523044.52147  21292030.734    21292037.1024
  23138681.884   -10967829.597 8  -7825647.81045  23138682.123    23138690.2404
  24478792.728    -4547332.169 7  -3528035.24245  24478792.875    24478802.1314
  22270794.971   -11130390.655 8  -7698561.72646  22270794.780    22270802.3434
  21147767.605   -20614613.490 9 -14021679.57047  21147767.385    21147774.8074
  22250312.858   -17621634.231 8 -13722189.25346  22250313.578    22250320.3624
  21542283.006   -18241751.181 8 -11141270.69147  21542282.768    21542290.2264
 00  5  4  1 34 30.0000000  0  8 10 26 27 09 08 07 13 02
  24094998.535    -7200310.916 7  -5592922.93945  24094998.160    24095016.0114
  21282724.602   -21265268.940 9 -16561149.26047  21282725.086    21282731.5254
  23150204.590   -10907277.815 8  -7778464.64345  23150204.756    23150213.0054
  24463765.072    -4626302.043 7  -3589570.00645  24463765.239    24463774.4844
  22281595.143   -11073636.002 8  -7654337.36146  22281594.893    22281602.4354
  21139845.131   -20656246.032 9 -14054120.46647  21139844.910    21139852.3414
  22266875.396   -17534597.841 8 -13654368.74146  22266876.072    22266882.8414
  21550383.324   -18199183.332 8 -11108100.94147  21550383.100    21550390.6024
 00  5  4  1 35  0.0000000  0  8 10 26 27 09 08 07 13 02
  24110377.011    -7119496.781 7  -5529950.81545  24110376.514    24110394.2944
  21273502.999   -21313728.157 9 -16598909.66747  21273503.530    21273509.9854
  23161765.673   -10846524.515 8  -7731124.44745  23161765.743    23161773.9634
  24448733.182    -4705292.804 7  -3651121.03045  24448733.385    24448742.8394
  22292428.719   -11016705.472 8  -7609975.93546  22292428.423    22292435.9674
  21132013.813   -20697399.475 9 -14086188.03947  21132013.611    21132021.0514
  22283500.790   -17447230.730 8 -13586290.52546  22283501.433    22283508.3044
  21558510.934   -18156472.453 9 -11074819.73747  21558510.714    21558518.1984
 00  5  4  1 35 30.0000000  0  8 10 26 27 09 08 07 13 02
  24125758.669    -7038665.072 7  -5466964.98445  24125758.205    24125775.9994
  21264365.820   -21361744.161 9 -16636324.70647  21264366.365    21264372.8104
  23173364.906   -10785570.064 7  -7683627.49545  23173364.974    23173373.2404
  24433697.337    -4784304.714 7  -3712688.55645  24433697.664    24433707.1534
  22303295.707   -10959599.534 8  -7565477.82746  22303295.390    22303302.9304
  21124273.910   -20738073.060 9 -14117881.69547  21124273.680    21124281.1254
  22300188.589   -17359535.890 8 -13517956.93046  22300189.200    22300196.1494
  21566665.300   -18113620.687 9 -11041428.75247  21566665.078    21566672.5924
 00  5  4  1 36  0.0000000  0  8 10 26 27 09 08 07 13 02
  24141143.243    -6957817.613 7  -5403966.88545  24141142.835    24141160.6274
  21255313.630   -21409313.889 9 -16673392.00147  21255314.142    21255320.5894
  23185002.742   -10724412.874 7  -7635972.60345  23185002.837    23185011.0684
  24418657.831    -4863336.355 7  -3774271.44445  24418658.096    24418667.8974
  22314196.333   -10902316.510 8  -7520841.73046  22314195.964    22314203.5854
  21116625.753   -20778263.997 9 -14149199.26447  21116625.544    21116632.9994
  22316938.669   -17271513.995 8 -13449368.49246  22316939.264    22316946.2364
  21574846.471   -18070628.372 9 -11007928.25047  21574846.245    21574853.7044
 00  5  4  1 36 30.0000000  0  8 10 26 27 09 08 07 13 02
  24156530.481    -6876956.721 7  -5340958.32945  24156530.272    24156547.8524
  21246346.767   -21456434.979 9 -16710109.70647  21246347.270    21246353.7184
  23196679.318   -10663052.255 7  -7588159.18545  23196679.423    23196687.5434
  24403614.981    -4942386.719 7  -3835868.90845  24403615.189    24403625.0534
  22325130.676   -10844855.766 8  -7476067.14546  22325130.394    22325138.0794
  21109069.824   -20817970.364 9 -14180139.24547  21109069.615    21109077.1004
  22333750.648   -17183166.812 8 -13380526.58146  22333751.246    22333758.2194
  21583054.260   -18027496.201 9 -10974318.76847  21583054.013    21583061.4284
 00  5  4  1 37  0.0000000  0  8 10 26 27 09 08 07 13 02
  24171919.601    -6796085.934 7  -5277942.05345  24171919.309    24171936.9324
  21237465.580   -21503106.010 9 -16746476.72447  21237466.068    21237472.5174
  23208394.451   -10601488.476 7  -7540187.44645  23208394.593    23208402.7284
  24388568.822    -5021455.674 7  -3897480.91245  24388569.005    24388578.4934
  22336098.871   -10787217.541 8  -7431154.28146  22336098.640    22336106.3314
  21101606.294   -20857191.216 9 -14210700.90247  21101606.102    21101613.5954
  22350624.063   -17094496.425 8 -13311432.82746  22350624.724    22350631.7104
  21591288.384   -17984225.646 9 -10940601.44947  21591288.162    21591295.4324
 00  5  4  1 37 30.0000000  0  8 10 26 27 09 08 07 13 02
  24187310.035    -6715208.123 7  -5214920.25045  24187309.594    24187327.3744
  21228670.321   -21549325.181 9 -16782491.64447  21228670.817    21228677.2854
  23220148.285   -10539721.504 7  -7492057.38345  23220148.485    23220156.6004
  24373518.986    -5100543.228 7  -3959107.41245  24373519.096    24373528.0784
  22347100.866   -10729401.495 8  -7386102.83246  22347100.654    22347108.3754
  21094235.470   -20895925.111 9 -14240883.11647  21094235.255    21094242.7234
  22367558.543   -17005505.591 8 -13242089.38046  22367559.201    22367566.1204
  21599548.542   -17940818.483 9 -10906777.69247  21599548.314    21599555.4784
 00  5  4  1 38  0.0000000  0  8 10 26 27 09 08 07 13 02
  24202701.318    -6634326.065 7  -5151895.12945  24202700.869    24202718.6464
  21219961.394   -21595090.560 9 -16818152.96047  21219961.876    21219968.3674
  23231941.080   -10477750.750 7  -7443768.52445  23231941.072    23231949.3854
  24358465.197    -5179648.783 7  -4020747.88945  24358465.495    24358474.6034
  22358136.800   -10671407.176 8  -7340912.48146  22358136.604    22358144.3534
  21086957.611   -20934170.409 9 -14270684.60547  21086957.393    21086964.8074
  22384553.699   -16916195.910 8 -13172497.47346  22384554.326    22384561.2254
  21607834.526   -17897275.578 9 -10872848.15947  21607834.287    21607841.3844
 00  5  4  1 38 30.0000000  0  8 10 26 27 09 08 07 13 02
  24218092.837    -6553443.326 7  -5088869.50945  24218092.324    24218109.9664
  21211339.115   -21640400.842 9 -16853459.65247  21211339.625    21211346.0314
  23243772.597   -10415576.590 7  -7395321.15245  23243772.431    23243780.6944
  24343408.318    -5258772.474 7  -4082402.53345  24343408.688    24343417.7524
  22369206.684   -10613235.034 8  -7295583.57046  22369206.441    22369214.1324
  21079772.896   -20971926.228 9 -14300104.68247  21079772.687    21079780.0744
  22401608.970   -16826569.877 8 -13102659.06546  22401609.569    22401616.4874
  21616145.984   -17853598.740 9 -10838814.27047  21616145.744    21616152.8264
 00  5  4  1 39  0.0000000  0  8 10 26 27 09 08 07 13 02
  24233484.011    -6472562.433 7  -5025845.29945  24233483.528    24233500.7964
  21202803.815   -21685254.162 9 -16888410.26247  21202804.334    21202810.6654
  23255642.730   -10353198.666 7  -7346715.02445  23255642.633    23255650.8444
  24328348.023    -5337914.082 7  -4144071.18545  24328348.406    24328357.3914
  22380310.485   -10554884.568 8  -7250115.71546  22380310.213    22380317.8514
  21072681.614   -21009191.210 9 -14329142.29147  21072681.396    21072688.7854
  22418723.995   -16736629.806 8 -13032575.95546  22418724.600    22418731.5774
  21624482.642   -17809789.392 9 -10804677.12547  21624482.432    21624489.4804
 00  5  4  1 39 30.0000000  0  8 10 26 27 09 08 07 13 02
  24248874.171    -6391686.305 7  -4962824.79445  24248873.724    24248890.7974
  21194355.896   -21729648.487 9 -16923003.21847  21194356.402    21194362.7064
  23267551.836   -10290616.490 7  -7297949.71745  23267551.619    23267559.8754
  24313284.202    -5417072.543 7  -4205752.91845  24313284.714    24313293.7554
  22391448.344   -10496355.186 8  -7204508.43446  22391448.003    22391455.6164
  21065684.029   -21045963.643 9 -14357796.09347  21065683.801    21065691.2024
  22435898.525   -16646377.479 8 -12962249.52746  22435899.150    22435906.1274
  21632844.385   -17765848.468 9 -10770437.44447  21632844.144    21632851.1374
 00  5  4  1 40  0.0000000  0  8 10 26 27 09 08 07 13 02
  24264262.928    -6310817.537 7  -4899809.99745  24264262.450    24264279.5894
  21185995.644   -21773582.085 9 -16957237.17147  21185996.120    21186002.4284
  23279499.750   -10227829.942 7  -7249025.17345  23279499.598    23279507.8164
  24298217.646    -5496247.827 7  -4267447.78445  24298217.915    24298227.1474
  22402620.172   -10437646.860 8  -7158761.71146  22402619.869    22402627.4774
  21058780.307   -21082242.383 9 -14386065.20147  21058780.140    21058787.5324
  22453132.104   -16555815.140 8 -12891681.53646  22453132.679    22453139.5934
  21641230.790   -17721777.555 9 -10736096.47547  21641230.558    21641237.5004
 00  5  4  1 40 30.0000000  0  8 10 26 27 09 08 07 13 02
  24279649.681    -6229959.712 7  -4836803.72345  24279649.139    24279666.3744
  21177723.174   -21817053.646 9 -16991111.09747  21177723.687    21177730.0554
  23291486.465   -10164839.116 7  -7199941.45345  23291486.339    23291494.6414
  24283147.628    -5575440.003 7  -4329155.82945  24283147.848    24283157.0454
  22413825.995   -10378759.866 8  -7112875.78146  22413825.741    22413833.2734
  21051970.850   -21118026.479 9 -14413948.87247  21051970.664    21051978.0114
  22470424.181   -16464945.325 8 -12820873.95346  22470424.699    22470431.5654
  21649641.641   -17677578.180 9 -10701655.40947  21649641.425    21649648.3564
 00  5  4  1 41  0.0000000  0  8 10 26 27 09 08 07 13 02
  24295033.737    -6149114.696 7  -4773807.41445  24295033.229    24295050.7134
  21169539.248   -21860060.464 9 -17024622.88347  21169539.733    21169546.0764
  23303512.247   -10101642.845 7  -7150697.64445  23303512.114    23303520.5574
  24268074.416    -5654647.711 7  -4390875.94845  24268074.882    24268084.3354
  22425066.111   -10319692.776 8  -7066849.51346  22425065.840    22425073.3974
  21045255.928   -21153313.691 9 -14441445.36247  21045255.723    21045263.0474
  22487774.299   -16373769.276 8 -12749827.73846  22487774.917    22487781.7774
  21658076.895   -17633250.600 9 -10667114.44247  21658076.695    21658083.5944
 00  5  4  1 41 30.0000000  0  8 10 26 27 09 08 07 13 02
  24310414.680    -6068285.892 7  -4710823.76345  24310414.331    24310431.7614
  21161444.015   -21902601.384 9 -17057771.63047  21161444.517    21161450.7154
  23315577.317   -10038241.539 7  -7101294.09645  23315577.022    23315585.4724
  24252998.735    -5733870.861 7  -4452608.12245  24252999.058    24253008.5464
  22436340.416   -10260445.789 8  -7020683.06546  22436340.175    22436347.8204
  21038635.652   -21188103.126 9 -14468553.97747  21038635.446    21038642.7864
  22505182.271   -16282289.491 8 -12678544.85946  22505182.916    22505189.8734
  21666536.235   -17588796.671 9 -10632475.02647  21666536.019    21666542.9334
 00  5  4  1 42  0.0000000  0  8 10 26 27 09 08 07 13 02
  24325791.885    -5987476.775 7  -4647855.45045  24325791.545    24325808.8374
  21153437.644   -21944675.496 9 -17090556.62147  21153438.119    21153444.1904
  23327681.306    -9974635.923 7  -7051731.34345  23327680.843    23327689.3264
  24237920.216    -5813109.919 7  -4514352.73645  24237920.387    24237929.5964
  22447648.778   -10201019.629 8  -6974376.98046  22447648.576    22447656.2894
  21032110.129   -21222394.468 9 -14495274.46647  21032109.934    21032117.3384
  22522647.531   -16190509.246 8 -12607027.84446  22522648.175    22522655.1154
  21675019.196   -17544218.537 9 -10597738.82847  21675018.977    21675025.9194
 00  5  4  1 42 30.0000000  0  8 10 26 27 09 08 07 13 02
  24341164.999    -5906689.675 7  -4584904.27145  24341164.713    24341181.7734
  21145520.490   -21986280.422 9 -17122976.02147  21145520.960    21145527.0304
  23339824.015    -9910825.016 7  -7002008.61745  23339823.586    23339832.0624
  24222838.471    -5892363.814 7  -4576108.88045  24222838.778    24222847.7434
  22458991.487   -10141413.392 8  -6927930.59146  22458991.264    22458999.0154
  21025679.798   -21256185.767 9 -14521605.31647  21025679.605    21025687.0404
  22540169.736   -16098430.155 8 -12535277.97146  22540170.305    22540177.2524
  21683525.701   -17499516.722 9 -10562906.25547  21683525.478    21683532.4424
 00  5  4  1 43  0.0000000  0  8 10 26 27 09 08 07 13 02
  24356533.465    -5825927.088 7  -4521972.17945  24356533.143    24356550.2504
  21137692.917   -22027414.144 9 -17155028.25147  21137693.409    21137699.5624
  23352005.955    -9846808.185 7  -6952125.44545  23352005.643    23352014.1274
  24207754.068    -5971631.843 7  -4637876.02245  24207754.380    24207763.3774
  22470368.520   -10081626.609 8  -6881343.51646  22470368.348    22470376.0314
  21019344.922   -21289475.683 9 -14547545.47747  21019344.721    21019352.1514
  22557748.476   -16006053.777 8 -12463296.42546  22557748.996    22557755.9234
  21692055.482   -17454692.207 9 -10527978.06847  21692055.263    21692062.2604
 00  5  4  1 43 30.0000000  0  8 10 26 27 09 08 07 13 02
  24371896.595    -5745192.560 7  -4459061.92745  24371896.298    24371913.3364
  21129955.285   -22068075.492 9 -17186712.40247  21129955.776    21129961.9714
  23364227.053    -9782585.825 7  -6902082.11345  23364226.932    23364235.2074
  24192667.123    -6050914.021 7  -4699654.22345  24192667.484    24192676.3924
  22481779.861   -10021659.467 8  -6834615.89946  22481779.728    22481787.4194
  21013105.582   -21322263.316 9 -14573094.24647  21013105.370    21013112.8174
  22575383.150   -15913382.894 8 -12391085.41146  22575383.697    22575390.6424
  21700608.307   -17409746.683 9 -10492955.58847  21700608.072    21700615.1154
 00  5  4  1 44  0.0000000  0  8 10 26 27 09 08 07 13 02
  24387253.990    -5664488.759 7  -4396175.63345  24387253.676    24387270.4684
  21122307.829   -22108262.865 9 -17218027.21847  21122308.340    21122314.5354
  23376487.217    -9718157.858 7  -6851878.54245  23376487.225    23376495.5764
  24177577.824    -6130210.016 7  -4761443.18145  24177578.240    24177586.5674
  22493225.589    -9961511.709 8  -6787747.54346  22493225.524    22493233.1664
  21006962.019   -21354547.524 9 -14598250.73747  21006961.833    21006969.2834
  22593073.437   -15820420.006 8 -12318646.85746  22593073.970    22593080.9684
  21709183.880   -17364681.451 8 -10457839.83447  21709183.665    21709190.7794
 00  5  4  1 44 30.0000000  0  8 10 26 27 09 08 07 13 02
  24402604.924    -5583818.569 7  -4333315.50145  24402604.569    24402621.3484
  21114750.890   -22147974.657 9 -17248971.45347  21114751.402    21114757.5694
  23388786.688    -9653524.132 7  -6801514.65845  23388786.689    23388795.1824
  24162486.002    -6209519.443 7  -4823242.61645  24162486.258    24162494.2794
  22504705.657    -9901183.318 8  -6740738.43546  22504705.656    22504713.3294
  21000914.442   -21386327.353 9 -14623014.20447  21000914.280    21000921.7204
  22610818.934   -15727167.170 8 -12245982.36646  22610819.475    22610826.4474
  21717782.053   -17319497.731 9 -10422631.74947  21717781.823    21717788.9674
 00  5  4  1 45  0.0000000  0  8 10 26 27 09 08 07 13 02
  24417948.787    -5503184.988 7  -4270483.92445  24417948.496    24417965.2254
  21107284.795   -22187209.096 9 -17279543.71647  21107285.330    21107291.4344
  23401125.527    -9588684.268 7  -6750990.14545  23401125.338    23401133.6794
  24147391.498    -6288841.581 7  -4885051.96045  24147391.779    24147399.6014
  22516220.226    -9840673.857 8  -6693588.25546  22516220.215    22516227.9254
  20994963.177   -21417601.385 9 -14647383.54847  20994963.000    20994970.4634
  22628619.184   -15633626.455 8 -12173093.56746  22628619.822    22628626.7864
  21726402.667   -17274196.524 9 -10387332.11847  21726402.414    21726409.5954
 00  5  4  1 45 30.0000000  0  8 10 26 27 09 08 07 13 02
  24433285.181    -5422590.377 7  -4207682.67945  24433284.919    24433301.8334
  21099909.900   -22225964.368 9 -17309742.60947  21099910.426    21099916.5474
  23413503.351    -9523637.919 7  -6700304.70345  23413503.309    23413511.6764
  24132294.764    -6368175.578 7  -4946870.55845  24132295.010    24132302.6524
  22527769.358    -9779982.726 8  -6646296.49346  22527769.409    22527777.1294
  20989108.418   -21448368.269 9 -14671357.71147  20989108.253    20989115.7284
  22646473.875   -15539799.891 8 -12099982.02146  22646474.482    22646481.4964
  21735045.355   -17228778.892 8 -10351941.76347  21735045.121    21735052.3454
 00  5  4  1 46  0.0000000  0  8 10 26 27 09 08 07 13 02
  24448613.711    -5342037.293 7  -4144913.76445  24448613.417    24448630.4564
  21092626.586   -22264238.542 9 -17339566.62147  21092627.088    21092633.2314
  23425920.569    -9458384.600 7  -6649457.97845  23425920.603    23425928.9514
  24117195.963    -6447520.963 7  -5008698.02845  24117196.243    24117203.7104
  22539353.098    -9719109.599 8  -6598862.91446  22539353.201    22539360.8774
  20983350.376   -21478626.801 9 -14694935.76047  20983350.209    20983357.7144
  22664382.506   -15445689.675 8 -12026649.44646  22664383.104    22664390.0924
  21743709.926   -17183246.032 8 -10316461.62847  21743709.683    21743716.9684
 00  5  4  1 46 30.0000000  0  8 10 26 27 09 08 07 13 02
  24463933.798    -5261528.828 8  -4082179.63045  24463933.461    24463950.5304
  21085434.970   -22302030.611 9 -17369014.96747  21085435.487    21085441.6314
  23438377.183    -9392924.684 7  -6598450.28345  23438377.269    23438385.6324
  24102094.759    -6526877.640 7  -5070534.26845  24102094.928    24102102.4514
  22550971.481    -9658054.652 8  -6551287.65746  22550971.557    22550979.2384
  20977689.216   -21508376.296 9 -14718117.15947  20977689.058    20977696.5184
  22682344.669   -15351298.239 8 -11953097.74646  22682345.269    22682352.2344
  21752396.169   -17137599.470 8 -10280892.88847  21752395.940    21752403.2544
 00  5  4  1 47  0.0000000  0  8 10 26 27 09 08 07 13 02
  24479244.914    -5181067.578 8  -4019482.29645  24479244.542    24479261.5934
  21078335.443   -22339338.595 9 -17398086.10247  21078335.972    21078342.1154
  23450873.142    -9327257.783 7  -6547281.30245  23450873.248    23450881.6414
  24086991.713    -6606244.633 7  -5132378.56045  24086991.733    24086999.1744
  22562624.637    -9596817.406 8  -6503570.35746  22562624.660    22562632.3654
  20972125.218   -21537615.402 9 -14740900.85347  20972125.040    20972132.4624
  22700359.901   -15256627.586 8 -11879328.47746  22700360.517    22700367.4814
  21761103.894   -17091839.957 9 -10245236.13947  21761103.672    21761110.9884
 00  5  4  1 47 30.0000000  0  8 10 26 27 09 08 07 13 02
  24494546.337    -5100656.753 7  -3956824.20345  24494546.009    24494562.8784
  21071328.251   -22376161.438 9 -17426779.20447  21071328.783    21071334.9074
  23463408.537    -9261384.136 7  -6495951.24045  23463408.739    23463417.2764
  24071886.426    -6685622.163 7  -5194231.07345  24071886.471    24071894.0544
  22574312.461    -9535397.943 8  -6455711.08146  22574312.489    22574320.1474
  20966658.400   -21566343.530 9 -14763286.37747  20966658.215    20966665.6234
  22718427.690   -15161680.462 8 -11805343.77846  22718428.320    22718435.2994
  21769832.873   -17045968.975 9 -10209492.52547  21769832.648    21769839.9144
 00  5  4  1 48  0.0000000  0  8 10 26 27 09 08 07 13 02
  24509837.771    -5020298.793 8  -3894207.29945  24509837.393    24509854.1584
  21064413.791   -22412497.163 9 -17455092.73447  21064414.329    21064420.4754
  23475983.574    -9195303.363 7  -6444459.78145  23475983.645    23475991.9014
  24056779.030    -6765009.226 7  -5256090.99945  24056779.199    24056787.1104
  22586035.012    -9473795.707 8  -6407709.38146  22586035.013    22586042.6674
  20961289.096   -21594559.251 9 -14785272.62147  20961288.902    20961296.2944
  22736547.729   -15066458.616 8 -11731145.00746  22736548.395    22736555.4294
  21778582.893   -16999987.505 8 -10173662.81547  21778582.681    21778589.9284
 00  5  4  1 48 30.0000000  0  8 10 26 27 09 08 07 13 02
  24525118.621    -4939996.803 8  -3831634.00745  24525118.274    24525134.7684
  21057592.230   -22448344.534 9 -17483025.73447  21057592.762    21057598.9404
  23488598.006    -9129015.464 7  -6392806.91245  23488597.772    23488605.9014
  24041670.305    -6844405.679 7  -5317958.25045  24041670.419    24041678.4374
  22597792.317    -9412011.036 8  -6359565.51146  22597792.264    22597799.9524
  20956017.393   -21622261.777 9 -14806858.97747  20956017.231    20956024.6304
  22754719.723   -14970964.798 8 -11656734.30846  22754720.345    22754727.3844
  21787353.561   -16953897.109 9 -10137748.23247  21787353.369    21787360.6444
 00  5  4  1 49  0.0000000  0  8 10 26 27 09 08 07 13 02
  24540388.366    -4859753.613 8  -3769106.57045  24540387.903    24540404.1944
  21050863.921   -22483702.144 9 -17510577.10247  21050864.460    21050870.6524
  23501251.579    -9062520.545 7  -6340992.73745  23501251.223    23501259.8224
  24026559.957    -6923810.770 7  -5379832.24545  24026560.009    24026568.0154
  22609584.393    -9350043.411 8  -6311279.09146  22609584.281    22609592.0464
  20950843.607   -21649450.306 9 -14828044.81547  20950843.443    20950850.8024
  22772943.043   -14875201.410 8 -11582113.57046  22772943.609    22772950.6164
  21796144.839   -16907699.071 8 -10101749.77547  21796144.583    21796151.8774
 00  5  4  1 49 30.0000000  0  8 10 26 27 09 08 07 13 02
  24555646.267    -4779571.605 8  -3706626.78645  24555645.830    24555661.9744
  21044229.102   -22518568.335 9 -17537745.54347  21044229.613    21044235.8104
  23513944.773    -8995818.118 7  -6289016.86344  23513944.305    23513953.0024
  24011448.138    -7003224.002 7  -5441712.56545  24011448.070    24011456.2514
  22621411.389    -9287892.651 8  -6262849.97546  22621411.223    22621419.0464
  20945767.809   -21676123.734 9 -14848829.27447  20945767.607    20945774.9724
  22791217.256   -14779170.480 8 -11507284.34746  22791217.848    22791224.7844
  21804956.334   -16861394.323 8 -10065668.17047  21804956.113    21804963.3874
 00  5  4  1 50  0.0000000  0  8 10 26 27 09 08 07 13 02
  24570891.939    -4699453.573 8  -3644196.85245  24570891.577    24570907.7614
  21037688.098   -22552941.611 9 -17564529.89447  21037688.611    21037694.8084
  23526677.275    -8928908.090 7  -6236879.26444  23526676.952    23526685.7434
  23996334.656    -7082644.965 7  -5503598.90645  23996334.684    23996343.0094
  22633273.163    -9225558.674 8  -6214278.07846  22633273.021    22633280.8534
  20940790.205   -21702281.056 9 -14869211.57147  20940790.013    20940797.3404
  22809541.973   -14682874.170 8 -11432248.33846  22809542.532    22809549.4614
  21813787.946   -16814984.148 8 -10029504.40947  21813787.689    21813794.9414
 00  5  4  1 50 30.0000000  0  8 10 26 27 09 08 07 13 02
  24586125.076    -4619401.713 8  -3581818.49045  24586124.740    24586140.9464
  21031241.156   -22586820.157 9 -17590928.74547  21031241.674    21031247.8684
  23539449.398    -8861790.170 7  -6184579.63445  23539448.859    23539457.9134
  23981219.961    -7162072.502 7  -5565490.37845  23981220.147    23981228.4674
  22645169.917    -9163040.715 8  -6165562.83346  22645169.815    22645177.5844
  20935911.065   -21727921.181 9 -14889190.86047  20935910.880    20935918.1484
  22827916.791   -14586314.521 8 -11357007.12546  22827917.341    22827924.1714
  21822639.464   -16768469.056 8  -9993258.89247  21822639.211    21822646.4614
 00  5  4  1 51  0.0000000  0  8 10 26 27 09 08 07 13 02
  24601344.892    -4539419.720 8  -3519494.58445  24601344.594    24601360.6484
  21024888.592   -22620203.089 9 -17616941.40547  21024889.072    21024895.2934
  23552261.135    -8794464.614 7  -6132118.22845  23552260.490    23552269.4224
  23966104.138    -7241506.537 7  -5627386.92945  23966104.361    23966112.6154
  22657101.660    -9100339.164 8  -6116704.51946  22657101.565    22657109.3474
  20931130.405   -21753043.630 9 -14908766.77147  20931130.220    20931137.4524
  22846341.048   -14489494.387 8 -11281562.94546  22846341.616    22846348.4804
  21831510.614   -16721850.812 8  -9956932.99747  21831510.360    21831517.6194
 00  5  4  1 51 30.0000000  0  8 10 26 27 09 08 07 13 02
  24616550.940    -4459510.368 7  -3457227.30245  24616550.568    24616566.6514
  21018630.502   -22653089.115 9 -17642566.86347  21018631.035    21018637.2654
  23565112.364    -8726931.554 7  -6079495.12445  23565111.782    23565120.5044
  23950987.127    -7320946.855 7  -5689288.37445  23950987.327    23950995.5494
  22669068.363    -9037454.061 8  -6067703.17946  22669068.260    22669076.0484
  20926448.382   -21777647.737 9 -14927938.77847  20926448.201    20926455.4454
  22864814.426   -14392416.284 8 -11205917.74546  22864815.037    22864821.9314
  21840401.188   -16675130.628 8  -9920527.67047  21840400.945    21840408.2264
 00  5  4  1 52  0.0000000  0  8 10 26 27 09 08 07 13 02
  24631742.680    -4379675.674 7  -3395018.17845  24631742.331    24631758.5164
  21012467.422   -22685476.336 9 -17667803.64447  21012467.971    21012474.1974
  23578002.872    -8659190.544 7  -6026709.98645  23578002.349    23578011.3364
  23935868.920    -7400392.419 7  -5751193.89445  23935869.033    23935877.5984
  22681070.038    -8974384.689 8  -6018558.25346  22681069.972    22681077.8084
  20921865.312   -21801732.109 9 -14946705.79547  20921865.124    20921872.3634
  22883336.570   -14295081.966 8 -11130072.89446  22883337.135    22883344.1094
  21849311.001   -16628309.239 8  -9884043.48447  21849310.757    21849318.0424
 00  5  4  1 52 30.0000000  0  8 10 26 27 09 08 07 13 02
  24646919.716    -4299918.214 7  -3332869.27245  24646919.443    24646935.7884
  21006399.563   -22717363.139 9 -17692650.49347  21006400.112    21006406.3704
  23590933.111    -8591241.232 7  -5973762.53845  23590932.757    23590941.5954
  23920750.001    -7479842.309 7  -5813102.78945  23920750.149    23920758.7694
  22693106.858    -8911130.673 8  -5969269.45246  22693106.819    22693114.6584
  20917381.262   -21825295.786 9 -14965067.07747  20917381.068    20917388.3094
  22901907.023   -14197493.596 8 -11054030.10246  22901907.599    22901914.6924
  21858239.896   -16581387.477 8  -9847481.08747  21858239.646    21858246.9524
 00  5  4  1 53  0.0000000  0  8 10 26 27 09 08 07 13 02
  24662081.448    -4220241.418 7  -3270783.20945  24662081.167    24662097.5834
  21000427.083   -22748748.753 9 -17717106.80847  21000427.617    21000433.8974
  23603902.835    -8523084.248 7  -5920653.29845  23603902.628    23603911.4414
  23905630.460    -7559296.716 8  -5875015.23045  23905630.606    23905638.9984
  22705178.742    -8847692.407 8  -5919837.07646  22705178.751    22705186.6124
  20912996.352   -21848338.573 9 -14983022.47347  20912996.154    20913003.3994
  22920525.287   -14099654.127 8 -10977791.64146  22920525.890    22920533.1044
  21867187.594   -16534366.984 8  -9810841.75147  21867187.371    21867194.6654
 00  5  4  1 53 30.0000000  0  8 10 26 27 09 08 07 13 02
  24677227.637    -4140647.961 8  -3208762.09845  24677227.231    24677243.3794
  20994550.161   -22779632.043 9 -17741171.70547  20994550.685    20994556.9664
  23616912.092    -8454719.607 7  -5867382.19245  23616911.982    23616920.8334
  23890510.070    -7638754.938 7  -5936930.62945  23890510.105    23890518.5494
  22717285.821    -8784069.784 8  -5870261.04746  22717285.780    22717293.7084
  20908710.699   -21870859.694 9 -15000571.37547  20908710.511    20908717.7334
  22939190.891   -14001565.796 8 -10901359.25646  22939191.548    22939198.8154
  21876153.852   -16487249.063 8  -9774126.50747  21876153.574    21876160.9034
 00  5  4  1 54  0.0000000  0  8 10 26 27 09 08 07 13 02
  24692357.422    -4061140.229 7  -3146807.67045  24692356.968    24692372.8174
  20988769.181   -22810011.206 9 -17764843.77147  20988769.737    20988775.9594
  23629961.062    -8386146.844 7  -5813948.96345  23629961.138    23629969.8794
  23875388.903    -7718215.911 8  -5998848.17345  23875389.082    23875397.5934
  22729428.024    -8720262.220 8  -5820540.91346  22729427.994    22729435.8964
  20904524.514   -21892858.232 9 -15017713.07047  20904524.309    20904531.5024
  22957903.393   -13903230.783 8 -10824734.65346  22957904.103    22957911.4304
  21885138.456   -16440034.459 8  -9737335.92747  21885138.224    21885145.5654
 00  5  4  1 54 30.0000000  0  8 10 26 27 09 08 07 13 02
  24707470.010    -3981720.915 7  -3084922.15645  24707469.595    24707485.5094
  20983084.396   -22839884.998 9 -17788122.04047  20983084.913    20983091.1094
  23643049.612    -8317366.013 7  -5760353.60445  23643049.857    23643058.5134
  23860267.591    -7797679.183 8  -6060767.53045  23860267.890    23860276.0884
  22741605.366    -8656269.890 8  -5770676.80846  22741605.304    22741613.2234
  20900437.931   -21914333.370 9 -15034446.92147  20900437.728    20900444.8954
  22976662.492   -13804651.615 8 -10747919.81046  22976663.187    22976670.5094
  21894141.333   -16392724.479 8  -9700471.02347  21894141.071    21894148.3964
 00  5  4  1 55  0.0000000  0  8 10 26 27 09 08 07 13 02
  24722565.281    -3902392.951 7  -3023107.80745  24722564.875    24722580.9254
  20977496.003   -22869252.255 9 -17811005.60647  20977496.521    20977502.6884
  23656177.588    -8248377.254 7  -5706596.20445  23656177.998    23656186.7544
  23845145.998    -7877144.442 8  -6122688.42945  23845146.239    23845154.1714
  22753817.841    -8592092.747 8  -5720668.69646  22753817.790    22753825.6774
  20896450.959   -21935284.773 9 -15050772.66947  20896450.778    20896457.9364
  22995467.642   -13705830.678 8 -10670916.57246  22995468.268    22995475.4644
  21903161.984   -16345320.400 8  -9663532.78647  21903161.777    21903169.0624
 00  5  4  1 55 30.0000000  0  8 10 26 27 09 08 07 13 02
  24737642.518    -3823158.904 7  -2961366.64845  24737642.178    24737658.4114
  20972004.229   -22898111.734 9 -17833493.50347  20972004.743    20972010.9024
  23669345.500    -8179180.345 7  -5652676.61745  23669345.923    23669354.4934
  23830024.131    -7956610.676 8  -6184610.08645  23830024.288    23830032.2014
  22766065.719    -8527730.270 8  -5670516.16346  22766065.640    22766073.5324
  20892563.870   -21955711.483 9 -15066689.56647  20892563.699    20892570.8424
  23014318.368   -13606770.205 8 -10593726.68246  23014318.889    23014326.0974
  21912200.414   -16297823.101 8  -9626521.92147  21912200.200    21912207.4934
 00  5  4  1 56  0.0000000  0  8 10 26 27 09 08 07 13 02
  24752701.714    -3744021.425 7  -2899700.69545  24752701.312    24752717.3834
  20966609.390   -22926461.901 9 -17855584.53247  20966609.888    20966616.0644
  23682552.774    -8109775.206 7  -5598594.78545  23682553.289    23682561.8554
  23814901.942    -8036077.473 7  -6246532.19245  23814902.147    23814909.9234
  22778348.839    -8463182.432 8  -5620219.18546  22778348.717    22778356.6434
  20888776.761   -21975612.834 9 -15082197.09347  20888776.581    20888783.6974
  23033214.123   -13507472.537 8 -10516351.96246  23033214.687    23033221.8294
  21921256.378   -16250233.555 8  -9589439.18147  21921256.180    21921263.4984
 00  5  4  1 56 30.0000000  0  8 26 27 09 08 07 13 10 02
  20961312.844   -22954295.613 9 -17877273.13547  20961313.345    20961319.5194
  23695801.032    -8040155.772 7  -5544345.94045  23695801.468    23695810.1794
  23799780.894    -8115538.031 7  -6308449.45445  23799781.164    23799788.8474
  22790668.326    -8398442.962 8  -5569772.88346  22790668.219    22790676.1674
  20885090.888   -21994982.031 9 -15097289.96347  20885090.713    20885097.7894
  23052155.849   -13407934.032 8 -10438789.58046  23052156.384    23052163.4634
  24767744.095                                    24767739.870    24767815.4174
  21930330.924   -16202546.758 8  -9552280.64547  21930330.708    21930338.0544
 00  5  4  1 57  0.0000000  0  8 26 27 09 08 07 13 10 02
  20956114.050   -22981615.269 9 -17898561.17447  20956114.554    20956120.7394
  23709089.515    -7970325.929 7  -5489933.15045  23709089.738    23709098.4094
  23784660.455    -8194995.480 7  -6370364.26545  23784660.693    23784668.4464
  22803023.521    -8333515.490 8  -5519180.09446  22803023.565    22803031.5024
  20881505.714   -22013822.280 9 -15111970.65847  20881505.535    20881512.5904
  23071142.201   -13308160.651 8 -10361044.18246  23071142.681    23071149.8684
  24782764.586                                    24782762.680    24782781.3124
  21939423.083   -16154767.424 8  -9515050.01647  21939422.854    21939430.1924
 00  5  4  1 57 30.0000000  0  8 26 27 09 08 07 13 10 02
  20951012.163   -23008426.049 9 -17919452.68347  20951012.686    20951018.7884
  23722416.817    -7900291.822 7  -5435361.16745  23722416.823    23722425.5034
  23769539.583    -8274455.156 7  -6432280.81645  23769539.861    23769547.6304
  22815413.422    -8268406.174 8  -5468445.60446  22815413.498    22815421.4604
  20878020.065   -22032139.250 9 -15126243.60447  20878019.878    20878026.9664
  23090171.384   -13208161.156 8 -10283122.59646  23090171.976    23090179.2664
  24797766.736                                    24797764.835    24797782.7864
  21948531.405   -16106902.955 8  -9477753.04447  21948531.158    21948538.5184
 00  5  4  1 58  0.0000000  0  8 26 27 09 08 07 13 10 02
  20946007.720   -23034724.908 9 -17939945.28447  20946008.200    20946014.2744
  23735783.279    -7830051.677 7  -5380628.65245  23735783.079    23735791.8474
  23754418.697    -8353914.692 7  -6494197.27845  23754418.969    23754426.7504
  22827838.365    -8203112.897 8  -5417567.76246  22827838.406    22827846.4244
  20874634.475   -22049930.636 9 -15140107.00347  20874634.291    20874641.3754
  23109243.544   -13107936.159 8 -10205025.30346  23109244.203    23109251.5104
  24812747.526                     -290524.19455  24812747.263    24812762.2494
  21957656.065   -16058952.628 8  -9440389.17047  21957655.821    21957663.1984
 00  5  4  1 58 30.0000000  0  8 26 27 09 08 07 13 10 02
  20941101.017   -23060509.492 9 -17960037.15947  20941101.517    20941107.6254
  23749188.975    -7759604.468 7  -5325734.79145  23749188.869    23749197.6294
  23739298.050    -8433372.331 7  -6556112.24145  23739298.327    23739306.3604
  22840298.489    -8137634.697 8  -5366545.83946  22840298.570    22840306.5344
  20871349.261   -22067194.612 9 -15153559.43548  20871349.056    20871356.1534
  23128358.480   -13007486.894 8 -10126753.25146  23128359.110    23128366.4424
  24827708.052     -280076.88317   -229263.48545  24827708.195    24827723.2354
  21966797.110   -16010916.191 8  -9402958.19647  21966796.863    21966804.2354
 00  5  4  1 59  0.0000000  0  8 26 27 09 08 07 13 10 02
  20936292.451   -23085778.511 9 -17979727.29347  20936292.936    20936299.0634
  23762634.124    -7688949.963 7  -5270679.39745  23762633.941    23762642.9274
  23724178.169    -8512827.264 7  -6618025.10145  23724178.443    23724186.5984
  22852793.924    -8071970.963 8  -5315379.33346  22852794.000    22852801.9984
  20868164.487   -22083930.635 9 -15166600.47348  20868164.271    20868171.3964
  23147515.760   -12906815.504 8 -10048308.13646  23147516.367    23147523.6444
  24842647.218     -201572.149 7   -168090.64045  24842647.073    24842661.7304
  21975954.322   -15962794.501 8  -9365460.79347  21975954.084    21975961.4514
 00  5  4  1 59 30.0000000  0  8 26 27 09 08 07 13 10 02
  20931582.185   -23110531.159 9 -17999015.05647  20931582.687    20931588.7724
  23776118.762    -7618088.588 7  -5215462.80445  23776118.525    23776127.4894
  23709059.078    -8592279.079 7  -6679935.54845  23709059.240    23709067.3884
  22865324.560    -8006122.008 8  -5264068.50845  22865324.655    22865332.7214
  20865080.172   -22100138.370 9 -15179229.85348  20865079.996    20865087.1604
  23166714.756   -12805924.762 8  -9969692.07346  23166715.347    23166722.7064
  24857564.159     -123183.407 7   -107008.16745  24857563.737    24857578.5344
  21985127.485   -15914589.125 8  -9327898.18247  21985127.273    21985134.6324
 00  5  4  2  0  0.0000000  0  8 26 27 09 08 07 13 10 02
  20926970.607   -23134765.372 9 -18017898.84347  20926971.099    20926977.1434
  23789642.819    -7547019.538 7  -5160084.39045  23789642.643    23789651.3914
  23693940.546    -8671726.135 8  -6741842.26445  23693940.736    23693948.9764
  22877890.547    -7940086.891 8  -5212612.61145  22877890.736    22877898.8344
  20862096.715   -22115816.486 9 -15191446.54948  20862096.551    20862103.7354
  23185955.102   -12704816.093 8  -9890906.20946  23185955.727    23185963.1734
  24872458.342      -44912.579 7    -46017.71045  24872457.866    24872472.8774
  21994316.679   -15866299.901 8  -9290270.24047  21994316.442    21994323.7804
 00  5  4  2  0 30.0000000  0  8 26 27 09 08 07 13 10 02
  20922457.907   -23158479.613 9 -18036377.46047  20922458.404    20922464.4794
  23803206.316    -7475742.511 7  -5104543.91845  23803206.082    23803215.1514
  23678823.403    -8751167.278 8  -6803744.38045  23678823.542    23678831.7874
  22890492.159    -7873864.980 8  -5161011.17845  22890492.382    22890500.4174
  20859214.200   -22130964.152 9 -15203249.90448  20859214.007    20859221.2084
  23205236.542   -12603491.683 8  -9811952.24546  23205237.198    23205244.7164
  24887329.952       33238.630 7     14879.64045  24887329.530    24887344.2704
  22003521.652   -15817927.555 8  -9252577.52547  22003521.419    22003528.7654
 00  5  4  2  1  0.0000000  0  8 26 27 09 08 07 13 10 02
  20918044.300   -23181673.019 9 -18054450.23647  20918044.779    20918050.9084
  23816809.576    -7404257.438 7  -5048841.33245  23816809.496    23816818.3414
  23663707.489    -8830601.964 7  -6865641.46445  23663707.656    23663715.6934
  22903129.270    -7807456.313 8  -5109264.21645  22903129.474    22903137.6184
  20856432.689   -22145580.942 9 -15214639.59248  20856432.512    20856439.7294
  23224558.615   -12501953.904 8  -9732832.01946  23224559.202    23224566.8444
  24902178.445      111267.612 7     75681.76845  24902177.942    24902192.3554
  22012742.307   -15769473.263 8  -9214820.95447  22012742.036    22012749.3494
 00  5  4  2  1 30.0000000  0  8 26 27 09 08 07 13 10 02
  20913729.851   -23204345.312 9 -18072116.95347  20913730.386    20913736.5454
  23830452.178    -7332565.233 7  -4992977.36145  23830452.091    23830460.8164
  23648592.829    -8910030.133 7  -6927533.48045  23648593.000    23648600.8964
  22915801.894    -7740861.618 8  -5057372.29845  22915802.061    22915810.1474
  20853752.179   -22159667.297 9 -15225615.95848  20853751.968    20853759.1594
  23243920.630   -12400206.117 8  -9653548.13946  23243921.218    23243928.9894
  24917002.743      189171.152 7    136386.26645  24917002.000    24917016.6104
  22021978.105   -15720938.610 8  -9177001.76347  22021977.852    22021985.2254
 00  5  4  2  2  0.0000000  0  8 26 27 09 08 07 13 10 02
  20909515.070   -23226494.553 9 -18089376.08847  20909515.564    20909521.7174
  23844134.229    -7260665.218 7  -4936951.44745  23844134.249    23844143.1124
  23633479.596    -8989450.329 7  -6989419.25445  23633479.753    23633487.7114
  22928510.149    -7674079.955 8  -5005334.69545  22928510.263    22928518.3514
  20851172.808   -22173222.150 9 -15236178.16648  20851172.584    20851179.7604
  23263322.336   -12298249.830 8  -9574101.78446  23263322.957    23263330.7234
  24931802.795      266947.223 7    196991.38645  24931801.943    24931816.8174
  22031229.205   -15672323.989 8  -9139120.26447  22031228.938    22031236.2614
 00  5  4  2  2 30.0000000  0  8 26 27 09 08 07 13 10 02
  20905399.918   -23248120.056 9 -18106227.11547  20905400.412    20905406.4974
  23857855.870    -7188557.497 7  -4880763.71745  23857855.929    23857864.8734
  23618368.063    -9068861.925 7  -7051298.36145  23618368.254    23618376.1424
  22941253.765    -7607111.611 8  -4953151.62745  22941253.931    22941261.9834
  20848694.563   -22186245.157 9 -15246325.94948  20848694.349    20848701.5254
  23282763.228   -12196087.727 8  -9494495.06746  23282763.858    23282771.6474
  24946577.888      344592.965 7    257494.93745  24946577.056    24946592.0904
  22040495.241   -15623630.345 8  -9101177.18647  22040495.013    22040502.3224
 00  5  4  2  3  0.0000000  0  8 26 27 09 08 07 13 10 02
  20901384.518   -23269220.914 9 -18122669.32947  20901384.992    20901391.0774
  23871616.834    -7116242.587 7  -4824414.53045  23871617.163    23871625.9414
  23603258.231    -9148264.544 7  -7113170.46345  23603258.345    23603266.2664
  22954033.076    -7539956.576 8  -4900823.07945  22954033.164    22954041.3434
  20846317.594   -22198736.288 9 -15256059.28448  20846317.395    20846324.5414
  23302242.801   -12093722.487 8  -9414730.07046  23302243.392    23302251.2074
  24961327.629      422105.954 7    317895.10045  24961326.893    24961341.8694
  22049776.145   -15574859.152 8  -9063173.68547  22049775.898    22049783.1944
 00  5  4  2  3 30.0000000  0  8 26 27 09 08 07 13 10 02
  20897469.129   -23289795.850 9 -18138701.73847  20897469.653    20897475.7714
  23885417.434    -7043720.160 7  -4767903.62345  23885417.650    23885426.3834
  23588150.293    -9227656.922 8  -7175034.57145  23588150.483    23588158.4784
  22966847.952    -7472614.344 8  -4848348.67945  22966848.062    22966856.2014
  20844041.957   -22210694.803 9 -15265377.59448  20844041.740    20844048.8674
  23321760.620   -11991156.125 8  -9334808.35946  23321761.131    23321769.0654
  24976051.921      499484.238 7    378190.49745  24976051.449    24976065.9654
  22059071.687   -15526010.815 8  -9025110.06547  22059071.463    22059078.7794
 00  5  4  2  4  0.0000000  0  8 26 27 09 08 07 13 10 02
  20893654.037   -23309844.420 9 -18154323.99047  20893654.534    20893660.6764
  23899257.722    -6970990.684 7  -4711231.39445  23899257.758    23899266.5454
  23573044.399    -9307038.802 8  -7236890.49845  23573044.541    23573052.5634
  22979698.269    -7405085.313 8  -4795728.73045  22979698.446    22979706.5634
  20841867.606   -22222120.896 9 -15274281.03148  20841867.396    20841874.5164
  23341316.114   -11888391.534 8  -9254732.17646  23341316.663    23341324.6524
  24990750.164      576724.402 7    438378.18445  24990749.704    24990764.0574
  22068381.557   -15477087.020 8  -8986987.64847  22068381.337    22068388.7114
 00  5  4  2  4 30.0000000  0  8 26 27 09 08 07 13 10 02
  20889939.281   -23329365.288 9 -18169535.04747  20889939.786    20889945.9704
  23913137.165    -6898054.092 7  -4654397.77445  23913137.130    23913146.0934
  23557940.701    -9386408.992 8  -7298737.32745  23557940.877    23557948.6944
  22992584.340    -7337369.163 8  -4742962.96945  22992584.525    22992592.5744
  20839794.705   -22233013.921 9 -15282769.08548  20839794.491    20839801.6434
  23360908.961   -11785430.713 8  -9174503.11546  23360909.509    23360917.5164
  25005421.501      653824.168 7    498456.41745  25005420.948    25005435.2514
  22077705.743   -15428088.169 8  -8948806.74847  22077705.523    22077712.9344
 00  5  4  2  5  0.0000000  0  8 26 27 09 08 07 13 10 02
  20886325.083   -23348357.872 9 -18184334.45547  20886325.588    20886331.8134
  23927055.690    -6824910.881 7  -4597403.14845  23927055.774    23927064.8344
  23542839.383    -9465767.273 8  -7360574.87145  23542839.532    23542847.2284
  23005506.152    -7269465.969 8  -4690051.46345  23005506.179    23005514.2404
  20837823.185   -22243374.006 9 -15290841.86447  20837822.995    20837830.1404
  23380538.717   -11682276.579 8  -9094123.40146  23380539.249    23380547.1334
  25020065.442      730781.566 7    558423.90245  25020064.911    25020079.2034
  22087043.944   -15379015.312 8  -8910568.18147  22087043.738    22087051.1914
 00  5  4  2  5 30.0000000  0  8 26 27 09 08 07 13 10 02
  20882811.603   -23366821.036 9 -18198721.32847  20882812.130    20882818.3644
  23941013.969    -6751560.795 7  -4540247.31545  23941013.941    23941022.8564
  23527740.503    -9545112.387 8  -7422402.17745  23527740.724    23527748.4464
  23018463.471    -7201375.643 8  -4636994.14545  23018463.349    23018471.4764
  20835953.206   -22253200.655 9 -15298498.98347  20835953.010    20835960.2014
  23400204.808   -11578931.317 8  -9013594.74746  23400205.344    23400213.2294
  25034681.721      807593.355 7    618277.89845  25034681.341    25034695.5454
  22096396.158   -15329869.213 8  -8872272.54847  22096395.963    22096403.4054
 00  5  4  2  6  0.0000000  0  8 26 27 09 08 07 13 10 02
  20879399.123   -23384753.865 9 -18212694.95547  20879399.652    20879405.8714
  23955011.266    -6678004.063 7  -4482930.46445  23955011.500    23955020.3614
  23512644.359    -9624443.482 8  -7484218.53645  23512644.475    23512652.2864
  23031456.432    -7133097.921 8  -4583790.79845  23031456.214    23031464.3044
  20834184.805   -22262493.598 9 -15305740.23148  20834184.634    20834191.8124
  23419906.708   -11475397.355 8  -8932919.07046  23419907.266    23419915.1534
  25049270.126      884257.481 7    678016.68545  25049269.803    25049283.9344
  22105762.157   -15280651.026 8  -8833920.73847  22105761.929    22105769.3524
 00  5  4  2  6 30.0000000  0  8 26 27 09 08 07 13 10 02
  20876087.754   -23402155.141 9 -18226254.38747  20876088.265    20876094.5404
  23969047.681    -6604240.548 7  -4425452.48445  23969048.253    23969057.1884
  23497550.886    -9703759.405 8  -7546023.07845  23497550.994    23497558.8194
  23044485.211    -7064632.440 8  -4530441.13345  23044484.826    23044492.9324
  20832518.116   -22271252.352 9 -15312565.22748  20832517.908    20832525.0854
  23439644.113   -11371676.810 8  -8852098.00946  23439644.741    23439652.6664
  25063829.834      960771.713 7    737638.89945  25063829.373    25063843.4124
  22115141.713   -15231361.300 8  -8795513.18247  22115141.476    22115148.8964
 00  5  4  2  7  0.0000000  0  8 26 27 09 08 07 13 10 02
  20872877.635   -23419024.409 9 -18239399.26747  20872878.157    20872884.4114
  23983123.919    -6530270.365 7  -4367813.45745  23983124.298    23983133.3334
  23482460.645    -9783059.559 8  -7607815.34945  23482460.760    23482468.4124
  23057549.472    -6995979.512 8  -4476945.41445  23057549.081    23057557.2504
  20830953.030   -22279477.021 9 -15318974.04748  20830952.821    20830960.0094
  23459416.636   -11267772.236 8  -8771133.53846  23459417.224    23459425.2134
  25078360.495     1037132.963 7    797141.72145  25078360.133    25078374.0634
  22124534.660   -15182000.959 8  -8757050.59747  22124534.433    22124541.9204
 00  5  4  2  7 30.0000000  0  8 26 27 09 08 07 13 10 02
  20869768.825   -23435361.407 9 -18252129.39047  20869769.359    20869775.5264
  23997239.431    -6456094.300 7  -4310014.01345  23997239.637    23997248.7614
  23467373.491    -9862343.818 8  -7669595.23745  23467373.565    23467381.0884
  23070649.312    -6927139.509 8  -4423303.91045  23070648.922    23070657.0954
  20829489.513   -22287168.033 9 -15324967.03848  20829489.315    20829496.4654
  23479223.554   -11163686.821 8  -8690028.18246  23479224.121    23479232.2264
  25092861.644     1113338.796 7    856523.44045  25092861.225    25092874.9964
  22133940.741   -15132571.501 8  -8718534.16447  22133940.512    22133948.0474
 00  5  4  2  8  0.0000000  0  8 26 27 09 08 07 13 10 02
  20866761.598   -23451164.784 9 -18264443.70147  20866762.101    20866768.2134
  24011393.881    -6381712.287 7  -4252054.08845  24011394.017    24011403.0604
  23452289.426    -9941610.737 8  -7731361.59946  23452289.487    23452297.1924
  23083784.808    -6858112.154 8  -4369516.43345  23083784.388    23083792.5994
  20828127.605   -22294324.882 9 -15330543.79648  20828127.378    20828134.5204
  23499064.464   -11059422.793 8  -8608783.61446  23499065.036    23499073.1714
  25107332.579     1189386.619 7    915781.97545  25107332.207    25107345.7024
  22143359.899   -15083073.458 8  -8679964.29347  22143359.671    22143367.2604
 00  5  4  2  8 30.0000000  0  8 26 27 09 08 07 13 10 02
  20863856.088   -23466433.281 9 -18276341.22647  20863856.603    20863862.6974
  24025587.752    -6307123.911 7  -4193933.38145  24025587.851    24025596.7884
  23437208.893   -10020859.077 8  -7793113.50746  23437209.127    23437216.7984
  23096955.981    -6788896.707 8  -4315582.37745  23096955.710    23096963.9024
  20826867.456   -22300946.861 9 -15335703.77548  20826867.270    20826874.3874
  23518938.946   -10954981.720 8  -8527401.11245  23518939.557    23518947.6904
  25121773.343     1265275.025 7    974916.01845  25121773.019    25121786.4114
  22152792.100   -15033507.001 8  -8641341.11147  22152791.871    22152799.4734
 00  5  4  2  9  0.0000000  0  8 26 27 09 08 07 13 10 02
  20861052.340   -23481167.051 9 -18287822.08547  20861052.844    20861058.9534
  24039820.440    -6232330.094 7  -4135652.59245  24039820.579    24039829.6514
  23422132.196   -10100088.583 8  -7854850.71246  23422132.315    23422139.9414
  23110162.851    -6719494.107 8  -4261502.48645  23110162.667    23110170.8244
  20825708.996   -22307034.747 9 -15340447.58148  20825708.772    20825715.8774
  23538846.534   -10850366.952 8  -8445883.26545  23538847.175    23538855.3104
  25136183.160     1341001.224 7   1033924.16045  25136182.724    25136195.6584
  22162236.901   -14983874.026 8  -8602666.08547  22162236.733    22162244.3674
 00  5  4  2  9 30.0000000  0  8 26 27 09 08 07 13 10 02
  20858350.565   -23495364.965 9 -18298885.39147  20858351.064    20858357.1674
  24054092.538    -6157330.746 7  -4077211.64045  24054092.658    24054101.8574
  23407059.068   -10179298.136 8  -7916572.40446  23407059.180    23407066.8194
  23123405.425    -6649903.899 8  -4207276.40045  23123405.299    23123413.3944
  20824652.220   -22312588.076 9 -15344774.84548  20824651.983    20824659.0714
  23558786.744   -10745580.890 8  -8364231.93945  23558787.361    23558795.5724
  25150561.556     1416562.396 7   1092803.56745  25150561.030    25150574.1934
  22171694.305   -14934175.158 8  -8563939.72747  22171694.106    22171701.7684
 00  5  4  2 10  0.0000000  0  8 26 27 09 08 07 13 10 02
  20855750.921   -23509026.144 9 -18309530.46147  20855751.434    20855757.5404
  24068403.593    -6082125.865 7  -4018610.54545  24068403.710    24068412.9174
  23391989.787   -10258486.909 8  -7978277.88146  23391989.873    23391997.7254
  23136683.738    -6580126.004 7  -4152904.05845  23136683.548    23136691.8454
  20823697.142   -22317606.784 9 -15348685.52348  20823696.955    20823704.0324
  23578759.143   -10640625.784 8  -8282448.89545  23578759.864    23578767.9194
  25164908.221     1491956.608 7   1151552.74144  25164907.638    25164920.4444
  22181164.077   -14884411.204 8  -8525162.65047  22181163.870    22181171.5714
 00  5  4  2 10 30.0000000  0  8 26 27 09 08 07 13 10 02
  20853253.434   -23522150.264 9 -18319757.04147  20853253.953    20853260.0714
  24082753.737    -6006715.899 7  -3959849.65545  24082753.926    24082763.0274
  23376924.652   -10337654.234 8  -8039966.67346  23376924.821    23376932.6304
  23149997.606    -6510160.586 7  -4098385.63445  23149997.560    23150005.8924
  20822843.783   -22322091.128 9 -15352179.81348  20822843.575    20822850.6904
  23598763.386   -10535504.073 8  -8200536.03545  23598764.085    23598772.0074
  25179222.670     1567181.299 7   1210169.94444  25179222.117    25179234.7744
  22190646.071   -14834583.027 8  -8486335.53047  22190645.875    22190653.5934
 00  5  4  2 11  0.0000000  0  8 26 27 09 08 07 13 10 02
  20850858.261   -23534736.657 9 -18329564.61747  20850858.781    20850864.9234
  24097142.924    -5931101.050 7  -3900929.11545  24097143.094    24097152.2284
  23361863.928   -10416799.161 8  -8101637.99746  23361863.988    23361871.8484
  23163347.239    -6440007.633 7  -4043721.07645  23163347.168    23163355.5814
  20822092.151   -22326041.005 9 -15355257.63048  20822091.946    20822099.0564
  23618798.747   -10430218.578 8  -8118495.56045  23618799.465    23618807.4274
  25193504.092     1642233.499 7   1268652.64844  25193503.891    25193516.8394
  22200140.162   -14784691.328 8  -8447458.90247  22200139.973    22200147.6554
 00  5  4  2 11 30.0000000  0  8 26 27 09 08 07 13 10 02
  20848565.628   -23546784.630 9 -18338952.64647  20848566.148    20848572.2874
  24111571.052    -5855281.703 7  -3841849.21945  24111571.077    24111580.2484
  23346807.360   -10495920.865 8  -8163291.21546  23346807.462    23346815.5844
  23176732.578    -6369667.264 7  -3988910.47845  23176732.592    23176741.0874
  20821442.127   -22329456.747 9 -15357919.24548  20821441.926    20821449.0294
  23638864.826   -10324771.776 8  -8036329.39045  23638865.494    23638873.5664
  25207752.310     1717111.086 7   1326999.24144  25207752.307    25207764.9264
  22209646.192   -14734736.995 8  -8408533.47947  22209646.012    22209653.6794
 00  5  4  2 12  0.0000000  0  8 26 27 09 08 07 13 10 02
  20846375.615   -23558293.303 9 -18347920.44447  20846376.134    20846382.2674
  24126037.790    -5779257.770 7  -3782609.89945  24126037.872    24126047.1414
  23331755.607   -10575018.027 8  -8224925.33446  23331755.712    23331763.7494
  23190153.720    -6299139.181 7  -3933953.58445  23190153.621    23190162.2364
  20820893.849   -22332338.023 9 -15360164.39448  20820893.645    20820900.7204
  23658961.138   -10219165.681 8  -7954039.10645  23658961.732    23658969.8794
  25221967.012     1791811.826 7   1385207.68344  25221967.008    25221979.6464
  22219163.952   -14684720.684 8  -8369559.76647  22219163.763    22219171.4934
 00  5  4  2 12 30.0000000  0  8 26 27 09 08 07 13 10 02
  20844288.363   -23569262.330 9 -18356467.72748  20844288.839    20844294.9394
  24140543.419    -5703029.808 7  -3723211.60945  24140543.600    24140552.9424
  23316708.759   -10654089.939 8  -8286539.76446  23316708.879    23316716.7494
  23203610.580    -6228423.747 7  -3878850.75045  23203610.423    23203618.9654
  20820447.238   -22334685.008 9 -15361993.20748  20820447.025    20820454.0964
  23679087.072   -10113403.249 8  -7871627.01845  23679087.698    23679096.0194
  25236147.777     1866333.104 7   1443276.17544  25236147.429    25236160.0184
  22228693.385   -14634643.578 8  -8330538.67647  22228693.166    22228700.8754
 00  5  4  2 13  0.0000000  0  8 26 27 09 08 07 13 10 02
  20842303.836   -23579691.152 9 -18364594.07848  20842304.313    20842310.4184
  24155087.845    -5626598.006 7  -3663654.48745  24155088.081    24155097.6944
  23301666.833   -10733135.489 8  -8348133.66746  23301666.892    23301674.7604
  23217103.224    -6157520.849 7  -3823601.82045  23217102.974    23217111.3374
  20820102.256   -22336497.865 9 -15363405.82148  20820102.073    20820109.1504
  23699242.497   -10007486.599 8  -7789094.73245  23699243.075    23699251.4364
  25250294.150     1940672.555 7   1501202.69344  25250293.807    25250306.4334
  22238234.134   -14584506.557 8  -8291470.91347  22238233.961    22238241.6724
 00  5  4  2 13 30.0000000  0  8 26 27 09 08 07 13 10 02
  20840422.152   -23589579.586 9 -18372299.34347  20840422.626    20840428.7084
  24169671.307    -5549963.069 7  -3603939.07045  24169671.354    24169680.7964
  23286629.838   -10812154.414 8  -8409706.80546  23286629.892    23286637.8054
  23230631.260    -6086430.830 7  -3768207.07945  23230631.128    23230639.4214
  20819858.828   -22337777.201 9 -15364402.70548  20819858.622    20819865.6764
  23719426.722    -9901418.821 8  -7706444.70245  23719427.222    23719435.5924
  25264405.329     2014828.117 7   1558985.91744  25264404.757    25264417.4674
  22247786.150   -14534310.634 8  -8252357.24347  22247785.968    22247793.6944
 00  5  4  2 14  0.0000000  0  8 26 27 09 08 07 13 10 02
  20838643.483   -23598926.334 9 -18379582.51647  20838643.977    20838650.0434
  24184293.408    -5473124.640 7  -3544065.08145  24184293.362    24184302.8894
  23271598.262   -10891145.054 8  -8471257.91246  23271598.388    23271606.3614
  23244194.937    -6015153.155 7  -3712666.10945  23244194.859    23244203.2654
  20819716.998   -22338522.398 9 -15364983.37748  20819716.800    20819723.9134
  23739639.433    -9795201.874 8  -7623678.43545  23739639.889    23739648.1634
  25278481.209     2088797.744 7   1616624.23044  25278480.560    25278493.0674
  22257349.336   -14484056.032 8  -8213197.84747  22257349.178    22257356.8574
 00  5  4  2 14 30.0000000  0  8 26 27 09 08 07 13 10 02
  20836967.936   -23607731.388 9 -18386443.59347  20836968.437    20836974.4414
  24198954.109    -5396083.111 7  -3484032.83645  24198954.062    24198963.6054
  23256572.277   -10970106.838 8  -8532786.53746  23256572.420    23256580.4124
  23257794.239    -5943688.109 7  -3656979.14145  23257794.294    23257802.7214
  20819676.708   -22338734.079 9 -15365148.32148  20819676.498    20819683.6354
  23759880.072    -9688838.446 8  -7540798.02945  23759880.487    23759888.5104
  25292521.645     2162580.505 7                  25292523.816    25292526.9474
  22266923.455   -14433743.843 8  -8173993.58147  22266923.290    22266930.9354
 00  5  4  2 15  0.0000000  0  7 26 27 09 08 07 13 02
  20835395.590   -23615994.180 9 -18392882.12747  20835396.076    20835402.0764
  24213653.169    -5318838.918 7  -3423842.68945  24213653.237    24213662.7084
  23241551.983   -11049039.005 8  -8594292.07746  23241552.108    23241560.0764
  23271429.269    -5872035.908 7  -3601146.35045  23271429.215    23271437.6804
  20819737.922   -22338412.411 9 -15364897.67048  20819737.715    20819744.8424
  23780147.890    -9582331.177 8  -7457805.55845  23780148.285    23780156.3144
  22276508.411   -14383374.805 8  -8134745.01047  22276508.254    22276515.8904
 00  5  4  2 15 30.0000000  0  7 26 27 09 08 07 13 02
  20833926.521   -23623713.960 9 -18398897.53847  20833927.032    20833933.0154
  24228390.722    -5241391.957 7  -3363494.53645  24228390.974    24228400.6124
  23226537.587   -11127940.028 8  -8655773.35046  23226537.712    23226545.5404
  23285099.852    -5800196.126 7  -3545167.39145  23285099.921    23285108.4244
  20819900.679   -22337557.368 9 -15364231.40448  20819900.453    20819907.5814
  23800442.673    -9475682.026 8  -7374702.53245  23800443.075    23800451.2134
  22286104.100   -14332949.364 8  -8095452.49747  22286103.961    22286111.5584
 00  5  4  2 16  0.0000000  0  7 26 27 09 08 07 13 02
  20832560.895   -23630890.437 9 -18404489.59547  20832561.408    20832567.3874
  24243167.144    -5163742.695 7  -3302988.77645  24243167.373    24243176.9364
  23211529.303   -11206809.128 8  -8717229.75946  23211529.432    23211537.1704
  23298806.061    -5728169.043 7  -3489042.48045  23298806.252    23298814.7424
  20820164.809   -22336169.315 9 -15363149.80748  20820164.610    20820171.7074
  23820763.851    -9368893.779 8  -7291491.11045  23820764.377    23820772.3764
  22295710.374   -14282468.549 8  -8056116.83847  22295710.201    22295717.7394
 00  5  4  2 16 30.0000000  0  7 26 27 09 08 07 13 02
  20831298.643   -23637523.696 9 -18409658.35947  20831299.132    20831305.1104
  24257982.213    -5085891.985 7  -3242326.02545  24257982.068    24257991.6094
  23196527.180   -11285645.546 8  -8778660.68446  23196527.279    23196535.0044
  23312548.071    -5655955.185 7  -3432772.04445  23312548.068    23312556.7564
  20820530.262   -22334248.890 9 -15361653.37648  20820530.057    20820537.1414
  23841110.989    -9261969.552 8  -7208173.77145  23841111.512    23841119.8434
  22305326.949   -14231933.596 8  -8016738.98447  22305326.743    22305334.2294
 00  5  4  2 17  0.0000000  0  7 26 27 09 08 07 13 02
  20830139.888   -23643612.894 9 -18414403.18347  20830140.374    20830146.3464
  24272835.008    -5007839.755 7  -3181506.23545  24272834.896    24272844.5934
  23181531.502   -11364448.062 8  -8840065.19546  23181531.590    23181539.2954
  23326325.571    -5583554.168 7  -3376355.76245  23326325.731    23326334.3044
  20820997.028   -22331796.019 9 -15359742.05248  20820996.814    20821003.8984
  23861483.568    -9154911.344 8  -7124751.97345  23861484.079    23861492.4124
  22314953.733   -14181344.703 8  -7977319.09947  22314953.539    22314960.9634
 00  5  4  2 17 30.0000000  0  7 26 27 09 08 07 13 02
  20829084.703   -23649157.445 9 -18418723.61047  20829085.224    20829091.2554
  24287726.207    -4929585.981 7  -3120529.41045  24287726.038    24287735.7694
  23166542.647   -11443215.452 8  -8901442.35546  23166542.736    23166550.2124
  23340138.514    -5510965.924 7  -3319793.59545  23340138.777    23340147.4454
  20821565.077   -22328810.837 9 -15357415.93848  20821564.881    20821571.9654
  23881881.145    -9047721.361 8  -7041227.54145  23881881.717    23881890.1954
  22324590.706   -14130702.437 8  -7937857.64047  22324590.498    22324597.8984
 00  5  4  2 18  0.0000000  0  7 26 27 09 08 07 13 02
  20828133.275   -23654157.290 9 -18422619.59247  20828133.793    20828139.8584
  24302655.393    -4851131.562 7  -3059396.23145  24302655.322    24302665.1274
  23151560.463   -11521946.919 8  -8962791.50846  23151560.608    23151567.9924
  23353987.528    -5438190.661 7  -3263085.68645  23353987.551    23353996.2554
  20822234.336   -22325293.969 9 -15354675.52648  20822234.127    20822241.2074
  23902303.294    -8940402.240 8  -6957602.47345  23902303.809    23902312.4364
  22334237.656   -14080007.985 8  -7898355.49447  22334237.399    22334244.7374
 00  5  4  2 18 30.0000000  0  7 26 27 09 08 07 13 02
  20827285.563   -23658612.077 9 -18426090.85347  20827286.090    20827292.1364
  24317622.895    -4772476.672 7  -2998106.85045  24317623.009    24317633.0434
  23136585.275   -11600641.596 8  -9024111.97946  23136585.465    23136592.8734
  23367871.923    -5365228.772 7  -3206232.36045  23367871.709    23367880.5824
  20823004.646   -22321245.663 9 -15351521.00548  20823004.464    20823011.5544
  23922749.734    -8832956.556 8  -6873878.78245  23922750.245    23922758.9264
  22343894.283   -14029261.828 8  -7858813.06546  22343894.064    22343901.4004
 00  5  4  2 19  0.0000000  0  7 26 27 09 08 07 13 02
  20826541.533   -23662522.047 9 -18429137.58047  20826542.025    20826548.1104
  24332628.832    -4693622.141 7  -2936661.87445  24332628.632    24332638.3184
  23121617.285   -11679298.866 8  -9085403.31046  23121617.447    23121624.9884
  23381792.061    -5292080.656 7  -3149233.92445  23381791.562    23381800.2584
  20823875.931   -22316667.124 9 -15347953.31548  20823875.731    20823882.8004
  23943219.679    -8725387.495 8  -6790058.97145  23943220.144    23943228.9124
  22353560.527   -13978465.548 8  -7819231.58046  22353560.292    22353567.6184
 00  5  4  2 19 30.0000000  0  7 26 27 09 08 07 13 02
  20825901.207   -23665886.594 9 -18431759.30447  20825901.728    20825907.8604
  24347672.366    -4614567.904 7  -2875061.34545  24347672.336    24347682.1384
  23106656.592   -11757917.297 8  -9146664.37846  23106656.844    23106664.4054
  23395747.346    -5218746.158 7  -3092090.27445  23395746.701    23395755.3554
  20824848.174   -22311558.208 9 -15343972.34948  20824847.968    20824854.9974
  23963712.610    -8617697.105 8  -6706144.61445  23963713.066    23963721.9474
  22363236.260   -13927619.274 8  -7779611.14846  22363236.014    22363243.3934
 00  5  4  2 20  0.0000000  0  7 26 27 09 08 07 13 02
  20825364.846   -23668705.160 9 -18433955.59347  20825365.350    20825371.4694
  24362753.854    -4535314.190 7  -2813305.33745  24362754.006    24362763.7774
  23091703.679   -11836495.870 8  -9207894.39546  23091703.916    23091711.2494
  23409737.961    -5145224.988 7  -3034801.15145  23409737.406    23409746.0424
  20825921.248   -22305918.952 9 -15339578.12548  20825921.055    20825928.1114
  23984228.059    -8509887.863 8  -6622137.66845  23984228.633    23984237.7034
  22372921.492   -13876723.165 8  -7739951.87346  22372921.239    22372928.6184
 00  5  4  2 20 30.0000000  0  7 26 27 09 08 07 13 02
  20824932.577   -23670977.014 9 -18435725.86648  20824933.069    20824939.1874
  24377873.420    -4455860.900 7  -2751393.81445  24377873.500    24377883.3854
  23076758.650   -11915032.688 8  -9269091.85646  23076758.833    23076766.0984
  23423764.008    -5071516.779 7  -2977366.31145  23423763.656    23423772.2944
  20827095.269   -22299749.391 9 -15334770.67948  20827095.062    20827102.1284
  24004765.872    -8401961.596 8  -6538039.52145  24004766.436    24004775.6534
  22382616.019   -13825777.679 8  -7700254.12746  22382615.817    22382623.1994
 00  5  4  2 21  0.0000000  0  7 26 27 09 08 07 13 02
  20824604.291   -23672702.479 9 -18437070.38548  20824604.786    20824610.8794
  24393031.019    -4376208.996 7  -2689327.57245  24393030.996    24393040.8784
  23061821.598   -11993527.317 8  -9330256.45946  23061821.783    23061828.9414
  23437825.700    -4997622.296 7  -2919786.29645  23437825.470    23437834.1374
  20828369.998   -22293050.573 9 -15329550.82548  20828369.810    20828376.8944
  24025325.430    -8293921.429 8  -6453852.61745  24025325.992    24025335.3504
  22392319.802   -13774784.099 8  -7660518.91346  22392319.570    22392327.0164
 00  5  4  2 21 30.0000000  0  7 26 27 09 08 07 13 02
  20824379.936   -23673881.565 9 -18437989.15148  20824380.421    20824386.4924
  24408225.990    -4296358.988 7  -2627106.90545  24408226.047    24408235.8844
  23046892.830   -12071978.766 8  -9391387.40846  23046892.998    23046900.0484
  23451922.687    -4923541.669 7  -2862061.23545  23451922.761    23451931.3354
  20829745.348   -22285823.069 9 -15323919.00848  20829745.177    20829752.2694
  24045906.293    -8185769.876 8  -6369578.92145  24045906.884    24045916.1304
  22402032.592   -13723743.059 8  -7620746.71346  22402032.366    22402039.8504
 00  5  4  2 22  0.0000000  0  7 26 27 09 08 07 13 02
  20824259.636   -23674513.712 9 -18438481.73647  20824260.135    20824266.1774
  24423458.864    -4216311.038 7  -2564732.03045  24423458.950    24423468.5224
  23031972.488   -12150385.705 8  -9452483.67646  23031972.607    23031979.6464
  23466055.026    -4849274.961 7  -2804191.17445  23466055.198    23466063.8374
  20831221.256   -22278067.322 9 -15317875.57548  20831221.046    20831228.1334
  24066507.832    -8077509.282 8  -6285220.27445  24066508.433    24066517.6364
  22411754.246   -13672655.188 8  -7580938.01646  22411754.065    22411761.5844
 00  5  4  2 22 30.0000000  0  7 26 27 09 08 07 13 02
  20824243.333   -23674599.233 9 -18438548.38047  20824243.856    20824249.9074
  24438729.280    -4136065.777 7  -2502203.46245  24438729.240    24438739.1964
  23017060.749   -12228747.510 8  -9513544.76646  23017060.790    23017067.7944
  23480222.979    -4774822.695 7  -2746176.53645  23480223.179    23480231.7734
  20832797.490   -22269784.009 9 -15311421.05448  20832797.305    20832804.3874
  24087129.347    -7969142.530 8  -6200778.91245  24087130.047    24087139.3474
  22421484.703   -13621521.395 8  -7541093.54146  22421484.529    22421492.0854
 00  5  4  2 23  0.0000000  0  7 26 27 09 08 07 13 02
  20824331.208   -23674137.353 9 -18438188.48447  20824331.735    20824337.7974
  24454036.980    -4055623.050 7  -2439520.93045  24454036.912    24454046.7914
  23002157.776   -12307062.477 8  -9574569.38646  23002157.927    23002164.8664
  23494426.162    -4700184.095 7  -2688016.68845  23494426.277    23494435.2834
  20834474.111   -22260973.190 9 -15304555.49448  20834473.924    20834481.0014
  24107770.768    -7860671.539 7  -6116256.29245  24107771.567    24107780.7554
  22431223.840   -13570341.815 8  -7501213.38846  22431223.697    22431231.2734
 00  5  4  2 23 30.0000000  0  7 26 27 09 08 07 13 02
  20824523.202   -23673128.352 9 -18437402.25948  20824523.732    20824529.8064
  24469382.320    -3974983.688 7  -2376685.26945  24469382.339    24469392.1844
  22987263.978   -12385329.946 8  -9635556.96246  22987264.148    22987271.1214
  23508664.835    -4625359.971 7  -2629712.28245  23508664.870    23508674.2074
  20836251.001   -22251635.773 9 -15297279.59848  20836250.824    20836257.8474
  24128431.428    -7752099.178 7  -6031654.71245  24128432.264    24128441.5044
  22440971.622   -13519117.465 8  -7461298.35546  22440971.419    22440979.0784
 00  5  4  2 24  0.0000000  0  7 26 27 09 08 07 13 02
  20824819.346   -23671572.506 9 -18436189.91648  20824819.857    20824825.8604
  24484764.546    -3894148.504 7  -2313696.94645  24484764.571    24484774.7234
  22972379.516   -12463548.764 8  -9696506.63646  22972379.613    22972386.6184
  23522938.892    -4550350.484 7  -2571263.46045  23522939.058    23522948.0994
  20838127.943   -22241772.604 9 -15289594.02848  20838127.744    20838134.7104
  24149110.989    -7643428.154 8  -5946976.29145  24149111.867    24149121.1974
  22450727.674   -13467849.280 8  -7421349.16446  22450727.484    22450735.1624
 00  5  4  2 24 30.0000000  0  7 26 27 09 08 07 13 02
  20825219.507   -23669469.837 9 -18434551.47448  20825219.990    20825225.9704
  24500184.204    -3813118.012 7  -2250556.51545  24500184.455    24500194.4534
  22957504.339   -12541718.228 8  -9757417.86446  22957504.510    22957511.4454
  23537247.859    -4475156.367 7  -2512670.73144  23537247.892    23537256.9304
  20840104.683   -22231384.558 9 -15281499.45848  20840104.496    20840111.4974
  24169808.944    -7534661.104 7  -5862223.01745  24169809.779    24169819.1744
  22460492.024   -13416538.129 8  -7381366.49346  22460491.765    22460499.4144
 00  5  4  2 25  0.0000000  0  7 26 27 09 08 07 13 02
  20825723.744   -23666819.924 9 -18432486.61047  20825724.251    20825730.2054
  24515641.378    -3731892.334 7  -2187263.94545  24515641.434    24515651.1454
  22942638.850   -12619836.556 8  -9818289.25246  22942639.022    22942645.8504
  23551592.348    -4399777.164 7  -2453933.81644  23551592.341    23551601.1984
  20842181.296   -22220471.777 9 -15272996.00148  20842181.128    20842188.1504
  24190524.796    -7425800.121 8  -5777396.57545  24190525.537    24190535.0354
  22470264.412   -13365184.056 8  -7341350.37246  22470264.190    22470271.8314
 00  5  4  2 25 30.0000000  0  7 26 27 09 08 07 13 02
  20826332.129   -23663622.830 9 -18429995.37347  20826332.650    20826338.5764
  24531135.415    -3650471.848 7  -2123819.55445  24531135.288    24531145.3134
  22927783.270   -12697902.843 8  -9879120.07746  22927783.416    22927790.2004
  23565971.836    -4324212.876 7  -2395052.67244  23565971.777    23565980.6264
  20844357.701   -22209034.966 9 -15264084.21348  20844357.502    20844364.5444
  24211257.962    -7316847.887 8  -5692499.04045  24211258.684    24211268.3404
  22480044.887   -13313787.669 8  -7301301.29346  22480044.639    22480052.3074
 00  5  4  2 26  0.0000000  0  8 05 26 27 09 08 07 13 02
  24575269.351                    -1111989.75544  24575269.965    24575282.1324
  20827044.721   -23659878.484 9 -18427077.70547  20827045.207    20827051.1274
  24546666.067    -3568857.126 7  -2060223.80645  24546666.117    24546676.3164
  22912937.798   -12775915.880 8  -9939909.41446  22912937.903    22912944.7554
  23580386.347    -4248463.822 7  -2336027.55544  23580386.338    23580395.2374
  20846633.631   -22197074.749 9 -15254764.56948  20846633.436    20846640.5074
  24232007.983    -7207806.952 7  -5607532.37245  24232008.679    24232018.4204
  22489833.240   -13262349.561 8  -7261219.70046  22489832.983    22489840.6954
 00  5  4  2 26 30.0000000  0  9 05 26 27 09 08 07 13 04 02
  24561063.054    -1534657.13417  -1170155.45445  24561063.699    24561080.1434
  20827861.295   -23655587.258 9 -18423733.91147  20827861.781    20827867.7564
  24562233.643    -3487048.969 7  -1996477.34445  24562234.079    24562244.0514
  22898102.552   -12853874.870 8 -10000656.62546  22898102.724    22898109.6954
  23594836.187    -4172530.448 7  -2276858.80944  23594836.275    23594844.6714
  20849008.954   -22184592.255 9 -15245037.96248  20849008.782    20849015.8954
  24252774.325    -7098679.973 8  -5522498.68645  24252774.983    24252784.9554
  24603015.481                                    24603016.236    24603039.1634
  22499629.347   -13210870.777 8  -7221106.40646  22499629.111    22499636.8354
 00  5  4  2 27  0.0000000  0  8 05 26 27 09 08 07 13 02
  24546884.091    -1609171.711 7  -1228218.06645  24546883.636    24546899.3594
  20828781.146   -23650753.084 9 -18419967.03847  20828781.635    20828787.6804
  24577837.361    -3405051.669 7  -1932583.47145  24577837.477    24577847.9014
  22883277.193   -12931782.446 8 -10061363.79446  22883277.427    22883284.3744
  23609320.119    -4096417.067 7  -2217549.82244  23609320.128    23609328.8714
  20851482.854   -22171591.984 9 -15234907.89748  20851482.669    20851489.7624
  24273555.726    -6989473.323 7  -5437402.89245  24273556.397    24273566.5764
  22509432.431   -13159355.641 8  -7180964.79746  22509432.154    22509439.8314
 00  5  4  2 27 30.0000000  0  8 05 26 27 09 08 07 13 02
  24532730.013    -1683552.330 7  -1286176.22145  24532729.725    24532744.6744
  20829804.744   -23645374.194 9 -18415775.70748  20829805.216    20829811.2714
  24593477.748    -3322863.959 7  -1868541.22545  24593477.529    24593487.9024
  22868462.212   -13009635.614 8 -10122028.56246  22868462.413    22868469.2994
  23623838.530    -4020121.803 7  -2158099.09844  23623838.497    23623847.6764
  20854055.481   -22158072.766 9 -15224373.45648  20854055.298    20854062.3874
  24294352.345    -6880187.553 7  -5352245.46345  24294352.989    24294363.2604
  22519242.572   -13107802.981 8  -7140793.94846  22519242.283    22519249.9634
 00  5  4  2 28  0.0000000  0  8 05 26 27 09 08 07 13 02
  24518601.515    -1757797.080 8  -1344028.61445  24518600.976    24518616.0764
  20830932.324   -23639448.681 9 -18411158.43348  20830932.815    20830938.8684
  24609154.049    -3240484.251 7  -1804349.39445  24609153.898    24609164.2454
  22853658.202   -13087430.994 8 -10182648.30946  22853658.392    22853665.2414
  23638392.111    -3943642.839 7  -2098505.24144  23638391.942    23638401.2534
  20856727.109   -22144033.348 9 -15213433.66448  20856726.928    20856734.0114
  24315163.969    -6770823.353 8  -5267026.93645  24315164.631    24315174.8924
  22529060.084   -13056211.425 8  -7100592.78946  22529059.856    22529067.5714
 00  5  4  2 28 30.0000000  0  8 05 26 27 09 08 07 13 02
  24504499.207    -1831903.876 8  -1401773.52945  24504498.759    24504513.7614
  20832164.351   -23632974.429 9 -18406113.57147  20832164.832    20832170.9044
  24624867.535    -3157910.558 7  -1740006.38845  24624867.318    24624877.5004
  22838865.871   -13165165.145 8 -10243220.35546  22838866.082    22838872.9374
  23652981.064    -3866978.128 7  -2038766.65745  23652980.942    23652990.4904
  20859498.004   -22129472.375 9 -15202087.46348  20859497.830    20859504.8954
  24335990.562    -6661381.028 8  -5181747.53445  24335991.173    24336001.4584
  22538885.461   -13004579.118 8  -7060359.87146  22538885.195    22538892.9174
 00  5  4  2 29  0.0000000  0  8 05 26 27 09 08 07 13 02
  24490423.106    -1905872.525 7  -1459411.00145  24490422.793    24490437.7144
  20833500.730   -23625951.505 9 -18400641.18147  20833501.217    20833507.3384
  24640617.372    -3075143.570 7  -1675512.90545  24640617.505    24640627.8594
  22824085.325   -13242837.081 8 -10303743.89046  22824085.485    22824092.5064
  23667605.520    -3790127.996 7  -1978883.57645  23667605.267    23667615.0504
  20862367.949   -22114390.589 9 -15190335.43248  20862367.783    20862374.8904
  24356831.625    -6551862.950 8  -5096409.09345  24356832.096    24356842.3294
  22548718.380   -12952906.598 8  -7020095.62946  22548718.157    22548725.9714
 00  5  4  2 29 30.0000000  0  9 05 26 27 09 08 07 13 04 02
  24476373.254    -1979703.274 7  -1516940.97845  24476373.000    24476387.6934
  20834941.423   -23618380.664 9 -18394741.83447  20834941.940    20834948.0254
  24656403.802    -2992184.351 7  -1610869.49845  24656404.046    24656414.2994
  22809316.853   -13320446.177 8 -10364218.49146  22809316.968    22809323.9444
  23682265.086    -3713093.076 7  -1918856.53545  23682264.699    23682273.8984
  20865336.778   -22098789.356 9 -15178178.63848  20865336.608    20865343.7384
  24377686.254    -6442272.200 8  -5011014.06745  24377686.768    24377697.1384
  24515116.930                                    24515119.456    24515103.1224
  22558558.817   -12901194.955 8  -6979800.90246  22558558.605    22558566.4284
 00  5  4  2 30  0.0000000  0  9 05 26 27 09 08 07 13 04 02
  24462349.517    -2053396.609 7  -1574363.91245  24462349.289    24462363.9164
  20836486.280   -23610262.745 9 -18388416.19347  20836486.800    20836492.8394
  24672227.372    -2909034.099 7  -1546077.26244  24672227.423    24672237.0294
  22794560.511   -13397991.269 8 -10424643.21646  22794560.654    22794567.6344
  23696959.237    -3635874.274 7  -1858686.20045  23696958.916    23696968.4254
  20868404.207   -22082670.031 9 -15165618.13648  20868404.015    20868411.1334
  24398553.982    -6332611.830 7  -4925564.82645  24398554.662    24398565.2384
  24500404.055                                    24500408.850    24500425.6484
  22568406.539   -12849445.392 8  -6939476.62446  22568406.297    22568414.0814
 00  5  4  2 30 30.0000000  0  9 05 26 27 09 08 07 13 04 02
  24448351.956    -2126952.734 7  -1631679.86345  24448351.729    24448366.1524
  20838135.127   -23601598.025 9 -18381664.47047  20838135.629    20838141.6494
  24688086.482    -2825693.464 7  -1481136.70045  24688086.502    24688096.5404
  22779816.517   -13475471.653 8 -10485017.52246  22779816.631    22779823.6574
  23711688.469    -3558471.780 7  -1798372.72945  23711688.349    23711697.8264
  20871570.013   -22066033.608 9 -15152654.69947  20871569.813    20871576.9634
  24419434.627    -6222884.264 8  -4840063.23445  24419435.326    24419446.0504
  24485677.397                                    24485682.085    24485689.4984
  22578261.233   -12797658.589 8  -6899123.33246  22578261.035    22578268.8484
 00  5  4  2 31  0.0000000  0  9 05 26 27 09 08 07 13 04 02
  24434380.307    -2200372.519 8  -1688889.68245  24434380.051    24434394.4654
  20839887.845   -23592387.532 9 -18374487.47747  20839888.346    20839894.3854
  24703982.122    -2742163.689 7  -1416048.73845  24703982.127    24703991.7234
  22765084.940   -13552886.787 8 -10545340.97046  22765084.990    22765092.0904
  23726452.534    -3480886.975 7  -1737917.18945  23726452.270    23726461.4604
  20874833.891   -22048881.835 9 -15139289.69348  20874833.693    20874840.8394
  24440327.493    -6113092.934 7  -4754511.91845  24440328.332    24440338.9034
  24470934.509                    -1243310.55454  24470934.874    24470944.7934
  22588122.862   -12745835.783 8  -6858741.98846  22588122.658    22588130.4574
 00  5  4  2 31 30.0000000  0  9 05 26 27 09 08 07 13 04 02
  24420434.634    -2273655.612 8  -1745992.94145  24420434.376    24420448.6584
  20841744.343   -23582631.421 9 -18366885.32847  20841744.840    20841750.9044
  24719913.367    -2658445.096 7  -1350813.67145  24719913.311    24719923.1584
  22750365.876   -13630235.091 8 -10605612.35746  22750366.029    22750373.3044
  23741251.133    -3403119.632 7  -1677319.42145  23741251.154    23741260.3914
  20878195.722   -22031215.411 9 -15125523.66248  20878195.516    20878202.6654
  24461232.093    -6003240.223 7  -4668912.78345  24461232.890    24461243.4284
  24456174.731    -1692021.87817  -1303740.76244  24456174.023    24456188.4984
  22597991.290   -12693977.402 8  -6818332.91246  22597991.026    22597998.8234
 00  5  4  2 32  0.0000000  0  9 05 26 27 09 08 07 13 04 02
  24406515.026    -2346801.933 8  -1802989.55945  24406514.752    24406528.9184
  20843704.674   -23572329.815 9 -18358858.12447  20843705.193    20843711.2794
  24735880.400    -2574538.410 7  -1285431.94545  24735880.386    24735890.4684
  22735659.921   -13707515.401 8 -10665830.76446  22735660.090    22735667.3154
  23756084.439    -3325169.912 7  -1616579.54945  23756084.605    23756093.7624
  20881655.355   -22013035.152 9 -15111357.24248  20881655.151    20881662.2924
  24482147.885    -5893328.422 8  -4583267.62945  24482148.691    24482159.2904
  24441402.618    -1769651.698 7  -1364231.02945  24441403.788    24441415.7594
  22607866.265   -12642083.651 8  -6777896.27946  22607866.120    22607873.9214
 00  5  4  2 32 30.0000000  0  9 05 26 27 09 08 07 13 04 02
  24392621.392    -2419811.796 8  -1859879.93745  24392621.141    24392635.1534
  20845768.741   -23561483.297 9 -18350406.31047  20845769.244    20845775.3414
  24751882.988    -2490444.345 7  -1219904.41445  24751883.247    24751893.4374
  22720967.179   -13784726.816 8 -10725995.48346  22720967.362    22720974.3654
  23770952.594    -3247038.440 7  -1555698.06045  23770952.431    23770961.8654
  20885212.490   -21994342.306 9 -15096791.40848  20885212.298    20885219.3944
  24503074.334    -5783360.486 8  -4497578.74745  24503075.153    24503086.0194
  24426616.146    -1847356.166 7  -1424779.48445  24426616.255    24426629.2564
  22617747.989   -12590155.479 8  -6737432.83646  22617747.769    22617755.5444
 00  5  4  2 33  0.0000000  0  9 05 26 27 09 08 07 13 04 02
  24378753.631    -2492685.425 7  -1916664.00645  24378753.391    24378767.2844
  20847936.309   -23550092.769 9 -18341530.58747  20847936.794    20847942.9314
  24767920.761    -2406163.901 7  -1154231.46645  24767921.225    24767931.4194
  22706287.620   -13861868.276 8 -10786105.69446  22706287.774    22706294.7154
  23785855.078    -3168726.086 7  -1494675.59545  23785854.935    23785864.4184
  20888866.965   -21975138.135 9 -15081827.13548  20888866.739    20888873.8434
  24524011.097    -5673339.000 7  -4411848.08945  24524011.879    24524022.6774
  24411815.728    -1925132.836 7  -1485384.24845  24411815.981    24411828.1474
  22627636.110   -12538193.707 8  -6696943.19346  22627635.883    22627643.5224
 00  5  4  2 33 30.0000000  0  9 05 26 27 09 08 07 13 04 02
  24364911.915    -2565422.379 7  -1973341.60745  24364911.643    24364925.4054
  20850207.443   -23538157.824 9 -18332230.65047  20850207.941    20850214.0904
  24783994.891    -2321697.115 7  -1088413.41745  24783994.977    24784005.2574
  22691621.700   -13938937.818 8 -10846159.87046  22691621.906    22691628.7874
  23800791.905    -3090232.377 7  -1433511.81945  23800792.124    23800801.3624
  20892618.575   -21955423.192 9 -15066464.86147  20892618.371    20892625.4844
  24544957.662    -5563265.978 8  -4326077.28545  24544958.248    24544969.1714
  24397002.158    -2002978.353 7  -1546042.63345  24397002.497    24397014.3984
  22637530.547   -12486198.291 8  -6656427.34946  22637530.294    22637537.9304
 00  5  4  2 34  0.0000000  0  9 05 26 27 09 08 07 13 04 02
  24351096.039    -2638023.140 7  -2029913.07745  24351095.808    24351109.4394
  20852581.996   -23525679.210 9 -18322507.07147  20852582.527    20852588.6674
  24800103.695    -2237044.862 7  -1022450.73245  24800103.745    24800113.9114
  22676969.773   -14015934.804 8 -10906157.50246  22676969.910    22676976.6764
  23815763.449    -3011557.808 7  -1372207.11645  23815763.570    23815772.8334
  20896467.121   -21935198.707 9 -15050705.54247  20896466.947    20896474.0404
  24565913.557    -5453144.249 8  -4240268.54345  24565914.110    24565925.0654
  24382175.769    -2080890.203 7  -1606752.74144  24382175.921    24382187.4734
  22647431.132   -12434169.992 8  -6615885.87646  22647430.970    22647438.6234
 00  5  4  2 34 30.0000000  0  9 05 26 27 09 08 07 13 04 02
  24337306.239    -2710487.502 7  -2086378.29845  24337306.004    24337319.4074
  20855060.043   -23512657.370 9 -18312360.19447  20855060.542    20855066.6334
  24816247.667    -2152207.811 7   -956344.15245  24816247.998    24816258.0214
  22662331.854   -14092857.520 8 -10966097.26646  22662332.024    22662338.7274
  23830769.117    -2932702.718 7  -1310761.73545  23830769.182    23830778.5494
  20900412.552   -21914465.720 9 -15034549.99147  20900412.365    20900419.4564
  24586878.240    -5342976.345 8  -4154423.81345  24586878.747    24586889.6924
  24367337.231    -2158865.558 7  -1667512.39045  24367337.634    24367349.2394
  22657338.081   -12382109.216 8  -6575319.11246  22657337.901    22657345.5374
 00  5  4  2 35  0.0000000  0  9 05 26 27 09 08 07 13 04 02
  24323542.357    -2782815.102 7  -2142736.89645  24323542.113    24323555.3254
  20857641.385   -23499092.490 9 -18301790.16847  20857641.875    20857647.9244
  24832426.892    -2067186.342 7   -890093.77745  24832427.279    24832437.2304
  22647708.232   -14169704.512 8 -11025978.01846  22647708.437    22647715.1394
  23845809.154    -2853667.229 7  -1249175.79445  23845809.189    23845818.7094
  20904454.512   -21893224.975 9 -15017998.78248  20904454.357    20904461.4664
  24607851.152    -5232764.573 7  -4068544.87445  24607851.778    24607862.5014
  24352487.317    -2236901.269 7  -1728319.10545  24352487.603    24352499.4444
  22667251.079   -12330016.154 8  -6534727.17846  22667250.899    22667258.6344
 00  5  4  2 35 30.0000000  0  8 05 26 09 08 07 13 04 02
  24309804.465    -2855006.298 7  -2198989.18745  24309804.234    24309817.1484
  20860325.897   -23484985.157 9 -18290797.45647  20860326.387    20860332.4524
  22633099.360   -14246474.735 8 -11085798.96146  22633099.541    22633106.2154
  23860883.548    -2774451.806 7  -1187449.63745  23860883.523    23860892.9874
  20908592.901   -21871477.727 9 -15001052.89648  20908592.722    20908599.8934
  24628831.880    -5122511.395 7  -3982633.68145  24628832.484    24628843.2794
  24337626.370    -2314994.716 7  -1789170.81145  24337626.712    24337638.5724
  22677170.103   -12277891.591 8  -6494110.70046  22677169.912    22677177.6944
 00  5  4  2 36  0.0000000  0  8 05 26 09 08 07 13 04 02
  24296092.391    -2927061.268 7  -2255135.31745  24296092.087    24296104.9594
  20863113.533   -23470335.787 9 -18279382.38347  20863114.057    20863120.1664
  22618505.335   -14323166.875 8 -11145559.04246  22618505.465    22618512.1594
  23875992.314    -2695056.619 7  -1125583.39045  23875991.995    23876001.6174
  20912827.475   -21849224.983 9 -14983713.11348  20912827.291    20912834.5024
  24649819.933    -5012219.439 7  -3896692.27145  24649820.574    24649831.1674
  24322755.139    -2393142.879 7  -1850065.27045  24322755.677    24322767.0824
  22687095.043   -12225735.898 8  -6453469.96946  22687094.851    22687102.7174
 00  5  4  2 36 30.0000000  0  8 05 26 09 08 07 13 04 02
  24282406.737    -2998978.468 7  -2311174.18445  24282406.500    24282418.9284
  20866004.552   -23455143.479 9 -18267544.24447  20866005.065    20866011.1884
  22603926.550   -14399778.177 8 -11205256.14546  22603926.737    22603933.5344
  23891135.296    -2615480.928 7  -1063576.49045  23891134.902    23891144.4554
  20917158.270   -21826466.539 9 -14965979.28148  20917158.083    20917165.3034
  24670815.304    -4901889.504 7  -3810721.25845  24670815.949    24670826.6414
  24307874.251    -2471341.555 7  -1910998.95745  24307874.749    24307886.1034
  22697026.005   -12173548.125 8  -6412804.23546  22697025.835    22697033.7574
 00  5  4  2 37  0.0000000  0  8 05 26 09 08 07 13 04 02
  24268746.964    -3070759.541 7  -2367106.92845  24268746.607    24268759.0204
  20868998.492   -23439410.366 9 -18255284.69447  20868999.013    20869005.1274
  22589363.134   -14476308.745 8 -11264890.32546  22589363.350    22589370.1814
  23906312.021    -2535726.413 7  -1001430.26245  23906311.754    23906321.4274
  20921584.797   -21803205.016 9 -14947853.44047  20921584.598    20921591.8354
  24691816.967    -4791525.871 7  -3724723.94445  24691817.739    24691828.2304
  24292983.900    -2549589.582 7  -1971971.20145  24292984.527    24292995.5034
  22706962.737   -12121330.318 8  -6372115.09346  22706962.557    22706970.5274
 00  5  4  2 37 30.0000000  0  8 05 26 09 08 07 13 04 02
  24255112.914    -3142404.563 7  -2422933.71245  24255112.646    24255124.9254
  20872095.261   -23423136.870 9 -18242604.06147  20872095.769    20872101.8774
  22574815.508   -14552756.992 8 -11324460.36246  22574815.670    22574822.4534
  23921522.681    -2455793.392 7   -939144.95845  23921522.713    23921532.4444
  20926106.851   -21779441.412 9 -14929336.37147  20926106.678    20926113.9044
  24712824.831    -4681130.907 7  -3638702.21545  24712825.586    24712836.0354
  24278084.848    -2627883.885 7  -2032979.45545  24278085.451    24278096.1094
  22716905.095   -12069082.780 8  -6331402.79546  22716904.904    22716912.9424
 00  5  4  2 38  0.0000000  0  8 05 26 09 08 07 13 04 02
  24241504.640    -3213913.755 7  -2478654.67045  24241504.496    24241516.5664
  20875294.697   -23406323.740 9 -18229502.94247  20875295.214    20875301.2824
  22560283.623   -14629121.959 8 -11383965.52246  22560283.860    22560290.5504
  23936767.298    -2375682.048 7   -876720.70845  23936767.590    23936777.2844
  20930724.267   -21755176.965 9 -14910429.03647  20930724.081    20930731.2994
  24733838.190    -4570707.092 7  -3552658.01245  24733838.660    24733849.5574
  24263177.376    -2706221.439 7  -2094021.53945  24263178.332    24263188.6584
  22726853.131   -12016806.035 8  -6290667.73846  22726852.887    22726860.9614
 00  5  4  2 38 30.0000000  0  8 05 26 09 08 07 13 04 02
  24227922.194    -3285286.775 7  -2534269.50845  24227922.159    24227934.3154
  20878596.852   -23388970.968 9 -18215981.32247  20878597.348    20878603.4344
  22545768.020   -14705401.563 8 -11443404.15346  22545768.250    22545774.9334
  23952046.149    -2295392.430 7   -814157.53745  23952046.274    23952056.1334
  20935436.799   -21730412.486 9 -14891132.06647  20935436.619    20935443.8074
  24754856.631    -4460256.420 7  -3466592.84745  24754857.059    24754867.9434
  24248262.345    -2784599.102 7  -2155094.85945  24248263.297    24248273.6844
  22736806.744   -11964499.855 8  -6249909.74646  22736806.496    22736814.6214
 00  5  4  2 39  0.0000000  0  8 05 26 09 08 07 13 04 02
  24214365.677    -3356524.132 7  -2589778.62845  24214365.634    24214377.7224
  20882001.347   -23371080.027 9 -18202040.35248  20882001.871    20882007.9924
  22531268.799   -14781595.354 8 -11502775.91746  22531269.007    22531275.7924
  23967358.897    -2214925.690 7   -751456.34145  23967358.683    23967368.5224
  20940244.156   -21705149.858 9 -14871446.92947  20940243.961    20940251.1464
  24775879.505    -4349781.973 7  -3380509.16345  24775879.895    24775891.1414
  24233340.016    -2863014.598 7  -2216197.66945  24233340.837    24233351.5704
  22746765.768   -11912165.302 8  -6209129.64646  22746765.502    22746773.5974
 00  5  4  2 39 30.0000000  0  8 05 26 09 08 07 13 04 02
  24200835.132    -3427624.961 7  -2645181.35645  24200835.131    24200847.1524
  20885508.419   -23352650.516 9 -18187679.71448  20885508.913    20885515.0694
  22516786.330   -14857700.951 8 -11562078.94946  22516786.494    22516793.3464
  23982705.192    -2134281.154 7   -688616.62345  23982705.018    23982714.8594
  20945146.256   -21679389.361 9 -14851373.84247  20945146.047    20945153.2464
  24796906.502    -4239285.591 7  -3294408.31445  24796906.819    24796918.1584
  24218411.722    -2941464.158 7  -2277327.08345  24218412.432    24218423.0334
  22756730.359   -11859801.889 8  -6168327.04746  22756730.053    22756738.0824
 00  5  4  2 40  0.0000000  0  8 05 26 09 08 07 13 04 02
  24187330.196    -3498591.116 7  -2700479.14945  24187330.111    24187342.4514
  20889117.526   -23333684.782 9 -18172901.24148  20889118.034    20889124.1294
  22502320.569   -14933718.657 8 -11621313.51346  22502320.767    22502327.5364
  23998084.689    -2053460.811 7   -625639.89845  23998084.621    23998094.4754
  20950142.506   -21653133.843 9 -14830915.02747  20950142.308    20950149.5124
  24817936.850    -4128771.115 7  -3208293.34045  24817937.189    24817948.6534
  24203476.927    -3019946.394 7  -2338481.92145  24203477.632    24203488.3044
  22766699.897   -11807411.761 8  -6127503.63546  22766699.602    22766707.6434
 00  5  4  2 40 30.0000000  0  8 05 26 09 08 07 13 04 02
  24173851.297    -3569421.100 7  -2755670.86145  24173851.152    24173863.4164
  20892828.826   -23314181.981 9 -18157704.26648  20892829.305    20892835.3974
  22487872.164   -15009645.510 8 -11680477.27346  22487872.360    22487879.1594
  24013498.120    -1972463.610 7   -562525.37745  24013498.111    24013508.0094
  20955233.012   -21626383.046 9 -14810070.28047  20955232.834    20955240.0304
  24838970.284    -4018239.538 7  -3122165.07845  24838970.678    24838982.4744
  24188536.754    -3098456.942 7  -2399658.85445  24188537.514    24188548.2284
  22776674.775   -11754993.875 8  -6086658.59946  22776674.486    22776682.4974
 00  5  4  2 41  0.0000000  0  8 05 26 09 08 07 13 04 02
  24160398.299    -3640115.317 7  -2810756.78145  24160398.364    24160410.4084
  20896642.052   -23294143.245 9 -18142089.68847  20896642.555    20896648.6814
  22473441.396   -15085480.326 8 -11739569.31446  22473441.560    22473448.3554
  24028944.952    -1891290.307 7   -499273.63045  24028945.047    24028954.9264
  20960417.490   -21599138.624 9 -14788840.88647  20960417.295    20960424.4724
  24860006.309    -3907693.862 7  -3036025.73545  24860006.945    24860018.6454
  24173591.639    -3176993.311 7  -2460855.94645  24173592.350    24173602.7964
  22786654.699   -11702548.829 8  -6045792.39846  22786654.497    22786662.5144
 00  5  4  2 41 30.0000000  0  8 05 26 09 08 07 13 04 02
  24146971.082    -3710673.914 7  -2865737.01945  24146971.200    24146982.8224
  20900557.105   -23273569.280 9 -18126058.04847  20900557.615    20900563.8214
  22459028.345   -15161221.783 8 -11798588.61746  22459028.468    22459035.2144
  24044425.225    -1809941.215 7   -435884.88345  24044425.290    24044435.2344
  20965695.629   -21571401.745 9 -14767227.76347  20965695.471    20965702.6724
  24881044.604    -3797136.516 7  -2949877.33244  24881045.200    24881057.2154
  24158642.217    -3255552.444 7  -2522070.70945  24158642.971    24158653.3774
  22796639.863   -11650076.930 8  -6004905.27946  22796639.634    22796647.7134
 00  5  4  2 42  0.0000000  0  8 05 26 09 08 07 13 04 02
  24133569.710    -3781097.155 7  -2920611.81745  24133569.848    24133581.2114
  20904573.879   -23252460.878 9 -18109609.97147  20904574.414    20904580.6484
  22444633.224   -15236868.563 8 -11857534.14946  22444633.414    22444640.0604
  24059938.959    -1728417.025 7   -372359.72245  24059938.931    24059948.8894
  20971067.200   -21543173.971 9 -14745232.12547  20971067.042    20971074.2804
  24902084.740    -3686569.865 7  -2863721.62744  24902085.485    24902097.6314
  24143688.880    -3334131.391 7  -2583300.94345  24143689.541    24143699.9514
  22806629.957   -11597578.798 8  -5963997.72246  22806629.719    22806637.8604
 00  5  4  2 42 30.0000000  0  8 05 26 09 08 07 13 04 02
  24120194.159    -3851385.050 7  -2975381.21645  24120194.258    24120205.2624
  20908692.250   -23230818.946 9 -18092746.14647  20908692.743    20908698.9844
  22430256.463   -15312419.191 8 -11916404.74946  22430256.617    22430263.2694
  24075485.998    -1646718.094 7   -308698.40845  24075485.777    24075495.7844
  20976532.007   -21514456.574 9 -14722854.95747  20976531.819    20976539.0644
  24923126.323    -3575996.564 7  -2777560.70344  24923126.908    24923139.3064
  24128732.700    -3412727.410 7  -2644544.49245  24128733.385    24128743.3694
  22816624.961   -11545054.595 8  -5923069.84346  22816624.739    22816632.9494
 00  5  4  2 43  0.0000000  0  8 05 26 09 08 07 13 04 02
  24106844.250    -3921537.704 7  -3030045.22145  24106844.350    24106855.2624
  20912912.010   -23208644.057 9 -18075467.03647  20912912.542    20912918.7414
  22415898.186   -15387872.296 8 -11975199.36646  22415898.336    22415905.1414
  24091066.441    -1564844.640 7   -244901.07645  24091066.072    24091075.8834
  20982089.705   -21485250.641 9 -14700097.11647  20982089.542    20982096.8364
  24944168.664    -3465418.791 7  -2691396.28844  24944169.401    24944181.9094
  24113773.696    -3491337.464 7  -2705798.97845  24113774.182    24113784.3014
  22826624.771   -11492504.716 8  -5882121.96246  22826624.627    22826632.9124
 00  5  4  2 43 30.0000000  0  8 05 26 09 08 07 13 04 02
  24093520.221    -3991554.118 7  -3084603.03345  24093520.284    24093531.2164
  20917233.261   -23185936.136 9 -18057772.57347  20917233.750    20917239.9514
  22401558.882   -15463225.383 8 -12033916.04446  22401559.043    22401566.0074
  24106679.794    -1482796.107 7   -180967.31645  24106679.423    24106689.3644
  20987740.326   -21455556.749 9 -14676959.05747  20987740.140    20987747.4534
  24965211.556    -3354838.129 7  -2605229.60444  24965212.332    24965225.1894
  24098812.659    -3569957.504 7  -2767061.25645  24098813.099    24098823.4554
  22836629.756   -11439928.485 8  -5841153.54746  22836629.590    22836637.9004
 00  5  4  2 44  0.0000000  0  8 05 26 09 08 07 13 04 02
  24080221.874    -4061435.561 7  -3139055.71045  24080221.830    24080232.7934
  20921655.465   -23162697.241 9 -18039664.36347  20921655.989    20921662.1864
  22387238.777   -15538478.088 8 -12092554.50846  22387238.967    22387245.9284
  24122326.170    -1400574.076 7   -116898.40145  24122325.931    24122335.9644
  20993483.263   -21425377.322 9 -14653442.65147  20993483.084    20993490.4124
  24986254.344    -3244257.922 7  -2519063.26544  24986255.095    24986267.9624
  24083850.080    -3648585.507 7  -2828329.80845  24083850.627    24083861.0814
  22846639.542   -11387327.360 8  -5800165.73346  22846639.321    22846647.6014
 00  5  4  2 44 30.0000000  0  8 05 26 09 08 07 13 04 02
  24066949.126    -4131182.020 7  -3193403.23545  24066949.159    24066960.0534
  20926178.598   -23138927.929 9 -18021142.84347  20926179.108    20926185.3244
  22372938.043   -15613628.648 8 -12151113.37646  22372938.197    22372945.2164
  24138005.284    -1318179.000 7    -52694.64745  24138005.287    24138015.3824
  20999318.365   -21394713.582 9 -14629548.85547  20999318.205    20999325.5514
  25007296.728    -3133680.650 7  -2432899.14444  25007296.979    25007310.2704
  24068886.518    -3727218.587 7  -2889602.30145  24068887.177    24068897.5804
  22856654.030   -11334701.375 8  -5759158.53746  22856653.818    22856662.0384
 00  5  4  2 45  0.0000000  0  8 05 26 09 08 07 13 04 02
  24053702.121    -4200793.347 7  -3247645.43045  24053702.079    24053712.9704
  20930802.534   -23114628.932 9 -18002208.57847  20930803.066    20930809.2674
  22358657.063   -15688675.345 8 -12209591.32146  22358657.274    22358664.2774
  24153717.525    -1235610.803 7     11644.03245  24153717.539    24153727.6644
  21005245.498   -21363566.661 9 -14605278.56147  21005245.321    21005252.6564
  25028338.057    -3023108.621 7  -2346739.13344  25028338.403    25028351.4594
  24053922.870    -3805853.482 7  -2950876.15845  24053923.505    24053933.8154
  22866673.169   -11282050.653 8  -5718132.07146  22866673.032    22866681.1654
 00  5  4  2 45 30.0000000  0  8 05 26 09 08 07 13 04 02
  24040480.865    -4270270.445 7  -3301783.05945  24040480.852    24040491.4414
  20935527.016   -23089801.888 9 -17982862.85547  20935527.536    20935533.7484
  22344396.050   -15763617.761 8 -12267987.99846  22344396.197    22344403.2604
  24169462.622    -1152870.984 7     76116.43945  24169462.619    24169472.8224
  21011264.069   -21331938.944 9 -14580633.62247  21011263.895    21011271.1854
  25049377.676    -2912544.896 7  -2260585.55044  25049377.876    25049390.9374
  24038959.082    -3884488.036 7  -3012149.78745  24038959.745    24038970.2234
  22876696.916   -11229376.409 8  -5677087.28046  22876696.672    22876704.7724
 00  5  4  2 46  0.0000000  0  8 05 26 09 08 07 13 04 02
  24027285.249    -4339612.800 7  -3355815.71745  24027285.297    24027295.5194
  20940351.885   -23064447.109 9 -17963105.91147  20940352.406    20940358.6704
  22330155.226   -15838453.801 8 -12326301.78746  22330155.335    22330162.4814
  24185240.416    -1069959.147 7    140722.90545  24185240.206    24185250.6874
  21017374.059   -21299831.006 9 -14555614.48547  21017373.875    21017381.1614
  25070415.388    -2801991.436 7  -2174439.93044  25070415.833    25070428.2884
  24023995.996    -3963118.294 7  -3073420.06245  24023996.764    24024006.9274
  22886725.018   -11176678.182 8  -5636023.79746  22886724.820    22886732.9914
 00  5  4  2 46 30.0000000  0  8 05 26 09 08 07 13 04 02
  24014115.286    -4408820.925 7  -3409743.82245  24014115.334    24014125.4184
  20945276.874   -23038566.052 9 -17942938.88147  20945277.396    20945283.6664
  22315934.795   -15913182.163 8 -12384531.68246  22315934.920    22315942.1164
  24201050.907     -986876.240 7    205462.67445  24201050.481    24201060.8044
  21023575.041   -21267244.720 9 -14530222.61447  21023574.852    21023582.1264
  25091450.527    -2691450.729 7  -2088304.20644  25091450.970    25091463.8304
  24009034.501    -4041741.820 8  -3134685.08645  24009035.101    24009045.3644
  22896757.674   -11123956.473 8  -5594942.02646  22896757.465    22896765.6434
 00  5  4  2 47  0.0000000  0  8 05 26 09 08 07 13 04 02
  24000970.653    -4477894.928 7  -3463567.40745  24000970.814    24000980.6494
  20950301.914   -23012159.479 9 -17922362.35447  20950302.447    20950308.6244
  22301735.096   -15987801.365 8 -12442676.50746  22301735.260    22301742.4124
  24216893.416     -903622.911 7    270335.22645  24216893.015    24216903.8284
  21029866.696   -21234181.699 9 -14504459.25947  21029866.556    21029873.8534
  25112482.627    -2580925.527 7  -2002180.58644  25112483.059    25112496.0934
  23994074.894    -4120355.741 7  -3195942.63345  23994075.368    23994085.5444
  22906794.800   -11071211.748 8  -5553842.32046  22906794.566    22906802.7034
 00  5  4  2 47 30.0000000  0  8 05 26 09 08 07 13 04 02
  23987851.607    -4546834.304 7  -3517286.06645  23987851.737    23987861.4474
  20955426.957   -22985227.444 9 -17901376.37447  20955427.439    20955433.5834
  22287556.818   -16062308.766 8 -12500734.22746  22287556.985    22287564.0044
  24232768.421     -820198.387 7    335341.20745  24232768.294    24232779.1294
  21036249.069   -21200642.285 9 -14478324.69247  21036248.918    21036256.2324
  25133511.465    -2470417.010 7  -1916069.94844  25133511.923    25133525.1554
  23979117.528    -4198955.882 8  -3257189.41945  23979118.152    23979128.4464
  22916836.215   -11018443.421 8  -5512724.21946  22916836.075    22916844.2794
 00  5  4  2 48  0.0000000  0  8 05 26 09 08 07 13 04 02
  23974758.083    -4615639.787 7  -3570900.44845  23974758.071    23974767.9294
  20960651.591   -22957771.905 9 -17879982.47447  20960652.102    20960658.2374
  22273399.874   -16136703.772 8 -12558704.36046  22273400.116    22273407.0184
  24248676.323     -736604.036 7    400479.46445  24248676.119    24248686.8774
  21042721.688   -21166628.703 9 -14451820.64147  21042721.527    21042728.8644
  25154536.497    -2359928.616 7  -1829975.00344  25154537.019    25154550.2864
  23964163.533    -4277540.075 8  -3318423.82245  23964163.984    23964174.3284
  22926882.194   -10965652.298 8  -5471588.36846  22926881.960    22926890.2744
 00  5  4  2 48 30.0000000  0  8 05 26 09 08 07 13 04 02
  23961689.919    -4684311.662 7  -3624410.65745  23961689.918    23961699.8264
  20965975.636   -22929793.970 9 -17858181.51647  20965976.137    20965982.3174
  22259264.693   -16210984.932 8 -12616585.77346  22259264.931    22259271.7254
  24264615.922     -652840.456 7    465749.63145  24264615.796    24264626.7224
  21049284.176   -21132142.766 9 -14424948.52747  21049284.014    21049291.4014
  25175557.168    -2249462.742 7  -1743897.57144  25175558.004    25175570.7714
  23949213.089    -4356105.356 7  -3379643.49945  23949213.545    23949223.9114
  22936932.271   -10912838.828 8  -5430435.11146  22936932.052    22936940.4804
 00  5  4  2 49  0.0000000  0  8 05 26 09 08 07 13 04 02
  23948647.372    -4752849.502 7  -3677816.47745  23948647.247    23948657.2644
  20971398.953   -22901294.224 9 -17835973.95147  20971399.472    20971405.6674
  22245151.606   -16285150.293 8 -12674376.95746  22245151.782    22245158.4664
  24280588.145     -568907.809 7    531151.53745  24280587.868    24280598.6284
  21055936.390   -21097185.434 9 -14397709.08547  21055936.198    21055943.6074
  25196573.019    -2139021.304 7  -1657839.16644  25196574.057    25196587.2374
  23934266.489    -4434648.285 7  -3440845.78445  23934267.212    23934277.7254
  22946986.624   -10860002.813 8  -5389264.27446  22946986.462    22946994.9184
 00  5  4  2 49 30.0000000  0  8 05 26 09 08 07 13 04 02
  23935630.368    -4821253.877 7  -3731118.33145  23935630.168    23935640.0004
  20976921.355   -22872274.010 9 -17813360.83047  20976921.859    20976928.0824
  22231060.606   -16359198.618 8 -12732076.93546  22231060.837    22231067.4474
  24296592.139     -484806.883 7    596684.56045  24296591.840    24296602.5664
  21062677.886   -21061758.683 9 -14370103.86047  21062677.702    21062685.1414
  25217584.068    -2028607.330 7  -1571802.15044  25217584.351    25217598.2144
  23919325.052    -4513166.018 8  -3502028.41645  23919325.735    23919336.2664
  22957045.131   -10807144.940 8  -5348076.39746  22957045.018    22957053.4034
 00  5  4  2 50  0.0000000  0  8 05 26 09 08 07 13 04 02
  23922638.578    -4889525.037 7  -3784316.34845  23922638.462    23922648.2294
  20982542.512   -22842734.552 9 -17790343.11147  20982543.038    20982549.3254
  22216992.301   -16433128.419 8 -12789684.56546  22216992.536    22216999.0084
  24312628.056     -400538.001 7    662348.44945  24312627.787    24312638.8194
  21069508.446   -21025864.003 9 -14342134.01647  21069508.253    21069515.6594
  25238589.690    -1918223.034 7  -1485788.24944  25238590.138    25238603.6204
  23904389.320    -4591655.708 8  -3563189.16045  23904389.725    23904399.9674
  22967107.959   -10754265.352 8  -5306871.59446  22967107.752    22967116.0484
 00  5  4  2 50 30.0000000  0  8 05 26 09 08 07 13 04 02
  23909672.213    -4957663.194 7  -3837410.75445  23909672.039    23909681.7374
  20988262.249   -22812677.240 9 -17766921.86547  20988262.778    20988269.0774
  22202946.793   -16506938.329 8 -12847198.77346  22202947.040    22202953.4864
  24328695.769     -316102.308 7    728142.33745  24328695.804    24328706.4434
  21076427.733   -20989503.100 9 -14313800.88547  21076427.543    21076434.9554
  25259589.266    -1807870.775 7  -1399799.37044  25259589.690    25259602.9424
  23889459.138    -4670114.379 8  -3624325.70745  23889459.741    23889469.5134
  22977174.735   -10701364.486 8  -5265650.21946  22977174.513    22977182.8154
 00  5  4  2 51  0.0000000  0  8 05 26 09 08 07 13 04 02
  23896731.171    -5025667.836 7  -3890401.16745  23896730.918    23896740.5484
  20994080.478   -22782102.600 9 -17743097.49947  20994080.980    20994087.2134
  22188924.465   -16580626.174 8 -12904617.86146  22188924.697    22188931.2464
  24344795.176     -231499.359 7    794066.53945  24344795.239    24344805.9524
  21083435.454   -20952677.089 9 -14285105.33347  21083435.301    21083442.7004
  25280582.110    -1697552.618 7  -1313836.99644  25280582.497    25280595.4364
  23874535.522    -4748538.389 8  -3685435.27145  23874536.123    23874545.8514
  22987245.518   -10648441.999 8  -5224412.00846  22987245.351    22987253.7524
 00  5  4  2 51 30.0000000  0  8 05 26 09 08 07 13 04 02
  23883815.481    -5093539.568 7  -3943288.02445  23883815.209    23883824.5614
  20999996.827   -22751011.959 9 -17718871.05447  20999997.354    21000003.5634
  22174925.601   -16654190.638 8 -12961940.82246  22174925.868    22174932.4284
  24360926.457     -146730.078 8    860120.29945  24360926.431    24360937.3054
  21090531.396   -20915387.836 9 -14256048.81447  21090531.219    21090538.6294
  25301567.582    -1587271.093 7  -1227903.17344  25301567.871    25301581.3194
  23859619.119    -4826924.910 7  -3746515.65245  23859619.640    23859629.4074
  22997320.563   -10595498.292 8  -5183157.26146  22997320.296    22997328.7714
 00  5  4  2 52  0.0000000  0  8 05 26 09 08 07 13 04 02
  23870924.883    -5161278.745 7  -3996071.59645  23870924.693    23870933.9134
  21006011.124   -22719406.740 9 -17694243.63947  21006011.651    21006017.8544
  22160950.606   -16727630.202 8 -13019166.45346  22160950.823    22160957.3354
  24377089.177      -61795.266 8    926303.10345  24377089.212    24377099.8804
  21097715.160   -20877637.117 9 -14226632.71347  21097714.976    21097722.3774
  25322545.855    -1477028.792 7  -1141999.94344  25322546.285    25322559.8414
  23844710.272    -4905270.952 7  -3807564.49845  23844710.731    23844720.7374
  23007399.381   -10542533.750 8  -5141886.27646  23007399.189    23007407.7684
 00  5  4  2 52 30.0000000  0  8 05 26 09 08 07 13 04 02
  23858059.440    -5228885.194 7  -4048751.71345  23858059.330    23858068.5394
  21012123.249   -22687287.607 9 -17669215.77347  21012123.779    21012130.0044
  22146999.852   -16800942.516 8 -13076292.93546  22147000.031    22147006.4994
  24393283.558       23305.023 7    992614.77945  24393283.462    24393294.1964
  21104986.523   -20839425.935 9 -14196857.80547  21104986.352    21104993.7914
  25343516.734    -1366827.377 7  -1056128.44744  25343517.399    25343529.9694
  23829809.541    -4983572.900 7  -3868578.99145  23829810.216    23829820.4064
  23017482.328   -10489548.109 8  -5100598.84446  23017482.089    23017490.7894
 00  5  4  2 53  0.0000000  0  8 05 26 09 08 07 13 04 02
  23845219.403    -5296359.087 7  -4101328.51545  23845219.239    23845228.5334
  21018332.876   -22654655.955 9 -17643788.54947  21018333.391    21018339.6714
  22133073.289   -16874126.679 8 -13133319.57046  22133073.512    22133080.0614
  24409509.174      108570.337 7   1059055.08245  24409508.990    24409519.8874
  21112345.176   -20800756.200 9 -14166725.58847  21112344.978    21112352.4194
  25364479.228    -1256669.716 7   -970291.05144  25364479.725    25364492.2164
  23814918.073    -5061828.077 8  -3929557.05245  23814918.725    23814928.9894
  23027569.176   -10436541.773 8  -5059295.29746  23027568.936    23027577.6364
 00  5  4  2 53 30.0000000  0  8 05 26 09 08 07 13 04 02
  23832404.626    -5363700.496 8  -4153802.14345  23832404.500    23832413.6164
  21024639.766   -22621513.012 9 -17617962.92047  21024640.294    21024646.6194
  22119171.363   -16947180.729 8 -13190244.80746  22119171.636    22119178.3554
  24425765.874      193999.995 7   1125623.41445  24425765.614    24425776.8304
  21119790.837   -20761629.472 9 -14136237.27247  21119790.613    21119798.0514
  25385432.892    -1146557.863 7   -884489.38444  25385432.661    25385446.0834
  23800036.075    -5140033.223 8  -3990496.09845  23800036.737    23800046.9384
  23037659.886   -10383514.802 8  -5017975.67946  23037659.730    23037668.3314
 00  5  4  2 54  0.0000000  0  8 05 26 09 08 07 13 04 02
  23819614.952    -5430910.023 7  -4206172.98145  23819614.804    23819624.0034
  21031043.685   -22587860.409 9 -17591740.14847  21031044.221    21031050.5074
  22105294.585   -17020103.506 8 -13247067.76846  22105294.853    22105301.6594
  24442053.742      279592.899 7   1192318.94745  24442053.708    24442064.8704
  21127322.892   -20722047.956 9 -14105394.57147  21127322.709    21127330.1794
  25406377.226    -1036494.635 7   -798725.59644  25406377.339    25406389.9054
  23785164.317    -5218185.593 8  -4051394.02145  23785164.963    23785174.9674
  23047754.429   -10330467.821 8  -4976640.46346  23047754.322    23047762.8284
 00  5  4  2 54 30.0000000  0  8 05 26 09 08 07 13 04 02
  23806850.405    -5497987.824 8  -4258441.22945  23806850.250    23806859.3904
  21037544.322   -22553699.559 9 -17565121.34347  21037544.831    21037551.1064
  22091443.021   -17092893.774 8 -13303787.47046  22091443.272    22091450.2314
  24458372.517      365348.769 7   1259141.53545  24458372.571    24458383.6574
  21134941.267   -20682013.129 9 -14074198.64347  21134941.115    21134948.5964
  25427311.764     -926482.642 7   -713001.62744  25427311.380    25427323.8314
  23770302.910    -5296282.220 8  -4112248.49645  23770303.492    23770313.3094
  23057852.929   -10277400.945 8  -4935289.74346  23057852.720    23057861.2034
 00  5  4  2 55  0.0000000  0  8 05 26 09 08 07 13 04 02
  23794110.684    -5564935.089 8  -4310607.75945  23794110.410    23794119.4954
  21044141.178   -22519032.683 9 -17538108.23247  21044141.714    21044148.0004
  22077616.857   -17165550.207 8 -13360402.88646  22077617.134    22077624.2574
  24474722.322      451265.491 7   1326089.41145  24474722.071    24474733.3364
  21142645.409   -20641527.920 9 -14042651.77347  21142645.211    21142652.7394
  25448235.934     -816524.958 6   -627319.99844  25448235.464    25448247.9514
  23755452.576    -5374320.913 8  -4173057.81445  23755453.132    23755463.0684
  23067955.007   -10224315.316 8  -4893924.38646  23067954.647    23067963.0844
 00  5  4  2 55 30.0000000  0  7 05 26 09 08 07 04 02
  23781396.001    -5631750.345 7  -4362671.42745  23781395.743    23781404.7004
  21050834.390   -22483859.630 9 -17510700.69847  21050834.920    21050841.2304
  22063816.834   -17238069.753 8 -13416911.64146  22063817.087    22063824.2554
  24491102.626      537344.524 7   1393163.83245  24491102.432    24491113.4834
  21150435.196   -20600592.377 9 -14010753.99247  21150435.018    21150442.5914
  23740614.403    -5452296.948 8  -4233818.33145  23740614.904    23740624.6814
  23078060.546   -10171209.559 8  -4852543.36746  23078060.381    23078068.8584
 00  5  4  2 56  0.0000000  0  7 05 26 09 08 07 04 02
  23768706.397    -5698433.447 7  -4414632.12645  23768706.158    23768715.0184
  21057623.806   -22448181.203 9 -17482899.36747  21057624.340    21057630.6564
  22050043.302   -17310450.573 8 -13473312.29547  22050043.552    22050050.6364
  24507513.708      623585.520 7   1460364.41045  24507513.601    24507524.8774
  21158310.488   -20559207.613 9 -13978506.16847  21158310.306    21158317.8944
  23725788.432    -5530206.804 7  -4294527.31945  23725789.157    23725798.8734
  23088170.171   -10118083.485 8  -4811146.51846  23088169.963    23088178.5474
 00  5  4  2 56 30.0000000  0  7 05 26 09 08 07 04 02
  23756041.840    -5764985.060 7  -4466490.37445  23756041.566    23756050.4674
  21064509.082   -22411999.157 9 -17454705.60847  21064509.613    21064515.9814
  22036296.454   -17382691.468 8 -13529603.91947  22036296.669    22036303.6734
  24523955.696      709987.522 7   1527690.42945  24523955.629    24523966.9434
  21166270.829   -20517376.107 9 -13945910.23747  21166270.646    21166278.2174
  23710975.629    -5608047.825 7  -4355182.65345  23710976.383    23710986.2044
  23098283.660   -10064937.362 8  -4769734.04946  23098283.440    23098292.0334
 00  5  4  2 57  0.0000000  0  7 05 26 09 08 07 04 02
  23743402.225    -5831405.944 8  -4518246.72645  23743402.005    23743410.8344
  21071489.786   -22375315.611 9 -17426121.06747  21071490.311    21071496.7284
  22022576.381   -17454791.093 8 -13585785.45347  22022576.617    22022583.5834
  24540428.235      796549.407 7   1595141.09445  24540427.886    24540439.3214
  21174315.760   -20475099.835 9 -13912967.72747  21174315.576    21174323.1484
  23696176.844    -5685817.218 8  -4415782.14845  23696177.409    23696187.3464
  23108400.793   -10011771.826 8  -4728306.45546  23108400.567    23108409.2354
 00  5  4  2 57 30.0000000  0  7 05 26 09 08 07 04 02
  23730787.403    -5897696.663 7  -4569901.65745  23730787.158    23730795.9704
  21078565.615   -22338132.155 9 -17397146.98147  21078566.122    21078572.5424
  22008883.450   -17526748.363 8 -13641856.07347  22008883.697    22008890.5954
  24556930.747      883270.178 7   1662715.46145  24556930.590    24556942.0294
  21182444.901   -20432380.997 9 -13879680.37047  21182444.729    21182452.2974
  23681392.058    -5763512.269 8  -4476323.69245  23681392.574    23681402.3934
  23118521.404    -9958587.406 8  -4686864.15046  23118521.221    23118529.9644
 00  5  4  2 58  0.0000000  0  7 05 26 09 08 07 04 02
  23718197.411    -5963856.564 8  -4621454.65645  23718197.243    23718206.0694
  21085736.488   -22300449.359 9 -17367783.80347  21085736.988    21085743.4064
  21995218.258   -17598560.359 8 -13697813.48947  21995218.447    21995225.1734
  24573463.645      970150.097 7   1730413.88645  24573463.524    24573475.0584
  21190658.196   -20389220.450 9 -13846048.83047  21190657.983    21190665.5344
  23666621.921    -5841129.077 8  -4536804.27345  23666622.569    23666632.3924
  23128645.910    -9905383.348 8  -4645406.53746  23128645.692    23128654.4574
 00  5  4  2 58 30.0000000  0  7 05 26 09 08 07 04 02
  23705632.241    -6029886.294 8  -4672906.26445  23705632.082    23705640.8404
  21093001.955   -22262269.157 9 -17338033.03647  21093002.448    21093008.8904
  21981580.782   -17670226.080 8 -13753656.92047  21981580.938    21981587.5874
  24590026.468     1057188.033 7   1798235.47745  24590026.469    24590037.9684
  21198955.094   -20345620.438 9 -13812074.84447  21198954.879    21198962.3934
  23651867.372    -5918664.988 8  -4597221.84145  23651867.892    23651877.8814
  23138774.062    -9852160.202 8  -4603934.05346  23138773.780    23138782.5274
 00  5  4  2 59  0.0000000  0  7 05 26 09 08 07 04 02
  23693091.792    -6095786.048 8  -4724256.61845  23693091.655    23693100.3524
  21100361.734   -22223593.090 9 -17307895.88047  21100362.243    21100368.6324
  21967971.286   -17741743.703 8 -13809384.95947  21967971.490    21967978.1594
  24606619.560     1144383.598 8   1866179.89345  24606619.521    24606630.9074
  21207335.152   -20301582.947 9 -13777759.96747  21207334.948    21207342.4754
  23637128.809    -5996116.690 7  -4657573.83745  23637129.328    23637139.3154
  23148905.620    -9798918.274 8  -4562446.93646  23148905.406    23148914.2824
 00  5  4  2 59 30.0000000  0  7 05 26 09 08 07 04 02
  23680576.066    -6161555.482 7  -4775505.40545  23680575.929    23680584.5384
  21107815.803   -22184421.891 9 -17277372.90847  21107816.313    21107822.6874
  21954390.473   -17813111.072 8 -13864995.91547  21954390.672    21954397.3734
  24623242.401     1231736.422 7   1934246.84345  24623242.424    24623253.7144
  21215798.302   -20257108.989 9 -13743104.98947  21215798.108    21215805.6624
  23622406.731    -6073480.453 7  -4717857.29245  23622407.378    23622417.3544
  23159041.011    -9745656.698 8  -4520944.51946  23159040.819    23159049.7574
 00  5  4  3  0  0.0000000  0  7 05 26 09 08 07 04 02
  23668085.042    -6227195.488 7  -4826653.28945  23668084.846    23668093.4504
  21115363.673   -22144757.745 9 -17246465.82347  21115364.197    21115370.6164
  21940838.470   -17884327.100 8 -13920488.94447  21940838.684    21940845.4064
  24639895.005     1319245.487 7   2002435.52945  24639894.935    24639906.5164
  21224344.022   -20212201.026 9 -13708111.82547  21224343.832    21224351.3994
  23607702.083    -6150753.802 7  -4778070.28045  23607702.668    23607712.7374
  23169180.146    -9692376.123 8  -4479427.29846  23169179.880    23169188.8324
 00  5  4  3  0 30.0000000  0  7 05 26 09 08 07 04 02
  23655618.644    -6292706.713 8  -4877700.87445  23655618.506    23655626.8814
  21123004.900   -22104602.870 9 -17215176.35247  21123005.438    21123011.8644
  21927315.505   -17955390.586 8 -13975863.10547  21927315.755    21927322.5544
  24656577.216     1406909.373 7   2070744.90845  24656577.137    24656588.2784
  21232971.822   -20166861.576 9 -13672782.43947  21232971.659    21232979.2394
  23593015.231    -6227934.134 8  -4838210.77345  23593015.785    23593025.9064
  23179322.599    -9639077.373 8  -4437895.91446  23179322.378    23179331.3564
 00  5  4  3  1  0.0000000  0  7 05 26 09 08 07 04 02
  23643176.863    -6358088.887 8  -4928647.89445  23643176.630    23643185.0064
  21130739.320   -22063958.266 9 -17183505.27747  21130739.843    21130746.3204
  21913822.018   -18026299.512 8 -14031116.83347  21913822.276    21913829.0834
  24673288.425     1494727.853 7   2139174.66745  24673288.477    24673299.8034
  21241681.559   -20121091.951 9 -13637117.85047  21241681.380    21241688.9774
  23578346.716    -6305017.990 8  -4898276.06745  23578347.260    23578357.3754
  23189468.613    -9585760.132 8  -4396350.10546  23189468.415    23189477.4234
 00  5  4  3  1 30.0000000  0  7 05 26 09 08 07 04 02
  23630759.481    -6423342.354 8  -4979494.65145  23630759.216    23630767.5104
  21138566.646   -22022825.573 9 -17151453.87647  21138567.204    21138573.7224
  21900358.329   -18097051.975 8 -14086248.63647  21900358.547    21900365.3594
  24690029.135     1582700.386 7   2207724.54945  24690029.258    24690040.6244
  21250472.841   -20074893.984 9 -13601119.48647  21250472.644    21250480.2584
  23563697.119    -6382002.035 8  -4958263.62245  23563697.712    23563707.6984
  23199618.301    -9532424.472 8  -4354789.93546  23199617.998    23199626.8424
 00  5  4  3  2  0.0000000  0  7 05 26 09 08 07 04 02
  23618366.514    -6488467.428 8  -5030241.35545  23618366.225    23618374.5434
  21146486.595   -21981206.323 9 -17119023.33947  21146487.111    21146493.6664
  21886924.692   -18167646.283 8 -14141257.19347  21886924.937    21886931.7434
  24706798.968     1670826.360 7   2276393.90645  24706799.038    24706810.3894
  21259345.189   -20028269.510 9 -13564788.77747  21259345.032    21259352.6854
  23549067.118    -6458882.952 8  -5018170.80445  23549067.730    23549077.6974
  23209771.273    -9479070.473 8  -4313215.48046  23209771.050    23209779.6894
 00  5  4  3  2 30.0000000  0  7 05 26 09 08 07 04 02
  23605998.013    -6553463.832 7  -5080887.81345  23605997.688    23606006.0614
  21154498.894   -21939101.599 9 -17086214.50647  21154499.415    21154505.9474
  21873521.704   -18238080.220 8 -14196140.79147  21873521.906    21873528.6674
  24723598.048     1759105.208 7   2345182.44545  24723597.780    24723609.4954
  21268298.448   -19981220.010 9 -13528126.88547  21268298.283    21268305.9754
  23534457.424    -6535657.451 7  -5077995.07145  23534457.984    23534467.9824
  23219927.792    -9425697.581 8  -4271626.30646  23219927.688    23219936.3374
 00  5  4  3  3  0.0000000  0  7 05 26 09 08 07 04 02
  23593653.933    -6618331.641 8  -5131434.08345  23593653.704    23593661.9914
  21162603.218   -21896513.103 9 -17053028.71047  21162603.744    21162610.2444
  21860149.443   -18308352.088 8 -14250898.10347  21860149.633    21860156.3814
  24740426.268     1847536.511 7   2414089.92144  24740425.690    24740437.2414
  21277332.204   -19933747.437 9 -13491135.32347  21277332.039    21277339.7474
  23519868.509    -6612322.043 7  -5137733.71645  23519869.163    23519879.1374
  23230088.043    -9372306.001 8  -4230022.59346  23230087.854    23230096.5464
 00  5  4  3  3 30.0000000  0  7 05 26 09 08 07 04 02
  23581334.255    -6683071.548 8  -5181880.67445  23581334.032    23581342.2594
  21170799.217   -21853442.931 9 -17019467.57647  21170799.740    21170806.2084
  21846808.190   -18378460.449 8 -14305528.00447  21846808.429    21846815.1754
  24757283.152     1936119.056 7   2483115.01845  24757282.858    24757294.6174
  21286446.048   -19885854.097 9 -13453815.89247  21286445.890    21286453.5854
  23505300.997    -6688874.204 7  -5197384.73245  23505301.788    23505311.8134
  23240251.728    -9318896.226 8  -4188404.70346  23240251.469    23240260.2864
 00  5  4  3  4  0.0000000  0  7 05 26 09 08 07 04 02
  23569038.874    -6747684.109 8  -5232228.03545  23569038.664    23569046.8304
  21179086.491   -21809892.957 9 -16985532.57747  21179087.023    21179093.5344
  21833498.368   -18448403.749 8 -14360029.28247  21833498.604    21833505.4484
  24774167.793     2024852.023 7   2552257.50844  24774167.870    24774180.1144
  21295639.533   -19837542.106 9 -13416170.25047  21295639.365    21295647.0414
  23490755.637    -6765311.020 7  -5256945.87045  23490756.307    23490766.3324
  23250418.706    -9265468.404 8  -4146772.75546  23250418.470    23250427.4304
 00  5  4  3  4 30.0000000  0  7 05 26 09 08 07 04 02
  23556767.694    -6812168.927 8  -5282475.88345  23556767.549    23556775.6594
  21187464.850   -21765864.358 9 -16951224.62347  21187465.393    21187471.9494
  21820220.319   -18518179.802 8 -14414400.24047  21820220.566    21820227.5824
  24791082.367     2113735.010 7   2621516.74145  24791082.321    24791094.0944
  21304912.414   -19788812.900 9 -13378199.49547  21304912.256    21304919.9374
  23476233.073    -6841628.694 8  -5316414.20545  23476233.681    23476243.6024
  23260589.207    -9212022.072 8  -4105126.38146  23260588.969    23260598.0424
 00  5  4  3  5  0.0000000  0  7 05 26 09 08 07 04 02
  23544520.548    -6876526.914 8  -5332624.89545  23544520.478    23544528.6234
  21195933.952   -21721359.163 9 -16916545.29947  21195934.520    21195941.1294
  21806974.382   -18587787.230 8 -14468639.81547  21806974.686    21806981.7464
  24808024.715     2202766.965 7   2690892.17845  24808024.583    24808036.2374
  21314264.318   -19739668.686 9 -13339905.36147  21314264.142    21314271.8154
  23461733.539    -6917824.369 8  -5375787.45645  23461734.090    23461743.9144
  23270763.353    -9158557.558 8  -4063465.84346  23270763.035    23270772.0884
 00  5  4  3  5 30.0000000  0  7 05 26 09 08 07 04 02
  23532297.741    -6940757.510 8  -5382674.64745  23532297.709    23532306.0304
  21204493.526   -21676378.626 9 -16881495.58047  21204494.064    21204500.7094
  21793761.002   -18657223.868 8 -14522746.30247  21793761.313    21793768.3724
  24824995.390     2291947.973 7   2760383.68345  24824995.232    24825007.2454
  21323694.923   -19690110.848 9 -13301288.91847  21323694.723    21323702.4284
  23447257.851    -6993894.311 8  -5435062.70245  23447258.421    23447268.2154
  23280940.970    -9105074.182 8  -4021790.58346  23280940.730    23280949.7244
 00  5  4  3  6  0.0000000  0  7 05 26 09 08 07 04 02
  23520099.198    -7004861.492 8  -5432625.75445  23520099.164    23520107.4514
  21213143.183   -21630924.781 9 -16846077.04547  21213143.716    21213150.3174
  21780580.456   -18726488.104 8 -14576718.44347  21780580.748    21780587.8324
  24841994.506     2381276.737 7   2829990.33745  24841994.466    24842006.1454
  21333203.740   -19640141.953 9 -13262352.16847  21333203.560    21333211.2654
  23432806.707    -7069835.937 8  -5494237.93145  23432807.185    23432817.1874
  23291122.027    -9051572.600 8  -3980101.15546  23291121.772    23291130.8654
 00  5  4  3  6 30.0000000  0  7 05 26 09 08 07 04 02
  23507924.576    -7068839.343 8  -5482478.56345  23507924.523    23507932.8144
  21221882.531   -21584999.613 9 -16810291.24947  21221883.026    21221889.6144
  21767433.045   -18795578.411 8 -14630555.05347  21767433.340    21767440.4374
  24859020.647     2470752.042 7   2899711.19745  24859020.788    24859032.8324
  21342790.462   -19589763.916 9 -13223096.60447  21342790.244    21342797.9684
  23418380.456    -7145646.134 8  -5553310.75145  23418380.922    23418390.8674
  23301306.667    -8998052.734 8  -3938397.48746  23301306.381    23301315.4594
 00  5  4  3  7  0.0000000  0  7 05 26 09 08 07 04 02
  23495773.985    -7132690.984 8  -5532233.03045  23495773.924    23495782.1724
  21230711.186   -21538604.646 9 -16774139.37647  21230711.724    21230718.3194
  21754319.123   -18864492.823 8 -14684254.60747  21754319.418    21754326.4884
  24876075.705     2560373.661 7   2969546.04745  24876075.720    24876087.2394
  21352454.568   -19538978.641 9 -13183523.71247  21352454.363    21352462.1084
  23403979.899    -7221321.465 8  -5612278.51045  23403980.362    23403990.0864
  23311494.629    -8944514.500 8  -3896679.49746  23311494.378    23311503.5764
 00  5  4  3  7 30.0000000  0  7 05 26 09 08 07 04 02
  23483647.394    -7196416.696 8  -5581889.41245  23483647.300    23483655.4224
  21239628.990   -21491741.681 9 -16737622.83247  21239629.500    21239636.0924
  21741239.101   -18933229.405 8 -14737815.59147  21741239.393    21741246.3994
  24893157.805     2650140.919 7   3039494.37545  24893157.866    24893169.7584
  21362195.868   -19487787.942 9 -13143634.90447  21362195.680    21362203.4714
  23389605.559    -7296858.533 7  -5671138.52245  23389606.053    23389615.6374
  23321686.042    -8890957.615 8  -3854946.98246  23321685.923    23321695.2424
 00  5  4  3  8  0.0000000  0  7 05 26 09 08 07 04 02
  23471544.701    -7260016.805 8  -5631447.92145  23471544.618    23471552.6214
  21248635.466   -21444412.553 9 -16700743.03947  21248635.995    21248642.5844
  21728193.257   -19001786.347 8 -14791236.59047  21728193.555    21728200.4434
  24910267.616     2740053.120 7   3109555.66745  24910267.500    24910279.8244
  21372013.920   -19436193.940 9 -13103431.83947  21372013.723    21372021.5124
  23375258.067    -7372254.255 8  -5729888.39445  23375258.734    23375268.4514
  23331881.252    -8837382.034 8  -3813199.90846  23331881.055    23331890.4504
 00  5  4  3  8 30.0000000  0  7 05 26 09 08 07 04 02
  23459465.750    -7323491.764 8  -5680908.87345  23459465.620    23459473.7244
  21257730.261   -21396619.277 9 -16663501.57747  21257730.769    21257737.3734
  21715181.812   -19070162.152 8 -14844516.44347  21715182.082    21715188.9094
  24927405.244     2830109.003 7   3179728.90545  24927404.937    24927417.1344
  21381908.292   -19384198.811 9 -13062916.20247  21381908.093    21381915.8644
  23360938.129    -7447505.837 7  -5788525.95845  23360938.679    23360948.6184
  23342079.840    -8783788.243 8  -3771438.64146  23342079.685    23342089.0684
 00  5  4  3  9  0.0000000  0  7 05 26 09 08 07 04 02
  23447410.596    -7386841.496 8  -5730272.25845  23447410.505    23447418.6394
  21266912.995   -21348363.471 9 -16625899.70247  21266913.522    21266920.1474
  21702205.200   -19138354.701 8 -14897653.50147  21702205.466    21702212.2894
  24944569.260     2920307.989 7   3250013.72045  24944569.004    24944581.4344
  21391878.671   -19331804.376 9 -13022089.42247  21391878.481    21391886.2434
  23346646.264    -7522609.717 7  -5847048.45445  23346646.674    23346656.8524
  23352282.051    -8730175.926 8  -3729662.93146  23352281.871    23352291.2324
 00  5  4  3  9 30.0000000  0  7 05 26 09 08 07 04 02
  23435379.306    -7450066.691 8  -5779538.63446  23435379.205    23435387.2644
  21276183.404   -21299647.389 9 -16587939.17147  21276183.924    21276190.5504
  21689263.760   -19206362.529 8 -14950646.62547  21689263.995    21689270.7994
  24961760.646     3010649.291 7   3320409.38845  24961760.612    24961773.2154
  21401924.583   -19279012.918 9 -12980953.26247  21401924.406    21401932.1664
  23332383.068    -7597563.037 8  -5905453.62445  23332383.537    23332393.7244
  23362487.903    -8676545.400 8  -3687873.03346  23362487.586    23362496.8844
 00  5  4  3 10  0.0000000  0  7 05 26 09 08 07 04 02
  23423371.568    -7513167.543 8  -5828708.11345  23423371.448    23423379.4304
  21285541.044   -21250472.784 9 -16549621.34947  21285541.606    21285548.2274
  21676357.829   -19274183.742 8 -15003494.33447  21676358.020    21676364.8034
  24978979.190     3101131.904 7   3390915.20045  24978978.903    24978991.4734
  21412045.643   -19225826.471 9 -12939509.31847  21412045.439    21412053.2614
  23318149.138    -7672362.504 8  -5963738.88745  23318149.641    23318160.0154
  23372696.920    -8622896.686 8  -3646068.95646  23372696.698    23372706.0504
 00  5  4  3 10 30.0000000  0  7 05 26 09 08 07 04 02
  23411387.456    -7576143.751 8  -5877780.47545  23411387.304    23411395.3914
  21294985.764   -21200840.828 9 -16510947.15047  21294986.298    21294992.9294
  21663487.826   -19341815.797 8 -15056194.64747  21663488.059    21663494.8174
  24996224.190     3191755.785 7   3461531.13544  24996223.784    24996236.7334
  21422241.604   -19172246.282 9 -12897758.57147  21422241.411    21422249.2094
  23303945.193    -7747004.316 8  -6021901.29145  23303945.734    23303956.0494
  23382909.649    -8569228.797 8  -3604249.94546  23382909.438    23382918.8914
 00  5  4  3 11  0.0000000  0  7 05 26 09 08 07 04 02
  23399426.900    -7638996.202 8  -5926756.38345  23399426.774    23399434.9674
  21304516.968   -21150754.133 9 -16471918.60547  21304517.509    21304524.1424
  21650654.142   -19409257.554 8 -15108746.68347  21650654.374    21650661.0434
  25013496.360     3282519.637 7   3532256.07244  25013495.746    25013508.8384
  21432511.926   -19118275.179 9 -12855703.20847  21432511.791    21432519.6224
  23289771.989    -7821485.923 8  -6079938.85545  23289772.456    23289782.5134
  23393126.091    -8515542.558 8  -3562416.64346  23393125.776    23393135.1784
 00  5  4  3 11 30.0000000  0  6 05 26 09 07 04 02
  23387490.035    -7701724.706 8  -5975635.72845  23387489.937    23387498.1284
  21314134.391   -21100214.486 9 -16432537.11347  21314134.951    21314141.6004
  21637857.102   -19476507.005 8 -15161148.86347  21637857.283    21637863.9244
  21442856.411   -19063915.012 9 -12813344.68247  21442856.229    21442864.0484
  23275629.818    -7895803.916 8  -6137848.92445  23275630.286    23275640.2324
  23403345.784    -8461837.600 8  -3520568.74946  23403345.601    23403355.0344
 00  5  4  3 12  0.0000000  0  6 05 26 09 07 04 02
  23375576.830    -7764329.618 8  -6024418.78446  23375576.685    23375584.8544
  21323837.691   -21049223.685 9 -16392804.07547  21323838.244    21323844.9094
  21625096.900   -19543562.229 8 -15213399.70047  21625097.077    21625103.7374
  21453274.561   -19009167.794 9 -12770684.56647  21453274.347    21453282.1284
  23261519.291    -7969955.185 8  -6195629.08845  23261519.825    23261529.6574
  23413569.105    -8408113.560 8  -3478705.98246  23413569.013    23413578.5164
 00  5  4  3 12 30.0000000  0  6 05 26 09 07 04 02
  23363686.973    -7826811.637 8  -6073106.06845  23363686.796    23363694.8804
  21333626.380   -20997784.170 9 -16352721.38447  21333626.887    21333633.6004
  21612373.937   -19610421.812 8 -15265498.09147  21612374.095    21612380.8774
  21463765.761   -18954035.972 9 -12727724.74947  21463765.594    21463773.4234
  23247441.075    -8043936.788 7  -6253277.05645  23247441.442    23247451.2564
  23423796.260    -8354370.814 8  -3436828.64146  23423796.003    23423805.5014
 00  5  4  3 13  0.0000000  0  6 05 26 09 07 04 02
  23351820.395    -7889171.070 8  -6121697.84145  23351820.251    23351828.2974
  21343500.004   -20945897.875 9 -16312290.55747  21343500.542    21343507.2864
  21599688.555   -19677083.863 8 -15317442.56047  21599688.747    21599695.6654
  21474329.865   -18898521.588 9 -12684466.83447  21474329.681    21474337.5274
  23233395.673    -8117745.494 7  -6310790.33845  23233396.045    23233405.9214
  23434026.965    -8300609.338 8  -3394936.70146  23434026.590    23434036.1264
 00  5  4  3 13 30.0000000  0  6 05 26 09 07 04 02
  23339977.200    -7951407.585 8  -6170193.84145  23339977.030    23339984.9944
  21353458.457   -20893566.153 9 -16271512.64647  21353458.978    21353465.7334
  21587041.175   -19743545.862 8 -15369231.14647  21587041.412    21587048.4294
  21484966.426   -18842626.122 9 -12640911.97447  21484966.257    21484974.1424
  23219383.865    -8191377.527 7  -6368165.90245  23219384.255    23219394.2144
  23444261.068    -8246828.492 8  -3353029.66346  23444260.796    23444270.3534
 00  5  4  3 14  0.0000000  0  6 05 26 09 07 04 02
  23328157.354    -8013521.418 8  -6218594.22846  23328157.153    23328165.1904
  21363501.320   -20840790.994 9 -16230389.19147  21363501.815    21363508.5054
  21574432.273   -19809806.049 8 -15420862.48447  21574432.511    21574439.5524
  21495675.133   -18786351.677 9 -12597061.79847  21495674.964    21495682.8724
  23205406.243    -8264829.623 8  -6425401.27045  23205406.792    23205416.8004
  23454498.956    -8193028.211 8  -3311107.50146  23454498.798    23454508.2444
 00  5  4  3 14 30.0000000  0  6 05 26 09 07 04 02
  23316360.708    -8075513.246 8  -6266899.53045  23316360.450    23316368.5614
  21373628.100   -20787574.582 9 -16188921.90747  21373628.615    21373635.2624
  21561862.116   -19875862.518 8 -15472335.09047  21561862.333    21561869.4244
  21506455.568   -18729700.427 9 -12552918.01947  21506455.381    21506463.2794
  23191463.595    -8338098.688 8  -6482494.01345  23191464.183    23191474.0394
  23464740.719    -8139208.428 8  -3269170.12646  23464740.458    23464749.8184
 00  5  4  3 15  0.0000000  0  6 05 26 09 07 04 02
  23304587.135    -8137383.651 8  -6315110.26045  23304586.960    23304595.0124
  21383838.289   -20733919.565 9 -16147112.85947  21383838.856    21383845.4654
  21549331.007   -19941714.055 8 -15523647.99147  21549331.209    21549338.3574
  21517307.084   -18672675.247 9 -12508482.85747  21517306.948    21517314.8484
  23177556.317    -8411182.193 8  -6539442.15145  23177556.941    23177566.7414
  23474986.106    -8085369.662 8  -3227217.95446  23474985.775    23474995.0354
 00  5  4  3 15 30.0000000  0  6 05 26 09 07 04 02
  23292836.664    -8199132.559 8  -6363226.33445  23292836.555    23292844.4664
  21394131.717   -20679827.867 9 -16104963.53547  21394132.260    21394138.8694
  21536839.265   -20007358.554 8 -15574799.57047  21536839.476    21536846.6014
  21528229.496   -18615277.852 9 -12463757.66247  21528229.337    21528237.2464
  23163685.092    -8484076.854 8  -6596243.13345  23163685.684    23163695.3034
  23485235.066    -8031511.314 8  -3185250.53046  23485234.830    23485244.1204
 00  5  4  3 16  0.0000000  0  6 05 26 09 07 04 02
  23281109.288    -8260759.730 8  -6411247.49945  23281109.254    23281117.1604
  21404507.988   -20625300.657 9 -16062474.85547  21404508.477    21404515.1384
  21524387.535   -20072793.367 8 -15625787.75647  21524387.736    21524394.7314
  21539222.459   -18557509.715 9 -12418743.58247  21539222.277    21539230.2084
  23149850.192    -8556778.595 8  -6652893.77045  23149850.773    23149860.5254
  23495487.744    -7977632.673 8  -3143267.28646  23495487.612    23495497.0324
 00  5  4  3 16 30.0000000  0  7 05 26 09 07 24 04 02
  23269405.085    -8322265.595 8  -6459174.13846  23269405.006    23269413.0884
  21414966.583   -20570340.445 9 -16019648.77347  21414967.077    21414973.7674
  21511975.936   -20138017.087 8 -15676611.45447  21511976.129    21511983.0114
  21550285.537   -18499373.238 9 -12373442.48547  21550285.348    21550293.2674
  24490702.174                                    24490705.797    24490689.2364
  23136052.654    -8629284.335 7  -6709391.70545  23136053.224    23136063.1614
  23505744.469    -7923734.108 8  -3101268.54446  23505744.242    23505753.6934
 00  5  4  3 17  0.0000000  0  6 05 26 09 07 04 02
  23257723.847    -8383651.263 8  -6507007.15446  23257723.783    23257731.8334
  21425506.998   -20514949.977 9 -15976487.42847  21425507.520    21425514.2924
  21499604.692   -20203028.462 8 -15727269.68247  21499604.893    21499611.7294
  21561418.074   -18440871.347 9 -12327856.64847  21561417.891    21561425.8274
  23122292.998    -8701591.854 8  -6765735.15145  23122293.479    23122303.5044
  23516004.885    -7869815.899 8  -3059254.49545  23516004.588    23516014.1164
 00  5  4  3 17 30.0000000  0  6 05 26 09 07 04 02
  23246065.410    -8444917.187 8  -6554746.85345  23246065.254    23246073.2484
  21436128.944   -20459131.339 9 -15932992.44647  21436129.456    21436136.2814
  21487274.316   -20267825.187 9 -15777760.65947  21487274.499    21487281.2604
  21572619.773   -18382006.049 9 -12281987.64347  21572619.616    21572627.5464
  23108571.617    -8773697.948 7  -6821921.66945  23108572.209    23108582.1794
  23526268.877    -7815878.223 8  -3017225.25845  23526268.633    23526278.2364
 00  5  4  3 18  0.0000000  0  6 05 26 09 07 04 02
  23234429.620    -8506062.686 8  -6602392.68145  23234429.469    23234437.6124
  21446832.127   -20402885.825 9 -15889164.83347  21446832.647    21446839.5104
  21474985.237   -20332404.718 8 -15828082.38947  21474985.437    21474992.1444
  21583890.404   -18322778.626 8 -12235836.46347  21583890.234    21583898.2014
  23094889.378    -8845598.383 8  -6877947.92945  23094889.990    23094899.9544
  23536536.859    -7761919.846 8  -2975179.90346  23536536.655    23536546.3044
 00  5  4  3 18 30.0000000  0  6 05 26 09 07 04 02
  23222816.960    -8567088.501 8  -6649945.26946  23222816.818    23222824.9414
  21457616.009   -20346216.269 9 -15845006.79547  21457616.531    21457623.4074
  21462737.680   -20396766.152 8 -15878234.17847  21462737.906    21462744.5584
  21595229.399   -18263191.823 8 -12189405.25047  21595229.234    21595237.2324
  23081246.790    -8917290.690 8  -6933812.02145  23081247.395    23081257.2974
  23546808.823    -7707941.190 8  -2933118.74546  23546808.553    23546818.3014
 00  5  4  3 19  0.0000000  0  6 05 26 09 07 04 02
  23211226.884    -8627995.579 8  -6697405.35446  23211226.672    23211234.6974
  21468480.038   -20289125.227 8 -15800520.32847  21468480.580    21468487.5124
  21450531.966   -20460907.651 8 -15928214.58447  21450532.195    21450538.8814
  21606636.318   -18203248.348 8 -12142696.10347  21606636.157    21606644.1984
  23067644.389    -8988772.090 8  -6989511.77045  23067644.982    23067654.8764
  23557084.621    -7653942.416 8  -2891041.90746  23557084.320    23557094.1394
 00  5  4  3 19 30.0000000  0  6 05 26 09 07 04 02
  23199659.229    -8688783.495 8  -6744772.57145  23199659.070    23199667.0124
  21479424.086   -20231614.086 8 -15755706.51147  21479424.654    21479431.5704
  21438368.547   -20524826.615 8 -15978021.58247  21438368.756    21438375.5884
  21618110.836   -18142949.728 9 -12095710.22747  21618110.673    21618118.7664
  23054082.720    -9060038.664 8  -7045044.11645  23054083.401    23054093.1154
  23567364.415    -7599922.855 8  -2848948.87645  23567364.023    23567373.8714
 00  5  4  3 20  0.0000000  0  7 05 26 09 07 24 04 02
  23188114.387    -8749452.116 8  -6792046.83446  23188114.222    23188122.2064
  21490447.785   -20173684.784 9 -15710566.84547  21490448.302    21490455.1744
  21426247.900   -20588520.795 9 -16027653.43047  21426248.137    21426255.0734
  21629652.671   -18082297.716 8 -12048448.98047  21629652.443    21629660.5394
  24375363.836                                    24375366.255    24375375.5894
  23040562.714    -9131086.980 8  -7100406.41045  23040563.240    23040572.9714
  23577647.971    -7545881.979 8  -2806839.24645  23577647.674    23577657.5164
 00  5  4  3 20 30.0000000  0  7 05 26 09 07 24 04 02
  23176592.236    -8810001.624 8  -6839228.27646  23176592.119    23176600.1204
  21501550.568   -20115339.359 9 -15665102.93247  21501551.096    21501557.9834
  21414170.554   -20651988.163 9 -16077108.54147  21414170.758    21414177.7154
  21641261.239   -18021294.284 8 -12000913.90047  21641261.047    21641269.1594
  24358799.227                     -859004.75554  24358800.293    24358814.7014
  23027084.788    -9201913.798 8  -7155596.10545  23027085.271    23027095.0994
  23587935.490    -7491819.484 8  -2764712.75245  23587935.382    23587945.2584
 00  5  4  3 21  0.0000000  0  7 05 26 09 07 24 04 02
  23165092.295    -8870433.636 8  -6886318.13045  23165092.211    23165100.2964
  21512731.905   -20056581.248 9 -15619317.44747  21512732.445    21512739.3754
  21402136.387   -20715228.297 9 -16126386.57647  21402136.579    21402143.5754
  21652936.033   -17959942.953 8 -11953107.73347  21652935.844    21652943.9644
  24342218.065    -1213040.41817   -926905.62745  24342219.342    24342232.6094
  23013649.403    -9272517.119 8  -7210611.63945  23013649.812    23013659.7014
  23598227.301    -7437736.592 8  -2722570.36945  23598227.177    23598236.9954
 00  5  4  3 21 30.0000000  0  7 05 26 09 07 24 04 02
  23153614.480    -8930749.746 8  -6933317.73646  23153614.446    23153622.4014
  21523991.065   -19997414.145 9 -15573213.26647  21523991.611    21523998.6114
  21390145.582   -20778240.411 9 -16175486.94047  21390145.800    21390152.7814
  21664676.364   -17898247.265 8 -11905033.24447  21664676.177    21664684.2974
  24325616.392    -1300284.322 7   -994887.58645  24325615.697    24325631.1334
  23000256.791    -9342894.941 8  -7265451.48045  23000257.333    23000267.1834
  23608522.867    -7383634.226 8  -2680412.82745  23608522.669    23608532.5024
 00  5  4  3 22  0.0000000  0  7 05 26 09 07 24 04 02
  23142159.025    -8990949.526 8  -6980226.68446  23142158.926    23142166.7234
  21535327.810   -19937839.615 8 -15526791.60647  21535328.312    21535335.3244
  21378198.732   -20841021.768 9 -16224407.48847  21378198.941    21378205.8984
  21676481.929   -17836208.788 8 -11856691.64547  21676481.764    21676489.8784
  24308995.089    -1387628.635 7  -1062947.79245  24308994.463    24309008.9094
  22986907.980    -9413043.657 8  -7320112.78345  22986908.444    22986918.2544
  23618822.181    -7329511.627 8  -2638239.50145  23618822.030    23618831.9154
 00  5  4  3 22 30.0000000  0  7 05 26 09 07 24 04 02
  23130725.722    -9051031.825 8  -7027044.04246  23130725.582    23130733.5524
  21546741.963   -19877857.970 8 -15480052.71547  21546742.471    21546749.4514
  21366296.439   -20903568.690 9 -16273145.35847  21366296.651    21366303.5834
  21688352.745   -17773827.724 8 -11808083.09247  21688352.536    21688360.6274
  24292355.707    -1475068.993 7  -1131082.75145  24292355.222    24292369.0064
  22973603.724    -9482958.045 8  -7374591.50245  22973604.195    22973613.8984
  23629125.629    -7275366.819 8  -2596048.87745  23629125.597    23629135.5344
 00  5  4  3 23  0.0000000  0  7 05 26 09 07 24 04 02
  23119315.024    -9110995.470 8  -7073768.96446  23119314.901    23119322.8814
  21558233.346   -19817470.389 9 -15432997.50947  21558233.875    21558240.8634
  21354439.270   -20965878.137 9 -16321698.18347  21354439.519    21354446.5094
  21700288.482   -17711105.356 8 -11759208.59147  21700288.303    21700296.3804
  24275698.738    -1562601.718 7  -1199289.85245  24275698.344    24275711.6734
  22960344.692    -9552634.010 8  -7428884.45345  22960345.264    22960355.0684
  23639433.677    -7221198.517 8  -2553839.95145  23639433.580    23639443.7044
 00  5  4  3 23 30.0000000  0  7 05 26 09 07 24 04 02
  23107926.851    -9170840.958 8  -7120401.85446  23107926.696    23107934.5984
  21569801.483   -19756679.804 8 -15385628.27547  21569801.997    21569809.0184
  21342627.529   -21027948.677 9 -16370064.85047  21342627.796    21342634.9274
  21712288.657   -17648044.328 8 -11710070.19747  21712288.495    21712296.5744
  24259023.954    -1650224.345 7  -1267566.87545  24259023.998    24259037.5654
  22947131.758    -9622068.772 8  -7482989.47345  22947132.331    22947142.0014
  23649746.180    -7167006.918 8  -2511612.88245  23649746.091    23649756.1184
 00  5  4  3 24  0.0000000  0  7 05 26 09 07 24 04 02
  23096560.829    -9230569.274 8  -7166943.39646  23096560.714    23096568.6584
  21581445.763   -19695488.864 8 -15337947.07847  21581446.266    21581453.3334
  21330861.639   -21089778.748 9 -16418244.14347  21330861.902    21330869.0904
  21724352.796   -17584647.139 8 -11660669.85247  21724352.614    21724360.7584
  24242333.059    -1737934.827 7  -1335912.50145  24242333.051    24242346.5304
  22933965.253    -9691259.555 8  -7536904.37845  22933965.806    22933975.4374
  23660063.125    -7112792.049 8  -2469367.66045  23660062.989    23660072.9644
 00  5  4  3 24 30.0000000  0  7 05 26 09 07 24 04 02
  23085217.010    -9290181.343 8  -7213394.35746  23085217.007    23085224.9784
  21593165.670   -19633900.429 8 -15289956.14347  21593166.202    21593173.2954
  21319141.760   -21151367.130 9 -16466235.10747  21319142.025    21319149.2184
  21736480.303   -17520916.829 8 -11611009.93847  21736480.128    21736488.3034
  24225626.253    -1825731.139 7  -1404324.89145  24225626.178    24225639.6984
  22920845.423    -9760204.060 8  -7590627.37745  22920845.929    22920855.7134
  23670384.272    -7058554.396 8  -2427104.68345  23670384.184    23670394.1134
 00  5  4  3 25  0.0000000  0  7 05 26 09 07 24 04 02
  23073895.381    -9349677.611 8  -7259755.10746  23073895.285    23073903.2054
  21604960.864   -19571916.752 8 -15241657.22947  21604961.386    21604968.5454
  21307468.377   -21212711.647 9 -16514036.04347  21307468.636    21307475.7944
  21748670.806   -17456855.412 8 -11561092.01447  21748670.648    21748678.8414
  24208903.042    -1913610.397 7  -1472801.95745  24208903.206    24208916.7394
  22907773.088    -9828898.793 8  -7644155.74345  22907773.738    22907783.5624
  23680709.644    -7004293.645 8  -2384823.72045  23680709.646    23680719.7344
 00  5  4  3 25 30.0000000  0  7 05 26 09 07 24 04 02
  23062595.604    -9409058.067 8  -7306025.60246  23062595.528    23062603.4414
  21616830.809   -19509539.749 8 -15193051.83147  21616831.329    21616838.5334
  21295841.800   -21273810.091 9 -16561645.23747  21295842.055    21295849.1444
  21760924.063   -17392464.562 8 -11510917.39847  21760923.896    21760932.0894
  24192164.761    -2001569.358 7  -1541341.12145  24192165.023    24192178.2724
  22894749.139    -9897340.282 8  -7697486.77645  22894749.745    22894759.5134
  23691039.667    -6950009.235 8  -2342524.34145  23691039.695    23691049.8454
 00  5  4  3 26  0.0000000  0  7 05 26 09 07 24 04 02
  23051317.869    -9468323.281 8  -7352206.28746  23051317.755    23051325.7414
  21628775.045   -19446772.442 8 -15144142.29147  21628775.560    21628782.7134
  21284262.309   -21334661.057 9 -16609061.59147  21284262.562    21284269.5934
  21773239.443   -17327747.392 8 -11460488.51147  21773239.250    21773247.3954
  24175411.810    -2089606.076 7  -1609940.88745  24175412.012    24175425.0474
  22881773.994    -9965525.950 8  -7750618.47345  22881774.507    22881784.1614
  23701374.376    -6895701.614 8  -2300206.87245  23701374.230    23701384.4234
 00  5  4  3 26 30.0000000  0  7 05 26 09 07 24 04 02
  23040061.869    -9527473.761 8  -7398297.55946  23040061.727    23040069.8294
  21640793.091   -19383617.433 8 -15094930.64647  21640793.640    21640800.7644
  21272730.286   -21395262.670 9 -16656283.63747  21272730.505    21272737.4854
  21785616.390   -17262706.367 8 -11409807.26347  21785616.222    21785624.3104
  24158644.634    -2177718.004 7  -1678599.27545  24158644.758    24158657.3684
  22868847.840   -10033452.965 8  -7803548.60046  22868848.415    22868858.0674
  23711713.569    -6841370.736 8  -2257871.25745  23711713.242    23711723.3974
 00  5  4  3 27  0.0000000  0  7 05 26 09 07 24 04 02
  23028827.716    -9586509.384 8  -7444299.37146  23028827.624    23028835.5914
  21652884.553   -19320076.606 8 -15045418.37147  21652885.089    21652892.2444
  21261246.053   -21455612.880 9 -16703309.79447  21261246.256    21261253.2484
  21798054.650   -17197343.086 8 -11358874.91247  21798054.501    21798062.6144
  24141863.498    -2265901.942 7  -1747313.76145  24141863.646    24141876.4984
  22855971.726   -10101117.650 8  -7856274.32046  22855972.309    22855981.8694
  23722057.094    -6787016.070 8  -2215517.12545  23722056.802    23722066.8244
 00  5  4  3 27 30.0000000  0  7 05 26 09 07 24 04 02
  23017615.544    -9645430.075 8  -7490211.61546  23017615.406    23017623.3354
  21665049.121   -19256151.865 8 -14995606.94347  21665049.658    21665056.8224
  21249810.097   -21515709.020 9 -16750137.97747  21249810.282    21249817.3394
  21810553.835   -17131659.485 8 -11307692.96647  21810553.698    21810561.8474
  24125069.067    -2354154.614 7  -1816081.82845  24125069.243    24125082.5034
  22843146.092   -10168516.434 8  -7908792.85546  22843146.749    22843156.2944
  23732405.118    -6732636.851 8  -2173143.85045  23732404.997    23732414.9884
 00  5  4  3 28  0.0000000  0  7 05 26 09 07 24 04 02
  23006425.059    -9704236.442 8  -7536034.75446  23006424.943    23006432.9034
  21677286.246   -19191845.894 8 -14945498.45047  21677286.746    21677293.8654
  21238422.846   -21575549.350 9 -16796766.82347  21238423.086    21238430.1814
  21823113.552   -17065657.995 8 -11256263.30147  21823113.393    21823121.5964
  24108262.332    -2442473.698 7  -1884901.66345  24108262.527    24108275.8014
  22830371.713   -10235646.553 8  -7961102.02545  22830372.362    22830381.7674
  23742757.876    -6678232.884 8  -2130751.31145  23742757.831    23742767.8904
 00  5  4  3 28 30.0000000  0  7 05 26 09 07 24 04 02
  22995256.197    -9762929.172 8  -7581769.35546  22995256.095    22995264.1024
  21689595.307   -19127161.549 8 -14895095.12047  21689595.805    21689602.9074
  21227084.584   -21635132.453 9 -16843195.24047  21227084.785    21227091.9364
  21835733.231   -16999341.201 8 -11204587.95447  21835733.076    21835741.3374
  24091443.690    -2530856.652 7  -1953771.28945  24091443.802    24091456.5674
  22817649.012   -10302505.166 8  -8013199.66745  22817649.550    22817659.0004
  23753115.245    -6623804.412 8  -2088339.68845  23753115.140    23753125.5294
 00  5  4  3 29  0.0000000  0  7 05 26 09 07 24 04 02
  22984109.014    -9821508.442 8  -7627415.56946  22984108.872    22984116.8054
  21701975.911   -19062101.111 8 -14844398.73147  21701976.454    21701983.6014
  21215795.673   -21694456.185 9 -16889421.54147  21215795.880    21215803.0554
  21848412.520   -16932711.370 8 -11152668.67347  21848412.369    21848420.6764
  24074613.130    -2619300.663 7  -2022688.43845  24074613.212    24074626.1144
  22804978.572   -10369089.039 8  -8065083.20045  22804979.042    22804988.5754
  23763477.343    -6569350.997 8  -2045908.62445  23763477.277    23763487.7874
 00  5  4  3 29 30.0000000  0  7 05 26 09 07 24 04 02
  22972983.283    -9879974.285 8  -7672973.37846  22972983.195    22972991.2024
  21714427.739   -18996666.770 8 -14793410.99547  21714428.264    21714435.4514
  21204556.545   -21753518.409 9 -16935444.08047  21204556.741    21204563.9324
  21861150.997   -16865770.510 8 -11100507.04247  21861150.830    21861159.1554
  24057771.300    -2707802.822 7  -2091650.95245  24057771.532    24057784.2204
  22792360.852   -10435394.824 8  -8116750.04445  22792361.406    22792371.0424
  23773844.509    -6514872.387 8  -2003457.93845  23773844.370    23773854.8874
 00  5  4  3 30  0.0000000  0  7 05 26 09 07 24 04 02
  22961879.114    -9938326.931 8  -7718442.96346  22961879.072    22961887.1584
  21726950.229   -18930861.071 8 -14742133.87747  21726950.725    21726957.9084
  21193367.489   -21812317.167 9 -16981261.31247  21193367.677    21193374.8794
  21873948.247   -16798520.970 8 -11048104.87747  21873948.061    21873956.3674
  24040919.282    -2796360.237 7  -2160656.48745  24040919.458    24040932.2784
  22779796.818   -10501419.509 8  -8168197.83846  22779797.334    22779806.9544
  23784216.508    -6460368.219 8  -1960987.33545  23784216.359    23784226.8004
 00  5  4  3 30 30.0000000  0  7 05 26 09 07 24 04 02
  22950796.322    -9996567.004 8  -7763824.86646  22950796.225    22950804.3984
  21739542.788   -18864686.627 8 -14690569.43347  21739543.297    21739550.4844
  21182228.873   -21870850.658 9 -17026871.84047  21182229.078    21182236.2494
  21886803.659   -16730965.284 8 -10995464.17047  21886803.501    21886811.8744
  24024057.240    -2884970.460 7  -2229703.23245  24024057.461    24024069.9754
  22767286.788   -10567160.320 8  -8219424.42946  22767287.265    22767296.8754
  23794593.108    -6405838.487 8  -1918496.79945  23794593.136    23794603.6134
 00  5  4  3 31  0.0000000  0  7 05 26 09 07 24 04 02
  22939734.902   -10054694.706 8  -7809119.19546  22939734.912    22939743.0324
  21752205.198   -18798145.688 8 -14638719.40247  21752205.701    21752212.8944
  21171141.212   -21929116.672 9 -17072273.94747  21171141.454    21171148.5394
  21899717.047   -16663105.258 8 -10942586.31247  21899716.891    21899725.3014
  24007185.720    -2973630.360 7  -2298788.64345  24007185.912    24007198.5644
  22754831.335   -10632613.841 8  -8270427.15546  22754831.848    22754841.3844
  23804974.834    -6351282.599 8  -1875985.87245  23804974.879    23804985.3624
 00  5  4  3 31 30.0000000  0  7 05 26 09 07 24 04 02
  22928694.952   -10112710.622 8  -7854326.41946  22928694.904    22928702.9904
  21764936.813   -18731240.962 8 -14586585.90647  21764937.317    21764944.5794
  21160104.836   -21987113.635 9 -17117466.39647  21160105.054    21160112.0784
  21912687.853   -16594943.473 8 -10889473.31147  21912687.692    21912696.1214
  23990305.091    -3062337.382 7  -2367910.79045  23990305.378    23990317.9284
  22742431.130   -10697777.268 8  -8321203.82446  22742431.642    22742441.1874
  23815361.786    -6296700.458 8  -1833454.50145  23815361.648    23815372.1704
 00  5  4  3 32  0.0000000  0  7 05 26 09 07 24 04 02
  22917676.168   -10170615.140 8  -7899446.86146  22917676.083    22917684.1514
  21777737.039   -18663975.306 8 -14534171.17047  21777737.526    21777744.8684
  21149119.910   -22044839.988 9 -17162447.97747  21149120.149    21149127.1484
  21925715.621   -16526482.538 8 -10836127.21347  21925715.443    21925723.8914
  23973415.981    -3151089.138 7  -2437067.77145  23973416.219    23973428.7104
  22730086.538   -10762647.762 8  -8371752.24146  22730087.198    22730096.7574
  23825753.797    -6242092.073 8  -1790902.68745  23825753.444    23825763.9024
 00  5  4  3 32 30.0000000  0  7 05 26 09 07 24 04 02
  22906678.501   -10228408.384 8  -7944480.59846  22906678.426    22906686.3664
  21790605.540   -18596350.863 8 -14481476.85747  21790606.067    21790613.3644
  21138186.977   -22102293.201 9 -17207216.73147  21138187.198    21138194.2184
  21938799.955   -16457724.411 8 -10782549.53447  21938799.765    21938808.2054
  23956519.015    -3239882.311 7  -2506257.01845  23956519.298    23956531.5314
  22717798.520   -10827222.010 8  -8422069.80746  22717799.145    22717808.5964
  23836150.697    -6187456.921 8  -1748330.01345  23836150.276    23836160.8474
 00  5  4  3 33  0.0000000  0  7 05 26 09 07 24 04 02
  22895701.946   -10286090.399 8  -7989427.63046  22895701.866    22895709.9634
  21803541.962   -18528369.853 8 -14428504.69347  21803542.471    21803549.6654
  21127306.443   -22159470.787 9 -17251770.70647  21127306.640    21127313.7054
  21951940.363   -16388671.091 8 -10728741.83647  21951940.208    21951948.6604
  23939614.879    -3328713.728 7  -2575476.07845  23939615.159    23939627.1834
  22705567.501   -10891496.489 8  -8472153.78446  22705568.082    22705577.6894
  23846552.743    -6132794.156 8  -1705735.85045  23846552.314    23846563.0344
 00  5  4  3 33 30.0000000  0  7 05 26 09 07 24 04 02
  22884746.558   -10343660.865 8  -8034287.74946  22884746.569    22884754.7304
  21816545.857   -18460034.424 8 -14375256.35747  21816546.369    21816553.4974
  21116478.712   -22216370.816 9 -17296108.41147  21116478.916    21116486.0144
  21965136.644   -16319324.469 8 -10674705.59147  21965136.492    21965144.9494
  23922703.876    -3417580.499 7  -2644722.66145  23922704.187    23922716.2184
  22693394.270   -10955467.872 8  -8522001.58746  22693394.820    22693404.2854
  23856960.042    -6078103.326 7  -1663119.81145  23856959.691    23856970.6524
 00  5  4  3 34  0.0000000  0  7 05 26 09 07 24 04 02
  22873812.364   -10401120.567 8  -8079061.56346  22873812.309    22873820.5534
  21829616.611   -18391347.516 8 -14321734.15147  21829617.091    21829624.2204
  21105704.096   -22272991.566 9 -17340228.49047  21105704.345    21105711.4454
  21978388.263   -16249687.113 8 -10620442.79747  21978388.088    21978396.5204
  23905786.811    -3506479.856 7  -2713994.65645  23905787.009    23905799.2054
  22681279.073   -11019133.400 8  -8571611.04246  22681279.657    22681289.1274
  23867372.647    -6023384.450 8  -1620481.91645  23867372.461    23867383.5384
 00  5  4  3 34 30.0000000  0  7 05 26 09 07 24 04 02
  22862899.200   -10458470.027 8  -8123749.47646  22862899.104    22862907.2704
  21842753.690   -18322311.859 8 -14267940.19047  21842754.196    21842761.2584
  21094983.084   -22329331.131 9 -17384129.45847  21094983.297    21094990.4014
  21991694.704   -16179761.614 8 -10565955.48547  21991694.507    21991703.0054
  23888863.944    -3595409.280 8  -2783290.08345  23888864.114    23888876.1584
  22669222.565   -11082490.280 8  -8620980.00846  22669223.233    22669232.7134
  23877790.714    -5968637.510 7  -1577822.14445  23877790.530    23877801.7764
 00  5  4  3 35  0.0000000  0  7 05 26 09 07 24 04 02
  22852006.856   -10515710.118 8  -8168352.16446  22852006.765    22852014.8954
  21855956.598   -18252930.306 8 -14213876.69647  21855957.096    21855964.1654
  21084315.770   -22385388.115 9 -17427810.23847  21084316.012    21084323.0934
  22005055.480   -16109550.618 8 -10511245.69847  22005055.307    22005063.8504
  23871935.791    -3684366.301 8  -2852607.01845  23871935.983    23871948.0364
  22657225.421   -11145535.935 8  -8670106.44346  22657226.059    22657235.4784
  23888214.213    -5913862.681 8  -1535140.64945  23888213.983    23888225.2934
 00  5  4  3 35 30.0000000  0  7 05 26 09 07 24 04 02
  22841135.320   -10572840.751 8  -8212869.56446  22841135.231    22841143.3694
  21869224.791   -18183205.197 8 -14159545.50547  21869225.320    21869232.4634
  21073702.727   -22441160.023 9 -17471268.88547  21073702.969    21073710.0604
  22018470.256   -16039056.034 8 -10456314.93447  22018470.060    22018478.6144
  23855003.041    -3773347.626 8  -2921942.92545  23855003.155    23855015.0274
  22645288.211   -11208266.993 8  -8718987.74146  22645288.743    22645298.1154
  23898643.300    -5859059.180 8  -1492436.81145  23898642.973    23898654.0694
 00  5  4  3 36  0.0000000  0  7 05 26 09 07 24 04 02
  22830284.651   -10629862.025 8  -8257301.77546  22830284.543    22830292.5664
  21882557.997   -18113138.995 8 -14104948.52647  21882558.530    21882565.7204
  21063144.398   -22496644.712 9 -17514503.73147  21063144.618    21063151.7064
  22031938.563   -15968280.106 8 -10401164.94547  22031938.366    22031946.9404
  23838066.146    -3862350.558 7  -2991295.66945  23838066.261    23838078.0774
  22633411.257   -11270680.221 8  -8767621.39446  22633411.805    22633421.2674
  23909077.740    -5804226.717 8  -1449710.37345  23909077.368    23909088.3594
 00  5  4  3 36 30.0000000  0  7 05 26 09 07 24 04 02
  22819454.713   -10686773.575 8  -8301648.45346  22819454.590    22819462.6534
  21895955.793   -18042733.558 8 -14050087.20547  21895956.325    21895963.5254
  21052641.073   -22551839.882 9 -17557512.98347  21052641.310    21052648.4364
  22045460.072   -15897224.487 8 -10345797.00347  22045459.866    22045468.4574
  23821125.754    -3951371.475 8  -3060662.41945  23821125.978    23821137.7444
  22621595.496   -11332772.213 8  -8816004.72246  22621596.105    22621605.5324
  23919517.841    -5749364.214 8  -1406960.52245  23919517.613    23919528.4094
 00  5  4  3 37  0.0000000  0  7 05 26 09 07 24 04 02
  22808645.572   -10743575.838 8  -8345909.96846  22808645.474    22808653.5004
  21909417.504   -17971991.758 8 -13994963.77447  21909418.046    21909425.2474
  21042193.227   -22606743.691 9 -17600295.19447  21042193.453    21042200.6374
  22059034.326   -15825891.604 8 -10290213.01647  22059034.098    22059042.7214
  23804182.653    -4040407.597 7  -3130041.02145  23804182.788    23804194.7164
  22609841.504   -11394539.751 8  -8864135.23246  22609842.112    22609851.5414
  23929963.659    -5694471.561 8  -1364187.21245  23929963.431    23929974.2884
 00  5  4  3 37 30.0000000  0  7 05 26 09 07 24 04 02
  22797857.186   -10800269.331 8  -8390086.74746  22797857.032    22797865.0104
  21922942.724   -17900916.361 8 -13939580.40647  21922943.272    21922950.4834
  21031801.191   -22661354.399 9 -17642849.01847  21031801.417    21031808.5774
  22072660.793   -15754283.935 8 -10234414.91347  22072660.635    22072669.2854
  23787236.915    -4129456.277 7  -3199429.45045  23787237.199    23787249.2824
  22598149.787   -11455980.465 8  -8912011.08246  22598150.316    22598159.7024
  23940415.192    -5639548.645 7  -1321390.34245  23940415.036    23940426.0414
 00  5  4  3 38  0.0000000  0  7 05 26 09 07 24 04 02
  22787089.354   -10856854.501 8  -8434179.12346  22787089.206    22787097.2544
  21936530.980   -17829509.896 8 -13883939.06647  21936531.515    21936538.7834
  21021465.429   -22715669.650 9 -17685172.61747  21021465.642    21021472.7264
  22086339.211   -15682403.808 8 -10178404.50647  22086339.035    22086347.6874
  23770289.584    -4218514.608 8  -3268825.41345  23770289.771    23770301.9544
  22586520.758   -11517091.158 8  -8959629.78346  22586521.266    22586530.6694
  23950872.426    -5584595.054 7  -1278569.56945  23950872.376    23950883.7244
 00  5  4  3 38 30.0000000  0  7 05 26 09 07 24 04 02
  22776342.287   -10913331.193 8  -8478186.96946  22776342.166    22776350.2214
  21950181.777   -17757774.854 8 -13828041.68347  21950182.305    21950189.6684
  21011186.223   -22769687.661 9 -17727264.59047  21011186.458    21011193.4374
  22100069.057   -15610253.223 8 -10122183.33847  22100068.900    22100077.5744
  23753341.104    -4307579.473 8  -3338226.45445  23753341.283    23753353.4064
  22574955.187   -11577868.560 8  -9006988.76346  22574955.713    22574965.0454
  23961335.715    -5529610.129 7  -1235724.34545  23961335.842    23961347.2024
 00  5  4  3 39  0.0000000  0  7 05 26 09 07 24 04 02
  22765615.519   -10969700.572 8  -8522111.19046  22765615.433    22765623.5624
  21963894.358   -17685714.642 8 -13771890.93347  21963894.902    21963902.3544
  21000963.791   -22823407.128 9 -17769123.94047  21000964.005    21000970.9304
  22113849.779   -15537835.302 8 -10065753.86647  22113849.650    22113858.3474
  23736391.798    -4396648.754 8  -3407630.96345  23736391.958    23736403.7824
  22563453.281   -11638310.593 8  -9054086.40946  22563453.856    22563463.2284
  23971804.958    -5474594.307 7  -1192855.07345  23971805.094    23971816.5154
