     2.11           OBSERVATION DATA    G (GPS)             RINEX VERSION / TYPE
BIT 2 OF LLI (+4) FLAGS DATA COLLECTED UNDER "AS" CONDITION COMMENT
UPC1                                                        MARKER NAME
gAGE / UPC          gAGE / UPC                              OBSERVER / AGENCY
1                   NOVATEL  MILLENIUM  OEM-3               REC # / TYPE / VERS
1                   NOVATEL PINWELL                         ANT # / TYPE
  4789032.6277   176595.0498  4195013.2503                  APPROX POSITION XYZ
        0.0000        0.0000        0.0000                  ANTENNA: DELTA H/E/N
     1     1                                                WAVELENGTH FACT L1/2
     6    C1    P2    L1    L2    D1    D2                  # / TYPES OF OBSERV
    30.0000                                                 INTERVAL
SNR is mapped to signal strength [0-9]                      COMMENT
 L1 SNR:  >44  >35   >26   >17    >8    >0         n/a      COMMENT
    sig:   9    8     7     6      5     4          0       COMMENT
 L2 SNR:  >50  >42   >34   >26    >18   >8    >0   n/a      COMMENT
    sig:   9    8     7     6      5     4     3    0       COMMENT
teqc edited: NAVSTAR GPS # 21 excluded                      COMMENT
Forced Modulo Decimation to 30 seconds                      COMMENT
  2005     5    29     0     0   30.0000000     GPS         TIME OF FIRST OBS
                                                            END OF HEADER
 05  5 29  0  0 30.0000000  0  8G25G09G06G01G02G05G30G14
  22998987.972    22998987.1004  120860524.76448  94177035.38246      2790.89648
      2174.72746
  24275746.354    24275750.8724  127569989.88948  99405197.32446     -3698.81348
     -2882.21346
  20463817.043    20463815.4534  107538152.57049  83795945.14246      1192.35649
       929.10846
  22774280.535    22774278.8274  119679682.55348  93256877.62846       394.58348
       307.48346
  22821734.068    22821730.0604  119929041.33448  93451212.76946      -416.44448
      -324.50246
  21920927.082    21920925.1494  115195372.13248  89762682.37546     -2255.59648
     -1757.60446
  20154067.901    20154066.0584  105910484.25149  82527634.23246      -283.43749
      -220.86046
  22457564.323    22457562.5554  118015323.68348  91960005.61846     -2065.29348
     -1609.30746
 05  5 29  0  1  0.0000000  0  8G25G09G06G01G02G05G30G14
  22983074.507    22983073.0014  120776899.30048  94111872.74245      2784.04548
      2169.38445
  24296871.908    24296871.0664  127681005.47548  99491702.95245     -3702.30248
     -2884.89145
  20457051.068    20457049.4004  107502597.82949  83768240.18146      1177.78849
       917.75746
  22772081.704    22772081.1834  119668124.93348  93247871.70646       375.58848
       292.72146
  22824168.814    22824164.2804  119941835.42048  93461182.20146      -436.49448
      -340.13246
  21933820.669    21933818.9144  115263127.57948  89815478.81146     -2261.40148
     -1762.12946
  20155714.781    20155712.9684  105919137.70149  82534377.18947      -293.67749
      -228.84547
  22469394.393    22469392.5314  118077490.47648  92008447.24946     -2079.55348
     -1620.43646
 05  5 29  0  1 30.0000000  0  8G25G09G06G01G02G05G30G14
  22967202.504    22967200.8294  120693490.00448  94046878.48846      2776.71448
      2163.68446
  24318017.805    24318020.4224  127792127.91048  99578291.79345     -3705.85648
     -2887.70445
  20450369.960    20450368.4934  107467488.00449  83740881.90046      1162.87549
       906.13846
  22769991.978    22769990.5134  119657141.68248  93239313.34146       356.37348
       277.70646
  22826718.627    22826716.2504  119955232.88148  93471621.78246      -456.66148
      -355.83046
  21946748.300    21946747.0574  115331062.71648  89868415.27146     -2267.46448
     -1766.84846
  20157420.576    20157418.4904  105928101.61549  82541362.06547      -304.09849
      -236.95647
  22481307.848    22481306.7924  118140094.07948  92057229.23546     -2094.18848
     -1631.83646
 05  5 29  0  2  0.0000000  0  8G25G09G06G01G02G05G30G14
  22951372.983    22951371.2664  120610303.97448  93982058.24646      2769.08348
      2157.73046
  24339184.247    24339181.8214  127903360.44948  99664966.43046     -3709.37248
     -2890.46146
  20443774.380    20443772.4294  107432828.09749  83713874.20346      1147.72649
       894.33546
  22768012.073    22768010.2444  119646737.89148  93231206.46346       337.02748
       262.60846
  22829383.295    22829377.8854  119969238.48848  93482535.25246      -477.12748
      -371.77246
  21959711.158    21959709.6414  115399181.94848  89921495.15546     -2273.63548
     -1771.67146
  20159186.177    20159184.1994  105937380.97449  82548592.73847      -314.66849
      -245.19747
  22493304.688    22493302.8684  118203136.98348  92106353.56846     -2108.73548
     -1643.16146
 05  5 29  0  2 30.0000000  0  8G25G09G06G01G02G05G30G14
  22935586.876    22935584.5154  120527346.43948  93917416.04546      2761.68248
      2151.97546
  24360373.291    24360374.1464  128014704.52248  99751727.94346     -3713.20048
     -2893.39246
  20437265.266    20437263.0464  107398621.43749  83687219.69246      1132.96149
       882.83246
  22766142.794    22766143.3414  119636916.76548  93223553.63846       317.85048
       247.65146
  22832165.081    22832161.1054  119983855.38848  93493925.05445      -497.16748
      -387.42145
  21972709.551    21972708.1914  115467488.05048  89974720.68046     -2279.91648
     -1776.56846
  20161012.807    20161010.7164  105946978.95649  82556071.69546      -325.00549
      -253.24646
  22505385.088    22505382.9694  118266619.26548  92155820.24846     -2123.18748
     -1654.43946
 05  5 29  0  3  0.0000000  0  8G25G09G06G01G02G05G30G14
  22919842.627    22919841.0754  120444612.78948  93852948.30646      2754.01948
      2145.98846
  24381580.643    24381581.6654  128126151.46648  99838569.69946     -3716.48148
     -2895.93346
  20430840.419    20430839.1904  107364861.47449  83660913.25246      1117.82749
       871.03546
  22764383.668    22764381.4464  119627671.49548  93216349.55646       298.62748
       232.69646
  22835060.877    22835056.3494  119999076.41348  93505785.61746      -517.44348
      -403.19446
  21985741.699    21985740.2214  115535973.68848  90028086.10846     -2285.86048
     -1781.18246
  20162898.568    20162896.3534  105956888.61549  82563793.52146      -335.51049
      -261.43846
  22517547.057    22517543.3374  118330531.66048  92205622.08546     -2137.33448
     -1665.43746
 05  5 29  0  3 30.0000000  0  8G25G09G06G01G02G05G30G14
  22904141.403    22904139.8844  120362103.98948  93788655.76446      2746.46048
      2140.08446
  24402807.194    24402809.4764  128237698.16948  99925489.13843     -3720.21848
     -2898.93243
  20424501.011    20424499.1364  107331546.88849  83634953.86346      1103.02749
       859.50246
  22762734.094    22762732.5724  119619000.82548  93209593.19846       279.44348
       217.74246
  22838072.570    22838069.0234  120014900.23048  93518115.86546      -537.71648
      -419.00746
  21998808.155    21998806.2304  115604637.18948  90081590.10846     -2291.56848
     -1785.64846
  20164843.177    20164841.3454  105967108.46749  82571757.04746      -345.91949
      -269.54146
  22529789.502    22529787.2634  118394870.12448  92255755.93146     -2151.62448
     -1676.58346
 05  5 29  0  4  0.0000000  0  8G25G09G06G01G02G05G30G14
  22888484.233    22888483.1644  120279826.81848  93724543.70946      2738.62548
      2134.01546
  24424054.002    24424054.0434  128349347.74448 100012488.81445     -3723.43648
     -2901.41645
  20418247.348    20418245.7474  107298682.50049  83609345.27746      1087.79249
       847.63546
  22761193.879    22761193.1744  119610909.60648  93203288.34146       259.91948
       202.53846
  22841198.687    22841195.3364  120031331.31648  93530919.32746      -558.11748
      -434.90646
  22011908.916    22011907.7884  115673482.74448  90135235.99646     -2297.98148
     -1790.63346
  20166847.885    20166845.6544  105977643.49349  82579966.16746      -356.70449
      -277.95446
  22542114.709    22542113.8504  118459636.40248  92306223.15046     -2166.12248
     -1687.91746
 05  5 29  0  4 30.0000000  0  8G25G09G06G01G02G05G30G14
  22872873.029    22872870.8664  120197785.70348  93660615.59246      2730.97148
      2128.00846
  24445319.729    24445316.5994  128461100.37147 100099568.66146     -3726.00847
     -2903.37646
  20412079.381    20412077.7714  107266270.59749  83584089.27846      1073.09149
       836.17446
  22759764.855    22759762.9834  119603399.83648  93197436.56946       240.79148
       187.61046
  22844441.716    22844438.4234  120048371.42548  93544197.37646      -577.86548
      -450.29446
  22025044.912    22025043.9474  115742512.12548  90189025.11146     -2303.98948
     -1795.30546
  20168912.850    20168910.8764  105988495.42649  82588422.22546      -366.76849
      -285.79846
  22554520.407    22554518.6084  118524830.21048  92357023.47246     -2179.96348
     -1698.67446
 05  5 29  0  5  0.0000000  0  8G25G09G06G01G02G05G30G14
  22857303.996    22857301.3054  120115969.49948  93596862.76546      2723.29048
      2122.09146
  24466601.337    24466601.6684  128572940.94147 100186651.00844     -3729.38047
     -2905.98944
  20405995.011    20405993.9894  107234297.78349  83559175.41846      1058.26649
       824.62446
  22758443.914    22758442.9824  119596458.09448  93192027.40946       221.51848
       172.61946
  22847797.979    22847793.9524  120066006.91748  93557939.31646      -597.92448
      -465.90346
  22038213.121    22038210.8494  115811711.44948  90242946.64646     -2309.52148
     -1799.62646
  20171035.530    20171033.5794  105999650.93349  82597114.84546      -377.07249
      -293.81446
  22567004.856    22567003.4674  118590435.21148  92408144.24746     -2193.61648
     -1709.30346
 05  5 29  0  5 30.0000000  0  8G25G09G06G01G02G05G30G14
  22841780.362    22841777.9824  120034393.69248  93533297.24445      2715.16248
      2115.71845
  24487903.545    24487901.6274  128684880.96348 100273876.88342     -3732.94148
     -2908.82642
  20399996.900    20399995.8344  107202777.22149  83534613.96747      1043.27349
       812.94047
  22757233.456    22757233.0974  119590097.39648  93187071.04946       202.62448
       157.89246
  22851269.362    22851263.8044  120084250.78748  93572155.33746      -618.22048
      -481.73246
  22051415.414    22051414.1424  115881093.26748  90297010.37546     -2315.44248
     -1804.24346
  20173218.986    20173217.2404  106011123.28949  82606054.35046      -387.55649
      -301.98846
  22579569.193    22579567.2344  118656461.77048  92459593.45746     -2207.89548
     -1720.43646
 05  5 29  0  6  0.0000000  0  8G25G09G06G01G02G05G30G14
  22826302.388    22826299.8384  119953056.29348  93469917.47946      2707.10148
      2109.43946
  24509223.138    24509219.6164  128796914.35248 100361175.49246     -3736.06348
     -2911.19946
  20394084.328    20394082.6704  107171704.98449  83510401.86547      1028.34049
       801.30047
  22756133.047    22756132.0134  119584313.54448  93182564.11946       183.26348
       142.78746
  22854855.416    22854852.2214  120103098.55048  93586841.93346      -638.57248
      -497.59846
  22064652.396    22064651.2934  115950653.18848  90351212.90846     -2321.65548
     -1809.07546
  20175461.693    20175459.5214  106022908.20949  82615237.41147      -398.16049
      -310.25847
  22592212.655    22592211.2214  118722903.30548  92511366.05046     -2221.67848
     -1731.18946
 05  5 29  0  6 30.0000000  0  8G25G09G06G01G02G05G30G14
  22810869.762    22810867.8134  119871958.69248  93406724.58446      2698.95648
      2103.08046
  24530559.807    24530559.1744  128909038.76548 100448545.05645     -3739.46448
     -2913.83345
  20388256.449    20388255.0224  107141080.32749  83486538.51846      1013.14249
       789.46546
  22755142.148    22755140.9504  119579105.65448  93178506.05946       163.79648
       127.65046
  22858556.725    22858553.8984  120122548.86448  93601998.02146      -658.59148
      -513.17546
  22077922.872    22077920.3684  116020389.68848  90405553.03646     -2327.72748
     -1813.81546
  20177763.239    20177761.3884  106035004.82849  82624663.35246      -408.71649
      -318.47846
  22604933.891    22604932.5914  118789755.94148  92563458.99146     -2235.40548
     -1741.85746
 05  5 29  0  7  0.0000000  0  8G25G09G06G01G02G05G30G14
  22795485.204    22795482.6164  119791110.16748  93343725.75346      2690.94148
      2096.85846
  24551915.571    24551916.0904  129021259.82848 100535989.93645     -3742.27648
     -2916.00945
  20382515.237    20382513.7184  107110910.53249  83463029.62046       998.20349
       777.81846
  22754261.094    22754261.3694  119574480.93648  93174902.37546       144.49648
       112.60046
  22862374.656    22862370.6234  120142608.90848  93617629.22646      -678.73748
      -528.89146
  22091228.185    22091226.7614  116090309.62948  90460036.07846     -2333.54848
     -1818.34846
  20180125.640    20180123.9884  106047420.45549  82634337.87646      -418.96449
      -326.46646
  22617734.810    22617735.0274  118857024.40748  92615875.93246     -2249.01948
     -1752.49846
 05  5 29  0  7 30.0000000  0  8G25G09G06G01G02G05G30G14
  22780145.362    22780143.0304  119710500.18548  93280912.83346      2682.81748
      2090.49146
  24573285.327    24573284.0024  129133562.80348 100623498.59946     -3745.05548
     -2918.18546
  20376858.181    20376856.7834  107081182.66049  83439865.06747       983.35549
       766.23247
  22753490.421    22753489.0824  119570426.21248  93171742.85546       125.54748
        97.81946
  22866305.699    22866302.0624  120163265.43548  93633725.24646      -698.51948
      -544.31746
  22104565.792    22104563.5074  116160399.73148  90514651.72046     -2339.12748
     -1822.69946
  20182546.757    20182544.6294  106060142.12349  82644250.88247      -429.26849
      -334.49347
  22630612.091    22630612.4694  118924692.92648  92668604.63246     -2262.38648
     -1762.89746
 05  5 29  0  8  0.0000000  0  8G25G09G06G01G02G05G30G14
  22764854.152    22764851.1354  119630143.64348  93218297.37746      2674.28848
      2083.86246
  24594674.885    24594671.1404  129245958.39948 100711079.47242     -3748.11248
     -2920.63442
  20371287.419    20371286.4614  107051909.28749  83417054.67446       968.39449
       754.59546
  22752830.122    22752827.9164  119566953.87848  93169037.13145       106.13748
        82.70045
  22870352.065    22870347.9864  120184530.33148  93650295.32546      -718.84048
      -560.13346
  22117938.098    22117936.4324  116230672.13048  90569409.42446     -2345.29848
     -1827.51146
  20185028.111    20185026.2074  106073182.35249  82654412.11046      -439.86549
      -342.75046
  22643567.262    22643566.9334  118992771.35548  92721652.69846     -2276.00048
     -1773.50146
 05  5 29  0  8 30.0000000  0  8G25G09G06G01G02G05G30G14
  22749608.966    22749607.2254  119550031.73548  93155872.53146      2666.00048
      2077.41446
  24616077.983    24616074.9584  129358433.96348 100798722.65345     -3751.08148
     -2922.96845
  20365801.349    20365799.7344  107023079.43649  83394589.87746       953.16049
       742.72046
  22752276.985    22752276.3854  119564052.75148  93166776.51446        86.82648
        67.64146
  22874512.069    22874507.3514  120206392.05848  93667330.44046      -739.00148
      -575.82646
  22131343.763    22131341.8104  116301115.25548  90624300.14146     -2351.10548
     -1832.02146
  20187568.441    20187566.0434  106086530.07849  82664812.94546      -450.30749
      -350.89146
  22656597.264    22656597.0674  119061245.60648  92775009.24646     -2289.52148
     -1784.02646
 05  5 29  0  9  0.0000000  0  8G25G09G06G01G02G05G30G14
  22734412.826    22734410.5964  119470176.49248  93093647.67846      2657.55948
      2070.82546
  24637497.961    24637495.9774  129470997.34348 100886434.35945     -3753.92948
     -2925.17945
  20360401.578    20360400.2474  106994702.68649  83372478.15546       938.52849
       731.31846
  22751836.282    22751835.1184  119561732.25748  93164968.36146        67.85448
        52.86846
  22878787.662    22878784.3584  120228859.99248  93684837.95346      -758.81748
      -591.28446
  22144782.453    22144781.8564  116371738.61048  90679331.31446     -2356.88948
     -1836.53246
  20190168.819    20190166.1754  106100194.88749  82675460.85146      -460.73549
      -359.01946
  22669703.999    22669703.8284  119130122.26848  92828679.32645     -2302.49848
     -1794.18945
 05  5 29  0  9 30.0000000  0  8G25G09G06G01G02G05G30G14
  22719265.587    22719263.5144  119390574.61348  93031620.28446      2649.05248
      2064.20046
  24658932.023    24658931.7524  129583641.44548 100974208.87245     -3756.44148
     -2927.10545
  20355086.758    20355085.6744  106966773.64249  83350715.28346       923.58949
       719.67746
  22751503.887    22751502.9324  119559986.83248  93163608.27846        48.75548
        37.89746
  22883177.239    22883173.7914  120251928.05748  93702813.06446      -779.00348
      -607.00546
  22158254.961    22158253.3494  116442536.31748  90734498.34546     -2362.70048
     -1841.03646
  20192828.200    20192826.1604  106114171.49849  82686351.72647      -471.14949
      -367.12647
  22682886.167    22682883.6934  119199393.96048  92882657.25146     -2315.45148
     -1804.25046
 05  5 29  0 10  0.0000000  0  8G25G09G06G01G02G05G30G14
  22704167.066    22704164.8044  119311230.95148  92969794.08346      2640.48648
      2057.53946
  24680382.485    24680383.8884  129696366.98347 101062046.88242     -3758.90347
     -2929.04642
  20349857.745    20349856.3814  106939294.75749  83329303.18546       908.49249
       707.92146
  22751281.781    22751279.4574  119558818.42348  93162697.82446        29.33448
        22.86346
  22887681.239    22887677.7824  120275598.34548  93721257.48146      -799.08148
      -622.64146
  22171761.102    22171759.8194  116513510.23048  90789802.66646     -2368.68248
     -1845.72446
  20195547.703    20195545.6484  106128462.19149  82697487.33247      -481.62349
      -375.28747
  22696142.827    22696141.4354  119269059.43248  92936941.99546     -2328.80148
     -1814.62046
 05  5 29  0 10 30.0000000  0  8G25G09G06G01G02G05G30G14
  22689117.950    22689116.2814  119232149.66648  92908172.28746      2631.91948
      2050.82846
  24701850.809    24701848.3144  129809174.11848 101149961.36044     -3761.25248
     -2930.85444
  20344715.011    20344713.4314  106912267.85249  83308243.28046       893.45649
       696.19946
  22751169.268    22751168.4754  119558228.73748  93162238.33446        10.28248
         8.01546
  22892300.943    22892297.2834  120299872.49048  93740172.41846      -818.95948
      -638.16946
  22185300.996    22185298.9744  116584661.82948  90845245.44446     -2374.46748
     -1850.22546
  20198327.185    20198325.1174  106143068.94949  82708869.22646      -491.93349
      -383.32446
  22709474.521    22709474.2884  119339118.10148  92991533.13046     -2341.58448
     -1824.61246
 05  5 29  0 11  0.0000000  0  8G25G09G06G01G02G05G30G14
  22674117.859    22674114.9004  119153318.86048  92846745.71146      2623.35148
      2044.16946
  24723329.524    24723324.4744  129922046.90648 101237914.06046     -3763.51848
     -2932.53446
  20339655.389    20339653.7564  106885678.85049  83287524.60146       878.85949
       684.83046
  22751164.426    22751164.3144  119558203.51448  93162218.69246        -8.67348
        -6.71246
  22897032.137    22897028.4264  120324735.48348  93759546.18946      -838.65248
      -653.49746
  22198871.607    22198868.8684  116655976.85748  90900815.58446     -2379.96648
     -1854.50746
  20201164.354    20201162.0564  106157977.65749  82720486.40346      -502.17349
      -391.29846
  22722878.013    22722878.4474  119409553.00548  93046417.45546     -2354.24348
     -1834.47846
 05  5 29  0 11 30.0000000  0  8G25G09G06G01G02G05G30G14
  22659166.370    22659164.6214  119074749.70948  92785523.04646      2614.52648
      2037.28946
  24744822.011    24744821.4654  130034992.81747 101325923.87942     -3766.11747
     -2934.54242
  20334680.657    20334678.9054  106859536.50949  83267153.97546       863.95449
       673.21346
  22751268.352    22751267.4784  119558751.14748  93162645.42146       -27.71348
       -21.57746
  22901876.542    22901873.2884  120350195.88848  93779385.49846      -858.62548
      -669.05246
  22212475.293    22212473.3284  116727463.76448  90956519.63746     -2385.70748
     -1858.98846
  20204060.430    20204058.2944  106173197.19549  82732345.79046      -512.59249
      -399.42446
  22736354.098    22736352.4084  119480370.17148  93101599.64046     -2367.23148
     -1844.60346
 05  5 29  0 12  0.0000000  0  8G25G09G06G01G02G05G30G14
  22644266.080    22644263.8294  118996449.88348  92724510.21546      2605.62248
      2030.35846
  24766328.850    24766327.0834  130148015.35147 101413920.26442     -3768.33647
     -2936.47842
  20329791.793    20329790.1654  106833846.15749  83247135.53746       848.77949
       661.38646
  22751483.112    22751481.3854  119559876.63448  93163522.42346       -47.30948
       -36.87246
  22906836.307    22906833.1914  120376258.32448  93799693.88446      -878.91848
      -684.86446
  22226112.149    22226110.4074  116799127.20448  91012361.26446     -2391.96248
     -1863.86346
  20207016.891    20207014.6154  106188732.91849  82744451.54546      -523.16349
      -407.66146
  22749904.024    22749902.6724  119551572.27748  93157081.77246     -2379.71648
     -1854.32146
 05  5 29  0 12 30.0000000  0  8G25G09G06G01G02G05G30G14
  22629417.453    22629415.9404  118918423.10648  92663710.12146      2596.22348
      2023.03146
  24787852.726    24787851.8674  130261114.47547 101502101.33746     -3771.27847
     -2938.67046
  20324989.254    20324988.0334  106808609.38649  83227470.53647       833.51249
       649.48847
  22751806.898    22751805.9544  119561581.38148  93164850.81146       -66.61048
       -51.88546
  22911910.443    22911906.7494  120402923.81748  93820472.24846      -899.06748
      -700.58446
  22239783.203    22239780.9344  116870968.55248  91068341.49946     -2397.97248
     -1868.54646
  20210033.735    20210031.2484  106204586.52949  82756805.00646      -534.00049
      -416.10846
  22763526.212    22763524.3494  119623157.99348  93212862.83546     -2392.76548
     -1864.50646
 05  5 29  0 13  0.0000000  0  8G25G09G06G01G02G05G30G14
  22614620.006    22614619.3214  118840661.48448  92603116.67846      2587.61748
      2016.31646
  24809386.344    24809388.7754  130374277.73047 101590280.46846     -3773.19447
     -2940.19846
  20320271.177    20320269.4924  106783815.48949  83208150.63346       819.14149
       638.29746
  22752239.520    22752239.2234  119563854.36948  93166621.97546       -85.18248
       -66.38146
  22917097.746    22917093.1524  120430181.14848  93841711.71446      -918.30948
      -715.57346
  22253485.700    22253484.5554  116942976.88448  91124451.89246     -2402.97448
     -1872.46246
  20213109.144    20213106.8454  106220747.42449  82769397.91146      -543.83849
      -423.77246
  22777219.120    22777217.2184  119695113.91748  93268932.36946     -2404.52048
     -1873.65246
 05  5 29  0 13 30.0000000  0  8G25G09G06G01G02G05G30G14
  22599874.504    22599871.4444  118763170.39948  92542734.01746      2578.41848
      2009.16746
  24830933.492    24830930.1904  130487506.61948 101678510.55246     -3775.41048
     -2941.90046
  20315638.040    20315636.3264  106759467.57849  83189178.26046       804.05249
       626.53446
  22752781.486    22752779.7554  119566698.36148  93168838.06346      -104.38748
       -81.33746
  22922397.282    22922393.1624  120458033.01548  93863414.47346      -938.33048
      -731.16246
  22267221.143    22267218.9214  117015155.15448  91180694.66146     -2409.03048
     -1877.16846
  20216243.456    20216241.2344  106237218.85949  82782232.79546      -554.27249
      -431.90446
  22790982.322    22790981.4864  119767440.69248  93325290.85546     -2417.25048
     -1883.59146
 05  5 29  0 14  0.0000000  0  8G25G09G06G01G02G05G30G14
  22585180.802    22585178.8044  118685956.19148  92482567.13446      2568.97048
      2001.79546
  24852492.085    24852491.4064  130600803.37847 101766810.58845     -3777.85847
     -2943.73145
  20311090.117    20311088.4674  106735569.60449  83170556.47046       788.90649
       614.73746
  22753431.389    22753430.2314  119570116.93148  93171501.88146      -123.78148
       -96.37946
  22927811.422    22927807.8474  120486482.75648  93885583.11346      -958.36848
      -746.78446
  22280988.633    22280988.4804  117087506.77048  91237072.54046     -2414.84548
     -1881.70546
  20219437.827    20219435.5444  106254004.90549  82795312.83747      -564.94149
      -440.21347
  22804815.255    22804813.2164  119840138.98448  93381938.84645     -2429.42748
     -1893.04245
 05  5 29  0 14 30.0000000  0  8G25G09G06G01G02G05G30G14
  22570540.712    22570538.6604  118609021.86248  92422618.30146      2560.00848
      1994.80146
  24874065.612    24874064.6234  130714166.90847 101855137.75046     -3779.90947
     -2945.35346
  20306628.142    20306626.4684  106712122.03449  83152285.65047       774.47149
       603.48247
  22754191.950    22754191.1034  119574110.33848  93174613.63246      -142.30548
      -110.88146
  22933338.357    22933336.0774  120515530.40648  93908217.66145      -977.97848
      -762.06945
  22294790.140    22294788.7154  117160032.15248  91293585.78746     -2420.26148
     -1885.91846
  20222691.991    20222689.7784  106271106.09149  82808638.44346      -574.91749
      -447.98346
  22818720.172    22818718.6544  119913206.35248  93438874.42345     -2441.37648
     -1902.37145
 05  5 29  0 15  0.0000000  0  8G25G09G06G01G02G05G30G14
  22555953.004    22555950.5954  118532361.40848  92362882.90346      2550.99048
      1987.75646
  24895648.679    24895649.4444  130827587.43548 101943522.23846     -3781.66148
     -2946.78146
  20302250.488    20302248.8054  106689116.50349  83134359.27546       759.52449
       591.83846
  22755059.054    22755057.4744  119578669.89148  93178166.50646      -161.30748
      -125.70146
  22938978.105    22938975.5184  120545166.66948  93931310.87246      -997.68948
      -777.38746
  22308622.539    22308620.2724  117232722.51348  91350227.64546     -2425.87448
     -1890.29046
  20226004.943    20226002.4324  106288514.23949  82822203.23146      -585.38349
      -456.14346
  22832692.997    22832690.7144  119986631.95948  93496089.18545     -2453.61548
     -1911.92345
 05  5 29  0 15 30.0000000  0  8G25G09G06G01G02G05G30G14
  22541417.653    22541416.3964  118455978.99448  92303364.17846      2541.40448
      1980.31346
  24917243.095    24917244.1114  130941065.33448 102031946.44046     -3783.12448
     -2947.89346
  20297957.424    20297955.5794  106666554.90249  83116778.83546       744.66749
       580.26046
  22756034.267    22756032.1974  119583796.95548  93182161.61746      -180.30248
      -140.47846
  22944730.421    22944726.2624  120575393.04648  93954863.92746     -1017.49048
      -792.85246
  22322486.873    22322485.2674  117305579.62748  91406999.36446     -2431.12948
     -1894.40146
  20229375.867    20229373.9094  106306231.19049  82836008.64146      -595.61549
      -464.12446
  22846732.862    22846732.2944  120060415.00248  93553582.41846     -2465.24948
     -1920.95246
 05  5 29  0 16  0.0000000  0  8G25G09G06G01G02G05G30G14
  22526935.946    22526933.9394  118379876.87748  92244063.83146      2531.59748
      1972.66746
  24938847.510    24938844.4164  131054599.13848 102120414.21942     -3785.65948
     -2949.89842
  20293748.165    20293746.7464  106644436.99449  83099544.12946       729.54449
       568.48246
  22757118.006    22757116.8724  119589491.14348  93186598.65846      -199.36248
      -155.33046
  22950593.763    22950591.1744  120606208.55248  93978876.03846     -1037.18748
      -808.18646
  22336382.548    22336380.3724  117378603.33348  91463900.95146     -2437.20648
     -1899.12446
  20232806.190    20232803.8954  106324257.25249  82850054.92846      -606.34449
      -472.47646
  22860841.067    22860840.3794  120134552.50148  93611351.90545     -2477.54548
     -1930.55145
 05  5 29  0 16 30.0000000  0  8G25G09G06G01G02G05G30G14
  22512509.540    22512508.5834  118304068.88448  92184992.71846      2522.28948
      1965.37146
  24960465.560    24960465.9034  131168197.96247 102208932.60742     -3787.70047
     -2951.45642
  20289625.876    20289624.0664  106622773.87649  83082663.79147       714.72149
       556.92447
  22758311.173    22758310.8494  119595762.91748  93191485.74446      -218.51848
      -170.28846
  22956573.002    22956569.5844  120637623.51448  94003355.23046     -1056.90748
      -823.56046
  22350312.219    22350310.1874  117451804.30948  91520940.64846     -2442.95048
     -1903.60346
  20236297.675    20236294.9964  106342603.48849  82864350.69846      -616.70149
      -480.55146
  22875017.607    22875017.2874  120209052.89448  93669404.11046     -2489.10548
     -1939.54846
 05  5 29  0 17  0.0000000  0  8G25G09G06G01G02G05G30G14
  22498138.337    22498137.1684  118228547.59048  92126144.97546      2512.57148
      1957.84646
  24982092.502    24982089.3534  131281850.61948 102297491.95545     -3789.23648
     -2952.62245
  20285588.186    20285586.5274  106601555.67049  83066130.14847       699.85049
       545.33647
  22759613.445    22759612.8644  119602602.27048  93196815.08546      -237.37748
      -184.97946
  22962662.527    22962658.6534  120669627.95448  94028293.79446     -1076.53848
      -838.85546
  22364273.795    22364271.9274  117525172.53548  91578110.70046     -2448.41248
     -1907.87846
  20239847.756    20239845.2634  106361260.34149  82878888.51346      -626.96349
      -488.54046
  22889261.416    22889261.6464  120283903.35148  93727729.14546     -2500.96248
     -1948.79146
 05  5 29  0 17 30.0000000  0  8G25G09G06G01G02G05G30G14
  22483822.861    22483821.4064  118153318.19948  92067524.67946      2502.85848
      1950.27146
  25003729.595    25003725.6234  131395558.53947 102386087.42346     -3790.70347
     -2953.77646
  20281635.689    20281634.3624  106580785.38949  83049945.54046       684.87049
       533.66946
  22761023.519    22761022.5074  119610011.63848  93202588.62045      -256.45048
      -199.83545
  22968865.208    22968861.4344  120702223.68448  94053693.04546     -1096.11248
      -854.10146
  22378267.145    22378266.0344  117598710.88848  91635413.28546     -2454.13948
     -1912.31846
  20243458.031    20243455.5414  106380230.93049  82893670.79146      -637.58849
      -496.82546
  22903570.910    22903570.0324  120359104.17548  93786327.15645     -2512.44048
     -1957.73845
 05  5 29  0 18  0.0000000  0  8G25G09G06G01G02G05G30G14
  22469562.562    22469561.1734  118078379.99548  92009131.30746      2493.02648
      1942.68746
  25025378.302    25025382.3414  131509316.60947 102474682.99342     -3792.86147
     -2955.39842
  20277767.840    20277766.1234  106560459.54849  83034107.24847       670.17349
       522.21347
  22762541.122    22762540.0474  119617987.15348  93208803.33346      -275.10748
      -214.37746
  22975179.712    22975176.8094  120735406.84648  94079550.12146     -1115.88248
      -869.51646
  22392293.384    22392291.4094  117672415.49948  91692845.47146     -2459.56548
     -1916.54046
  20247126.793    20247124.4374  106399511.88249  82908694.90846      -647.81849
      -504.79846
  22917946.965    22917946.8454  120434649.23848  93845193.39446     -2523.72848
     -1966.53846
 05  5 29  0 18 30.0000000  0  8G25G09G06G01G02G05G30G14
  22455357.846    22455356.1864  118003732.94948  91950964.80446      2483.33548
      1935.09146
  25047034.172                   131623120.71447                     -3794.39947

  20273984.028    20273981.9704  106540575.52249  83018613.22646       655.28949
       510.61346
  22764165.877    22764164.6224  119626525.87348  93215456.88546      -294.18548
      -229.23846
  22981604.360    22981601.8734  120769174.14548  94105862.30346     -1135.35348
      -884.70946
  22406350.163    22406347.8844  117746283.83248  91750405.20046     -2465.18548
     -1920.91346
  20250854.717    20250851.7754  106419101.08549  82923959.22246      -658.26749
      -512.93346
  22932388.229    22932386.5014  120510533.03848  93904323.61046     -2535.20848
     -1975.50446
 05  5 29  0 19  0.0000000  0  8G25G09G06G01G02G05G30G14
  22441209.266    22441206.9964  117929380.37448  91893027.75346      2473.45948
      1927.36846
  25068699.714    25068697.7854  131736970.04047 102652114.15946     -3795.85747
     -2957.81846
  20270284.501    20270282.6494  106521133.87349  83003463.90247       640.68749
       499.20147
  22765897.981    22765896.5744  119635627.90048  93222549.33846      -312.79448
      -243.73546
  22988141.896    22988137.8724  120803525.42748  94132629.55046     -1154.99948
      -900.01846
  22420437.853    22420436.2194  117820316.22548  91808092.77846     -2470.45748
     -1925.03546
  20254640.818    20254638.3314  106438999.30049  82939464.33547      -668.40049
      -520.82847
  22946892.108    22946890.8664  120586753.38248  93963716.06146     -2546.25548
     -1984.09146
 05  5 29  0 19 30.0000000  0  8G25G09G06G01G02G05G30G14
  22427117.693    22427115.6964  117855328.69748  91835325.18846      2463.25148
      1919.41646
  25090373.216    25090369.1094  131850867.58247 102740828.26646     -3797.49947
     -2959.01346
  20266670.168    20266667.9484  106502138.94949  82988662.69147       625.70449
       487.56347
  22767738.066    22767736.2194  119645297.10648  93230083.78446      -331.85048
      -258.56946
  22994789.641    22994787.7204  120838464.44048  94159854.79146     -1174.61248
      -915.27046
  22434558.206    22434554.9714  117894516.93448  91865911.52546     -2476.19248
     -1929.50546
  20258487.607    20258484.5504  106459211.02549  82955213.72646      -679.10149
      -529.16746
  22961460.756    22961460.3194  120663311.98748  94023372.11346     -2557.61448
     -1992.95046
 05  5 29  0 20  0.0000000  0  8G25G09G06G01G02G05G30G14
  22413083.019    22413081.6384  117781578.06048  91777857.19246      2453.55748
      1911.91246
  25112056.336    25112054.5154  131964809.26548 102829665.04145     -3798.63848
     -2960.04245
  20263139.563    20263137.7204  106483588.01049  82974207.43747       611.10749
       476.19447
  22769684.854    22769684.2004  119655530.21448  93238057.62546      -350.39348
      -273.05446
  23001550.582    23001546.3064  120873987.70648  94187535.29546     -1193.69348
      -930.14846
  22448709.515    22448707.5484  117968883.09748  91923859.18446     -2481.61948
     -1933.73446
  20262392.608    20262390.4144  106479733.88649  82971205.57646      -689.19749
      -537.03446
  22976093.507    22976090.9214  120740203.84148  94083287.80846     -2568.65248
     -2001.52846
 05  5 29  0 20 30.0000000  0  8G25G09G06G01G02G05G30G14
  22399106.060    22399104.3014  117708127.89548  91720623.31646      2443.35648
      1903.82146
  25133745.666    25133748.7784  132078790.43847 102918484.46146     -3800.36847
     -2961.20046
  20259693.340    20259691.8844  106465477.91149  82960095.69046       596.22249
       464.59446
  22771739.040    22771737.6854  119666323.61048  93246468.08946      -369.08648
      -287.60346
  23008420.785    23008417.7984  120910091.34448  94215668.01646     -1213.29648
      -945.43446
  22462892.038    22462890.2994  118043411.71548  91981933.42746     -2487.07548
     -1937.97746
  20266356.636    20266354.4174  106500565.09549  82987437.68846      -699.57849
      -545.12646
  22990787.073    22990785.0274  120817422.65348  94143458.29346     -2579.16648
     -2009.72846
 05  5 29  0 21  0.0000000  0  8G25G09G06G01G02G05G30G14
  22385187.885    22385186.0584  117634988.58648  91663631.68946      2432.94648
      1895.79446
  25155442.851    25155443.0564  132192743.50747 103007313.72945     -3801.56947
     -2962.33245
  20256332.625    20256331.0304  106447816.57149  82946333.62946       581.32549
       452.98846
  22773900.624    22773899.7414  119677684.59448  93255320.79446      -388.12948
      -302.43446
  23015402.954    23015397.8914  120946782.40748  94244258.51246     -1232.74448
      -960.58146
  22477106.923    22477104.2544  118118110.36848  92040140.22346     -2492.67948
     -1942.35446
  20270381.295    20270378.4754  106521712.65349  83003916.30446      -710.04149
      -553.27846
  23005545.142    23005542.1824  120894973.75548  94203887.69045     -2590.56448
     -2018.61045
 05  5 29  0 21 30.0000000  0  8G25G09G06G01G02G05G30G14
  22371328.562    22371326.0664  117562153.76648  91606877.29846      2422.82748
      1887.91946
  25177150.154    25177149.1114  132306807.72547 103096216.12256     -3802.47147
     -2963.14456
  20253055.293    20253053.8704  106430594.78449  82932914.07446       566.78749
       441.64946
  22776169.137    22776168.3984  119689603.57348  93264608.29546      -406.27948
      -316.58246
  23022494.692    23022490.3604  120984051.00748  94273298.99146     -1251.84348
      -975.47546
  22491352.164    22491349.8844  118192969.67548  92098472.14246     -2497.87348
     -1946.39046
  20274463.875    20274461.0714  106543167.82249  83020634.62646      -720.17749
      -561.17946
  23020363.882    23020361.6534  120972845.08548  94264566.61845     -2600.86448
     -2026.66245
 05  5 29  0 22  0.0000000  0  8G25G09G06G01G02G05G30G14
  22357526.640    22357525.2814  117489629.24048  91550364.71046      2412.10048
      1879.54846
  25198861.686    25198862.8334  132420907.19748 103185129.78545     -3803.89448
     -2964.11045
  20249862.387    20249860.3774  106413815.82149  82919839.57546       551.69249
       429.88746
  22778543.430    22778543.2994  119702083.25048  93274332.71846      -425.53548
      -331.57346
  23029697.860    23029694.6254  121021899.67548  94302791.50046     -1271.44348
      -990.72846
  22505628.336    22505625.8584  118267992.98548  92156931.88846     -2503.49448
     -1950.76546
  20278606.286    20278603.6014  106564934.11349  83037595.36946      -730.86349
      -569.50646
  23035243.344    23035240.8444  121051037.30748  94325495.56345     -2611.69848
     -2035.10345
 05  5 29  0 22 30.0000000  0  8G25G09G06G01G02G05G30G14
  22343785.759    22343784.1404  117417418.52748  91494096.64946      2402.47748
      1872.05946
  25220580.342    25220584.7374  132535043.24647 103274056.96746     -3804.22047
     -2964.30246
  20246753.619    20246751.8134  106397480.52349  82907110.78946       537.71749
       418.99946
  22781024.879    22781025.4114  119715123.97148  93284494.35046      -443.50848
      -345.60446
  23037010.710    23037005.8934  121060328.46948  94332736.04646     -1290.16748
     -1005.31746
  22519936.262    22519934.4634  118343181.11748  92215520.05546     -2508.38648
     -1954.61846
  20282807.330    20282804.9884  106587012.84049  83054799.57646      -740.53849
      -577.04946
  23050183.467    23050180.4114  121129548.61348  94386673.15346     -2621.72948
     -2042.89446
 05  5 29  0 23  0.0000000  0  8G25G09G06G01G02G05G30G14
  22330104.183    22330102.1394  117345521.53748  91438073.04646      2391.24948
      1863.30546
  25242305.679    25242308.7624  132649212.12047 103363024.54346     -3806.75547
     -2966.33446
  20243729.200    20243727.5384  106381586.37949  82894725.74746       522.28249
       406.97246
  22783613.503    22783611.0534  119728722.70448  93295090.74546      -462.67648
      -360.52646
  23044433.410    23044428.7984  121099334.50148  94363130.40146     -1309.86348
     -1020.65946
  22534274.064    22534272.9774  118418531.49448  92274234.63846     -2514.72948
     -1959.53746
  20287067.694    20287065.1154  106609401.61449  83072245.37246      -751.59049
      -585.65246
  23065182.822    23065181.5174  121208373.99348  94448095.52745     -2632.73248
     -2051.46645
 05  5 29  0 23 30.0000000  0  8G25G09G06G01G02G05G30G14
  22316482.027    22316480.2864  117273936.55648  91382292.58246      2381.03948
      1855.36246
  25264036.947                   132763407.98547                     -3806.71747

  20240787.802    20240785.7254  106366128.94949  82882681.00846       508.16449
       395.97346
  22786306.144    22786304.8654  119742874.42748  93306118.08446      -480.74048
      -374.60946
  23051964.802    23051961.4654  121138912.22848  94393970.25046     -1328.53548
     -1035.20646
  22548643.625    22548643.1374  118494039.86948  92333072.36546     -2519.42848
     -1963.19346
  20291386.360    20291384.2614  106632096.59749  83089929.78446      -761.56749
      -593.42746
  23080241.181    23080239.8784  121287505.88448  94509756.70745     -2642.54448
     -2059.11645
 05  5 29  0 24  0.0000000  0  8G25G09G06G01G02G05G30G14
  22302921.142    22302918.4274  117202671.92548  91326761.73846      2370.02848
      1846.78746
  25285774.382    25285779.8654  132877634.95747 103541040.48156     -3808.36347
     -2967.80656
  20237930.632    20237928.4874  106351113.77549  82870980.88846       492.98749
       384.14346
  22789104.841    22789103.2684  119757584.37148  93317580.35746      -499.87748
      -389.51846
  23059605.688    23059601.6424  121179066.26048  94425259.11646     -1348.18448
     -1050.52046
  22563043.108    22563042.4274  118569711.94148  92392037.65346     -2525.36048
     -1967.81146
  20295764.343    20295762.2184  106655103.63549  83107857.35446      -772.20549
      -601.71546
  23095358.128    23095356.9444  121366947.53148  94571659.27645     -2653.14048
     -2067.39245
 05  5 29  0 24 30.0000000  0  8G25G09G06G01G02G05G30G14
  22289421.612    22289419.6264  117131733.13748  91271484.78946      2359.26048
      1838.39146
  25307516.912    25307521.1914  132991894.36447 103630059.88345     -3808.77247
     -2967.87745
  20235157.898    20235156.0084  106336543.51749  82859627.45446       478.34949
       372.73846
  22792011.247    22792009.0344  119772854.53048  93329479.21046      -518.26248
      -403.83346
  23067356.262    23067351.4444  121219798.47948  94456998.56846     -1367.32748
     -1065.43246
  22577474.597    22577473.5344  118645550.23648  92451132.43546     -2530.74348
     -1972.01946
  20300202.264    20300200.7424  106678425.70149  83126030.39446      -782.67049
      -609.87446
  23110534.540    23110534.2534  121446699.05348  94633803.32746     -2663.27548
     -2075.31546
 05  5 29  0 25  0.0000000  0  8G25G09G06G01G02G05G30G14
  22275983.474    22275981.4434  117061115.87148  91216458.38646      2348.59048
      1830.07746
  25329265.387    25329262.4194  133106178.55547 103719112.47046     -3809.80947
     -2968.66246
  20232468.340    20232466.8154  106322411.59249  82848615.58046       463.65449
       361.28546
  22795022.494    22795021.4104  119788677.50148  93341808.81546      -536.74448
      -418.25146
  23075216.077    23075211.5644  121261101.76748  94489182.96246     -1386.33548
     -1080.24046
  22591936.230    22591935.0764  118721548.28948  92510351.70546     -2535.69248
     -1975.86446
  20304698.944    20304697.0324  106702056.76049  83144444.21647      -792.95449
      -617.88747
  23125768.588    23125764.3204  121526750.83448  94696181.21645     -2673.42848
     -2083.21845
 05  5 29  0 25 30.0000000  0  8G25G09G06G01G02G05G30G14
  22262608.197    22262606.4284  116990827.49248  91161688.26046      2337.75348
      1821.63346
  25351016.903    25351018.5144  133220490.01647 103808186.32645     -3810.35747
     -2969.03145
  20229863.708    20229861.2874  106308722.30949  82837948.61646       449.22049
       350.04946
  22798139.728    22798137.0494  119805057.08148  93354572.12046      -554.97048
      -432.41346
  23083184.671    23083181.4174  121302979.40548  94521814.91746     -1405.21248
     -1094.97646
  22606429.787    22606427.1694  118797710.27948  92569698.72746     -2541.47648
     -1980.35546
  20309255.343    20309253.5584  106726001.33749  83163102.32846      -803.11249
      -625.79846
  23141059.467    23141057.5654  121607104.73748  94758794.61645     -2683.64148
     -2091.16445
 05  5 29  0 26  0.0000000  0  8G25G09G06G01G02G05G30G14
  22249294.155    22249291.2954  116920860.20548  91107168.31746      2326.80148
      1813.09546
  25372774.669    25372772.8144  133334817.28547 103897270.42845     -3810.74347
     -2969.43445
  20227340.987    20227338.7934  106295465.21749  82827618.42446       434.67049
       338.70746
  22801360.295    22801357.6484  119821982.48148  93367760.76246      -573.33448
      -446.72346
  23091261.347    23091256.3154  121345420.31648  94554885.76146     -1424.12648
     -1109.68546
  22620951.729    22620950.5244  118874025.98348  92629165.53946     -2546.39048
     -1984.20446
  20313869.949    20313868.0434  106750249.64849  83181997.12746      -813.41849
      -633.82846
  23156405.393    23156403.8784  121687748.00248  94821633.49045     -2692.92148
     -2098.39545
 05  5 29  0 26 30.0000000  0  8G25G09G06G01G02G05G30G14
  22236042.216    22236040.0034  116851223.90248  91052906.31046      2315.85248
      1804.57346
  25394533.876    25394537.8464  133449166.35947 103986316.64246     -3811.97247
     -2970.47546
  20224901.832    20224899.4964  106282647.43749  82817630.56346       420.09449
       327.34846
  22804686.019    22804685.4294  119839460.01748  93381379.62246      -591.70348
      -461.06846
  23099445.733    23099441.6894  121388430.56348  94588400.29546     -1442.91848
     -1124.33646
  22635505.159    22635503.2534  118950502.51848  92688757.63145     -2551.90648
     -1988.48245
  20318543.284    20318541.5074  106774809.09749  83201134.36746      -823.64949
      -641.80746
  23171807.043    23171808.4784  121768684.67548  94884700.94946     -2702.62248
     -2105.95746
 05  5 29  0 27  0.0000000  0  8G25G09G06G01G02G05G30G14
  22222854.654    22222852.8154  116781921.35148  90998904.35246      2304.38648
      1795.62146
  25416296.447    25416299.1384  133563535.99547 104075504.65244     -3812.72647
     -2970.87744
  20222546.334    20222544.5624  106270269.32949  82807985.30246       405.24049
       315.77046
  22808115.902    22808115.6324  119857489.26448  93395428.37546      -610.26648
      -475.53146
  23107738.487    23107734.0094  121432009.71948  94622358.11746     -1462.32148
     -1139.46046
  22650088.245    22650087.9764  119027140.18348  92748475.32746     -2557.34748
     -1992.73446
  20323275.968    20323274.0374  106799680.34249  83220514.57446      -834.32849
      -650.13146
  23187264.210    23187263.9854  121849912.60148  94947995.43545     -2712.33648
     -2113.49945
 05  5 29  0 27 30.0000000  0  8G25G09G06G01G02G05G30G14
  22209729.812    22209727.9914  116712949.52348  90945160.10046      2293.44548
      1787.08746
  25438062.233    25438062.6034  133677919.10047 104164614.38745     -3813.41647
     -2971.46445
  20220273.183    20220271.2454  106258324.78349  82798677.87846       390.73649
       304.47546
  22811651.099    22811649.7644  119876063.78848  93409902.04546      -628.28948
      -489.55946
  23116138.950    23116134.7334  121476150.92548  94656753.88245     -1481.14848
     -1154.14845
  22664701.781    22664700.0574  119103933.04048  92808313.93046     -2562.35448
     -1996.62946
  20328067.204    20328064.9884  106824857.93749  83240133.48246      -844.54349
      -658.09046
  23202775.400    23202772.6224  121931423.08448  95011510.01145     -2722.02848
     -2121.09545
 05  5 29  0 28  0.0000000  0  8G25G09G06G01G02G05G30G14
  22196668.704    22196667.1584  116644314.20448  90891678.06046      2282.14448
      1778.28946
  25459831.962    25459834.5964  133792317.62547 104253752.20542     -3812.87547
     -2971.05742
  20218083.485    20218080.7634  106246817.12249  82789710.89346       376.27449
       293.20446
  22815290.522    22815289.4164  119895185.94748  93424802.45846      -646.58748
      -503.85646
  23124645.607    23124641.8044  121520856.63948  94691589.54946     -1499.64548
     -1168.54246
  22679345.394    22679343.8034  119180884.35348  92868276.01946     -2567.62948
     -2000.74146
  20332917.024    20332915.1774  106850345.54549  83259993.97346      -854.66949
      -665.97346
  23218339.554    23218337.2964  122013216.83648  95075245.39745     -2731.29648
     -2128.27945
 05  5 29  0 28 30.0000000  0  8G25G09G06G01G02G05G30G14
  22183672.275    22183670.9074  116576019.17748  90838461.21446      2270.67748
      1769.35846
  25481604.985    25481606.5344  133906731.38747 104342929.91755     -3814.41947
     -2972.42555
  20215976.896    20215974.7674  106235747.23549  82781085.01946       361.70349
       281.84846
  22819032.901    22819033.4034  119914856.08548  93440129.81646      -664.80248
      -518.05746
  23133260.332    23133256.6984  121566126.69648  94726864.93146     -1518.76348
     -1183.45846
  22694019.331    22694018.1604  119257995.31048  92928362.49246     -2573.13648
     -2005.05146
  20337826.503    20337824.5594  106876144.67649  83280097.19446      -865.26349
      -674.23346
  23233957.764    23233956.9594  122095292.28048  95139200.22345     -2740.70048
     -2135.60345
 05  5 29  0 29  0.0000000  0  8G25G09G06G01G02G05G30G14
  22170741.873    22170740.0414  116508067.03148  90785511.52946      2259.21748
      1760.42446
  25503379.185                   134021158.37447                     -3814.84647

  20213953.492    20213950.9994  106225114.60249  82772799.87546       347.07149
       270.44446
  22822879.941    22822880.2034  119935073.09048  93455883.30946      -683.15848
      -532.34046
  23141981.868    23141977.7124  121611960.01348  94762579.22846     -1537.25948
     -1197.84146
  22708723.182    22708720.9674  119335265.71148  92988573.17746     -2578.42548
     -2009.15946
  20342795.169    20342793.3834  106902255.21749  83300443.09146      -875.60049
      -682.29546
  23249629.723    23249628.0584  122177646.14348  95203372.04246     -2749.80548
     -2142.66746
 05  5 29  0 29 30.0000000  0  8G25G09G06G01G02G05G30G14
  22157875.919    22157875.0464  116440458.66348  90732829.71246      2247.84548
      1751.56646
  25525154.862    25525152.1844  134135593.12357 104521229.93956     -3815.39957
     -2973.22056
  20212013.072    20212010.8444  106214917.78049  82764854.32346       332.62349
       259.18546
  22826830.502    22826830.1014  119955834.82248  93472061.30846      -701.04548
      -546.24246
  23150810.499    23150806.7724  121658353.76248  94798730.23746     -1555.68348
     -1212.22646
  22723457.453    22723454.4584  119412694.12448  93048907.05046     -2583.71248
     -2013.27046
  20347822.951    20347820.6774  106928676.10849  83321030.80646      -885.92549
      -690.32946
  23265353.104    23265351.6474  122260274.58548  95267757.76445     -2758.74348
     -2149.65045
 05  5 29  0 30  0.0000000  0  8G25G09G06G01G02G05G30G14
  22145075.471    22145074.0804  116373193.58148  90680415.41446      2236.85248
      1743.00246
  25546933.887    25546934.7894  134250035.34447 104610431.30046     -3814.90347
     -2972.70746
  20210154.903    20210152.8544  106205153.48249  82757245.80447       318.64449
       248.29147
  22830885.026    22830884.2714  119977137.45748  93488660.79645      -718.59448
      -559.92945
  23159744.652    23159741.0854  121705303.94748  94835314.81346     -1573.76448
     -1226.31746
  22738221.145    22738220.2014  119490277.43048  93109361.57446     -2588.33048
     -2016.87846
  20352909.090    20352907.3144  106955404.85849  83341858.41646      -895.74749
      -697.98246
  23281128.491    23281127.9504  122343171.93348  95332353.09046     -2767.21748
     -2156.26546
 05  5 29  0 30 30.0000000  0  8G25G09G06G01G02G05G30G14
  22132341.175    22132338.9544  116306269.16548  90628266.54146      2224.96548
      1733.72446
  25568712.952    25568714.1374  134364479.21647 104699545.25445     -3814.59447
     -2972.51345
  20208378.004    20208375.8744  106195815.96149  82749969.83546       304.11249
       236.97046
  22835040.585    22835038.8454  119998974.48748  93505676.67546      -737.05648
      -574.33146
  23168783.334    23168778.8944  121752803.98648  94872327.87546     -1592.45348
     -1240.84946
  22753013.369    22753011.0914  119568010.09048  93169932.50846     -2593.74448
     -2021.10046
  20358053.311    20358051.5854  106982436.05649  83362921.69146      -906.26449
      -706.17746
  23296952.985    23296949.7034  122426329.47048  95397151.10143     -2776.48648
     -2163.49843
 05  5 29  0 31  0.0000000  0  8G25G09G06G01G02G05G30G14
  22119672.087    22119670.0814  116239695.44348  90576390.95046      2213.24448
      1724.62846
  25590491.609    25590492.8484  134478928.94547 104788779.90842     -3815.08447
     -2972.75642
  20206683.591    20206681.7204  106186912.79049  82743032.32746       289.47849
       225.56546
  22839299.020    22839297.9844  120021352.58148  93523114.12846      -754.64448
      -588.04546
  23177928.367    23177924.1154  121800860.65748  94909774.62346     -1611.18048
     -1255.46946
  22767835.226    22767833.1264  119645899.80448  93230625.80846     -2598.81748
     -2025.05046
  20363256.118    20363253.8164  107009777.86049  83384227.00646      -916.62549
      -714.25646
  23312827.541    23312826.1594  122509752.24648  95462155.81944     -2785.10848
     -2170.16144
 05  5 29  0 31 30.0000000  0  8G25G09G06G01G02G05G30G14
  22107072.025    22107069.4014  116173478.98148  90524793.73846      2201.27648
      1715.28646
  25612272.268    25612273.2844  134593387.25047 104877976.60256     -3815.10247
     -2973.08356
  20205072.856    20205070.8404  106178447.89049  82736436.32446       274.98149
       214.28146
  22843660.535    22843659.8194  120044275.12148  93540975.86046      -773.15348
      -602.48446
  23187179.665    23187176.2024  121849476.95148  94947657.45546     -1629.89148
     -1270.02346
  22782687.724    22782684.8414  119723950.67748  93291444.66646     -2604.31348
     -2029.33946
  20368518.918    20368516.8214  107037434.60849  83405777.73046      -927.07749
      -722.40046
  23328752.931    23328752.1234  122593441.89548  95527368.52445     -2793.54248
     -2176.80945
 05  5 29  0 32  0.0000000  0  8G25G09G06G01G02G05G30G14
  22094538.862    22094536.6534  116107618.88148  90473474.21246      2189.39048
      1706.03746
  25634053.546                   134707848.82547                     -3815.44847

  20203544.753    20203542.7064  106170417.02249  82730178.53246       260.41049
       202.91446
  22848125.621    22848124.1984  120067737.10948  93559257.95646      -790.85248
      -616.23146
  23196536.329    23196531.0424  121898647.64948  94985972.29946     -1648.14648
     -1284.28546
  22797570.185    22797568.3104  119802158.74848  93352386.02846     -2609.61548
     -2033.45346
  20373841.477    20373839.1344  107065402.81049  83427571.14446      -937.46549
      -730.49846
  23344728.703    23344727.0254  122677391.40048  95592783.67745     -2802.79748
     -2183.99045
 05  5 29  0 32 30.0000000  0  8G25G09G06G01G02G05G30G14
  22082074.547    22082071.7754  116042117.49648  90422434.20646      2177.39148
      1696.67046
  25655834.945    25655835.9504  134822324.32647 105056342.69245     -3815.33847
     -2973.03845
  20202099.186    20202097.0964  106162819.96449  82724258.78146       246.08649
       191.76046
  22852691.615    22852692.0424  120091737.55348  93577959.61046      -808.93748
      -630.36646
  23205998.615    23205994.9294  121948371.35248  95024718.05146     -1666.56948
     -1298.61646
  22812481.850    22812479.9374  119880523.90448  93413449.81946     -2614.82548
     -2037.53446
  20379222.831    20379220.5214  107093682.79649  83449607.50946      -947.81449
      -738.54946
  23360752.478    23360750.5874  122761598.07548  95658399.18046     -2811.30948
     -2190.62646
 05  5 29  0 33  0.0000000  0  8G25G09G06G01G02G05G30G14
  22069677.068    22069674.8374  115976969.50448  90371669.55846      2165.62048
      1687.49446
  25677614.223    25677617.0884  134936770.68647 105145548.63052     -3814.46547
     -2972.24352
  20200734.317    20200732.3224  106155648.79849  82718670.87946       231.95749
       180.72346
  22857360.516    22857359.3774  120116267.56148  93597073.90846      -826.59648
      -644.08746
  23215563.260    23215559.4344  121998639.08748  95063887.67046     -1684.40348
     -1312.52746
  22827423.481    22827421.6674  119959038.47148  93474629.99945     -2619.62648
     -2041.27045
  20384662.232    20384659.9054  107122266.94249  83471880.88847      -957.76849
      -746.30947
  23376822.304    23376821.3744  122846051.58148  95724207.13146     -2819.55348
     -2197.02446
 05  5 29  0 33 30.0000000  0  8G25G09G06G01G02G05G30G14
  22057347.110    22057344.8164  115912178.06448  90321182.75346      2153.54348
      1678.08046
  25699394.274    25699397.0464  135051219.20547 105234728.55345     -3814.67647
     -2972.40145
  20199450.749    20199448.7124  106148903.33649  82713414.70846       217.55749
       169.53046
  22862128.841    22862128.3224  120141326.54748  93616600.38346      -844.24848
      -657.85746
  23225232.307    23225227.2524  122049449.99748  95103480.62546     -1702.93548
     -1326.95446
  22842391.918    22842389.9344  120037702.78148  93535926.90046     -2624.78048
     -2045.30646
  20390159.484    20390157.4824  107151155.98449  83494391.83546      -968.24349
      -754.47446
  23392940.300    23392938.9854  122930749.14548  95790205.12046     -2827.83248
     -2203.46446
 05  5 29  0 34  0.0000000  0  8G25G09G06G01G02G05G30G14
  22045087.705    22045084.4974  115847751.11148  90270979.96746      2141.52548
      1668.72946
  25721171.004    25721173.1944  135165663.71247 105323903.57355     -3814.68647
     -2972.31755
  20198249.363    20198247.2414  106142589.03349  82708494.50046       203.50149
       158.57546
  22866999.080    22866998.1064  120166918.78048  93636542.39646      -861.81148
      -671.51646
  23235006.384    23235001.1604  122100808.41148  95143500.18346     -1721.12748
     -1341.14846
  22857391.673    22857389.1434  120116522.25848  93597344.65846     -2629.84348
     -2049.23346
  20395716.209    20395714.2344  107180355.76149  83517144.92146      -978.46149
      -762.43746
  23409104.999    23409100.9214  123015693.74948  95856395.76142     -2835.56048
     -2209.53342
 05  5 29  0 34 30.0000000  0  8G25G09G06G01G02G05G30G14
  22032896.685    22032893.7434  115783688.62948  90221061.16846      2129.25248
      1659.16146
  25742945.807                   135280094.38547                     -3815.03247

  20197129.066    20197126.9854  106136702.67149  82703907.75946       188.87749
       147.18246
  22871968.758    22871968.9274  120193040.48548  93656896.96146      -879.86148
      -685.72146
  23244882.517    23244878.1834  122152710.41948  95183943.29646     -1739.13348
     -1355.17346
  22872418.676    22872417.1084  120195494.14748  93658881.15746     -2635.16748
     -2053.36446
  20401331.346    20401329.0924  107209863.82149  83540138.21646      -988.92449
      -770.58646
  23425315.227    23425314.6434  123100879.78448  95922774.39746     -2843.61548
     -2215.79746
 05  5 29  0 35  0.0000000  0  8G25G09G06G01G02G05G30G14
  22020776.044    22020773.9704  115719993.65148  90171428.73346      2117.08548
      1649.67346
  25764722.342    25764724.7564  135394534.92347 105502240.03256     -3814.66047
     -2972.66156
  20196090.329    20196087.8984  106131244.49849  82699654.65546       174.66849
       136.10346
  22877040.548    22877040.7424  120219691.04148  93677663.64646      -897.30548
      -699.18846
  23254862.763    23254858.8014  122205154.99548  95224809.23146     -1757.40348
     -1369.42646
  22887475.638    22887474.7434  120274618.83648  93720536.75946     -2640.12748
     -2057.25646
  20407005.481    20407003.0134  107239680.85049  83563372.27346      -999.02649
      -778.47346
  23441571.382    23441569.6194  123186304.91948  95989339.36846     -2851.36648
     -2221.77446
 05  5 29  0 35 30.0000000  0  8G25G09G06G01G02G05G30G14
  22008724.985    22008721.8734  115656663.80548  90122080.83146      2104.74448
      1640.06546
  25786493.595                   135508935.39947                     -3813.58347

  20195132.178    20195129.9654  106126209.56249  82695731.35347       160.74549
       125.25747
  22882211.627    22882211.6804  120246864.76148  93698837.94746      -914.49548
      -712.64246
  23264945.232    23264940.5964  122258136.08348  95266093.16146     -1774.94348
     -1383.05646
  22902560.961    22902559.1264  120353891.62248  93782307.76146     -2644.94748
     -2061.01346
  20412737.118    20412735.2704  107269802.49049  83586843.67546     -1009.12049
      -786.32646
  23457870.235    23457868.7034  123271961.52748  96056084.74946     -2858.83748
     -2227.62546
 05  5 29  0 36  0.0000000  0  8G25G09G06G01G02G05G30G14
  21996744.139    21996741.4384  115593703.96648  90073021.24046      2092.46148
      1630.48746
  25808263.347    25808265.5794  135623335.47547 105680523.93446     -3813.04147
     -2971.24746
  20194255.015    20194252.8884  106121599.52649  82692139.14746       146.67249
       114.29546
  22887483.086    22887481.5934  120274562.39948  93720420.52446      -931.86148
      -726.12346
  23275129.804    23275125.7534  122311654.47748  95307795.84446     -1793.15948
     -1397.26546
  22917675.046    22917673.2904  120433314.60348  93844195.79146     -2649.84848
     -2064.81546
  20418527.655    20418525.4164  107300231.17749  83610554.34346     -1019.49549
      -794.41646
  23474215.302    23474214.6274  123357849.12048  96123010.14246     -2866.61148
     -2233.72546
 05  5 29  0 36 30.0000000  0  8G25G09G06G01G02G05G30G14
  21984834.688    21984832.1234  115531119.83048  90024254.40246      2079.82148
      1620.63746
  25830030.180    25830035.5204  135737724.04047 105769676.06952     -3812.85147
     -2971.27452
  20193459.179    20193456.9214  106117417.57349  82688880.50446       132.26249
       103.06846
  22892852.952    22892852.5054  120302786.53748  93742413.32846      -949.58748
      -739.93846
  23285416.284    23285413.2624  122365712.44148  95349918.95346     -1810.94548
     -1411.12846
  22932818.060    22932815.9954  120512891.22248  93906203.52146     -2655.19848
     -2068.95946
  20424377.332    20424375.5094  107330970.78649  83634507.29246     -1029.93749
      -802.55046
  23490603.239    23490602.3384  123443968.19548  96190115.91546     -2874.46748
     -2239.80946
 05  5 29  0 37  0.0000000  0  8G25G09G06G01G02G05G30G14
  21972997.016    21972994.4404  115468913.07448  89975781.62446      2067.57248
      1611.10046
  25851793.857    25851795.3394  135852088.74447 105858715.49146     -3810.96247
     -2969.73746
  20192744.643    20192742.1384  106113662.44049  82685954.44846       118.13049
        92.05046
  22898324.875    22898325.5894  120331534.79048  93764814.58746      -966.74648
      -753.29446
  23295805.569    23295802.1884  122420307.49048  95392460.57245     -1828.69348
     -1424.94145
  22947989.534    22947987.5514  120592620.39648  93968330.13346     -2659.92948
     -2072.66446
  20430285.832    20430284.1604  107362020.56449  83658701.92046     -1040.06349
      -810.44546
  23507034.937    23507032.6014  123530314.92548  96257399.03046     -2881.88348
     -2245.63146
 05  5 29  0 37 30.0000000  0  8G25G09G06G01G02G05G30G14
  21961231.921    21961229.1654  115407086.16648  89927604.83246      2054.69448
      1601.05946
  25873552.831    25873554.6274  135966441.81847 105947879.77855     -3811.04647
     -2969.47955
  20192111.215    20192108.4104  106110333.46549  82683360.46246       103.91549
        80.97846
  22903894.476    22903892.0914  120360805.81848  93787623.14346      -984.48648
      -767.12446
  23306296.556    23306291.3804  122475438.56248  95435419.83546     -1846.35848
     -1438.73546
  22963190.700    22963188.6574  120672502.17648  94030575.63146     -2664.93648
     -2076.57646
  20436253.693    20436251.3124  107393380.70849  83683138.39646     -1050.45849
      -818.53746
  23523509.247    23523505.0244  123616886.69148  96324857.45846     -2889.16448
     -2251.26746
 05  5 29  0 38  0.0000000  0  8G25G09G06G01G02G05G30G14
  21949538.520    21949536.9144  115345638.97548  89879723.91546      2042.11348
      1591.25546
  25895309.501                   136080774.51947                     -3810.74147

  20191557.880    20191555.6734  106107427.74049  82681096.27646        89.79649
        69.97446
  22909562.640    22909562.5304  120390595.56548  93810835.95646     -1001.48748
      -780.33246
  23316888.554    23316885.2614  122531100.81948  95478793.06446     -1864.37348
     -1452.75246
  22978420.668    22978417.9444  120752533.60348  94092937.78446     -2670.22348
     -2080.70446
  20442279.706    20442277.3294  107425048.75849  83707814.78946     -1060.71849
      -826.53246
  23540025.260    23540020.5644  123703678.13848  96392487.16445     -2896.31848
     -2256.82045
 05  5 29  0 38 30.0000000  0  8G25G09G06G01G02G05G30G14
  21937916.955    21937915.4314  115284569.87948  89832137.63046      2029.19248
      1581.19546
  25917061.198    25917060.8624  136195072.62457 106126042.44752     -3809.72857
     -2968.68052
  20191084.351    20191082.6854  106104940.65249  82679158.30646        75.94849
        59.17946
  22915330.253    22915329.7444  120420898.80048  93834448.86746     -1018.62048
      -793.70646
  23327580.867    23327576.2634  122587288.69648  95522575.83946     -1881.71748
     -1466.27946
  22993677.578    22993676.2544  120832710.49248  94155413.27446     -2675.11148
     -2084.50546
  20448363.789    20448361.7564  107457020.85049  83732728.10846     -1070.73049
      -834.34046
  23556581.055    23556577.0084  123790681.55348  96460281.91345     -2903.75048
     -2262.62145
 05  5 29  0 39  0.0000000  0  8G25G09G06G01G02G05G30G14
  21926369.787    21926366.9834  115223884.04148  89784849.97446      2016.31848
      1571.15546
  25938809.168    25938813.1594  136309360.87257 106215102.49055     -3809.11557
     -2968.14155
  20190691.474    20190689.2804  106102874.56349  82677548.37846        61.81149
        48.17246
  22921194.310    22921194.1504  120451716.95048  93858462.96446     -1035.71648
      -807.05046
  23338372.993    23338369.6164  122644003.86148  95566769.46046     -1899.29448
     -1479.97046
  23008962.522    23008960.4854  120913035.69548  94218004.30746     -2679.97848
     -2088.29446
  20454506.397    20454503.7044  107489300.12649  83757880.77746     -1081.14849
      -842.45446
  23573177.955    23573174.3274  123877897.21148  96528242.19346     -2910.74348
     -2268.15346
 05  5 29  0 39 30.0000000  0  8G25G09G06G01G02G05G30G14
  21914894.740    21914892.1314  115163584.91248  89737863.66646      2003.59448
      1561.24646
  25960551.517    25960555.2494  136423612.66947 106304144.60746     -3807.94747
     -2967.24346
  20190378.370    20190376.2804  106101230.03049  82676266.94046        47.84549
        37.28446
  22927156.618    22927155.4264  120483049.60848  93882878.03746     -1053.18048
      -820.67146
  23349266.061    23349261.9994  122701245.62248  95611373.44146     -1916.66648
     -1493.51546
  23024276.568    23024274.8614  120993510.05048  94280711.59546     -2684.94848
     -2092.16746
  20460707.713    20460704.8944  107521887.70149  83783273.69546     -1091.47349
      -850.49746
  23589814.914    23589814.3654  123965323.56748  96596366.58545     -2917.55048
     -2273.42745
 05  5 29  0 40  0.0000000  0  8G25G09G06G01G02G05G30G14
  21903494.272    21903491.7204  115103673.94548  89691179.81046      1990.58848
      1551.11246
  25982288.900    25982293.8054  136537848.78557 106393149.16456     -3808.12957
     -2967.24656
  20190145.659    20190143.6244  106100005.54749  82675312.81246        33.63249
        26.20746
  22933217.043    22933213.7894  120514894.36948  93907692.13146     -1070.04548
      -833.79646
  23360258.092    23360254.7854  122759011.45348  95656385.76445     -1934.37748
     -1507.31045
  23039618.886    23039617.4184  121074132.56648  94343534.32445     -2689.90848
     -2096.05745
  20466967.193    20466964.7474  107554782.86649  83808906.28946     -1101.64349
      -858.41946
  23606490.441    23606489.0614  124052956.50748  96664651.98346     -2924.21048
     -2278.69346
 05  5 29  0 40 30.0000000  0  8G25G09G06G01G02G05G30G14
  21892168.365    21892165.2854  115044155.70248  89644801.99146      1977.39548
      1540.81746
  26004018.441    26004021.2294  136652039.35257 106482119.74356     -3807.48457
     -2966.93356
  20189992.918    20189990.9534  106099202.87249  82674687.36046        19.72349
        15.36946
  22939374.591    22939373.6544  120547252.13748  93932905.99446     -1087.16548
      -847.07146
  23371350.320    23371348.1014  122817302.23548  95701807.17646     -1951.97748
     -1521.04946
  23054989.004    23054986.8204  121154905.17448  94406473.99046     -2695.01948
     -2100.00146
  20473286.123    20473283.4694  107587988.08749  83834780.49846     -1112.01549
      -866.50846
  23623206.004    23623203.7974  124140795.37348  96733097.71746     -2931.18448
     -2284.01646
 05  5 29  0 41  0.0000000  0  8G25G09G06G01G02G05G30G14
  21880917.370    21880914.9044  114985031.83348  89598731.45246      1964.19148
      1530.54146
  26025745.762    26025750.9574  136766216.27057 106571099.48356     -3806.08457
     -2965.70656
  20189920.215    20189917.9184  106098820.59149  82674389.48846         5.89849
         4.59946
  22945628.305    22945627.0884  120580120.45348  93958517.66046     -1104.05548
      -860.14346
  23382542.055    23382537.6884  122876115.15248  95747635.41045     -1969.09748
     -1534.35845
  23070388.289    23070387.7234  121235827.11848  94469529.98646     -2699.63048
     -2103.61146
  20479663.959    20479660.9514  107621502.63049  83860895.71146     -1122.15349
      -874.40946
  23639959.665    23639958.0314  124228836.46848  96801701.07945     -2937.79348
     -2289.10345
 05  5 29  0 41 30.0000000  0  8G25G09G06G01G02G05G30G14
  21869739.913    21869737.6254  114926294.64548  89552962.22546      1951.09548
      1520.33746
  26047466.713                   136880362.85857                     -3803.23857

  20189925.499    20189923.0384  106098848.33049  82674411.11546        -7.86649
        -6.12546
  22951978.577    22951977.4924  120613487.80848  93984518.18946     -1120.57848
      -873.16846
  23393830.721    23393828.4174  122935438.68148  95793861.48646     -1986.37248
     -1547.77746
  23085812.749    23085812.2054  121316888.03648  94532694.34046     -2704.53048
     -2107.42246
  20486098.383    20486095.7344  107655316.59849  83887244.25046     -1132.32349
      -882.32946
  23656749.254    23656747.4494  124317066.69648  96870451.90145     -2944.22148
     -2294.20245
 05  5 29  0 42  0.0000000  0  8G25G09G06G01G02G05G30G14
  21858638.470    21858635.6984  114867956.11648  89507503.65446      1937.92948
      1510.07346
  26069181.866    26069187.6384  136994476.63347 106748964.88346     -3803.56147
     -2963.77246
  20190010.438    20190008.2864  106099294.93849  82674759.13546       -21.84849
       -17.02946
  22958424.599    22958422.0434  120647362.50848  94010914.06145     -1137.57448
      -886.41145
  23405218.148    23405215.5384  122995280.52748  95840491.50646     -2003.41248
     -1561.16846
  23101266.412    23101264.4434  121398097.62648  94595974.49346     -2709.35648
     -2111.22346
  20492591.713    20492589.4574  107689440.12349  83913834.01146     -1142.50549
      -890.26446
  23673575.784    23673576.0874  124405493.11748  96939355.57746     -2950.76548
     -2299.34346
 05  5 29  0 42 30.0000000  0  8G25G09G06G01G02G05G30G14
  21847612.394    21847609.3484  114810013.64848  89462353.70746      1924.86448
      1499.90746
  26090887.836    26090898.2254  137108541.44347 106837866.67955     -3801.84947
     -2962.64455
  20190173.949    20190171.8954  106100154.75949  82675429.14646       -35.53749
       -27.69246
  22964965.674    22964963.6694  120681737.73648  94037699.93746     -1154.12748
      -899.34546
  23416703.884    23416700.3744  123055634.15848  95887520.30846     -2020.09348
     -1574.08546
  23116748.370    23116748.1874  121479450.47948  94659366.31345     -2714.23248
     -2114.98245
  20499143.355    20499140.8884  107723867.93949  83940660.88246     -1152.62649
      -898.14946
  23690438.473    23690434.5664  124494107.48648  97008405.66142     -2956.65448
     -2303.89642
 05  5 29  0 43  0.0000000  0  8G25G09G06G01G02G05G30G14
  21836662.493    21836660.0744  114752469.83348  89417514.38146      1911.05248
      1489.12646
  26112587.960    26112591.9034  137222573.85847 106926699.61342     -3801.40047
     -2962.11942
  20190416.139    20190414.0944  106101427.85149  82676421.18146       -49.71549
       -38.73246
  22971601.474    22971601.2794  120716612.48448  94064875.08946     -1171.22348
      -912.63346
  23428285.114    23428282.1614  123116498.36548  95934946.94946     -2037.77048
     -1587.93546
  23132256.493    23132255.5994  121560946.56048  94722869.72046     -2719.24548
     -2118.89046
  20505752.738    20505750.2074  107758600.87149  83967725.50046     -1163.17049
      -906.36346
  23707336.791    23707334.8424  124582907.12148  97077600.08046     -2963.23848
     -2309.03446
 05  5 29  0 43 30.0000000  0  8G25G09G06G01G02G05G30G14
  21825789.838    21825786.9294  114695335.16448  89372993.87546      1897.79048
      1478.81346
  26134282.630                   137336578.52547                     -3799.25647

  20190738.365    20190736.2174  106103121.42749  82677740.86246       -63.27449
       -49.30946
  22978335.371    22978333.4324  120751993.32048  94092444.55746     -1187.71848
      -925.50246
  23439966.539    23439963.0434  123177879.46548  95982776.35246     -2054.48048
     -1600.88746
  23147792.418    23147791.2094  121642594.19348  94786491.22546     -2724.04148
     -2122.64846
  20512421.787    20512419.0554  107793647.14649  83995034.29146     -1173.26749
      -914.23446
  23724270.900    23724268.8584  124671897.39948  97146943.09545     -2969.56348
     -2313.94445
 05  5 29  0 44  0.0000000  0  8G25G09G06G01G02G05G30G14
  21814994.185    21814992.0304  114638605.42848  89328788.89146      1884.32448
      1468.30246
  26155967.820    26155965.7874  137450535.40547 107104306.12647     -3798.22347
     -2959.65047
  20191139.458    20191136.8934  106105228.44649  82679382.70846       -77.06949
       -60.05446
  22985162.457    22985161.3734  120787872.03748  94120401.99046     -1204.08648
      -938.23446
  23451743.910    23451741.7444  123239768.96348  96031001.95246     -2071.50948
     -1614.22446
  23163357.453    23163354.6464  121724386.66248  94850225.58946     -2728.64348
     -2126.18646
  20519149.179    20519146.6094  107829000.14849  84022582.08746     -1183.47349
      -922.18146
  23741239.366    23741238.6614  124761069.01848  97216427.41445     -2975.33348
     -2318.46045
 05  5 29  0 44 30.0000000  0  7G25G06G01G02G05G30G14
  21804275.668    21804273.8834  114582280.09248  89284899.04446      1870.65348
      1457.64846
  20191618.238    20191615.5294  106107745.30149  82681343.90946       -90.79249
       -70.74546
  22992083.743    22992081.8794  120824244.00548  94148743.73746     -1220.71948
      -951.21946
  23463616.291    23463611.2234  123302162.30448  96079620.17446     -2088.33448
     -1627.24846
  23178949.064    23178947.1614  121806320.73348  94914070.26946     -2733.33748
     -2129.87346
  20525934.605    20525932.4344  107864657.29149  84050366.87546     -1193.72449
      -930.17546
  23758241.913    23758242.5854  124850415.90248  97286048.26646     -2980.99848
     -2322.79546
 05  5 29  0 45  0.0000000  0  7G25G06G01G02G05G30G14
  21793634.585    21793632.7344  114526359.47948  89241324.57646      1857.42448
      1447.34046
  20192174.662    20192172.6194  106110669.89149  82683622.82746      -104.18049
       -81.17446
  22999098.400    22999096.8534  120861105.90348  94177467.30346     -1236.70748
      -963.68146
  23475585.724    23475580.4394  123365056.42848  96128628.55446     -2105.09448
     -1640.35446
  23194567.760    23194566.0304  121888394.69148  94978023.96246     -2738.09948
     -2133.57146
  20532777.624    20532774.7324  107900617.03649  84078387.44946     -1203.58049
      -937.85746
  23775277.043    23775275.3624  124939933.39648  97355802.13246     -2986.63348
     -2327.23246
 05  5 29  0 45 30.0000000  0  7G25G06G01G02G05G30G14
  21783072.330    21783069.1444  114470851.47448  89198071.58846      1843.28348
      1436.31646
  20192809.839    20192807.5054  106114006.84949  82686223.05946      -118.19749
       -92.10446
  23006207.470    23006205.8924  120898461.67648  94206575.68546     -1253.44248
      -976.72446
  23487649.362    23487646.5314  123428454.28548  96178029.49946     -2121.79948
     -1653.38146
  23210213.571    23210213.3804  121970613.87948  95042090.83546     -2743.34248
     -2137.64546
  20539678.782    20539676.6504  107936885.00849  84106648.21046     -1214.10249
      -946.05046
  23792345.125    23792345.5174  125029624.07448  97425690.95542     -2992.79048
     -2332.06142
 05  5 29  0 46  0.0000000  0  7G25G06G01G02G05G30G14
  21772589.860    21772587.8834  114415767.84048  89155149.28846      1829.13448
      1425.29246
  20193524.792    20193522.9024  106117764.96749  82689151.48546      -132.18649
      -103.00546
  23013410.529    23013411.3574  120936318.91048  94236074.83146     -1270.12448
      -989.68246
  23499811.119    23499806.5294  123492363.81448  96227829.14246     -2138.73248
     -1666.59546
  23225888.776    23225887.0854  122052987.35248  95106277.93045     -2748.27748
     -2141.53145
  20546641.004    20546638.7424  107973470.77949  84135156.59546     -1224.76149
      -954.35846
  23809447.336    23809442.0904  125119494.72248  97495693.86945     -2998.59748
     -2336.59545
 05  5 29  0 46 30.0000000  0  7G25G06G01G02G05G30G14
  21762185.353    21762182.4584  114361092.50848  89112545.15346      1816.19448
      1415.20446
  20194316.488    20194314.4304  106121925.27449  82692393.29146      -144.97949
      -112.97146
  23020706.332    23020706.2194  120974657.50948  94265949.06446     -1285.29148
     -1001.51546
  23512066.448    23512060.5494  123556764.70248  96278011.59046     -2154.33348
     -1678.68246
  23241589.494    23241587.7334  122135496.51648  95170570.77346     -2752.17648
     -2144.52446
  20553659.872    20553657.5014  108010356.06149  84163898.36646     -1234.04249
      -961.59546
  23826578.933    23826578.6694  125209523.66448  97565846.29045     -3003.06448
     -2340.07445
 05  5 29  0 47  0.0000000  0  7G25G06G01G02G05G30G14
  21751857.674    21751855.6304  114306822.49448  89070256.85346      1802.09748
      1404.23346
  20195183.526    20195181.7514  106126481.64749  82695943.72946      -158.56249
      -123.55146
  23028092.604    23028091.3824  121013470.48348  94296192.90646     -1301.71448
     -1014.32446
  23524413.436    23524410.3364  123621649.79048  96328571.44345     -2170.91548
     -1691.65445
  23257315.886    23257314.9284  122218136.09848  95234965.23146     -2756.99648
     -2148.29946
  20560734.996    20560732.4324  108047535.67149  84192869.48746     -1244.32449
      -969.60446
  23843738.198    23843739.0964  125299702.67048  97636115.52345     -3008.31648
     -2344.07345
 05  5 29  0 47 30.0000000  0  7G25G06G01G02G05G30G14
  21741610.315    21741607.8494  114252969.09048  89028293.17046      1788.16248
      1393.37146
  20196127.657    20196125.3274  106131442.54349  82699809.38346      -172.19249
      -134.17446
  23035570.527    23035568.9624  121052765.18048  94326812.13046     -1318.07048
     -1027.06446
  23536853.724    23536850.3404  123687026.38448  96379514.21845     -2187.44848
     -1704.47145
  23273067.576    23273067.1844  122300915.11948  95299468.36446     -2761.53948
     -2151.83546
  20567867.580    20567865.4824  108085018.94749  84222077.21646     -1254.61649
      -977.62646
  23860928.494    23860923.7784  125390037.94747  97706506.53946     -3013.63547
     -2348.31946
 05  5 29  0 48  0.0000000  0  7G25G06G01G02G05G30G14
  21731443.656    21731440.6694  114199542.44848  88986662.04446      1773.87248
      1382.23146
  20197150.049    20197147.7334  106136815.49149  82703996.10446      -185.82949
      -144.80046
  23043140.503    23043139.9074  121092547.92848  94357811.69346     -1333.98948
     -1039.49146
  23549389.556    23549386.3214  123752900.72148  96430844.86945     -2204.00148
     -1717.40145
  23288848.767    23288845.5814  122383841.49448  95364086.28446     -2766.37948
     -2155.62846
  20575059.456    20575057.9054  108122814.06149  84251527.93746     -1264.86549
      -985.60546
  23878148.658    23878149.2244  125480534.73247  97777023.40046     -3018.96147
     -2352.44146
 05  5 29  0 48 30.0000000  0  7G25G06G01G02G05G30G14
  21721357.597    21721354.9964  114146540.18048  88945361.57246      1759.80148
      1371.27146
  20198249.843    20198247.6374  106142594.74049  82708499.42646      -199.45949
      -155.42946
  23050801.608    23050802.3904  121132811.88548  94389186.16946     -1350.18748
     -1052.07146
  23562018.572    23562013.2264  123819265.99648  96482558.06246     -2220.25948
     -1730.05746
  23304655.482    23304655.9854  122466910.27148  95428815.18946     -2771.24748
     -2159.41246
  20582310.526    20582308.5474  108160916.21049  84281217.91646     -1275.11749
      -993.60246
  23895399.622    23895398.4774  125571184.89447  97847659.75746     -3024.05947
     -2356.41046
 05  5 29  0 49  0.0000000  0  7G25G06G01G02G05G30G14
  21711351.903    21711349.7904  114093961.58048  88904391.27746      1745.35748
      1360.00646
  20199426.111    20199423.9154  106148776.83949  82713316.66446      -212.78149
      -165.80946
  23058554.573    23058555.5584  121173552.53948  94420932.12146     -1366.14448
     -1064.53346
  23574739.183    23574735.5184  123886117.49948  96534650.15246     -2236.56948
     -1742.77346
  23320489.140    23320486.8184  122550118.28248  95493652.57545     -2775.89848
     -2163.09145
  20589619.210    20589617.0534  108199322.87449  84311145.18146     -1285.35149
     -1001.57946
  23912678.254    23912679.0394  125661983.14947  97918411.52446     -3029.04247
     -2360.31746
 05  5 29  0 49 30.0000000  0  7G25G06G01G02G05G30G14
  21701427.749    21701425.3854  114041809.32648  88863753.16046      1731.43348
      1349.16946
  20200679.437    20200676.8454  106155361.75049  82718447.76746      -226.10649
      -176.18846
  23066398.216    23066398.2024  121214768.77248  94453048.64546     -1381.67248
     -1076.60546
  23587553.178    23587549.2964  123953454.03448  96587120.19246     -2252.67048
     -1755.35046
  23336349.720    23336348.5084  122633466.01348  95558598.84145     -2780.53948
     -2166.61945
  20596985.461    20596983.4134  108238034.65949  84341310.19946     -1295.32449
     -1009.34746
  23929984.717    23929984.3314  125752927.02947  97989276.85345     -3034.05647
     -2364.28545
 05  5 29  0 50  0.0000000  0  7G25G06G01G02G05G30G14
  21691584.976    21691582.5414  113990082.60349  88823446.64446      1716.98949
      1337.91146
  20202008.331    20202005.9484  106162345.82149  82723889.91946      -239.54849
      -186.66246
  23074331.041    23074330.1474  121256455.65948  94485531.89846     -1397.33048
     -1088.81246
  23600457.998    23600452.3274  124021270.34048  96639964.01442     -2268.87648
     -1767.97642
  23352236.362    23352236.0774  122716950.08448  95623651.31246     -2785.19948
     -2170.30746
  20604409.858    20604407.7004  108277048.73649  84371710.76746     -1305.69849
     -1017.42146
  23947316.278    23947317.4724  125844010.75347  98060250.94346     -3038.18147
     -2367.44646
 05  5 29  0 50 30.0000000  0  7G25G06G01G02G05G30G14
  21681823.775    21681821.0614  113938787.69948  88783476.59746      1702.64048
      1326.74046
  20203413.802    20203411.8614  106169731.90449  82729645.32346      -253.09049
      -197.21146
  23082353.290    23082353.5524  121298615.02848  94518383.36646     -1413.37948
     -1101.35346
  23613454.597    23613449.7644  124089568.31148  96693183.23242     -2284.87548
     -1780.40942
  23368149.902    23368147.0674  122800574.16048  95688812.85845     -2789.68048
     -2173.79945
  20611892.018    20611890.0724  108316368.91449  84402349.86046     -1315.82949
     -1025.31946
  23964676.732    23964678.6564  125935234.87248  98131334.51145     -3042.97248
     -2371.18645
 05  5 29  0 51  0.0000000  0  7G25G06G01G02G05G30G14
  21672144.625    21672142.0004  113887923.84549  88743842.43146      1688.19649
      1315.47746
  20204895.038    20204893.2694  106177516.31749  82735711.10746      -266.10049
      -207.34746
  23090465.246    23090464.7684  121341242.02648  94551599.18046     -1428.81748
     -1113.37046
  23626541.853    23626538.7754  124158342.54748  96746773.54446     -2300.10148
     -1792.51946
  23384088.941    23384086.0724  122884334.99448  95754081.05946     -2794.32948
     -2177.38046
  20619432.117    20619430.0204  108355992.44849  84433225.33446     -1325.85349
     -1033.13746
  23982061.333    23982064.8214  126026593.53348  98202522.99446     -3047.59048
     -2374.76946
 05  5 29  0 51 30.0000000  0  7G25G06G01G02G05G30G14
  21662547.595    21662545.2224  113837492.80648  88704545.54846      1673.73248
      1304.21246
  20206451.935    20206450.3424  106185697.97449  82742086.44646      -279.40149
      -217.71746
  23098665.724    23098663.9014  121384334.57448  94585177.77746     -1444.21548
     -1125.36046
  23639719.149    23639716.1824  124227591.61948  96800733.84046     -2315.97548
     -1804.65946
  23400052.844    23400053.3874  122968232.21648  95819455.47746     -2798.93148
     -2181.02946
  20627030.279    20627028.3014  108395919.02549  84464336.95046     -1336.00749
     -1041.05246
  23999472.167    23999469.7664  126118083.55148  98273813.77842     -3051.46248
     -2377.65942
 05  5 29  0 52  0.0000000  0  7G25G06G01G02G05G30G14
  21653034.075    21653031.5224  113787499.54248  88665589.77046      1659.09648
      1292.80546
  20208084.754    20208082.7374  106194279.13849  82748773.07946      -292.82449
      -228.17646
  23106954.666    23106953.4014  121427893.62248  94619119.85546     -1459.73348
     -1137.47446
  23652988.053    23652984.6654  124297315.90748  96855064.41646     -2331.69748
     -1816.91946
  23416045.954    23416045.1484  123052268.48948  95884938.24045     -2803.82848
     -2184.77245
  20634686.131    20634684.1754  108436151.70649  84495687.08346     -1346.22349
     -1049.00046
  24016906.997    24016907.6004  126209704.99348  98345206.97946     -3056.39048
     -2381.60346
 05  5 29  0 52 30.0000000  0  7G25G06G01G02G05G30G14
  21643604.082    21643601.9344  113737945.32148  88626976.11146      1644.40548
      1281.35646
  20209793.399    20209791.4244  106203257.82949  82755769.47346      -305.89149
      -238.35846
  23115331.972    23115329.8634  121471916.14348  94653423.08446     -1475.24448
     -1149.56546
  23666345.799    23666342.4784  124367512.75548  96909763.24646     -2347.71348
     -1829.40446
  23432063.409    23432063.3614  123136442.43648  95950528.26146     -2808.13548
     -2188.16346
  20642400.427    20642398.4024  108476689.54949  84527275.00646     -1356.31549
     -1056.87546
  24034366.202    24034366.7524  126301453.68548  98416699.28545     -3060.53848
     -2384.88745
 05  5 29  0 53  0.0000000  0  7G25G06G01G02G05G30G14
  21634257.617    21634254.9394  113688827.38048  88588702.39246      1630.01748
      1270.14746
  20211576.661    20211574.7794  106212628.23949  82763071.10346      -318.67549
      -248.32146
  23123796.550    23123795.2074  121516395.10248  94688081.99645     -1489.96348
     -1161.03545
  23679792.296    23679789.8904  124438174.72848  96964824.52846     -2363.08348
     -1841.33446
  23448106.771    23448105.2584  123220748.78848  96016221.52546     -2812.09548
     -2191.28846
  20650171.461    20650169.6474  108517527.57949  84559096.83446     -1366.06049
     -1064.46346
  24051848.870    24051847.8634  126393321.65948  98488284.56242     -3063.80148
     -2387.37542
 05  5 29  0 53 30.0000000  0  7G25G06G01G02G05G30G14
  21624994.790    21624991.4864  113640150.17548  88550772.11346      1614.97548
      1258.42246
  20213434.705    20213432.5924  106222392.37749  82770679.53346      -332.33049
      -258.96046
  23132346.710    23132344.7304  121561331.18948  94723097.13746     -1505.65248
     -1173.22746
  23693327.823    23693325.6954  124509302.33648  97020248.64945     -2378.83248
     -1853.61945
  23464175.137    23464174.9764  123305190.25048  96082019.99246     -2817.01348
     -2195.08746
  20658000.492    20657998.6604  108558668.69749  84591154.84246     -1376.76649
     -1072.80146
  24069352.580    24069353.9544  126485308.89748  98559991.72745     -3068.68648
     -2391.15745
 05  5 29  0 54  0.0000000  0  7G25G06G01G02G05G30G14
  21615817.548    21615815.0624  113591925.01448  88513194.07046      1600.16848
      1246.89546
  20215369.137    20215366.8554  106232558.40649  82778601.13046      -345.32849
      -269.08546
  23140986.376    23140985.0354  121606731.61448  94758474.07346     -1520.96048
     -1185.14546
  23706953.075    23706949.2674  124580902.91348  97076041.27746     -2394.37948
     -1865.70146
  23480270.868    23480271.9904  123389775.77248  96147930.78045     -2821.73148
     -2198.74745
  20665888.792    20665886.5624  108600122.11149  84623456.19146     -1386.84149
     -1080.65746
  24086881.622    24086879.5994  126577421.63947  98631767.76042     -3072.54047
     -2394.27742
 05  5 29  0 54 30.0000000  0  7G25G06G01G02G05G30G14
  21606724.391    21606722.0694  113544140.86148  88475959.67246      1585.23348
      1235.25746
  20217377.555    20217375.5824  106243112.71949  82786825.27546      -358.32649
      -279.21846
  23149711.157    23149710.6924  121652581.39448  94794201.14446     -1536.12748
     -1196.99646
  23720665.191    23720662.0984  124652961.46048  97132190.80445     -2409.08248
     -1877.21545
  23496391.748    23496389.6694  123474492.41448  96213943.72545     -2826.31848
     -2202.36445
  20673833.981    20673832.1794  108641874.94349  84655990.85846     -1396.97549
     -1088.55246
  24104430.207    24104431.0674  126669643.94247  98703607.14642     -3076.15547
     -2397.04342
 05  5 29  0 55  0.0000000  0  7G25G06G01G02G05G30G14
  21597715.503    21597712.7924  113496797.80848  88439068.99746      1571.05948
      1224.21146
  20219459.381    20219457.0674  106254052.41249  82795349.72246      -370.70749
      -288.85546
  23158520.920    23158520.0214  121698876.26948  94830275.06546     -1550.32848
     -1208.01746
  23734464.346    23734460.4034  124725473.64448  97188693.81846     -2423.96748
     -1888.84746
  23512538.180    23512537.8604  123559337.51648  96280056.76446     -2830.19748
     -2205.34946
  20681836.264    20681833.9354  108683925.07149  84688757.19246     -1406.40249
     -1095.89746
  24122000.143    24121999.2764  126761970.66047  98775549.88645     -3078.45447
     -2399.01845
 05  5 29  0 55 30.0000000  0  7G25G06G01G02G05G30G14
  21588790.684    21588788.0594  113449898.05848  88402523.75146      1555.51748
      1212.08746
  20221614.191    20221612.0374  106265376.30049  82804173.53646      -384.25549
      -299.42046
  23167414.370    23167414.5464  121745614.22148  94866694.20245     -1565.61448
     -1219.95445
  23748347.773    23748344.6994  124798437.28748  97245548.57745     -2440.09748
     -1901.37245
  23528708.073    23528706.0414  123644310.87048  96346269.74246     -2834.83148
     -2208.90746
  20689894.331    20689892.5374  108726272.63649  84721755.29046     -1416.90949
     -1104.08946
  24139588.055    24139589.7904  126854398.65447  98847571.47645     -3083.23947
     -2402.60545
 05  5 29  0 56  0.0000000  0  7G25G06G01G02G05G30G14
  21579953.431    21579950.8684  113403460.07948  88366338.31746      1540.38448
      1200.30646
  20223845.216    20223843.3634  106277100.20249  82813309.05746      -397.15649
      -309.46546
  23176396.014    23176394.5104  121792809.67748  94903469.86146     -1580.46948
     -1231.53346
  23762321.899    23762317.4814  124871866.77048  97302766.34646     -2454.74848
     -1912.73646
  23544905.485    23544902.7754  123729428.68948  96412595.30445     -2839.29448
     -2212.44545
  20698012.983    20698010.0294  108768934.02249  84754997.91546     -1427.02549
     -1111.96846
  24157199.235    24157198.8944  126946941.86847  98919682.81246     -3086.36947
     -2404.96546
 05  5 29  0 56 30.0000000  0  7G25G06G01G02G05G30G14
  21571202.347    21571199.6824  113357469.21949  88330501.29746      1525.40849
      1188.62946
  20226148.806    20226146.8164  106289206.36849  82822742.43946      -409.96249
      -319.45546
  23185460.464    23185459.8644  121840443.51048  94940587.10446     -1595.11448
     -1242.95346
  23776379.270    23776374.3404  124945742.98848  97360332.23945     -2470.43948
     -1925.08345
  23561127.839    23561126.5454  123814673.89848  96479020.08546     -2843.70548
     -2215.86146
  20706187.274    20706184.9424  108811892.62149  84788472.14746     -1436.95149
     -1119.70646
  24174828.367    24174826.6624  127039580.26147  98991868.46646     -3089.92647
     -2407.78646
 05  5 29  0 57  0.0000000  0  7G25G06G01G02G05G30G14
  21562536.400    21562534.8004  113311932.76748  88295018.34846      1510.09148
      1176.69446
  20228526.248    20228524.2514  106301699.47149  82832477.33146      -423.06549
      -329.65946
  23194609.021    23194606.4774  121888519.22348  94978048.69445     -1610.10448
     -1254.65445
  23790523.635    23790518.2054  125020069.14748  97418248.71646     -2485.24848
     -1936.54746
  23577374.206    23577370.9344  123900051.67748  96545548.19746     -2848.15548
     -2219.34046
  20714419.820    20714417.1684  108855153.80549  84822182.15946     -1447.27549
     -1127.74446
  24192475.903    24192476.9104  127132316.43047  99064130.33442     -3093.12847
     -2410.20242
 05  5 29  0 57 30.0000000  0  7G25G06G01G02G05G30G14
  21553958.661    21553956.0514  113266853.98149  88259892.03046      1495.02349
      1164.95246
  20230977.220    20230975.6954  106314580.10349  82842514.19746      -435.77849
      -339.56946
  23203841.237    23203841.4254  121937036.19548  95015854.08845     -1624.43448
     -1265.77845
  23804753.547    23804747.1704  125094844.88048  97476515.53445     -2499.85148
     -1947.90545
  23593646.152    23593643.9574  123985563.57048  96612180.83145     -2852.84448
     -2223.01345
  20722710.237    20722707.4844  108898719.14349  84856129.16646     -1457.28349
     -1135.54846
  24210140.406    24210138.4204  127225148.77647  99136467.02942     -3096.30847
     -2412.71742
 05  5 29  0 58  0.0000000  0  7G25G06G01G02G05G30G14
  21545466.897    21545464.9384  113222232.02348  88225121.69246      1479.87548
      1153.14746
  20233501.183    20233499.3844  106327844.20849  82852849.86847      -448.41249
      -349.40947
  23213156.306    23213156.0364  121985989.26648  95053999.30745     -1638.91948
     -1277.07845
  23819067.192    23819059.4824  125170064.76948  97535128.40346     -2515.01048
     -1959.75846
  23609944.296    23609943.9084  124071205.98848  96678915.14145     -2856.82948
     -2226.07445
  20731057.677    20731055.1314  108942585.70449  84890310.90046     -1467.25549
     -1143.31446
  24227823.713    24227824.1254  127318071.82147  99208874.40946     -3098.74347
     -2414.56046
 05  5 29  0 58 30.0000000  0  7G25G06G01G02G05G30G14
  21537063.798    21537061.0644  113178070.89349  88190710.42046      1464.16349
      1140.89546
  20236098.338    20236096.7934  106341492.61149  82863484.99547      -461.43449
      -359.55847
  23222555.957    23222554.1194  122035377.88848  95092483.91546     -1653.62348
     -1288.54946
  23833465.087    23833458.0684  125245728.30648  97594087.01145     -2529.35848
     -1970.88245
  23626265.599    23626264.9364  124156980.48648  96745752.39645     -2861.62548
     -2229.81945
  20739463.062    20739460.3874  108986755.20649  84924728.68546     -1477.52749
     -1151.32446
  24245523.546    24245526.2634  127411084.01248  99281351.34546     -3101.88648
     -2417.12146
 05  5 29  0 59  0.0000000  0  7G25G06G01G02G05G30G14
  21528748.507    21528745.6434  113134374.00649  88156660.88846      1449.07649
      1129.15646
  20238769.433    20238767.0544  106355526.56349  82874420.54446      -473.96949
      -369.32446
  23232037.486    23232036.3634  122085201.73648  95131307.65746     -1667.97748
     -1299.73046
  23847947.512    23847944.6304  125321835.13048  97653391.01946     -2544.24348
     -1982.52146
  23642613.824    23642612.8864  124242888.75348  96812693.85945     -2865.82148
     -2233.10645
  20747925.909    20747923.7154  109031229.61049  84959384.06746     -1487.34649
     -1158.97546
  24263240.234    24263238.3344  127504184.19948  99353899.83044     -3104.63748
     -2419.14844
 05  5 29  0 59 30.0000000  0  7G25G06G01G02G05G30G14
  21520519.207    21520516.4294  113091128.82549  88122963.35846      1433.65949
      1117.13546
  20241510.149    20241508.1134  106369930.13149  82885644.11946      -486.53449
      -379.12146
  23241596.770    23241597.3864  122135443.78748  95170457.29945     -1681.90548
     -1310.58045
  23862511.593    23862508.2744  125398368.29348  97713027.28346     -2558.35748
     -1993.71946
  23658984.349    23658980.9194  124328915.67948  96879727.81145     -2870.32248
     -2236.61445
  20756444.396    20756441.7604  109075994.04949  84994265.43146     -1497.42049
     -1166.83246
  24280970.438    24280966.2854  127597354.85247  99426500.18646     -3107.29347
     -2421.36446
 05  5 29  1  0  0.0000000  0  7G25G06G01G02G05G30G14
  21512379.454    21512376.6824  113048354.35849  88089632.59346      1417.74449
      1104.73246
  20244324.494    20244322.5234  106384719.72949  82897168.47746      -499.50449
      -389.21946
  23251240.048    23251239.8064  122186119.24648  95209944.58946     -1696.52148
     -1321.98646
  23877159.784    23877154.3324  125475342.91648  97773007.48845     -2573.06848
     -2004.98445
  23675380.165    23675379.1354  124415078.24548  96946867.46646     -2874.79048
     -2239.95346
  20765021.572    20765018.8484  109121066.02049  85029386.45546     -1507.53149
     -1174.70446
  24298716.771    24298717.7324  127690610.27547  99499166.61646     -3109.76247
     -2423.12346
 05  5 29  1  0 30.0000000  0  7G25G06G01G02G05G30G14
  21504329.569    21504326.7524  113006052.47749  88056670.09746      1402.28649
      1092.69346
  20247212.286    20247210.3374  106399894.37549  82908992.87346      -512.09849
      -399.03646
  23260965.428    23260965.6814  122237225.50548  95249767.65446     -1710.72948
     -1333.05646
  23891890.159    23891886.5084  125552756.35148  97833329.60246     -2587.41048
     -2016.14746
  23691802.317    23691799.4704  124501375.94848  97014112.36445     -2878.76648
     -2243.23445
  20773656.879    20773654.1694  109166445.18949  85064746.82946     -1517.54349
     -1182.51046
  24316478.065    24316475.5684  127783947.27947  99571896.57946     -3112.22047
     -2425.17246
 05  5 29  1  1  0.0000000  0  7G25G06G01G02G05G30G14
  21496369.250    21496366.4334  112964220.41948  88024073.68446      1386.84548
      1080.65846
  20250172.100    20250170.2214  106415448.42349  82921112.92246      -524.35349
      -408.58946
  23270771.610    23270770.9864  122288755.83348  95289921.12846     -1724.47748
     -1343.74846
  23906703.129    23906697.9504  125630601.67948  97893988.38445     -2601.09048
     -2026.79245
  23708250.199    23708246.3484  124587804.25948  97081459.07143     -2882.73148
     -2246.27943
  20782349.451    20782347.3594  109212127.13049  85100343.15046     -1527.54449
     -1190.29646
  24334253.251    24334251.5094  127877358.78347  99644681.63344     -3114.69047
     -2427.17944
 05  5 29  1  1 30.0000000  0  7G25G06G01G02G05G30G14
  21488496.623    21488494.1354  112922848.31849  87991835.68546      1371.48349
      1068.69146
  20253201.497    20253199.2234  106431368.86149  82933518.46746      -536.69749
      -418.20946
  23280655.345    23280655.1454  122340696.03348  95330393.98046     -1738.16148
     -1354.40246
  23921596.986    23921591.4484  125708864.85048  97954972.61245     -2615.72548
     -2038.22045
  23724717.915    23724717.6864  124674350.54748  97148897.70846     -2886.68748
     -2249.39646
  20791097.948    20791095.2164  109258099.78149  85136165.98146     -1537.27649
     -1197.88646
  24352041.401    24352045.3994  127970829.22447  99717539.67245     -3116.54947
     -2428.56445
 05  5 29  1  2  0.0000000  0  7G25G06G01G02G05G30G14
  21480712.654    21480710.0284  112881944.00849  87959962.20746      1355.46449
      1056.20646
  20256301.751    20256299.7094  106447660.89149  82946213.56146      -549.26549
      -427.99646
  23290618.740    23290619.4954  122393049.75148  95371189.02845     -1752.29148
     -1365.45645
  23936569.572    23936565.9014  125787549.79848  98016285.54946     -2630.03448
     -2049.38346
  23741210.857    23741208.3864  124761020.75948  97216432.88746     -2891.26648
     -2252.92046
  20799902.826    20799900.5024  109304369.19249  85172220.05746     -1547.44649
     -1205.80346
  24369838.599                   128064362.08447                     -3118.79647

 05  5 29  1  2 30.0000000  0  7G25G06G01G02G05G30G14
  21473019.677    21473017.2024  112841516.17649  87928459.99646      1339.96549
      1044.13346
  20259473.736    20259471.4814  106464330.27049  82959202.69246      -561.73249
      -437.71346
  23300660.003    23300660.2454  122445821.53348  95412309.91745     -1765.87948
     -1375.96745
  23951624.919    23951620.7914  125866660.70548  98077930.40246     -2643.86648
     -2060.18846
  23757729.293    23757725.6114  124847821.32048  97284069.68646     -2895.28548
     -2256.03746
  20808765.360    20808763.1224  109350942.26949  85208510.76546     -1557.23949
     -1213.42746
  24387651.914    24387650.2944  128157961.42147  99863367.75244     -3120.50047
     -2431.51044
 05  5 29  1  3  0.0000000  0  7G25G06G01G02G05G30G14
  21465415.864    21465413.4704  112801559.74048  87897325.10746      1323.84348
      1031.57246
  20262716.468    20262714.1574  106481369.25949  82972479.83346      -574.33749
      -447.53946
  23310779.829    23310780.4734  122499002.19548  95453749.33445     -1779.65648
     -1386.76045
  23966758.945    23966755.0934  125946188.87148  98139900.42146     -2657.78948
     -2070.99546
  23774269.570    23774267.6554  124934745.16548  97351802.53446     -2899.66448
     -2259.46646
  20817684.163    20817682.0674  109397812.11549  85245032.71346     -1567.32349
     -1221.29046
  24405473.622    24405467.9044  128251617.49847  99936327.28745     -3122.94747
     -2433.42645
 05  5 29  1  3 30.0000000  0  7G25G06G01G02G05G30G14
  21457904.329    21457902.0374  112762085.78549  87866566.18746      1307.93149
      1019.16546
  20266030.757    20266028.3664  106498786.32249  82986051.57246      -586.72649
      -457.19146
  23320979.168    23320977.1734  122552598.66648  95495512.78446     -1793.28748
     -1397.38846
  23981972.394    23981970.2974  126026140.56048  98202200.39746     -2672.26948
     -2082.30146
  23790835.938    23790834.7904  125021801.36748  97419638.53546     -2903.85048
     -2262.76846
  20826661.750    20826659.5334  109444988.01349  85281793.14146     -1577.50649
     -1229.28046
  24423307.631    24423307.3394  128345336.36347 100009383.86845     -3124.90947
     -2435.10945
 05  5 29  1  4  0.0000000  0  7G25G06G01G02G05G30G14
  21450483.535    21450481.0144  112723088.12549  87836178.40346      1291.96749
      1006.72646
  20269415.347    20269413.0044  106516572.49649  82999910.93446      -598.85149
      -466.63446
  23331256.058    23331255.4424  122606600.76248  95537592.32346     -1806.83848
     -1407.94646
  23997265.827    23997262.0134  126106505.71248  98264822.66546     -2685.55248
     -2092.65746
  23807426.397    23807425.6524  125108981.80348  97487571.33846     -2907.94748
     -2265.98146
  20835695.168    20835693.0754  109492462.05549  85318785.89346     -1587.32049
     -1236.87246
  24441151.976    24441150.7164  128439107.41147 100082401.09346     -3126.39647
     -2435.89546
 05  5 29  1  4 30.0000000  0  7G25G06G01G02G05G30G14
  21443152.867    21443150.9034  112684566.70648  87806161.71446      1276.12148
       994.38146
  20272869.649    20272866.9964  106534724.82549  83014055.61846      -611.13249
      -476.21046
  23341608.288    23341606.5444  122661004.06748  95579984.45345     -1820.20248
     -1418.34945
  24012636.190    24012632.8644  126187280.09748  98327763.70146     -2699.20448
     -2103.30146
  23824038.537    23824039.2644  125196283.90248  97555598.96146     -2912.16348
     -2269.17646
  20844785.989    20844784.0424  109540232.26249  85356009.41846     -1597.33249
     -1244.67646
  24459003.980    24459006.2434  128532925.64347 100155506.14946     -3128.14747
     -2437.49346
 05  5 29  1  5  0.0000000  0  7G25G06G01G02G05G30G14
  21435914.455    21435912.1824  112646527.58649  87776520.84746      1260.14749
       981.93346
  20276394.181    20276391.9704  106553246.36649  83028487.99746      -623.39649
      -485.76146
  23352037.778    23352037.0464  122715810.47548  95622690.73045     -1833.56548
     -1428.74045
  24028085.319    24028079.8444  126268465.86548  98391025.31245     -2712.60748
     -2113.70145
  23840676.638    23840675.8924  125283711.80448  97623724.49742     -2916.15048
     -2272.35942
  20853933.289    20853931.4154  109588302.86949  85393467.02946     -1607.05749
     -1252.30346
  24476867.374    24476867.2314  128626792.59048 100228649.10245     -3129.72048
     -2438.71845
 05  5 29  1  5 30.0000000  0  7G25G06G01G02G05G30G14
  21428768.304    21428765.6614  112608973.27949  87747257.74346      1243.93949
       969.30446
  20279988.895    20279986.6374  106572136.98849  83043207.95946      -635.49449
      -495.18846
  23362544.168    23362543.0324  122771018.22748  95665709.71646     -1846.92448
     -1439.18746
  24043612.995    24043607.4794  126350061.15748  98454606.06146     -2726.84648
     -2124.81246
  23857337.614    23857334.5734  125371266.01648  97691948.54945     -2920.79948
     -2275.93245
  20863138.502    20863136.1644  109636674.76849  85431159.40746     -1617.35649
     -1260.24046
  24494738.357    24494737.2914  128720705.99448 100301828.29246     -3131.35248
     -2440.04846
 05  5 29  1  6  0.0000000  0  7G25G06G01G02G05G30G14
  21421714.739    21421712.3194  112571906.49049  87718374.53446      1227.52549
       956.51546
  20283653.927    20283651.7124  106591396.58849  83058215.44046      -648.04249
      -504.96946
  23373125.007    23373123.0154  122826626.01348  95709040.43746     -1860.06748
     -1449.40746
  24059216.545    24059214.4194  126432064.49248  98518504.72546     -2739.69948
     -2134.79846
  23874021.587    23874020.4274  125458947.07948  97760271.38846     -2924.88548
     -2279.13446
  20872400.763    20872398.5244  109685348.45649  85469086.93946     -1627.33749
     -1268.04946
  24512618.884    24512614.9294  128814664.16748 100375042.39245     -3132.62948
     -2441.07745
 05  5 29  1  6 30.0000000  0  7G25G06G01G02G05G30G14
  21414753.089    21414750.2234  112535323.22449  87689868.09146      1211.37049
       943.92846
  20287387.856    20287385.5684  106611018.41849  83073505.18846      -660.25949
      -514.49046
  23383781.502    23383781.7474  122882625.65348  95752676.52046     -1873.17848
     -1459.60446
  24074897.448    24074891.7754  126514467.91348  98582715.19246     -2753.57448
     -2145.66246
  23890730.297    23890728.2394  125546748.97048  97828688.47946     -2928.78348
     -2282.12946
  20881719.749    20881717.2294  109734318.42649  85507245.35246     -1637.31149
     -1275.85346
  24530504.138    24530503.1154  128908658.17047 100448284.40844     -3133.89747
     -2442.01444
 05  5 29  1  7  0.0000000  0  8G25G10G06G01G02G05G30G14
  21407883.977    21407881.2534  112499225.87949  87661740.28146      1195.25649
       931.36346
  25469207.391    25469206.3004  133841591.02447 104292097.23745      1914.25847
      1491.55045
  20291190.875    20291188.3154  106631002.52249  83089077.22146      -671.99649
      -523.63546
  23394511.985    23394512.2594  122939015.71048  95796616.75946     -1885.99048
     -1469.60346
  24090655.286    24090652.4364  126597269.96048  98647236.30246     -2766.96748
     -2156.09346
  23907462.958    23907460.2884  125634672.51048  97897200.25646     -2932.70748
     -2285.25046
  20891094.757    20891092.6714  109783585.61349  85545635.34946     -1647.00749
     -1283.38046
  24548397.428                   129002686.12647                     -3135.03147

 05  5 29  1  7 30.0000000  0  8G25G10G06G01G02G05G30G14
  21401106.638    21401104.0864  112463612.16649  87633989.32946      1178.74749
       918.50446
  25458307.890    25458306.1324  133784310.84657 104247507.12256      1903.11257
      1482.79356
  20295061.710    20295058.8274  106651343.12249  83104927.04546      -684.20549
      -533.15046
  23405316.216    23405315.6754  122995789.02048  95840855.71045     -1898.87448
     -1479.65445
  24106485.990    24106485.0914  126680463.17948  98712062.17346     -2779.42148
     -2165.73446
  23924215.338    23924216.5494  125722712.68748  97965802.88046     -2936.52348
     -2288.20946
  20900525.675    20900523.4844  109833145.30449  85584253.27846     -1657.10649
     -1291.25646
  24566295.490    24566293.9904  129096740.82447 100594866.29246     -3135.43047
     -2443.24246
 05  5 29  1  8  0.0000000  0  8G25G10G06G01G02G05G30G14
  21394423.164    21394420.9914  112428491.75949  87606622.78046      1162.57949
       905.90246
  25447473.784                   133727376.62157                      1892.78857

  20299001.614    20298999.1464  106672047.62949  83121060.43846      -696.07449
      -542.39446
  23416193.533    23416194.1114  123052951.57848  95885397.95446     -1911.85948
     -1489.75946
  24122393.476    24122388.1494  126764053.87548  98777197.77046     -2792.72748
     -2176.09446
  23940992.455    23940988.7564  125810877.56648  98034502.72745     -2940.74548
     -2291.51845
  20910013.895    20910011.7014  109883005.78149  85623105.58946     -1666.80949
     -1298.80146
  24584199.873    24584197.0634  129190827.51547 100668165.62744     -3136.56647
     -2444.22744
 05  5 29  1  8 30.0000000  0  8G25G10G06G01G02G05G30G14
  21387834.029    21387831.1324  112393862.51449  87579638.94546      1145.94349
       892.94146
  25436698.582    25436690.8464  133670754.08747 104159008.32545      1881.34447
      1465.90545
  20303009.589    20303007.2624  106693111.03049  83137473.47746      -708.12249
      -551.78146
  23427143.503    23427144.0944  123110496.90848  95930238.44246     -1924.61248
     -1499.72846
  24138374.023    24138370.7894  126848035.67648  98842638.09246     -2806.28848
     -2186.72946
  23957793.337    23957788.9904  125899162.75448  98103296.29144     -2944.83248
     -2294.72044
  20919558.572    20919556.0934  109933163.20149  85662189.27646     -1676.98149
     -1306.74146
  24602107.742    24602109.3434  129284939.55947 100741462.43442     -3137.63247
     -2444.87642
 05  5 29  1  9  0.0000000  0  8G25G10G06G01G02G05G30G14
  21381338.598    21381336.1384  112359729.42249  87553041.72746      1129.59649
       880.20046
  25425986.254    25425982.8394  133614458.60247 104115147.28856      1870.83347
      1457.59456
  20307086.460    20307083.8834  106714535.71749  83154168.03547      -720.08649
      -561.10547
  23438167.972    23438166.4874  123168425.95248  95975377.92246     -1937.20148
     -1509.49646
  24154430.144    24154425.5014  126932409.54748  98908384.02345     -2818.72448
     -2196.40845
  23974615.796    23974614.8054  125987571.25748  98172185.98946     -2948.50348
     -2297.58546
  20929160.023    20929157.4454  109983620.84249  85701506.90546     -1686.70549
     -1314.31946
  24620021.496    24620021.6014  129379077.13047 100814860.48646     -3138.40247
     -2445.46046
 05  5 29  1  9 30.0000000  0  8G25G10G06G01G02G05G30G14
  21374937.418    21374935.0964  112326091.33349  87526830.22046      1112.92149
       867.21146
  25415334.114    25415339.4234  133558481.11757 104071564.89356      1860.58957
      1450.08256
  20311231.658    20311229.3174  106736317.86749  83171141.14046      -732.10849
      -570.47346
  23449262.754    23449262.1834  123226733.51648  96020812.35345     -1949.93048
     -1519.42045
  24170559.991    24170556.1534  127017170.59648  98974431.54345     -2831.68048
     -2206.51645
  23991463.154    23991463.2094  126076100.04648  98241169.42346     -2953.13448
     -2301.15746
  20938818.991    20938816.4354  110034375.89749  85741056.29246     -1696.95349
     -1322.30546
  24637938.662                   129473235.00547                     -3138.40147

 05  5 29  1 10  0.0000000  0  8G25G10G06G01G02G05G30G14
  21368630.825    21368628.2784  112292950.67649  87501006.32846      1096.35349
       854.30046
  25404747.945    25404748.8854  133502847.21147 104028138.96856      1849.12147
      1440.95256
  20315444.697    20315442.2374  106758457.11249  83188392.49946      -743.91949
      -579.67546
  23460430.554    23460429.8324  123285417.72648  96066540.28945     -1962.19448
     -1529.01045
  24186762.168    24186755.4004  127102316.75648  99040779.21246     -2844.49048
     -2216.47646
  24008331.863    24008329.8284  126164749.84348  98310247.12945     -2956.95548
     -2304.00645
  20948533.429    20948531.5844  110085429.10649  85780837.99946     -1706.74349
     -1329.92746
  24655859.995    24655857.1664  129567410.88347 100961625.09842     -3139.42747
     -2446.39042
 05  5 29  1 10 30.0000000  0  9G25G10G06G01G16G02G05G30G14
  21362417.789    21362415.5924  112260300.83149  87475564.88946      1080.21549
       841.72146
  25394222.178                   133447535.90947                      1837.29447

  20319723.714    20319721.7074  106780944.35849  83205915.03446      -755.24549
      -588.50546
  23471668.017    23471665.6984  123344468.11748  96112553.52845     -1974.38648
     -1538.46745
  24559675.448                   129061964.87257                      2914.75257

  24203036.509    24203032.8164  127187837.36548  99107418.67646     -2856.46948
     -2225.75946
  24025224.110    24025222.9734  126253511.97248  98379412.33846     -2960.38148
     -2306.82946
  20958304.070    20958301.5614  110136772.05749  85820845.48146     -1716.22949
     -1337.32746
  24673781.590    24673783.5654  129661593.86247 101035021.28245     -3139.01247
     -2445.91045
 05  5 29  1 11  0.0000000  0  9G25G10G06G01G16G02G05G30G14
  21356300.274    21356298.4074  112228152.79549  87450514.47446      1062.91149
       828.24446
  25383759.140    25383758.0914  133392555.71247 103942245.27856      1826.79347
      1423.47756
  20324070.727    20324068.4264  106803787.99349  83223715.26946      -767.60749
      -598.13146
  23482973.747    23482974.3874  123403891.49848  96158857.39946     -1986.94148
     -1548.25546
  24543038.535    24543034.7724  128974544.80647 100499636.53846      2913.70047
      2270.48146
  24219383.456    24219378.9664  127273739.57948  99174355.45145     -2869.62148
     -2236.02045
  24042137.202    24042135.1304  126342395.38948  98448672.15646     -2964.94248
     -2310.35746
  20968131.307    20968128.4144  110188414.35049  85861086.21846     -1726.57349
     -1345.38046
  24691706.990    24691711.0054  129755790.65247 101108428.33056     -3140.12447
     -2446.87156
 05  5 29  1 11 30.0000000  0  9G25G10G06G01G16G02G05G30G14
  21350277.924    21350275.5564  112196505.52249  87425854.24746      1046.79049
       815.68546
  25373361.684    25373363.0554  133337914.45247 103899674.84942      1816.20147
      1415.21242
  20328484.855    20328482.3814  106826983.95549  83241790.05146      -778.90949
      -606.93946
  23494353.170    23494353.5674  123463682.32348  96205447.64845     -1999.13648
     -1557.79345
  24526403.822    24526399.4864  128887123.99148 100431468.52145      2913.97448
      2270.68145
  24235801.577    24235796.7424  127360017.86248  99241585.32546     -2882.13948
     -2245.88346
  24059073.453    24059074.0174  126431397.06948  98518024.03845     -2968.42648
     -2313.10145
  20978014.964    20978012.1544  110240352.94049  85901557.83746     -1736.05249
     -1352.76546
  24709633.362    24709637.6824  129849995.18247 101181832.59546     -3140.20047
     -2447.00446
 05  5 29  1 12  0.0000000  0  9G25G10G06G01G16G02G05G30G14
  21344348.837    21344347.0364  112165348.19849  87401575.81347      1030.37749
       802.89047
  25363025.231    25363031.4614  133283599.29747 103857372.84555      1804.59847
      1406.08855
  20332963.322    20332960.9814  106850519.00449  83260129.05546      -790.03649
      -615.61246
  23505798.181    23505797.5504  123523826.00048  96252312.76846     -2010.76448
     -1566.86346
  24509767.428    24509765.7444  128799696.64548 100363343.37446      2914.19448
      2270.78146
  24252288.143    24252284.7534  127446657.74848  99309096.90146     -2894.04048
     -2255.06746
  24076030.810    24076029.1274  126520504.59748  98587458.45345     -2971.77448
     -2315.66445
  20987952.331    20987949.8644  110292575.62349  85942250.82246     -1745.47349
     -1360.10846
  24727557.126                   129944192.66247                     -3140.22847

 05  5 29  1 12 30.0000000  0  9G25G10G06G01G16G02G05G30G14
  21338516.100    21338513.9544  112134695.68249  87377690.72546      1013.14349
       789.45646
  25352755.799    25352752.3064  133229630.06947 103815293.71146      1792.84547
      1397.07446
  20337508.907    20337506.4514  106874405.67849  83278742.04846      -802.32049
      -625.18246
  23517312.304    23517313.5454  123584333.19048  96299461.19446     -2023.37848
     -1576.72746
  24493131.223    24493131.8614  128712276.62948 100295223.89945      2913.51948
      2270.25945
  24268846.050    24268843.3864  127533670.06048  99376898.71446     -2906.58248
     -2264.86946
  24093009.098    24093007.8904  126609730.77648  98656985.21846     -2976.57648
     -2319.43546
  20997946.765    20997943.9984  110345095.73249  85983175.57646     -1755.88049
     -1368.21346
  24745483.821    24745486.5354  130038393.86747 101328617.86445     -3140.03547
     -2446.76845
 05  5 29  1 13  0.0000000  0  9G25G10G06G01G16G02G05G30G14
  21332780.731    21332778.9314  112104556.98749  87354206.03046       996.43549
       776.43846
  25342554.164    25342549.8154  133176015.41147 103773504.06554      1781.61747
      1388.22454
  20342122.420    20342120.0554  106898650.23849  83297633.92146      -813.88549
      -634.19346
  23528897.093    23528896.3804  123645208.70048  96346896.60546     -2035.20248
     -1585.88046
  24476498.617    24476496.1014  128624872.14347 100227116.58445      2913.62747
      2270.35645
  24285475.460    24285474.1554  127621059.66448  99444994.53044     -2919.23548
     -2274.66544
  24110013.132    24110010.2944  126699082.80448  98726610.16645     -2980.43348
     -2322.38545
  21007998.844    21007996.5114  110397920.57349  86024337.77946     -1765.72849
     -1375.88946
  24763410.656    24763409.2454  130132603.31647 101402034.77846     -3140.06347
     -2446.36246
 05  5 29  1 13 30.0000000  0  9G25G10G06G01G16G02G05G30G14
  21327142.978    21327140.5364  112074929.93049  87331119.99346       979.09149
       762.92446
  25332417.912                   133122754.28147                      1769.66447

  20346802.831    20346800.9054  106923247.45849  83316800.58546      -825.84249
      -643.52346
  23540550.096    23540549.0764  123706446.20848  96394614.10645     -2047.57348
     -1595.48345
  24459869.254    24459866.5424  128537480.16347 100159064.02355      2912.49947
      2269.70055
  24302176.857    24302170.1254  127708820.38548  99513379.52646     -2931.73748
     -2284.47646
  24127039.030    24127038.1724  126788556.46848  98796329.91545     -2984.63548
     -2325.71045
  21018108.493    21018105.9364  110451046.13949  86065734.31346     -1775.95749
     -1383.85946
  24781338.507                   130226814.11247                     -3140.35847

 05  5 29  1 14  0.0000000  0  9G25G10G06G01G16G02G05G30G14
  21321601.663    21321599.7764  112045810.30649  87308429.38746       962.38849
       749.91546
  25322350.698    25322344.8274  133069844.16347 103690780.26542      1757.72947
      1369.57542
  20351549.455    20351547.3554  106948191.05149  83336237.15246      -836.95549
      -652.17246
  23552270.348    23552268.4574  123768037.71748  96442607.39942     -2058.86548
     -1604.34342
  24443239.771    24443234.7894  128450096.16747 100090963.61946      2912.99747
      2269.82046
  24318945.676    24318942.6994  127796944.14148  99582047.32745     -2943.09148
     -2293.27345
  24144086.148    24144083.1644  126878146.04948  98866139.82745     -2988.09748
     -2328.43145
  21028273.937    21028271.5274  110504467.02749  86107360.97546     -1785.49649
     -1391.29746
  24799263.680    24799264.7724  130321009.41157 101548842.98255     -3139.23357
     -2445.98755
 05  5 29  1 14 30.0000000  0  9G25G10G06G01G16G02G05G30G14
  21316155.227    21316152.9984  112017187.72949  87286126.07046       945.69549
       736.90346
  25312345.894    25312345.0574  133017274.83257 103649820.82055      1746.10657
      1360.50455
  20356359.484    20356357.4484  106973467.89149  83355933.38146      -848.21449
      -660.97146
  23564055.562    23564053.4484  123829968.40448  96490865.01745     -2070.36948
     -1613.27045
  24426611.620    24426610.4334  128362708.84548 100022885.71455      2912.80448
      2269.99355
  24335780.764    24335776.1514  127885416.45248  99650986.84246     -2954.93748
     -2302.47846
  24161155.012    24161150.3624  126967839.03348  98936030.47846     -2991.43848
     -2331.00446
  21038494.021    21038491.3714  110558170.92849  86149208.15246     -1794.99949
     -1398.70246
  24817187.439    24817191.4944  130415199.99657 101622250.05856     -3139.36157
     -2446.50356
 05  5 29  1 15  0.0000000  0  9G25G10G06G01G16G02G05G30G14
  21310805.284    21310802.4924  111989073.19849  87264218.64046       928.60249
       723.58546
  25302410.183    25302409.5324  132965059.73247 103609136.18256      1734.44147
      1351.63056
  20361234.638    20361232.5294  106999086.41049  83375895.87146      -859.84249
      -670.00246
  23575906.375    23575905.2524  123892245.22648  96539392.38845     -2082.11548
     -1622.40245
  24409982.830    24409981.3024  128275328.53648  99954795.20646      2912.40148
      2269.45546
  24352684.403    24352681.8624  127974244.33448  99720203.32745     -2966.92348
     -2311.83945
  24178245.111    24178248.1884  127057644.64047  99006008.86044     -2995.53647
     -2334.16444
  21048768.931    21048766.5664  110612167.39149  86191283.31646     -1804.84149
     -1406.36946
  24835106.131    24835107.4924  130509364.46047 101695622.35342     -3139.65447
     -2446.49642
 05  5 29  1 15 30.0000000  0  9G25G10G06G01G16G02G05G30G14
  21305554.091    21305551.5884  111961479.42749  87242716.99846       911.31549
       710.10846
  25292544.135    25292543.0364  132913213.77047 103568734.22142      1722.37647
      1342.17442
  20366176.529    20366174.7534  107025056.67549  83396132.43846      -871.32549
      -678.95646
  23587824.222    23587823.2744  123954876.67148  96588196.05746     -2093.47348
     -1631.25546
  24393357.625    24393358.5494  128187967.31047  99886705.49846      2911.74247
      2268.86946
  24369656.861    24369650.2344  128063436.24248  99789703.57042     -2979.20448
     -2321.46642
  24195357.952    24195356.2184  127147573.80648  99075950.36346     -2999.62548
     -2337.35546
  21059101.957    21059099.0184  110666467.38249  86233594.98646     -1814.92849
     -1414.23346
  24853025.370    24853029.6194  130603525.37747 101768994.68046     -3138.11447
     -2445.25646
 05  5 29  1 16  0.0000000  0  9G25G10G06G01G16G02G05G30G14
  21300398.145    21300395.8284  111934384.26849  87221603.86746       895.03849
       697.43346
  25282744.192    25282748.8134  132861715.82147 103528616.67446      1710.62447
      1332.95646
  20371180.705    20371178.7094  107051354.45549  83416624.20646      -881.94249
      -687.22946
  23599805.831    23599804.9284  124017837.04548  96637256.01245     -2104.32648
     -1639.70445
  24376733.371    24376731.0374  128100602.62248  99818629.20145      2912.32948
      2269.38945
  24386693.626    24386688.5654  128152966.83648  99859467.65746     -2989.74348
     -2329.67646
  24212489.660    24212488.1354  127237602.95047  99146102.90042     -3002.33347
     -2339.50142
  21069487.884    21069485.4594  110721047.86848  86276125.22546     -1823.88448
     -1421.25146
  24870937.319    24870945.1554  130697658.80847 101842348.57846     -3136.69547
     -2444.16846
 05  5 29  1 16 30.0000000  0  9G25G10G06G01G16G02G05G30G14
  21295338.837    21295336.2324  111907798.52949  87200887.70446       876.97449
       683.35546
  25273013.369    25273011.6314  132810577.70347 103488756.35955      1697.95747
      1322.90755
  20376249.024    20376246.9994  107077987.63849  83437377.33146      -894.16849
      -696.76146
  23611850.347    23611851.1774  124081132.78048  96686577.38845     -2116.10748
     -1648.91845
  24360108.979    24360106.1894  128013244.44548  99750573.91045      2910.89148
      2268.22645
  24403797.379    24403792.6334  128242842.24148  99929500.44146     -3002.36048
     -2339.47246
  24229642.605    24229642.6034  127327740.93947  99216340.16846     -3006.94747
     -2343.04846
  21079929.325    21079926.7294  110775917.58648  86318880.82446     -1834.55148
     -1429.50846
  24888842.874    24888847.0584  130791752.97647 101915657.08545     -3136.76647
     -2444.26745
 05  5 29  1 17  0.0000000  0  9G25G10G06G01G16G02G05G30G14
  21290380.930    21290378.5364  111881743.97949  87180585.43546       859.95849
       670.09846
  25263353.733    25263351.5244  132759822.47247 103449192.42642      1685.56347
      1313.35242
  20381384.187    20381382.8644  107104975.07749  83458406.50346      -905.13849
      -705.30546
  23623962.232    23623962.1604  124144781.05248  96736173.36746     -2126.80948
     -1657.23246
  24343490.777    24343488.4614  127925913.72248  99682524.11845      2910.80448
      2268.12345
  24420967.691    24420965.4114  128333080.02048  99999815.57346     -3014.00048
     -2348.53446
  24246819.901    24246816.2074  127418007.25648  99286677.54945     -3010.88348
     -2346.16545
  21090429.522    21090426.9444  110831096.64848  86361877.47246     -1844.04348
     -1436.92246
  24906748.615    24906754.3844  130885851.54047 101988993.84846     -3135.88847
     -2443.60946
 05  5 29  1 17 30.0000000  0  8G25G06G01G16G02G05G30G14
  21285517.557    21285515.2964  111856187.10449  87160670.98946       843.35449
       657.16146
  20386580.419    20386578.5064  107132281.64549  83479684.34346      -915.80849
      -713.62446
  23636134.489    23636133.2414  124208744.95848  96786015.30145     -2137.43248
     -1665.49345
  24326871.415    24326871.2144  127838576.84448  99614469.44345      2911.11248
      2268.37845
  24438201.530    24438196.9204  128423643.61548 100070384.67546     -3024.49848
     -2356.72446
  24264015.443    24264012.7304  127508367.13848  99357087.78446     -3013.86948
     -2348.40746
  21100981.862    21100980.4034  110886550.39748  86405088.19446     -1853.21648
     -1444.07446
  24924647.009                   130979903.02847                     -3134.19947

 05  5 29  1 18  0.0000000  0  8G25G06G01G16G02G05G30G14
  21280753.283    21280751.0014  111831151.45149  87141162.68446       825.64849
       643.36046
  20391841.587    20391839.4684  107159927.93449  83501226.90646      -927.42649
      -722.66746
  23648370.551    23648369.9534  124273043.83648  96836118.27946     -2148.97648
     -1674.54046
  24310254.876    24310252.7324  127751256.63848  99546427.71846      2910.16648
      2267.64546
  24455501.047    24455495.0754  128514552.57848 100141222.85945     -3036.44048
     -2366.03745
  24281231.301    24281231.9024  127598842.20348  99427587.80546     -3017.89048
     -2351.61546
  21111590.903    21111588.7654  110942300.83648  86448530.06846     -1863.51748
     -1452.09446
  24942538.487    24942543.0774  131073923.82047 102135530.88043     -3133.55247
     -2441.65043
 05  5 29  1 18 30.0000000  0  8G25G06G01G16G02G05G30G14
  21276089.078    21276086.9054  111806641.99649  87122064.39846       808.59549
       630.07846
  20397167.572    20397165.5934  107187916.48449  83523036.15746      -938.38849
      -731.21146
  23660669.868    23660669.5664  124337678.85748  96886483.16046     -2159.81948
     -1683.01446
  24293642.752    24293642.3434  127663957.62448  99478402.61046      2910.04248
      2267.54246
  24472866.537    24472863.0914  128605807.70848 100212330.73846     -3047.43248
     -2374.64046
  24298472.313    24298470.3364  127689435.77948  99498180.12945     -3021.34648
     -2354.33645
  21122256.625    21122254.6044  110998351.49548  86492205.89646     -1872.92448
     -1459.42746
  24960425.156    24960423.6174  131167918.65147 102208773.64642     -3132.42247
     -2440.87742
 05  5 29  1 19  0.0000000  0  9G25G15G06G01G16G02G05G30G14
  21271522.643    21271520.5384  111782642.99649  87103363.87646       791.23249
       616.55046
  25455927.143    25455930.6094  133771806.30147 104237766.97845      3709.67347
      2890.83545
  20402555.396    20402553.7194  107216229.66249  83545098.37346      -949.38949
      -739.78746
  23673029.398    23673029.8414  124402630.32548  96937094.66446     -2170.63448
     -1691.36646
  24277031.588    24277029.0224  127576664.12148  99410381.66746      2909.41248
      2267.02146
  24490293.941    24490290.0274  128697389.79648 100283693.39045     -3058.24148
     -2383.05745
  24315729.843    24315730.1324  127780130.90548  99568851.62246     -3024.92648
     -2357.04646
  21132976.979    21132974.9214  111054685.48248  86536102.48246     -1882.68948
     -1467.00946
  24978303.745    24978302.4024  131261868.12447 102281975.11346     -3131.53447
     -2440.15346
 05  5 29  1 19 30.0000000  0  9G25G15G06G01G16G02G05G30G14
  21267054.298    21267051.9094  111759162.60849  87085067.46546       773.96949
       603.09346
  25434737.440    25434745.4444  133660446.93247 104151029.98646      3713.03447
      2893.65046
  20408005.897    20408004.0724  107244872.61649  83567417.54046      -960.07449
      -748.11146
  23685451.385    23685450.3854  124467902.20048  96987955.81745     -2180.87248
     -1699.41345
  24260422.986    24260422.2614  127489383.32848  99342370.68746      2909.21548
      2266.91946
  24507785.164    24507780.3764  128789302.78748 100355313.97545     -3069.37248
     -2391.75145
  24333009.023    24333007.1174  127870933.68448  99639606.99045     -3028.55648
     -2359.92245
  21143752.092    21143750.7344  111111309.21548  86580224.86146     -1892.24248
     -1474.46446
  24996174.398    24996169.7874  131355776.39847 102355155.58345     -3129.97047
     -2438.92645
 05  5 29  1 20  0.0000000  0  9G25G15G06G01G16G02G05G30G14
  21262684.968    21262682.8404  111736202.14249  87067176.18846       756.64349
       589.59346
  25413531.582    25413539.6084  133549008.78457 104064195.81052      3716.23557
      2895.70552
  20413518.912    20413517.2754  107273844.39449  83589992.95146      -971.18949
      -756.77346
  23697931.781    23697931.3394  124533491.69548  97039064.43246     -2191.59048
     -1707.75146
  24243815.743    24243811.1524  127402115.89648  99274370.18145      2908.65548
      2266.42545
  24525337.422    24525333.0184  128881544.10848 100427190.32145     -3080.48348
     -2400.37745
  24350309.227    24350306.9344  127961843.49448  99710445.74745     -3032.05248
     -2362.61545
  21154582.511    21154580.5644  111168222.45648  86624572.81846     -1902.06148
     -1482.12046
  25014036.428    25014035.3424  131449640.38747 102428290.58945     -3128.18047
     -2437.58545
 05  5 29  1 20 30.0000000  0  9G25G15G06G01G16G02G05G30G14
  21258416.086    21258413.6774  111713767.87549  87049694.93146       739.15849
       575.97046
  25392310.530                   133437477.43047                      3718.89547

  20419095.664    20419093.8994  107303148.83349  83612827.57446      -982.32349
      -765.45146
  23710474.536    23710474.7684  124599401.05048  97090422.27846     -2202.34248
     -1716.13146
  24227212.611    24227209.3044  127314867.84448  99206384.72446      2907.89648
      2265.84646
  24542953.613    24542949.4194  128974116.28648 100499324.53445     -3091.10848
     -2408.58545
  24367629.323    24367630.8414  128052865.04948  99781371.60746     -3035.74248
     -2365.51046
  21165468.744    21165467.1384  111225430.10348  86669150.19246     -1911.69748
     -1489.62746
  25031889.914    25031886.4084  131543462.34247 102501398.57446     -3126.99847
     -2436.68146
 05  5 29  1 21  0.0000000  0  9G25G15G06G01G16G02G05G30G14
  21254248.023    21254245.7074  111691865.08749  87032627.81246       721.46449
       562.17846
  25371072.210    25371075.3224  133325867.38347 103890328.16646      3721.76147
      2900.08946
  20424735.712    20424733.9754  107332788.83949  83635923.67746      -993.46149
      -774.12746
  23723077.960    23723078.3034  124665631.72148  97142030.57546     -2212.71148
     -1724.19846
  24210614.634    24210612.2264  127227644.24747  99138418.32545      2907.40347
      2265.53745
  24560632.863    24560629.1794  129067020.70348 100571717.56646     -3102.29248
     -2417.39246
  24384972.348    24384972.4664  128144002.21948  99852387.56845     -3039.45548
     -2368.45545
  21176411.931    21176410.0324  111282936.15048  86713960.07546     -1921.59248
     -1497.33646
  25049737.419    25049737.4674  131637243.73447 102574475.22942     -3125.62847
     -2435.55542
 05  5 29  1 21 30.0000000  0  9G25G15G06G01G16G02G05G30G14
  21250180.635    21250178.0214  111670488.77249  87015970.94846       703.51249
       548.19446
  25349818.255    25349815.6344  133214169.94647 103803257.27852      3724.20547
      2901.83952
  20430438.491    20430436.6354  107362757.39749  83659275.80346     -1004.63349
      -782.83446
  23735740.557    23735739.8694  124732174.83648  97193882.22146     -2223.79148
     -1732.84046
  24194018.923    24194013.9854  127140440.11547  99070442.08246      2905.50147
      2264.06246
  24578373.990    24578365.8984  129160248.66048 100644362.82845     -3113.32348
     -2425.96845
  24402335.824    24402335.3394  128235248.38948  99923488.47646     -3043.90548
     -2371.87846
  21187410.468    21187408.3414  111340734.43148  86758997.68546     -1931.75848
     -1505.26746
  25067571.527    25067573.7244  131730978.71847 102647535.18442     -3124.11747
     -2434.33142
 05  5 29  1 22  0.0000000  0  9G25G15G06G01G16G02G05G30G14
  21246212.695    21246210.0054  111649636.92949  86999722.75046       686.49149
       534.92546
  25328547.201    25328545.1734  133102384.28347 103716164.65246      3728.18147
      2905.11846
  20436203.292    20436200.8614  107393049.49149  83682880.01346     -1014.93749
      -790.86246
  23748460.655    23748463.3034  124799024.14548  97245972.57046     -2232.93348
     -1739.99046
  24177428.043    24177427.5514  127053252.42947  99002512.74644      2905.85947
      2264.36444
  24596174.845    24596171.9614  129253794.43648 100717255.66546     -3123.42648
     -2433.82946
  24419719.880    24419718.9274  128326599.81348  99994671.35546     -3046.35348
     -2373.73746
  21198464.381    21198462.5404  111398821.36749  86804260.22046     -1940.87449
     -1512.36546
  25085397.945                   131824648.35247                     -3120.99847

 05  5 29  1 22 30.0000000  0  9G25G15G06G01G16G02G05G30G14
  21242344.281    21242341.6864  111629308.01349  86983882.03046       668.76849
       521.12546
  25307258.517    25307255.2574  132990509.95448 103628979.70353      3730.53648
      2906.82453
  20442028.504    20442026.1614  107423661.62149  83706733.61646     -1026.00549
      -799.48446
  23761239.076    23761240.2814  124866174.27948  97298297.25746     -2243.41648
     -1748.12046
  24160839.501    24160835.6774  126966079.54547  98934600.91845      2906.21247
      2264.57645
  24614035.414    24614028.6764  129347652.40448 100790391.70345     -3133.75448
     -2441.89045
  24437121.875    24437125.2874  128418053.41548 100065920.85142     -3050.07548
     -2376.73242
  21209572.362    21209570.4914  111457193.89048  86849745.27146     -1950.68248
     -1520.01246
  25103212.207    25103207.6014  131918269.92247 102793440.48242     -3119.54247
     -2430.64042
 05  5 29  1 23  0.0000000  0  9G25G15G06G01G16G02G05G30G14
  21238574.273    21238571.9754  111609497.46249  86968445.23246       651.76849
       507.86646
  25285950.833    25285954.2724  132878543.72547 103541711.26945      3733.77847
      2909.52145
  20447913.345    20447911.2984  107454587.08849  83730831.37246     -1035.94749
      -807.23346
  23774073.373    23774072.0354  124933616.93848  97350849.89046     -2252.87248
     -1755.53946
  24144253.500    24144249.3054  126878916.73448  98866681.86945      2905.67948
      2264.10845
  24631953.863    24631949.2194  129441814.58648 100863764.85745     -3143.55648
     -2449.61445
  24454543.257    24454542.5524  128509603.06547 100137258.24345     -3053.21147
     -2379.02845
  21220733.546    21220730.8184  111515846.43149  86895448.54346     -1959.52449
     -1526.91046
  25121013.861    25121010.8124  132011816.59447 102866339.47452     -3116.73047
     -2428.56252
 05  5 29  1 23 30.0000000  0  9G25G15G06G01G16G02G05G30G14
  21234903.894    21234901.6714  111590211.00149  86953416.81546       633.90049
       493.94346
  25264625.141    25264631.7694  132766503.55057 103454442.75052      3736.62657
      2911.68852
  20453858.501    20453856.5724  107485829.15249  83755175.83946     -1046.87649
      -815.74946
  23786962.675    23786964.1944  125001353.62948  97403631.60746     -2263.06048
     -1763.44746
  24127669.654    24127665.2114  126791769.47948  98798774.91344      2904.61448
      2263.36144
  24649929.575    24649925.0634  129536282.82348 100937376.48646     -3154.44548
     -2457.91346
  24471984.761    24471983.8604  128601252.95348 100208673.76645     -3057.53548
     -2382.42645
  21231948.543    21231946.3654  111574783.15748  86941373.24146     -1969.53748
     -1534.66746
  25138801.522    25138806.0684  132105295.47147 102939190.05642     -3115.22747
     -2427.47242
 05  5 29  1 24  0.0000000  0  9G25G15G06G01G16G02G05G30G14
  21231335.517    21231333.3754  111571457.57649  86938803.75546       616.23849
       480.18646
  25243288.639                   132654372.71947                      3738.51547

  20459865.336    20459862.8504  107517394.38449  83779772.12046     -1057.64349
      -824.14546
  23799910.309    23799910.4874  125069389.45348  97456646.40546     -2272.75648
     -1771.01146
  24111091.563    24111088.8474  126704646.50548  98730886.94445      2904.26848
      2263.10845
  24667966.176    24667961.7914  129631062.17947 101011230.55745     -3164.82447
     -2466.14645
  24489445.275    24489441.0684  128693010.45247 100280173.02646     -3060.30847
     -2384.71846
  21243219.470    21243217.5004  111634011.93048  86987525.52346     -1979.13248
     -1542.21846
  25156577.994    25156574.7984  132198712.12847 103011972.45145     -3112.88347
     -2425.75145
 05  5 29  1 24 30.0000000  0  9G25G15G06G01G16G02G05G30G14
  21227868.655    21227866.3154  111553239.62849  86924607.93846       598.38549
       466.27546
  25221938.582    25221939.6274  132542176.56047 103279624.53545      3740.70747
      2915.11245
  20465933.891    20465930.9814  107549283.22349  83804620.56546     -1068.29649
      -832.43846
  23812914.078    23812915.9794  125137723.26248  97509893.49446     -2282.84748
     -1778.84846
  24094517.829    24094515.5434  126617550.27448  98663019.73245      2902.83448
      2261.97745
  24686062.085    24686055.5494  129726151.89448 101085326.43542     -3174.79048
     -2473.88842
  24506925.193    24506924.8554  128784876.67747 100351760.13255     -3063.73247
     -2387.10455
  21254546.190    21254544.1634  111693533.82248  87033906.21446     -1988.99148
     -1549.85746
  25174341.922    25174336.9874  132292065.28147 103084713.10744     -3110.90647
     -2424.01644
 05  5 29  1 25  0.0000000  0  9G25G15G06G01G16G02G05G30G14
  21224505.951    21224503.4654  111535568.38149  86910838.13146       579.98449
       451.93846
  25200577.234                   132429922.32247                      3742.99247

  20472065.242    20472062.6594  107581504.62749  83829728.15146     -1079.42649
      -841.11646
  23825975.670    23825976.4434  125206362.26248  97563378.33046     -2293.01048
     -1786.76346
  24077951.157    24077950.8914  126530491.77148  98595181.94545      2901.68148
      2261.07345
  24704216.674    24704212.6924  129821559.13547 101159613.84645     -3185.36947
     -2482.08145
  24524429.725    24524430.5264  128876861.02147 100423383.26746     -3068.39647
     -2390.92746
  21265930.021    21265928.3944  111753358.79148  87080523.04846     -1999.21848
     -1557.82746
  25192095.030    25192097.8854  132385355.29347 103157430.96245     -3108.74247
     -2422.48545
 05  5 29  1 25 30.0000000  0  9G25G15G06G01G16G02G05G30G14
  21221240.857    21221239.0544  111518411.09749  86897468.83146       564.00949
       439.48246
  25179200.659    25179206.5624  132317584.72547 103104647.38144      3746.80147
      2919.58044
  20478253.273    20478250.8764  107614023.62349  83855067.62946     -1088.44449
      -848.13646
  23839087.880    23839089.0514  125275269.70748  97617072.36945     -2300.55248
     -1792.60945
  24061385.461    24061382.1594  126443437.89248  98527347.77542      2902.12248
      2261.40242
  24722424.956    24722421.8804  129917247.67847 101234176.36046     -3193.90447
     -2488.74446
  24541951.002    24541948.7824  128968929.48248 100495124.94045     -3069.54348
     -2391.83345
  21277365.943    21277363.7904  111813452.86748  87127349.59046     -2007.05748
     -1563.94746
  25209830.821                   132478557.58947                     -3103.94647

 05  5 29  1 26  0.0000000  0  9G25G15G06G01G16G02G05G30G14
  21218073.735    21218071.5644  111501766.08749  86884498.68746       545.57049
       425.12446
  25157804.997    25157808.6144  132205151.77447 103016952.46946      3748.17847
      2920.71246
  20484497.416    20484495.1834  107646836.32049  83880635.96446     -1099.39949
      -856.67246
  23852251.127    23852250.2034  125344440.34548  97670971.46445     -2310.92148
     -1800.73145
  24044820.532    24044816.0954  126356387.10348  98459516.04246      2901.02048
      2260.51946
  24740686.960    24740683.0474  130013212.20147 101308953.90742     -3204.66347
     -2497.19442
  24559486.570    24559487.2944  129061079.09348 100566929.72742     -3073.37948
     -2394.83442
  21288852.062    21288849.3864  111873813.27748  87174383.66446     -2017.22748
     -1571.87246
  25227550.766    25227553.1554  132571674.06057 103302612.00656     -3100.67457
     -2415.99756
 05  5 29  1 26 30.0000000  0  9G25G15G06G01G16G02G05G30G14
  21215011.008    21215008.5164  111485671.98549  86871957.81346       526.53049
       410.28346
  25136399.178    25136403.0654  132092671.92347 102929361.50344      3749.00447
      2921.20144
  20490804.336    20490801.8594  107679979.18849  83906461.57346     -1110.88649
      -865.62646
  23865470.059    23865472.9164  125413908.63448  97725103.63346     -2320.97448
     -1808.56946
  24028262.483    24028259.8144  126269377.81048  98391716.63046      2898.80648
      2258.76646
  24759007.539    24759004.3404  130109487.57947 101383973.65842     -3215.24847
     -2505.40842
  24577044.512    24577041.3604  129153346.76847 100638826.56945     -3078.25647
     -2398.64545
  21300395.747    21300393.7554  111934477.22448  87221654.26746     -2027.93648
     -1580.21346
  25245257.133                   132664720.96757                     -3100.88957

 05  5 29  1 27  0.0000000  0  9G25G15G06G01G16G02G05G30G10
  21212054.323    21212051.6154  111470134.06249  86859850.33246       509.28049
       396.83646
  25114985.744    25114988.8284  131980139.02147 102841677.94045      3751.87847
      2923.63445
  20497174.694    20497172.7234  107713455.20649  83932546.79046     -1120.78349
      -873.33646
  23878746.136    23878745.4524  125483676.14148  97779467.77845     -2329.93048
     -1815.53545
  24011713.944    24011710.1484  126182415.15748  98323953.50642      2898.67048
      2258.71042
  24777387.584    24777388.4384  130206075.67647 101459251.24345     -3224.48047
     -2512.57845
  24594625.814    24594624.5654  129245736.44948 100710818.47245     -3081.20748
     -2400.90045
  21311998.326    21311996.3304  111995448.72248  87269164.50946     -2037.02748
     -1587.29746
  25085541.658    25085542.5214  131825404.59347 102721039.91746      1422.98647
      1108.80346
 05  5 29  1 27 30.0000000  0  9G25G15G06G01G16G02G05G30G10
  21209196.159    21209193.7354  111455115.23349  86848147.35746       491.72449
       383.16346
  25093558.575    25093557.5144  131867534.51547 102753942.26345      3755.31147
      2926.24145
  20503600.741    20503598.4024  107747225.22949  83958861.08346     -1130.71549
      -881.07246
  23892071.400    23892070.4374  125553701.88048  97834033.20745     -2338.55348
     -1822.26945
  23995167.645    23995161.9464  126095461.98248  98256197.81745      2898.00848
      2258.22645
  24795820.366    24795819.4324  130302935.63247 101534734.67546     -3233.24747
     -2519.47146
  24612222.041    24612217.7264  129338209.56848 100782875.46945     -3083.91148
     -2403.01145
  21323651.565    21323649.7004  112056689.50048  87316884.58846     -2045.91348
     -1594.21946
  25077456.596                   131782921.68047                      1409.17847

 05  5 29  1 28  0.0000000  0  9G25G15G06G01G16G02G05G30G10
  21206438.941    21206436.2964  111440625.39049  86836856.55946       473.89149
       369.27146
  25072117.990    25072121.7314  131754863.16747 102666134.55446      3756.14947
      2926.91246
  20510084.375    20510081.9484  107781296.89949  83985410.44346     -1140.97749
      -889.08046
  23905448.384    23905445.0364  125623991.77048  97888804.53446     -2347.40648
     -1829.13346
  23978624.842    23978621.7984  126008528.28248  98188457.30242      2896.98248
      2257.35442
  24814304.818    24814293.6304  130400073.49447 101610388.30143     -3242.26947
     -2526.39643
  24629836.965    24629837.2674  129430774.48848 100855003.97546     -3087.70048
     -2405.99746
  21335358.705    21335356.7534  112118208.25348  87364821.26346     -2055.48048
     -1601.70946
  25069451.452    25069450.2784  131740853.03847 102655194.66655      1395.14147
      1087.11955
 05  5 29  1 28 30.0000000  0  9G25G15G06G01G16G02G05G30G10
  21203784.676    21203782.4944  111426677.97449  86825988.45046       455.89749
       355.24746
  25050667.819    25050665.1894  131642139.87247 102578298.14846      3759.04647
      2929.15946
  20516627.751    20516625.1844  107815681.72249  84012203.82246     -1151.18849
      -897.02446
  23918875.691    23918875.9094  125694555.82148  97943789.40945     -2356.63548
     -1836.32345
  23962086.907    23962084.1694  125921627.50148  98120742.42846      2896.02848
      2256.63446
  24832844.146    24832836.1464  130497499.60047 101686317.75842     -3252.10547
     -2534.10742
  24647471.126    24647471.6794  129523443.50847 100927213.51746     -3090.03347
     -2407.80846
  21347120.444    21347118.8674  112180017.53648  87412984.32246     -2064.90448
     -1609.01546
  25061528.783    25061522.1774  131699210.74247 102622730.42842      1380.70147
      1075.85842
 05  5 29  1 29  0.0000000  0  9G25G15G06G01G16G02G05G30G10
  21201233.282    21201231.0594  111413270.45449  86815541.02746       437.56749
       340.96546
  25029207.717                   131529363.65547                      3759.62947

  20523229.726    20523227.1944  107850374.99649  84039237.54846     -1161.90949
      -905.37946
  23932354.870    23932355.4044  125765387.51048  97998982.86845     -2365.84848
     -1843.55245
  23945556.208    23945555.3714  125834757.11148  98053038.28646      2894.87448
      2255.79346
  24851437.001                   130595207.64847                     -3261.72247

  24665124.845    24665122.0234  129616212.41948 100999500.95245     -3094.36948
     -2411.24645
  21358937.091    21358935.0214  112242113.44548  87461370.73246     -2075.00148
     -1616.88446
  25053685.384    25053683.1304  131657999.69547 102590645.93446      1366.10247
      1064.55746
 05  5 29  1 29 30.0000000  0  9G25G15G06G01G16G02G05G30G10
  21198785.315    21198782.9264  111400405.26649  86805516.19946       420.02549
       327.29046
  25007736.629    25007733.9204  131416538.41847 102402511.86945      3762.12047
      2931.60845
  20529890.263    20529887.8024  107885376.95249  84066511.80246     -1171.76549
      -913.05646
  23945884.682    23945883.3114  125836485.61348  98054383.94644     -2373.91948
     -1849.84344
  23929031.267    23929032.5654  125747919.57848  97985372.78246      2894.33548
      2255.35446
  24870083.022    24870079.3394  130693196.58947 101838804.07442     -3271.10647
     -2548.85442
  24682797.306    24682794.9644  129709082.21048 101071867.02646     -3097.10448
     -2413.10746
  21370808.105    21370806.5024  112304497.18548  87509981.41846     -2083.89348
     -1623.80646
  25045925.669    25045921.1204  131617222.77047 102558870.99046      1352.45247
      1053.83446
 05  5 29  1 30  0.0000000  0  9G25G15G06G01G16G02G05G30G10
  21196436.159    21196433.6984  111388060.95549  86795897.25146       402.52049
       313.64546
  24986254.890    24986258.2534  131303644.49547 102314542.71845      3764.06247
      2933.13445
  20536605.376    20536603.0954  107920664.46349  84094008.56346     -1181.24649
      -920.45646
  23959459.930    23959459.6914  125907825.11648  98109973.01945     -2382.28648
     -1856.33645
  23912509.075    23912504.5784  125661093.63747  97917716.26842      2893.80647
      2255.01742
  24888778.651    24888769.9584  130791441.71247 101915351.61252     -3279.27747
     -2555.28552
  24700485.265    24700484.1204  129802030.50247 101144294.16946     -3100.11247
     -2415.67746
  21382729.936    21382728.6064  112367146.48448  87558799.04346     -2092.90748
     -1630.83146
  25038241.550                   131576844.13747                      1338.75147

 05  5 29  1 30 30.0000000  0  9G25G15G06G01G16G02G05G30G10
  21194193.017    21194190.4704  111376273.32049  86786712.08446       383.72449
       298.99946
  24964766.405    24964762.0464  131190719.53148 102226549.23842      3764.92248
      2933.68042
  20543380.936    20543378.4524  107956271.24249  84121754.11346     -1192.19449
      -928.98046
  23973087.988    23973087.5884  125979438.08648  98165775.26544     -2391.71348
     -1863.78444
  23895995.595    23895996.2024  125574315.27647  97850108.77456      2891.77647
      2253.38456
  24907528.231    24907526.5584  130889975.30647 101992157.17054     -3289.02547
     -2562.78454
  24718194.253    24718194.8684  129895092.06147 101216875.55642     -3103.99247
     -2418.60342
  21394709.285    21394707.2954  112430096.07148  87607850.65646     -2103.27748
     -1638.92646
  25030645.930    25030646.1334  131536927.70347 102496301.02542      1323.05147
      1031.02042
 05  5 29  1 31  0.0000000  0  9G25G15G06G01G16G02G05G30G10
  21192052.639    21192050.0784  111365026.08649  86777948.00846       366.00849
       285.20446
  24943269.157    24943265.9654  131077748.54747 102138504.90042      3766.49247
      2935.11542
  20550213.688    20550211.2794  107992178.92649  84149734.13146     -1201.69249
      -936.38346
  23986762.764    23986763.7644  126051304.43248  98221774.91946     -2399.49748
     -1869.70246
  23879487.615    23879483.1654  125487568.31348  97782513.81146      2890.81948
      2252.54746
  24926330.013    24926332.1874  130988747.65657 102069163.11555     -3297.66757
     -2569.67155
  24735921.806    24735919.9424  129988249.07947 101289465.39244     -3106.65747
     -2420.80044
  21406742.322    21406740.4774  112493328.42048  87657122.59946     -2112.30048
     -1645.94946
  25023134.755    25023138.1864  131497456.50947 102465554.55055      1309.31947
      1020.29155
 05  5 29  1 31 30.0000000  0  9G25G15G06G01G16G02G05G30G10
  21190012.951    21190010.0914  111354305.32949  86769594.17846       348.43749
       271.50346
  24921760.575    24921759.4294  130964719.37847 102050425.34345      3768.22547
      2936.26345
  20557100.958    20557098.7734  108028371.49749  84177936.14346     -1211.32849
      -943.89046
  24000484.611    24000482.1084  126123406.58348  98277962.35146     -2407.61048
     -1876.00646
  23862984.475    23862980.1214  125400838.81748  97714932.39946      2890.67248
      2252.54246
  24945178.641    24945176.9564  131087794.23147 102146279.71244     -3307.21947
     -2576.99044
  24753662.924                   130081486.26447                     -3109.38147

  21418825.963    21418824.2114  112556828.48848  87706603.16646     -2121.30248
     -1652.96446
  25015702.069    25015698.2194  131458398.16247 102435100.56245      1294.38647
      1008.56845
 05  5 29  1 32  0.0000000  0  9G25G15G06G01G16G02G05G30G10
  21188076.209    21188073.8174  111344127.98449  86761663.78146       330.07749
       257.20146
  24900244.349    24900243.0394  130851650.84347 101962334.97845      3769.70747
      2937.47045
  20564045.092    20564043.1314  108064863.96449  84206371.82746     -1221.56249
      -951.86646
  24014252.822    24014252.1544  126195757.80248  98334339.80345     -2415.99048
     -1882.66945
  23846487.656    23846487.2274  125314144.25948  97647378.18646      2889.09048
      2251.25546
  24964077.185                   131187110.51347                     -3314.85247

  24771423.700    24771424.9094  130174819.12947 101434822.53845     -3113.11747
     -2425.82845
  21430963.727    21430961.7624  112620612.22048  87756304.76546     -2130.94448
     -1660.47146
  25008351.815    25008340.1654  131419781.31447 102404971.59352      1279.93547
       997.62352
 05  5 29  1 32 30.0000000  0  9G25G15G06G01G16G02G05G30G10
  21186242.494    21186240.4664  111334492.88949  86754155.91346       312.33549
       243.38146
  24878720.963    24878716.5774  130738543.31547 101874173.33542      3771.35747
      2938.86542
  20571045.557    20571043.7734  108101653.13049  84235038.70546     -1231.02449
      -959.24046
  24028066.511    24028067.6774  126268353.07848  98390907.49846     -2423.70248
     -1888.55546
  23829996.170    23829994.3394  125227483.51448  97579850.39945      2888.33448
      2250.65845
  24983027.497    24983024.0624  131286696.14547 102301297.85555     -3323.26447
     -2589.70355
  24789203.349    24789202.4834  130268245.14747 101507655.05946     -3115.18647
     -2427.45046
  21443155.198    21443153.0534  112684677.30049  87806225.60546     -2139.96049
     -1667.50046
  25001089.370    25001090.7174  131381606.07647 102375283.52742      1265.18247
       985.92842
 05  5 29  1 33  0.0000000  0  9G25G15G06G01G16G02G05G30G10
  21184511.758    21184509.2204  111325398.30949  86747069.23346       294.02949
       229.11546
  24857189.281                   130625397.09647                      3772.47747

  20578102.132    20578100.3974  108138735.49249  84263934.05946     -1240.99649
      -967.00246
  24041927.216    24041926.7684  126341187.27248  98447661.26546     -2431.59948
     -1894.77946
  23813510.993    23813509.0684  125140855.27148  97512347.84846      2886.51148
      2249.23646
  25002024.742    25002017.8294  131386526.77057 102379082.56656     -3331.10457
     -2595.68956
  24806999.861    24806995.0674  130361761.68647 101580496.92556     -3118.87047
     -2430.23256
  21455399.168    21455397.0584  112749021.25249  87856363.74046     -2149.55749
     -1674.98046
  24993908.758                   131343872.82447                      1250.21447

 05  5 29  1 33 30.0000000  0  9G25G15G06G01G16G02G05G30G10
  21182885.515    21182883.2134  111316852.25449  86740409.98146       275.63549
       214.78446
  24835652.574    24835653.8924  130512222.10347 101697843.14345      3773.41447
      2940.40545
  20585215.949    20585213.6604  108176117.36249  84293062.78746     -1251.11749
      -974.89646
  24055833.328    24055831.2494  126414264.90448  98504604.80846     -2440.26448
     -1901.57546
  23797034.822    23797030.7024  125054268.00248  97444877.32246      2885.64148
      2248.55846
  25021071.621    25021078.0744  131486618.43357 102457131.75456     -3341.43957
     -2603.84056
  24824812.124    24824808.0464  130455375.72847 101653453.96246     -3122.40547
     -2433.06846
  21467698.016    21467695.0514  112813651.15249  87906724.69946     -2159.17649
     -1682.51846
  24986813.398    24986814.2684  131306591.02947 102316825.31042      1234.75347
       962.32642
 05  5 29  1 34  0.0000000  0  9G25G15G06G01G16G02G05G30G10
  21181363.965    21181361.3174  111308856.04749  86734179.17246       257.58149
       200.71846
  24814111.051    24814109.9174  130399021.17047 101609579.60656      3774.55747
      2941.26456
  20592385.978    20592384.2194  108213797.88748  84322424.23646     -1260.79948
      -982.43846
  24069784.307    24069784.3424  126487583.33948  98561735.94245     -2447.72748
     -1907.28845
  23780565.706    23780562.8654  124967722.92548  97377439.57546      2884.39348
      2247.56146
  25040167.442    25040155.4354  131586967.74047 102535250.38556     -3348.88447
     -2609.45656
  24842644.218    24842645.5304  130548976.16147 101726467.85246     -3125.31447
     -2435.21846
  21480050.905    21480048.1144  112878566.92149  87957308.39046     -2168.44449
     -1689.69846
  24979806.528    24979805.8854  131269763.51247 102288122.74645      1220.14947
       950.75345
 05  5 29  1 34 30.0000000  0  9G25G15G06G01G16G02G05G30G10
  21179943.742    21179941.2144  111301393.76649  86728364.40846       239.98049
       186.98046
  24792561.813    24792558.9634  130285780.33047 101521383.01242      3774.94847
      2941.55142
  20599609.793    20599607.8704  108251759.37348  84352004.61646     -1269.99548
      -989.60846
  24083780.096    24083779.3124  126561123.12648  98619039.55342     -2455.12848
     -1913.10542
  23764100.928    23764097.1564  124881204.62648  97310022.80045      2883.81848
      2247.12545
  25059310.955    25059302.1014  131687567.65957 102613652.43752     -3357.03557
     -2615.97652
  24860495.981    24860492.3984  130642768.02848 101799545.42145     -3127.72848
     -2437.08545
  21492455.648    21492452.7624  112943751.98249  88008101.96346     -2177.14249
     -1696.46446
  24972882.283    24972881.6234  131233375.89447 102259780.71545      1205.03447
       938.95845
 05  5 29  1 35  0.0000000  0  9G25G15G06G01G16G02G05G30G10
  21178627.754    21178625.1584  111294476.14949  86722974.06646       221.37549
       172.50246
  24771006.091    24771004.4274  130172512.27247 101433121.29456      3775.56047
      2941.84356
  20606888.785    20606887.3204  108290010.54348  84381810.70846     -1279.98348
      -997.38846
  24097817.755    24097816.6364  126634891.19048  98676521.03046     -2462.77548
     -1919.04646
  23747645.188    23747639.8824  124794723.93748  97242635.27942      2881.85148
      2245.64142
  25078498.393                   131788397.58257                     -3365.88557

  24878359.444    24878358.0844  130736649.51447 101872702.66645     -3131.07547
     -2439.87345
  21504912.938    21504909.7444  113009215.94449  88059112.82346     -2187.04249
     -1704.18146
  24966044.048    24966043.8284  131197440.66947 102231775.14756      1190.45347
       927.45456
 05  5 29  1 35 30.0000000  0  9G25G15G06G01G16G02G05G30G10
  21177416.013    21177413.1784  111288108.67349  86718012.40746       203.40049
       158.49446
  24749450.059    24749450.7864  130059224.41448 101344866.12744      3776.88348
      2943.03444
  20614223.889    20614222.0604  108328555.31949  84411845.59546     -1289.43749
     -1004.76846
  24111899.312    24111897.4764  126708889.75148  98734182.16646     -2470.14948
     -1924.80946
  23731196.369    23731193.6424  124708287.37348  97175282.18045      2880.77948
      2244.77845
  25097734.754    25097727.6674  131889485.94657 102770998.62256     -3375.29957
     -2630.14756
  24896242.058    24896244.1564  130830625.11648 101945926.46545     -3133.63348
     -2441.69345
  21517424.033    21517421.2154  113074963.37648  88110344.58246     -2195.97748
     -1711.15046
  24959293.719    24959288.0254  131161964.86748 102204115.83142      1175.09948
       915.66742
 05  5 29  1 36  0.0000000  0  8G25G15G06G01G16G05G30G10
  21176307.648    21176305.1224  111282284.11349  86713473.78146       185.02949
       144.17446
  24727887.205    24727883.1144  129945911.42347 101256570.22346      3777.39047
      2943.47446
  20621612.983    20621610.9724  108367384.49649  84442102.09746     -1299.23549
     -1012.38646
  24126021.985    24126021.4694  126783108.10648  98792014.55245     -2477.86348
     -1930.80045
  23714754.471    23714752.1994  124621887.74348  97107957.76745      2879.36948
      2243.60845
  24914141.746    24914141.0714  130924686.66447 102019217.17346     -3136.70947
     -2444.18546
  21529987.770    21529985.0684  113140986.25648  88161790.96246     -2205.47248
     -1718.55546
  24952628.094    24952625.2684  131126943.00847 102176840.05245      1159.55247
       903.53745
 05  5 29  1 36 30.0000000  0  8G25G15G06G01G16G05G30G10
  21175304.215    21175301.5064  111277010.93749  86709364.82346       166.57949
       129.80146
  24706320.716    24706321.8954  129832583.45347 101168247.84346      3777.91147
      2943.87246
  20629057.350    20629055.3604  108406504.76749  84472585.42546     -1308.80749
     -1019.85746
  24140187.299    24140189.8534  126857550.99448  98850021.86846     -2485.08648
     -1936.41646
  23698321.719    23698320.9144  124535533.78948  97040669.06146      2878.02648
      2242.63646
  24932057.224    24932056.7664  131018841.26547 102092611.30046     -3139.66847
     -2446.44746
  21542605.092    21542602.4554  113207292.06748  88213457.82146     -2214.78848
     -1725.80746
  24946050.809    24946055.4594  131092385.17947 102149926.18054      1143.87947
       891.02054
 05  5 29  1 37  0.0000000  0  9G25G15G06G01G16G02G05G30G10
  21174404.316    21174401.6494  111272282.16549  86705680.07346       148.62749
       115.81146
  24684752.325    24684752.3804  129719236.00848 101079925.29946      3778.74648
      2944.49746
  20636555.368    20636553.3814  108445907.64149  84503288.96446     -1318.15249
     -1027.13546
  24154395.423    24154395.2294  126932208.11548  98908196.14746     -2491.88248
     -1941.68546
  23681896.673    23681894.8644  124449219.17748  96973410.94346      2876.65148
      2241.55546
  25155714.087    25155721.1074  132194168.84157 103008471.30152     -3397.39457
     -2647.32352
  24949991.098    24949995.0684  131113081.28248 102166039.07942     -3142.76648
     -2448.97142
  21555274.691    21555272.6944  113273873.02048  88265339.08546     -2223.94648
     -1732.95246
  24939562.324                   131058286.10447                      1129.05447

 05  5 29  1 37 30.0000000  0  9G25G15G06G01G16G02G05G30G10
  21173608.440    21173605.3744  111268097.49749  86702419.30046       130.38649
       101.60046
  24663179.171    24663180.5684  129605870.71848 100991597.67646      3778.89448
      2944.47846
  20644106.747    20644104.6664  108485591.11249  84534211.14946     -1327.46949
     -1034.39446
  24168641.976    24168642.8104  127007075.88648  98966534.55744     -2498.80548
     -1947.03744
  23665479.496    23665477.4814  124362944.65848  96906184.15646      2875.01748
      2240.28446
  25175129.203    25175127.5504  132296195.97857 103087938.07356     -3405.58957
     -2653.84456
  24967941.050                   131207405.26648                     -3145.38648

  21567996.951    21567994.7614  113340728.07748  88317433.91746     -2232.98848
     -1739.98446
  24933160.317    24933161.8224  131024646.21247 102097128.17052      1113.82247
       868.21852
 05  5 29  1 38  0.0000000  0  9G25G15G06G01G16G02G05G30G10
  21172916.686    21172914.1124  111264464.14549  86699588.11746       111.98849
        87.26546
  24641604.847    24641602.1704  129492496.52448 100903254.26346      3779.38248
      2944.99246
  20651713.057    20651710.2324  108525560.59149  84565356.18946     -1336.98949
     -1041.81546
  24182929.124    24182928.9594  127082157.76548  99025039.84945     -2506.34948
     -1953.00045
  23649070.685    23649067.6744  124276717.38148  96838994.03742      2873.25648
      2238.87742
  25194590.574    25194586.3894  132398466.57147 103167631.11742     -3412.75047
     -2659.24442
  24985904.974    24985904.4424  131301819.26547 102313080.59444     -3148.64947
     -2453.50044
  21580771.607    21580769.6084  113407863.40348  88369747.14746     -2242.53348
     -1747.42346
  24926850.314    24926849.7654  130991476.09147 102071282.11656      1098.51247
       856.13656
 05  5 29  1 38 30.0000000  0  9G25G15G06G01G16G02G05G30G10
  21172328.745    21172326.0664  111261374.40049  86697180.53346        93.98449
        73.23646
  24620026.864    24620028.2184  129379107.73747 100814899.35146      3779.74247
      2945.30546
  20659371.763    20659368.6534  108565806.51149  84596716.65446     -1346.09449
     -1048.90146
  24197256.522    24197255.8404  127157442.61248  99083703.22945     -2512.79348
     -1958.02045
  23632669.593    23632667.6124  124190530.21048  96771835.31446      2872.27148
      2238.09846
  25214092.432                   132500949.88157                     -3419.37157

  25003889.248    25003889.2524  131396314.63647 102386734.41246     -3151.13547
     -2455.47546
  21593598.937    21593597.2364  113475270.55348  88422272.20146     -2251.42948
     -1754.35746
  24920626.274    24920628.5474  130958768.81447 102045807.21454      1082.59247
       843.45154
 05  5 29  1 39  0.0000000  0  9G25G15G06G01G16G02G05G30G10
  21171844.234    21171841.8704  111258828.24849  86695196.51646        75.48149
        58.81246
  24598447.481    24598445.0164  129265706.77148 100726512.14245      3780.16248
      2945.48145
  20667082.599    20667079.5894  108606327.44349  84628291.41346     -1355.58049
     -1056.29846
  24211620.834    24211620.3984  127232927.29548  99142522.38443     -2519.77248
     -1963.47143
  23616277.576    23616275.1924  124104384.22048  96704708.55245      2870.61748
      2236.85545
  25233638.436    25233639.6014  132603665.20457 103327535.22952     -3426.72257
     -2670.08752
  25021886.202    25021889.0744  131490890.42947 102460450.73045     -3154.07547
     -2457.67845
  21606477.910    21606475.8334  113542948.71348  88475008.41846     -2260.69348
     -1761.57746
  24914488.449    24914486.4504  130926526.01547 102020667.96542      1066.86647
       831.41042
 05  5 29  1 39 30.0000000  0  8G25G15G06G01G16G05G30G10
  21171464.180    21171461.4164  111256831.50449  86693640.61046        57.47649
        44.78646
  24576867.529    24576865.7454  129152301.43747 100638144.37246      3780.24647
      2945.64846
  20674846.636    20674843.7674  108647127.59449  84660083.74846     -1364.49449
     -1063.25046
  24226023.162    24226022.0024  127308613.98348  99201498.94645     -2526.09948
     -1968.40645
  23599893.512    23599889.2304  124018285.37848  96637618.53845      2869.37948
      2235.91045
  25039898.740    25039900.8294  131585551.16648 102534212.49746     -3156.60148
     -2459.87046
  21619409.284    21619407.7824  113610903.05748  88527959.83446     -2269.63348
     -1768.53246
  24908442.751    24908437.6084  130894755.23847 101995887.50255      1050.97547
       818.93955
 05  5 29  1 40  0.0000000  0  8G25G15G06G01G16G05G30G10
  21171188.457    21171185.7064  111255384.55349  86692513.12646        38.91049
        30.31646
  24555286.626    24555286.9714  129038893.80547 100549774.87045      3779.96847
      2945.43545
  20682663.568    20682660.3284  108688205.35049  84692092.39446     -1374.01349
     -1070.65746
  24240463.619    24240462.6804  127384499.66548  99260630.58945     -2533.08548
     -1973.77045
  23583517.985    23583512.4034  123932234.92748  96570566.32345      2867.33648
      2234.26745
  25057928.679    25057927.6074  131680296.23547 102608039.82945     -3159.87347
     -2462.28745
  21632392.785    21632391.4764  113679132.83348  88581125.87146     -2279.17948
     -1775.98146
  24902487.554    24902490.2694  130863458.22847 101971517.12142      1034.80247
       806.47242
 05  5 29  1 40 30.0000000  0  8G25G15G06G01G16G05G30G10
  21171019.065    21171016.4194  111254493.05549  86691818.45046        20.33749
        15.84546
  24533707.182    24533706.3264  128925492.37947 100461410.10246      3779.62747
      2945.17046
  20690534.095    20690531.1694  108729565.06049  84724320.74946     -1383.52449
     -1078.07146
  24254942.189    24254941.0974  127460586.55148  99319925.92245     -2539.56148
     -1978.93345
  23567153.827    23567150.9564  123846239.10248  96503556.64446      2865.44348
      2232.84346
  25075977.813    25075971.7984  131775130.55948 102681892.55944     -3163.00848
     -2464.66244
  21645430.527    21645428.5034  113747642.94048  88634510.36746     -2288.45348
     -1783.22646
  24896623.613                   130832640.40847                      1018.90847

 05  5 29  1 41  0.0000000  0  8G25G15G06G01G16G05G30G10
  21170954.873    21170952.0194  111254155.50249  86691555.42746         2.44249
         1.90346
  24512127.638    24512128.1254  128812097.73247 100373050.80245      3780.68547
      2946.02345
  20698457.517    20698454.2814  108771203.80649  84756766.52546     -1392.19849
     -1084.83146
  24269458.788    24269455.2384  127536870.00248  99379367.54745     -2545.72048
     -1983.74745
  23550799.512    23550795.6534  123760297.60648  96436589.31845      2864.37848
      2231.93245
  25094037.662    25094037.8824  131870052.03147 102755893.37245     -3165.78447
     -2466.84445
  21658520.445    21658517.9064  113816431.47548  88688111.81446     -2297.14048
     -1789.97746
  24890849.206    24890853.5244  130802306.54747 101923868.14045      1003.77847
       782.12345
 05  5 29  1 41 30.0000000  0  8G25G15G06G01G16G05G30G10
  21170991.621    21170988.2974  111254347.93949  86691705.38146       -15.24249
       -11.87546
  24490546.672    24490549.6614  128698687.95547 100284679.63543      3780.58447
      2945.91843
  20706429.330    20706426.8174  108813095.73649  84789409.59346     -1400.68849
     -1091.44546
  24284007.591    24284005.1074  127613322.60248  99438940.85344     -2551.33848
     -1988.17444
  23534451.122    23534448.6194  123674386.68148  96369645.70646      2862.95348
      2230.86946
  25112114.344    25112114.2664  131965035.40648 102829906.42646     -3167.20348
     -2467.93746
  21671658.638    21671656.8954  113885473.53248  88741910.79546     -2305.67748
     -1796.63846
  24885164.057    24885166.0794  130772420.62357 101900581.95054       988.02957
       769.78454
 05  5 29  1 42  0.0000000  0  8G25G15G06G01G16G05G30G10
  21171134.148    21171131.6184  111255097.63049  86692289.55746       -34.51949
       -26.89946
  24468967.950    24468965.8284  128585292.47047 100196354.53245      3779.76947
      2945.27045
  20714454.370    20714451.7174  108855266.76949  84822270.14146     -1410.56749
     -1099.14146
  24298592.816    24298591.9874  127689968.36048  99498668.77546     -2558.34048
     -1993.50546
  23518114.251    23518111.1974  123588534.52548  96302747.97546      2860.25048
      2228.80646
  25130207.414    25130203.2264  132060107.12347 102903974.24144     -3170.92647
     -2471.02844
  21684850.802    21684848.0264  113954795.59548  88795927.97546     -2315.74548
     -1804.47346
  24879572.976    24879571.6624  130743037.63357 101877686.07056       971.57557
       757.14756
 05  5 29  1 42 30.0000000  0  8G25G15G06G01G16G05G30G10
  21171383.564    21171381.4644  111256408.18649  86693310.76346       -53.02149
       -41.31346
  24447394.174    24447395.4654  128471917.57748 100108001.53545      3778.90248
      2944.56545
  20722532.627    20722529.7574  108897719.36049  84855350.09546     -1419.78349
     -1106.32446
  24313214.596    24313216.5514  127766807.79848  99558537.51842     -2564.32948
     -1998.20042
  23501788.746    23501787.3884  123502745.62148  96235899.52245      2858.50748
      2227.41145
  25148313.263    25148319.7024  132155277.63256 102978164.33752     -3174.60356
     -2473.40452
  21698096.121    21698093.6404  114024400.91248  88850165.85446     -2324.90348
     -1811.60746
  24874075.937    24874077.9194  130714144.45247 101855189.91156       954.70847
       743.69856
 05  5 29  1 43  0.0000000  0  8G25G15G06G01G16G05G30G10
  21171737.410    21171734.9514  111258268.23949  86694760.15546       -71.19549
       -55.48146
  24425821.711    24425819.8174  128358553.83348 100019666.18845      3778.69948
      2944.42545
  20730662.263    20730659.5154  108940440.14449  84888639.02346     -1428.49849
     -1113.10846
  24327871.175    24327871.3044  127843826.11248  99618551.73946     -2570.15448
     -2002.71346
  23485473.062    23485471.8484  123417009.45548  96169092.11646      2856.86948
      2226.13646
  25166434.308    25166438.8864  132250508.69747 103052368.33645     -3176.18247
     -2474.95345
  21711392.809    21711390.6774  114094277.14348  88904614.85446     -2333.78248
     -1818.50246
  24868670.804    24868671.9084  130685745.69247 101833055.46145       938.93347
       731.46445
 05  5 29  1 43 30.0000000  0  8G25G15G06G01G16G05G30G10
  21172194.051    21172190.9884  111260666.79349  86696629.15646       -88.82249
       -69.21346
  24404249.261    24404249.3824  128245192.60448  99931336.79845      3779.08548
      2944.66845
  20738840.213    20738838.1594  108983416.82449  84922127.35346     -1436.78049
     -1119.56446
  24342558.726    24342556.7704  127921008.96648  99678694.11746     -2574.94948
     -2006.51546
  23469166.396    23469162.8604  123331315.96048  96102318.05446      2855.98748
      2225.47646
  25184574.821    25184573.1264  132345817.12648 103126634.81445     -3178.06548
     -2476.41845
  21724739.374    21724737.6414  114164412.74648  88959265.94846     -2342.13948
     -1825.04746
  24863353.854                   130657805.56757                       923.32257

 05  5 29  1 44  0.0000000  0  8G25G15G06G01G16G05G30G10
  21172753.657    21172751.1794  111263609.09849  86698921.87346      -107.60649
       -83.84746
  24382678.730    24382679.2384  128131841.26848  99843011.26045      3777.83548
      2943.74345
  20747067.842    20747065.4604  109026653.36349  84955818.17346     -1445.93749
     -1126.69546
  24357278.285    24357278.8574  127998358.53448  99738966.33446     -2581.61548
     -2011.65646
  23452868.626    23452865.9684  123245671.21048  96035581.89845      2853.41548
      2223.40345
  25202724.618    25202724.1854  132441197.10747 103200889.81642     -3180.78847
     -2478.65642
  21738136.033    21738133.9274  114234812.40348  89014122.80046     -2351.50348
     -1832.33946
  24858129.914    24858123.2614  130630359.68647 101789869.21346       907.15847
       706.78146
 05  5 29  1 44 30.0000000  0  8G25G15G06G01G16G05G30G10
  21173420.648    21173418.3564  111267112.28149  86701651.62146      -125.87749
       -98.08546
  24361115.365    24361118.0364  128018519.47048  99754708.59145      3777.63048
      2943.61745
  20755347.974    20755345.3874  109070165.29049  84989723.56346     -1454.82849
     -1133.62846
  24372031.325    24372030.9194  128075888.54248  99799379.17942     -2587.16748
     -2015.99142
  23436583.673    23436578.7184  123160093.09248  95968897.65446      2851.70348
      2222.07246
  25220889.618    25220892.6374  132536668.85957 103275339.21952     -3183.32357
     -2480.51352
  21751585.704    21751583.8294  114305492.31648  89069198.05946     -2360.48248
     -1839.33646
  24853000.004    24852999.8054  130603396.89747 101768878.40546       890.12047
       693.53246
 05  5 29  1 45  0.0000000  0  8G25G15G06G01G16G05G30G10
  21174191.728    21174189.1464  111271164.05749  86704808.84546      -144.29349
      -112.43346
  24339554.309    24339557.3754  127905217.61548  99666421.49645      3776.45048
      2942.67745
  20763677.790    20763675.4724  109113939.17549  85023833.08746     -1463.53649
     -1140.41746
  24386816.276    24386817.2634  128153583.70748  99859920.76246     -2592.54748
     -2020.21846
  23420309.059    23420305.9254  123074570.54048  95902256.74545      2849.73648
      2220.54345
  25239072.952                   132632220.68647                     -3185.97247

  21765086.506    21765084.1644  114376439.98848  89124481.95046     -2369.50448
     -1846.36646
  24847963.150    24847962.6214  130576926.83857 101748252.28052       873.38457
       680.45852
 05  5 29  1 45 30.0000000  0  8G25G15G06G01G16G05G30G10
  21175067.650    21175065.4984  111275767.81849  86708396.19546      -162.35249
      -126.50746
  24317998.888    24318000.2664  127791941.41348  99578154.35142      3775.52448
      2941.93242
  20772057.791    20772055.6104  109157977.09149  85058148.35646     -1472.02049
     -1147.03446
  24401633.446    24401632.6334  128231444.46848  99920591.35545     -2597.81648
     -2024.28545
  23404045.976    23404043.4864  122989107.78848  95835662.45945      2847.87548
      2219.12145
  25257267.210    25257264.0284  132727833.86647 103424273.62756     -3188.62047
     -2484.71856
  21778638.564    21778636.4224  114447658.15148  89179976.61646     -2378.18448
     -1853.13046
  24843024.216                   130550968.41147                       857.76347

 05  5 29  1 46  0.0000000  0  8G25G15G06G01G16G05G30G10
  21176048.111    21176045.3624  111280918.52449  86712409.72746      -180.75849
      -140.84946
  24296446.724    24296446.1144  127678688.17648  99489905.15446      3774.77848
      2941.50646
  20780486.670    20780485.0264  109202272.49249  85092664.26146     -1480.83349
     -1153.89446
  24416479.719    24416478.9204  128309462.53748  99981384.50445     -2603.36748
     -2028.61145
  23387793.310    23387791.7834  122903700.77148  95769111.57544      2846.00648
      2217.77944
  25275477.710    25275472.7194  132823525.53747 103498834.61054     -3191.07947
     -2486.58154
  21792241.815    21792239.6954  114519141.16448  89235677.64646     -2387.26248
     -1860.20846
  24838175.154                   130525480.30847                       841.26947

 05  5 29  1 46 30.0000000  0  8G25G15G06G01G16G05G30G10
  21177132.443    21177129.9014  111286618.91549  86716851.58446      -199.13549
      -155.16446
  24274901.574    24274902.6614  127565463.34948  99401678.12946      3774.01348
      2940.80846
  20788965.245    20788962.8674  109246827.17248  85127382.20246     -1489.56248
     -1160.69946
  24431356.327    24431356.5084  128387637.53348 100042299.98246     -2608.29648
     -2032.45146
  23371552.831    23371551.0904  122818353.73948  95702607.41746      2843.69548
      2215.86146
  25293700.179                   132919291.14147                     -3193.85447

  21805895.171    21805893.4854  114590891.45248  89291586.97546     -2396.29948
     -1867.24246
  24833421.759    24833412.2884  130500513.07347 101688671.42352       823.91847
       642.16452
 05  5 29  1 47  0.0000000  0  8G25G15G06G01G16G05G30G10
  21178321.845    21178319.3924  111292869.47149  86721722.13746      -217.55849
      -169.52446
  24253359.877    24253362.0374  127452269.51647  99313475.23546      3772.84547
      2939.83746
  20797492.636    20797490.8534  109291639.90948  85162301.20946     -1498.14448
     -1167.38546
  24446260.993    24446262.9474  128465966.93948 100103335.70446     -2613.65548
     -2036.57346
  23355324.005    23355322.1004  122733068.00448  95636151.03845      2841.86248
      2214.48045
  25311939.387    25311933.3694  133015139.23247 103648135.78456     -3195.66247
     -2489.90556
  21819599.771    21819597.6634  114662908.64748  89347704.24546     -2405.00148
     -1874.03346
  24828762.415    24828764.1634  130476026.62657 101669637.68052       807.53457
       629.19552
 05  5 29  1 47 30.0000000  0  8G25G15G06G01G16G05G30G10
  21179616.473    21179613.9584  111299672.25449  86727023.00546      -236.06349
      -183.94246
  24231826.800    24231829.3644  127339111.19747  99225299.96646      3771.31747
      2938.78346
  20806069.363    20806067.4294  109336711.55348  85197421.97546     -1506.68348
     -1174.04046
  24461196.299    24461197.1364  128544449.56848 100164490.84745     -2618.66148
     -2040.49345
  23339106.790    23339103.7224  122647846.48848  95569744.66446      2839.66248
      2212.73046
  25330188.686    25330186.8534  133111051.21747 103722903.03944     -3198.69247
     -2492.56144
  21833354.671    21833353.4174  114735194.21648  89404030.66346     -2413.89348
     -1880.96746
  24824198.486    24824194.5554  130452042.90057 101650925.69256       790.43557
       615.93656
 05  5 29  1 48  0.0000000  0  8G25G15G06G01G16G05G30G10
  21181016.248    21181013.9954  111307028.40549  86732755.05846      -254.55149
      -198.35146
  24210301.226    24210297.5374  127225992.00947  99137155.31544      3770.18547
      2937.79944
  20814695.408    20814693.6444  109382041.94648  85232744.36346     -1515.25248
     -1180.71046
  24476159.066    24476162.7044  128623083.41148 100225763.81142     -2624.01248
     -2044.66842
  23322902.581    23322899.4234  122562691.54548  95503390.18345      2837.32648
      2210.88645
  25348455.549    25348455.9744  133207040.35847 103797687.81646     -3201.25747
     -2494.47846
  21847161.451    21847159.9734  114807748.70448  89460566.62646     -2423.10248
     -1888.20546
  24819728.087    24819727.5064  130428548.46057 101632629.86956       774.02357
       602.93556
 05  5 29  1 48 30.0000000  0  8G25G15G06G01G16G05G30G10
  21182519.845    21182517.6314  111314930.04749  86738912.17646      -272.57349
      -212.39246
  24188780.564    24188779.0024  127112906.73947  99049036.99746      3768.54247
      2936.53646
  20823369.147    20823367.4664  109427622.18648  85268261.42346     -1523.55848
     -1187.19646
  24491150.356    24491146.5194  128701857.65147 100287147.30745     -2628.27347
     -2048.05345
  23306709.341    23306705.9394  122477596.19648  95437082.12745      2835.31148
      2209.35845
  25366736.346    25366738.8434  133303096.13648 103872554.72055     -3202.73448
     -2495.36455
  21861017.812    21861016.1544  114880564.02148  89517305.81546     -2431.72848
     -1894.85246
  24815356.334    24815353.3484  130405576.50857 101614722.38355       758.24257
       590.89655
 05  5 29  1 49  0.0000000  0  8G25G15G06G01G16G05G30G10
  21184127.529    21184125.1354  111323378.35849  86745495.26846      -290.86549
      -226.65146
  24167269.673    24167268.2774  126999859.31848  98960948.14545      3767.55048
      2935.80445
  20832090.602    20832088.1894  109473452.32748  85303973.22746     -1531.99448
     -1193.76346
  24506167.038    24506167.0134  128780770.62947 100348637.70542     -2632.81647
     -2051.52842
  23290528.444    23290525.8384  122392563.27148  95370822.74846      2833.24048
      2207.72446
  25385028.005    25385030.2414  133399219.41048 103947448.96844     -3205.35748
     -2497.66544
  21874924.048    21874921.9524  114953640.71048  89574248.69846     -2440.30248
     -1901.52646
  24811079.876    24811077.7814  130383103.73757 101597214.46052       741.06657
       577.38652
 05  5 29  1 49 30.0000000  0  8G25G15G06G01G16G05G30G10
  21185840.893    21185838.1454  111332380.87449  86752510.20446      -309.30949
      -241.02046
  24145767.259    24145766.6624  126886859.72848  98872896.69645      3765.97948
      2934.55145
  20840860.212    20840858.4984  109519538.58148  85339884.60246     -1540.48848
     -1200.37846
  24521212.751    24521213.5044  128859826.89447 100410269.77042     -2637.73347
     -2055.39242
  23274360.517    23274357.9744  122307601.46648  95304618.75445      2830.82948
      2205.79945
  25403328.528    25403330.3974  133495416.70447 104022403.01042     -3207.70147
     -2499.50842
  21888881.232    21888879.8644  115026986.01248  89631400.90146     -2449.21948
     -1908.48146
  24806900.022    24806894.5904  130361130.38347 101580085.31256       723.43747
       563.92756
 05  5 29  1 50  0.0000000  0  8G25G15G06G01G16G05G30G10
  21187658.603    21187656.6784  111341935.20549  86759955.13446      -327.53549
      -255.21846
  24124273.273    24124273.1644  126773908.40548  98784882.69542      3764.53148
      2933.39642
  20849678.347    20849676.1704  109565877.61549  85375992.93746     -1548.58949
     -1206.70046
  24536281.285    24536280.5474  128939021.19347 100471916.36645     -2642.19147
     -2058.82745
  23258206.536    23258201.1684  122222709.81848  95238469.46846      2828.78848
      2204.27946
  25421650.910                   133591677.63357                     -3209.24057

  21902889.157    21902887.2884  115100597.18048  89688760.25146     -2457.98248
     -1915.31946
  24802815.352    24802817.3864  130339671.87457 101563402.39652       707.05457
       550.86852
 05  5 29  1 50 30.0000000  0  8G25G15G06G01G16G05G30G10
  21189579.921    21189577.4054  111352030.72149  86767821.75846      -345.61049
      -269.29746
  24102786.847    24102786.4474  126660997.52648  98696900.29746      3762.77148
      2931.97946
  20858542.934    20858540.5804  109612457.68049  85412289.10446     -1556.74249
     -1213.04046
  24551374.833    24551375.6054  129018339.91747 100533723.03346     -2646.00547
     -2061.82146
  23242063.481    23242060.4214  122137878.81448  95172367.35646      2826.58348
      2202.50946
  25439984.628    25439986.2534  133688013.90247 104172492.47852     -3212.41047
     -2503.20952
  21916945.004    21916943.2974  115174463.21248  89746318.19146     -2466.55848
     -1921.98646
  24798826.311    24798828.2094  130318713.26547 101546991.86445       690.50747
       538.18545
 05  5 29  1 51  0.0000000  0  8G25G15G06G01G16G05G30G10
  21191605.637    21191603.4034  111362675.83549  86776116.64746      -363.87549
      -283.54446
  24081310.841    24081311.0774  126548138.08248  98608957.96845      3761.51348
      2931.04045
  20867454.049    20867451.9824  109659286.14449  85448778.81246     -1564.97249
     -1219.45446
  24566494.607    24566494.0144  129097788.53048 100595630.84945     -2650.73148
     -2065.53445
  23225933.344    23225931.8104  122053118.18248  95106320.17446      2824.47748
      2200.89346
  25458328.328    25458325.2034  133784411.26248 104247570.39844     -3214.40248
     -2504.73744
  21931051.664    21931050.4614  115248592.09348  89804080.96846     -2475.21448
     -1928.72246
  24794935.259    24794934.3444  130298262.58647 101531110.32355       672.90847
       524.85355
 05  5 29  1 51 30.0000000  0  8G25G15G06G01G16G05G30G10
  21193737.160    21193734.3224  111373875.21549  86784843.42446      -382.74249
      -298.24246
  24059845.676    24059844.4514  126435337.10248  98521032.15745      3758.86248
      2928.97645
  20876412.777    20876411.1604  109706366.44249  85485464.76946     -1573.73249
     -1226.29146
  24581637.468    24581637.0074  129177368.55048 100657641.09345     -2655.10248
     -2068.96345
  23209818.853    23209816.9694  121968433.57348  95040332.15346      2821.45748
      2198.50846
  25476681.983    25476678.3204  133880880.72747 104322758.54542     -3216.94347
     -2506.64842
  21945208.553    21945206.3894  115322987.86548  89862051.68746     -2484.65048
     -1936.10846
  24791141.788    24791144.2244  130278333.16847 101515575.83445       655.06047
       510.51245
 05  5 29  1 52  0.0000000  0  8G25G15G06G01G16G05G30G10
  21195972.343    21195969.4374  111385622.88549  86793997.44146      -400.70449
      -312.23446
  24038390.569    24038389.2144  126322591.82748  98433178.76746      3757.00548
      2927.56846
  20885418.877    20885416.5844  109753691.72349  85522341.61046     -1581.44149
     -1232.28846
  24596804.781    24596808.5614  129257071.38148 100719747.01845     -2658.60748
     -2071.63745
  23193717.257    23193712.6054  121883820.99248  94974400.29646      2819.19848
      2196.81346
  25495052.845    25495049.6094  133977416.05947 104397967.03745     -3219.08047
     -2508.46745
  21959415.649    21959413.2974  115397644.39448  89920225.61846     -2492.70748
     -1942.37246
  24787449.845    24787446.6824  130258923.88147 101500455.35445       638.54247
       497.48145
 05  5 29  1 52 30.0000000  0  8G25G15G06G01G16G05G30G10
  21198310.819    21198308.3814  111397911.53849  86803573.00546      -418.58049
      -326.16646
  24016944.894    24016942.9574  126209897.29248  98345364.87542      3755.96348
      2926.72842
  20894469.661    20894467.3194  109801253.37849  85559402.64246     -1589.44749
     -1238.53746
  24611993.643    24611993.4404  129336886.69348 100781940.51546     -2662.47648
     -2074.69146
  23177628.833    23177625.5464  121799273.88848  94908519.47146      2817.17548
      2195.19446
  25513437.307    25513434.5994  134074009.35847 104473237.60055     -3220.79547
     -2509.73355
  21973670.256    21973668.0784  115472553.89248  89978596.65346     -2501.21048
     -1948.95546
  24783850.669                   130240014.86147                       622.18047

 05  5 29  1 53  0.0000000  0  8G25G15G06G01G16G05G30G10
  21200753.838    21200751.4164  111410749.93549  86813576.94146      -437.24049
      -340.71046
  23995511.759    23995509.8364  126097265.07148  98257599.71046      3753.30448
      2924.62246
  20903566.265    20903564.3614  109849059.32849  85596654.04846     -1597.85749
     -1245.08846
  24627205.455    24627204.9264  129416820.36548 100844226.39046     -2666.82948
     -2078.08546
  23161554.275    23161551.3924  121714802.73548  94842697.80446      2814.10548
      2192.78546
  25531829.897    25531829.1114  134170671.92057 104548559.90752     -3223.81957
     -2511.81552
  21987974.539    21987972.3954  115547724.57548  90037171.21246     -2510.18048
     -1955.98246
  24780351.798    24780349.9504  130221623.64547 101471397.17742       604.14647
       470.68242
 05  5 29  1 53 30.0000000  0  8G25G15G06G01G16G05G30G10
  21203303.098    21203300.4804  111424146.26449  86824015.61546      -455.86649
      -355.21046
  23974091.955    23974093.8814  125984706.42748  98169893.81046      3750.46448
      2922.40646
  20912711.460    20912709.4054  109897116.77249  85634101.40946     -1606.11149
     -1251.50746
  24642438.570    24642438.6804  129496878.00048 100906608.72046     -2670.29448
     -2080.73546
  23145495.821    23145491.6944  121630417.36048  94776943.00346      2811.51048
      2190.79646
  25550234.008                   134267386.20457                     -3225.32057

  22002330.817    22002327.8134  115623164.64248  90095955.66946     -2519.26548
     -1963.06046
  24776951.894    24776954.6844  130203760.15247 101457489.64046       586.63547
       457.16946
 05  5 29  1 54  0.0000000  0  8G25G15G06G01G16G05G30G10
  21205955.603    21205953.1184  111438087.19349  86834878.67746      -473.57449
      -369.03246
  23952684.585    23952686.3134  125872210.94648  98082235.06942      3749.24848
      2921.47942
  20921901.533    20921899.0374  109945411.53249  85671733.70046     -1613.48249
     -1257.24946
  24657695.134    24657692.0154  129577043.84247 100969075.39446     -2674.12547
     -2083.66946
  23129452.614    23129448.3354  121546105.96848  94711245.84846      2809.34648
      2189.09046
  25568654.188    25568656.7024  134364183.79447 104699377.41046     -3226.61147
     -2514.33146
  22016735.016    22016732.9854  115698860.63648  90154939.56446     -2527.34548
     -1969.35446
  24773651.371    24773652.4344  130186417.78747 101443902.33442       570.26747
       444.50342
 05  5 29  1 54 30.0000000  0  8G25G15G06G01G16G05G30G10
  21208712.529    21208710.2954  111452575.61449  86846168.34346      -492.23249
      -383.56546
  23931291.033    23931289.9244  125759784.33548  97994629.97744      3746.22748
      2919.11044
  20931137.374    20931134.6624  109993945.74549  85709552.57046     -1621.87249
     -1263.79846
  24672969.149    24672973.3854  129657317.82847 101031702.41246     -2677.74047
     -2086.56746
  23113423.094    23113420.0654  121461872.92948  94645609.70446      2806.52248
      2186.89646
  25587087.962    25587083.2054  134461044.92347 104774831.27846     -3229.75347
     -2516.71046
  22031188.422    22031186.6634  115774815.12348  90214124.85846     -2536.09048
     -1976.18046
  24770448.054    24770447.3264  130169581.17847 101430844.58745       552.06147
       430.28645
 05  5 29  1 55  0.0000000  0  8G25G15G06G01G16G05G30G10
  21211573.403    21211571.1924  111467608.81748  86857882.51446      -509.96748
      -397.37946
  23909909.999    23909911.3154  125647426.55848  97907078.59745      3744.13448
      2917.49845
  20940417.865    20940415.1874  110042715.86749  85747555.27446     -1629.33349
     -1269.61446
  24688263.593                   129737703.53857                     -2681.29557

  23097409.047    23097405.6514  121377716.93848  94580033.61946      2803.92748
      2184.86446
  25605530.991    25605524.6684  134557961.61247 104850343.09356     -3231.47447
     -2518.23956
  22045690.788    22045688.6254  115851024.79148  90273509.01046     -2544.38048
     -1982.62646
  24767346.007                   130153277.21347                       534.76447

 05  5 29  1 55 30.0000000  0  8G25G15G06G01G16G05G30G10
  21214538.243    21214535.6094  111483188.37349  86870022.41546      -528.51849
      -411.83646
  23888542.947    23888543.8514  125535142.10048  97819584.31945      3741.56748
      2915.48645
  20949743.752    20949740.9474  110091722.41749  85785742.20246     -1637.46549
     -1275.94846
  24703578.467    24703585.9234  129818179.78647 101157041.83246     -2684.75147
     -2092.04646
  23081409.580    23081407.5294  121293641.08448  94514520.00846      2801.02048
      2182.61446
  25623980.872                   134654928.24057                     -3234.36857

  22060241.823    22060238.9834  115927491.29548  90333093.29146     -2553.19248
     -1989.51146
  24764342.005    24764342.5984  130137490.37447 101405854.64546       517.40347
       403.12746
 05  5 29  1 56  0.0000000  0  8G25G15G06G01G16G05G30G10
  21217606.492    21217604.3684  111499312.76948  86882586.87546      -546.42848
      -425.78646
  23867189.867    23867190.6444  125422932.58248  97732148.36346      3739.19548
      2913.63546
  20959113.540    20959111.3684  110140963.02549  85824111.52146     -1644.98849
     -1281.80446
  24718912.642    24718911.6324  129898752.46947 101219836.59846     -2687.21447
     -2093.95446
  23065425.585    23065423.0754  121209645.71048  94449069.08546      2798.61748
      2180.73446
  25642448.031    25642447.4554  134751973.92757 105001477.69356     -3235.51657
     -2521.04356
  22074840.849    22074839.5114  116004212.71448  90392876.19146     -2561.43448
     -1995.92546
  24761438.826    24761435.0914  130122229.62547 101393936.64852       500.17647
       389.61652
 05  5 29  1 56 30.0000000  0  8G25G15G06G01G16G05G30G10
  21220777.883    21220775.5344  111515979.52848  86895573.95146      -564.59648
      -439.93946
  23845851.253    23845850.9964  125310798.26648  97644771.08346      3736.69348
      2911.76046
  20968527.765    20968524.9914  110190434.52848  85862660.74446     -1652.94148
     -1288.00146
  24734262.997    24734266.4004  129979420.29648 101282688.45342     -2690.89548
     -2096.78742
  23049457.560    23049453.3084  121125729.76948  94383680.01845      2795.77048
      2178.47745
  25660925.189                   134849073.08647                     -3237.19047

  22089488.782    22089486.6384  116081186.42848  90452855.69946     -2570.32848
     -2002.87946
  24758633.425    24758624.1254  130107491.21047 101382425.66955       482.55247
       376.09755
 05  5 29  1 57  0.0000000  0  8G25G15G06G01G16G05G30G10
  21224053.895    21224052.1974  111533195.22548  86908988.76446      -583.14648
      -454.40146
  23824529.472    23824530.3934  125198748.83448  97557459.87645      3733.39048
      2909.11245
  20977986.372    20977984.6304  110240142.67248  85901394.36646     -1660.95148
     -1294.25646
  24749631.338    24749635.3294  130060184.48047 101345621.42246     -2694.02347
     -2099.21146
  23033504.903    23033502.3764  121041901.78648  94318359.53145      2792.70748
      2176.14345
  25679413.640    25679403.7764  134946229.63157 105152877.16855     -3240.58957
     -2525.40655
  22104185.148    22104183.8374  116158418.82948  90513036.79346     -2578.81248
     -2009.46546
  24755928.528    24755928.7044  130093278.51247 101371388.93955       464.54347
       361.82555
 05  5 29  1 57 30.0000000  0  8G25G15G06G01G16G05G30G10
  21227433.694    21227431.0254  111550954.15248  86922826.88246      -600.63548
      -468.02046
  23803222.899    23803222.7864  125086781.45048  97470212.65645      3731.12548
      2907.33745
  20987489.639    20987487.1404  110290080.96148  85940307.33546     -1668.15648
     -1299.86046
  24765018.797    24765016.3184  130141036.55948 101408622.75946     -2696.58848
     -2101.28546
  23017569.344    23017566.5674  120958157.53848  94253104.25946      2790.32048
      2174.31646
  25697910.090    25697921.7474  135043429.80157 105228681.02856     -3241.28857
     -2525.22356
  22118930.698    22118928.6964  116235904.10548  90573414.92446     -2586.95148
     -2015.78846
  24753324.930                   130079604.53547                       447.83047

 05  5 29  1 58  0.0000000  0  8G25G15G06G01G16G05G30G10
  21230915.771    21230913.8904  111569252.37149  86937085.23946      -619.21649
      -482.50346
  23781930.339    23781929.0844  124974895.23448  97383028.62744      3727.76948
      2904.79744
  20997035.639    20997033.0424  110340244.42348  85979395.75446     -1676.20648
     -1306.12746
  24780419.535    24780423.6434  130221969.91148 101471690.65046     -2699.55948
     -2103.55446
  23001648.723    23001645.8494  120874494.78048  94187912.54346      2787.01348
      2171.72946
  25716419.460    25716421.1434  135140695.56947 105304428.79046     -3243.48147
     -2527.44546
  22133723.120    22133721.9484  116313637.96548  90633986.75946     -2595.80248
     -2022.69046
  24750820.440    24750820.1144  130066444.92047 101350457.57645       429.48647
       334.80945
 05  5 29  1 58 30.0000000  0  8G25G15G06G01G16G05G30G10
  21234502.017    21234499.5824  111588097.22449  86951769.52946      -637.03849
      -496.39546
  23760656.179    23760655.0454  124863100.79448  97295916.12746      3725.38048
      2902.88846
  21006625.710    21006623.0724  110390640.45648  86018665.40646     -1683.43048
     -1311.76746
  24795838.063    24795841.2894  130302989.52948 101534822.67045     -2701.82548
     -2105.34945
  22985746.213    22985743.0934  120790922.80748  94122791.53846      2784.47948
      2169.71046
  25734939.789    25734932.5634  135238023.16757 105380258.36356     -3244.31957
     -2527.89656
  22148564.441    22148561.9104  116391627.80148  90694758.03746     -2603.69648
     -2028.84446
  24748419.806    24748416.1724  130053822.02547 101340630.70842       412.37247
       321.38642
 05  5 29  1 59  0.0000000  0  8G25G15G06G01G16G05G30G10
  21238191.099    21238188.5134  111607484.00349  86966876.10346      -655.51949
      -510.79446
  23739399.789    23739401.4654  124751396.15048  97208873.65045      3722.00048
      2900.24745
  21016259.046    21016256.3174  110441263.47148  86058111.91246     -1691.62348
     -1318.14846
  24811270.111    24811269.6224  130384088.42148 101598016.44846     -2704.42948
     -2107.36246
  22969859.161    22969856.4514  120707438.75948  94057739.06346      2780.97048
      2166.98846
  25753470.702    25753472.1674  135335400.69247 105456101.73645     -3246.48647
     -2529.90845
  22163452.774    22163450.2574  116469868.94348  90755725.17146     -2612.49148
     -2035.70246
  24746118.507    24746114.5394  130041729.50347 101331225.74842       393.98347
       307.07342
 05  5 29  1 59 30.0000000  0  8G25G15G06G01G16G05G30G10
  21241984.225    21241981.7484  111627417.20848  86982408.45646      -673.71248
      -524.96446
  23718161.558    23718163.9154  124639789.07148  97121907.14546      3718.33348
      2897.41046
  21025935.618    21025933.4134  110492116.83048  86097737.91546     -1699.18648
     -1324.04746
  24826717.191    24826721.1914  130465268.40248 101661273.42546     -2707.37548
     -2109.62646
  22953990.074    22953984.6254  120624048.82548  93992759.87945      2777.79248
      2164.52245
  25772011.708                   135432837.15857                     -3249.25857

  22178390.600    22178388.5964  116548365.58148  90816891.34846     -2621.12748
     -2042.45446
  24743921.018    24743918.1714  130030170.64647 101322227.41445       376.41047
       293.25945
 05  5 29  2  0  0.0000000  0  8G25G15G06G01G16G05G30G10
  21245881.151    21245878.7204  111647895.13849  86998365.29446      -691.46049
      -538.79346
  23696942.302    23696940.9504  124528280.93448  97035017.78146      3715.59548
      2895.28646
  21035656.549    21035654.3444  110543198.27448  86137541.64946     -1706.37348
     -1329.64546
  24842180.693    24842182.2004  130546525.31448 101724590.36246     -2709.79348
     -2111.52746
  22938139.626    22938135.5974  120540752.84548  93927853.99846      2774.95348
      2162.31546
  25790564.294    25790566.0774  135530332.11457 105608061.95756     -3250.75357
     -2533.20756
  22193375.856    22193374.9014  116627115.71948  90878255.09046     -2629.02648
     -2048.58946
  24741824.173    24741820.8424  130019151.24447 101313575.25652       358.35347
       279.19252
 05  5 29  2  0 30.0000000  0  7G25G15G06G01G16G30G10
  21249880.721    21249878.2674  111668912.35049  87014742.32546      -709.62349
      -552.94546
  23675742.195    23675740.6624  124416869.67348  96948203.87445      3711.96448
      2892.44545
  21045419.592    21045417.0584  110594502.07848  86177518.64346     -1714.00948
     -1335.58446
  24857655.569    24857659.0954  130627851.43447 101787961.23745     -2712.52147
     -2113.66145
  22922306.384    22922302.6714  120457547.66548  93863018.77145      2771.89248
      2159.89045
  22208409.072    22208406.9804  116706114.27348  90939812.40146     -2637.50348
     -2055.20146
  24739828.206                   130008665.02847                       341.67147

 05  5 29  2  1  0.0000000  0  7G25G15G06G01G16G30G10
  21253981.993    21253980.3244  111690465.51248  87031536.99446      -727.52948
      -566.90946
  23654559.487    23654559.7984  124305554.73148  96861465.07346      3708.80148
      2889.96646
  21055223.656    21055221.5554  110646024.45848  86217665.95946     -1721.02048
     -1341.05546
  24873143.734    24873147.5794  130709249.85147 101851385.37542     -2714.19047
     -2114.93242
  22906490.625    22906486.2874  120374431.76848  93798253.15646      2768.95048
      2157.60446
  22223489.051    22223486.7674  116785357.71848  91001560.53446     -2645.59748
     -2061.48446
  24737934.939    24737934.0744  129998721.97547 101297691.51844       322.46647
       251.26844
 05  5 29  2  1 30.0000000  0  8G25G15G06G01G16G05G30G10
  21258186.472    21258184.1644  111712559.55949  87048753.12246      -744.93249
      -580.46846
  23633396.800    23633395.2634  124194344.53948  96774807.75945      3705.69648
      2887.53545
  21065070.638    21065068.4874  110697769.96148  86257987.12246     -1728.16048
     -1346.61846
  24888643.955    24888652.2904  130790706.39847 101914855.20246     -2716.43647
     -2116.68646
  22890692.478    22890689.1584  120291412.36048  93733562.75545      2766.11748
      2155.42545
  25846284.145                   135823132.55947                     -3255.92147

  22238615.313    22238612.7094  116864851.03648  91063503.37546     -2653.68648
     -2067.80846
  24736141.838    24736138.2074  129989304.91747 101290349.64354       304.64347
       237.48754
 05  5 29  2  2  0.0000000  0  8G25G15G06G01G16G05G30G10
  21262491.886    21262489.6334  111735184.60149  87066383.02046      -762.90149
      -594.47246
  23612253.062    23612250.9014  124083232.47648  96688226.96846      3702.30748
      2884.88946
  21074957.958    21074955.9244  110749727.86049  86298473.79746     -1735.26249
     -1352.15546
  24904156.307                   130872225.52147                     -2717.06147

  22874910.069    22874907.4794  120208481.00648  93668940.94446      2762.94048
      2152.92546
  25864872.887    25864863.2034  135920824.29548 105912291.08852     -3256.88248
     -2538.18752
  22253787.916    22253787.6414  116944584.21648  91125633.12846     -2661.72348
     -2074.07346
  24734451.356    24734451.6674  129980417.55047 101283424.50442       287.27947
       223.90042
 05  5 29  2  2 30.0000000  0  7G25G15G06G01G16G30G10
  21266900.630    21266898.3964  111758353.41948  87084436.64446      -781.25748
      -608.77746
  23591130.613    23591128.0524  123972234.38148  96601734.97745      3697.93848
      2881.52445
  21084887.657    21084885.9354  110801910.18948  86339135.36246     -1743.14748
     -1358.29746
  24919678.216    24919675.6584  130953792.51447 102041906.03254     -2720.05047
     -2119.67654
  22859148.804    22859146.8424  120125652.64748  93604399.37645      2759.12448
      2149.95645
  22269008.811    22269006.7234  117024569.97048  91187959.66046     -2670.41648
     -2080.84346
  24732863.874    24732865.1264  129972074.30747 101276947.30752       268.64847
       209.48552
 05  5 29  2  3  0.0000000  0  7G25G15G06G01G16G30G10
  21271413.098    21271410.6474  111782066.29549  87102914.19846      -799.47949
      -622.97646
  23570031.519    23570028.2174  123861354.13548  96515334.81546      3694.03748
      2878.50346
  21094860.599    21094858.7154  110854317.26748  86379972.02546     -1750.64448
     -1364.14146
  24935213.840    24935215.5754  131035424.81747 102105543.74445     -2722.21747
     -2121.20145
  22843407.258    22843403.9824  120042929.96248  93539940.15146      2755.60548
      2147.21746
  22284278.196    22284276.2514  117104808.92648  91250483.49746     -2678.81148
     -2087.37246
  24731379.041                   129964277.35847                       251.40547

 05  5 29  2  3 30.0000000  0  7G25G15G06G01G16G30G10
  21276027.740    21276026.0454  111806317.45848  87121811.19146      -817.28748
      -636.84646
  23548952.533    23548952.2224  123750589.20448  96429024.47746      3690.40248
      2875.58946
  21104875.127    21104873.0384  110906942.77349  86420978.92246     -1757.66849
     -1369.60246
  24950759.104    24950763.4584  131117114.15947 102169194.64645     -2723.78247
     -2122.39345
  22827684.936    22827682.4314  119960309.16148  93475560.29246      2752.43348
      2144.74146
  22299594.098    22299592.0804  117185295.17048  91313200.05046     -2686.91348
     -2093.67946
  24729999.241    24729995.5634  129957022.65747 101265171.80246       232.74547
       181.38646
 05  5 29  2  4  0.0000000  0  7G25G15G06G01G16G30G10
  21280744.314    21280742.0044  111831102.55049  87141124.24146      -834.93049
      -650.59446
  23527895.633    23527895.0024  123639938.21148  96342803.03745      3686.41748
      2872.52745
  21114930.054    21114927.9604  110959781.65749  86462152.08646     -1764.81849
     -1375.17946
  24966312.658    24966318.6784  131198850.61647 102232819.38145     -2725.00447
     -2123.39245
  22811981.250    22811979.1844  119877787.48148  93411257.71946      2749.19948
      2142.26846
  22314956.153    22314954.1764  117266024.08948  91376105.67646     -2694.93248
     -2099.95546
  24728721.331                   129950307.08247                       214.84247

 05  5 29  2  4 30.0000000  0  7G25G15G06G01G16G30G10
  21285562.255    21285559.9934  111856420.87749  87160852.80246      -852.72649
      -664.45546
  23506861.942    23506862.5984  123529403.60348  96256672.21946      3682.62148
      2869.57146
  21125025.164    21125023.2214  111012832.59649  86503490.47446     -1771.88949
     -1380.69446
  24981874.661    24981880.6634  131280631.28347 102296625.67944     -2726.44447
     -2124.53044
  22796297.350    22796295.0594  119795366.46348  93347033.54546      2745.62248
      2139.42746
  22330364.201    22330362.8344  117346995.09848  91439199.94946     -2703.17948
     -2106.36446
  24727545.357    24727540.5284  129944131.80547 101255143.89145       196.65847
       153.30845
 05  5 29  2  5  0.0000000  0  7G25G15G06G01G16G30G10
  21290481.727    21290479.3944  111882272.00049  87180996.52446      -870.44849
      -678.27646
  23485850.809    23485852.2594  123418988.10448  96170634.17546      3678.66548
      2866.46246
  21135160.527    21135158.6944  111066094.95249  86544993.61546     -1778.77749
     -1386.06546
  24997444.852    24997444.1394  131362453.51047 102360354.11746     -2727.80947
     -2125.54546
  22780633.311    22780629.3114  119713047.55548  93282888.96346      2742.30548
      2136.87146
  22345818.630    22345816.4974  117428207.93748  91502482.66646     -2711.09548
     -2112.52746
  24726473.448    24726469.6674  129938497.57347 101250772.54945       179.57647
       139.89145
 05  5 29  2  5 30.0000000  0  7G25G15G06G01G16G30G10
  21295501.254    21295499.1264  111908649.59049  87201550.46846      -888.24249
      -692.13946
  23464861.399    23464862.7014  123308689.07048  96084686.95545      3674.62548
      2863.32045
  21145334.572    21145333.3554  111119562.20948  86586656.40346     -1785.72848
     -1391.47546
  25013021.366    25013024.1114  131444308.71847 102424128.39642     -2729.47647
     -2126.91942
  22764986.636    22764983.7434  119630826.95248  93218820.96846      2738.74448
      2134.09146
  22361318.140    22361315.9064  117509656.28948  91565948.89646     -2718.96348
     -2118.67846
  24725503.089    24725500.3304  129933400.16447 101246801.52342       160.66747
       125.28942
 05  5 29  2  6  0.0000000  0  7G25G15G06G01G16G30G10
  21300621.980    21300620.1594  111935561.79248  87222521.01446      -906.24748
      -706.16746
  23443897.192    23443897.5484  123198518.42648  95998839.75546      3670.01148
      2859.71246
  21155550.052    21155548.1434  111173242.65548  86628485.33346     -1793.14348
     -1397.25446
  25028604.994    25028607.2784  131526203.45347 102487962.39355     -2730.41747
     -2127.60155
  22749362.002    22749359.2264  119548715.55048  93154838.06346      2734.95348
      2131.12546
  22376863.071    22376861.1464  117591348.88948  91629605.48446     -2727.46148
     -2125.30046
  24724638.512    24724637.2324  129928849.75547 101243253.84142       141.81147
       110.38942
 05  5 29  2  6 30.0000000  0  7G25G15G06G01G16G30G10
  21305847.014    21305845.0104  111963017.62649  87243915.15846      -924.02949
      -720.02346
  23422959.135    23422957.3464  123088488.33348  95913102.05046      3665.52148
      2856.30246
  21165807.132    21165805.3774  111227144.56648  86670486.81246     -1800.19448
     -1402.74646
  25044198.519    25044199.9454  131608144.46147 102551824.61545     -2731.64447
     -2128.66445
  22733759.012    22733755.2514  119466724.11048  93090948.64746      2731.19048
      2128.18846
  22392457.688    22392455.8434  117673294.57248  91693459.26046     -2735.35448
     -2131.46046
  24723877.410    24723876.9454  129924856.58447 101240142.23652       124.44547
        97.23152
 05  5 29  2  7  0.0000000  0  7G25G15G06G01G16G30G10
  21311171.981    21311170.1284  111991000.16549  87265719.72346      -941.57849
      -733.69846
  23402044.864    23402044.5854  122978585.68448  95827463.70346      3661.13048
      2852.81446
  21176103.130    21176101.3864  111281251.19248  86712647.81246     -1806.95448
     -1408.02046
  25059796.794    25059800.2694  131690112.69747 102615701.90645     -2733.16047
     -2129.75345
  22718176.588    22718173.0964  119384837.99248  93027141.29146      2727.53348
      2125.32546
  22408096.576    22408094.6704  117755476.80648  91757497.34546     -2743.28148
     -2137.61446
  24723220.830    24723219.9194  129921405.81947 101237446.29242       105.92647
        82.54742
 05  5 29  2  7 30.0000000  0  7G25G15G06G01G16G30G10
  21316597.127    21316594.7584  112019507.87149  87287933.50746      -959.07049
      -747.32846
  23381156.623    23381156.6594  122868812.28348  95741926.00846      3656.96048
      2849.58146
  21186437.908    21186435.8384  111335560.51148  86754966.78146     -1813.81448
     -1413.35846
  25075400.001    25075403.4604  131772104.67248 102679573.81845     -2733.50848
     -2129.99545
  22702614.401    22702611.0424  119303058.06848  92963416.67846      2724.02748
      2122.62146
  22423779.545    22423777.9664  117837894.17048  91821718.67546     -2751.14648
     -2143.74946
  24722667.129    24722668.3594  129918495.54047 101235187.16146        87.70547
        68.41246
 05  5 29  2  8  0.0000000  0  7G25G15G06G01G16G30G10
  21322122.141    21322120.1174  112048542.59949  87310557.96446      -976.62249
      -761.00446
  23360293.062    23360291.6654  122759173.27948  95656493.06846      3652.44248
      2846.07546
  21196811.522    21196809.5904  111390073.99348  86797444.81246     -1820.65448
     -1418.70346
  25091006.786    25091008.6094  131854119.79047 102743473.88045     -2734.25447
     -2130.47745
  22687073.143    22687070.0874  119221388.45048  92899778.02846      2720.37048
      2119.76946
  22439508.291    22439505.6314  117920548.53048  91886124.65046     -2759.17148
     -2149.99546
  24722217.139    24722218.5984  129916132.96547 101233292.19545        69.35247
        54.00445
 05  5 29  2  8 30.0000000  0  7G25G15G06G01G16G30G10
  21327748.217    21327746.2854  112078107.49249  87333595.53246      -994.47249
      -774.90946
  23339456.746    23339454.6234  122649675.42948  95571170.12746      3647.30048
      2842.03346
  21207224.649    21207221.7524  111444794.66248  86840084.29646     -1827.52548
     -1424.04546
  25106618.204    25106615.1024  131936159.50147 102807390.96156     -2735.08347
     -2131.24756
  22671553.630    22671549.3844  119139834.63648  92836229.63546      2716.34148
      2116.61346
  22455282.712    22455281.1514  118003443.26348  91950717.95046     -2767.23248
     -2156.28246
  24721872.841    24721871.8054  129914321.08647 101231928.32642        51.65447
        40.38742
 05  5 29  2  9  0.0000000  0  7G25G15G06G01G16G30G10
  21333474.894    21333472.1974  112108200.54549  87357044.63646     -1011.66849
      -788.31146
  23318646.467    23318646.1964  122540320.19948  95485958.32245      3643.06248
      2838.78445
  21217676.505    21217673.6344  111499720.64048  86882883.76146     -1833.92848
     -1429.03846
  25122234.054    25122233.7154  132018219.99047 102871350.13445     -2735.65647
     -2131.68945
  22656056.826    22656053.2214  119058397.11248  92772771.82146      2712.88648
      2113.93846
  22471102.053    22471099.2424  118086576.72948  92015497.24646     -2774.77948
     -2162.16746
  24721632.634    24721631.0714  129913059.84647 101230945.61445        33.30447
        26.06845
 05  5 29  2  9 30.0000000  0  7G25G15G06G01G16G30G10
  21339301.921    21339299.4384  112138821.67749  87380905.24846     -1029.36749
      -802.11346
  23297864.122    23297861.8884  122431110.73448  95400860.07045      3637.87748
      2834.68545
  21228167.726    21228164.8454  111554851.31448  86925842.72446     -1841.06748
     -1434.60046
  25137851.993                   132100298.77847                     -2736.87647

  22640582.245    22640577.7604  118977077.98448  92709406.26146      2708.77748
      2110.75546
  22486967.687    22486967.0424  118169948.80448  92080462.53246     -2783.14048
     -2168.67546
  24721497.677    24721500.2334  129912350.13147 101230415.53546        14.70147
        11.45046
 05  5 29  2 10  0.0000000  0  7G25G15G06G01G16G30G10
  21345228.335    21345225.8574  112169965.27749  87405172.96746     -1046.95149
      -815.80546
  23277109.503    23277110.3314  122322045.28648  95315874.06246      3632.97348
      2830.85146
  21238696.493    21238693.6984  111610181.13348  86968956.87846     -1847.69948
     -1439.76846
  25153474.684    25153475.6504  132182388.28847 102999289.57155     -2736.54447
     -2132.22855
  22625129.079    22625126.0794  118895874.16048  92646130.57246      2704.66548
      2107.54646
  22502877.099    22502874.3044  118253554.36748  92145609.71646     -2790.89948
     -2174.71446
  24721466.558    24721468.0584  129912188.29247 101230270.54642        -3.67247
        -2.90442
 05  5 29  2 10 30.0000000  0  7G25G15G06G01G16G30G10
  21351254.525    21351252.5314  112201635.78949  87429851.27046     -1064.44249
      -829.43946
  23256382.793    23256382.3304  122213131.83548  95231006.51445      3627.86348
      2826.94145
  21249264.121    21249261.7544  111665714.41048  87012229.55646     -1854.39248
     -1444.98246
  25169096.847    25169100.2174  132264491.20247 103063286.89046     -2736.92647
     -2132.66246
  22609700.600    22609697.4954  118814792.38948  92582950.01046      2700.65048
      2104.40246
  22518831.796    22518831.1304  118337397.87348  92210942.30146     -2798.65548
     -2180.76746
  24721541.286    24721540.9244  129912580.42547 101230520.01545       -22.35747
       -17.40545
 05  5 29  2 11  0.0000000  0  7G25G15G06G01G16G30G10
  21357378.938    21357376.5994  112233818.31449  87454928.54846     -1081.14949
      -842.46146
  23235684.768    23235683.9654  122104359.26148  95146248.74645      3623.46648
      2823.49445
  21259867.513    21259865.7774  111721436.29148  87055649.19846     -1860.40148
     -1449.67246
  25184721.216    25184721.6084  132346590.94547 103127224.20755     -2736.69847
     -2132.71655
  22594291.940    22594288.3744  118733820.81348  92519855.27946      2697.29148
      2101.78146
  22534829.255    22534825.7114  118421465.06248  92276449.20746     -2806.12148
     -2186.59546
  24721718.996    24721712.3064  129913513.38947 101231247.03045       -39.73447
       -30.99745
 05  5 29  2 11 30.0000000  0  7G25G15G06G01G16G30G10
  21363602.962    21363600.9604  112266525.74349  87480414.83446     -1099.01249
      -856.37146
  23215016.613    23215014.7734  121995743.65448  95061613.25146      3617.76648
      2819.05646
  21270509.219    21270507.3944  111777359.56548  87099225.77646     -1867.60848
     -1455.27646
  25200343.596    25200344.5124  132428700.37747 103191137.66556     -2737.10647
     -2132.48656
  22578907.293    22578903.8634  118652974.14848  92456857.87646      2692.57448
      2098.12246
  22550872.072    22550871.5224  118505768.81348  92342140.42146     -2814.27548
     -2192.92946
  24722002.481    24721999.8284  129915001.31447 101232406.45642       -59.32847
       -46.06142
 05  5 29  2 12  0.0000000  0  7G25G15G06G01G16G30G10
  21369928.691    21369926.7334  112299767.02749  87506317.11546     -1116.83849
      -870.25946
  23194379.761    23194377.2164  121887298.00848  94977110.21346      3612.14448
      2814.65846
  21281191.921    21281188.9864  111833493.44648  87142966.46446     -1874.60648
     -1460.73846
  25215972.036    25215975.4284  132510823.85747 103255210.31546     -2737.98947
     -2133.53846
  22563548.654    22563546.6394  118572264.58948  92393967.34545      2687.99948
      2094.52145
  22566961.060    22566959.9664  118590318.64548  92408023.40546     -2822.40848
     -2199.28146
  24722392.615    24722393.2364  129917055.33847 101234049.03045       -78.15547
       -60.80645
 05  5 29  2 12 30.0000000  0  7G25G15G06G01G16G30G10
  21376353.045    21376351.1744  112333528.74649  87532624.93646     -1133.34049
      -883.13346
  23173773.946    23173773.3444  121779012.84448  94892732.23345      3607.53148
      2811.05445
  21291910.885    21291909.3454  111889824.76248  87186860.99246     -1880.16848
     -1465.05946
  25231599.211    25231595.5434  132592949.14157 103319168.68656     -2737.75957
     -2133.38956
  22548214.051    22548211.2084  118491681.29148  92331175.15845      2684.74148
      2092.01245
  22583094.716    22583092.6304  118675101.75348  92474088.14646     -2829.23548
     -2204.59546
  24722888.650    24722890.1614  129919663.71047 101236081.55046       -95.61747
       -74.50946
 05  5 29  2 13  0.0000000  0  7G25G15G06G01G16G30G10
  21382874.115    21382872.1564  112367796.47749  87559327.04246     -1150.86549
      -896.78346
  23153196.002    23153195.3754  121670877.04348  94808470.63345      3601.86648
      2806.64945
  21302665.235    21302663.0634  111946338.43048  87230897.60546     -1886.90748
     -1470.33046
  25247224.788    25247225.9764  132675056.65747 103383170.94446     -2735.99047
     -2131.88746
  22532901.357    22532896.7634  118411212.12248  92268471.94646      2680.24648
      2088.49346
  22599270.394    22599268.5674  118760103.53448  92540323.30246     -2837.01948
     -2210.66746
  24723487.851    24723487.7434  129922813.20547 101238537.62046      -113.79247
       -88.62946
 05  5 29  2 13 30.0000000  0  7G25G15G06G01G16G30G10
  21389493.087    21389490.6204  112402580.51348  87586431.48246     -1168.09848
      -910.21146
  23132649.285    23132648.1904  121562904.65848  94724336.36244      3596.29048
      2802.27844
  21313456.119    21313454.2434  112003045.37148  87275084.83246     -1893.40648
     -1475.37046
  25262847.139    25262848.7094  132757161.44247 103447153.39146     -2736.52547
     -2132.29546
  22517612.184    22517608.7154  118330870.02148  92205867.72846      2675.75348
      2084.98546
  22615489.050    22615487.4204  118845334.97248  92606737.40946     -2845.03348
     -2216.90046
  24724193.316    24724194.3264  129926515.96147 101241382.08846      -133.28247
      -103.99046
 05  5 29  2 14  0.0000000  0  7G25G15G06G01G16G30G10
  21396211.009    21396209.0744  112437881.74549  87613938.92946     -1185.22549
      -923.55046
  23112134.646    23112135.7994  121455100.30048  94640333.01746      3590.67448
      2797.90846
  21324284.454    21324281.8814  112059946.23548  87319423.16246     -1899.89048
     -1480.43046
  25278467.911                   132839250.13547                     -2735.69747

  22502348.213    22502345.8214  118250658.35548  92143365.13846      2671.59748
      2081.75946
  22631752.181    22631750.2414  118930797.09348  92673331.27546     -2852.55548
     -2222.76346
  24725004.388    24724999.3794  129930774.29047 101244739.08845      -151.26447
      -117.85745
 05  5 29  2 14 30.0000000  0  7G25G15G06G01G16G30G10
  21403027.132    21403024.2904  112473700.09249  87641849.31146     -1202.70849
      -937.16946
  23091652.918    23091653.4204  121347467.24948  94556463.16446      3584.70248
      2793.28546
  21335148.982    21335146.3664  112117040.86548  87363912.48146     -1906.40248
     -1485.50546
  25294086.240    25294092.0864  132921328.08147 103575066.67652     -2736.06547
     -2132.01352
  22487110.523    22487107.0684  118170579.68948  92080966.19846      2667.05948
      2078.23646
  22648058.969    22648056.2854  119016489.95848  92740104.92946     -2860.58448
     -2229.02646
  24725920.306    24725920.5594  129935589.46047 101248515.27742      -169.80147
      -132.31342
 05  5 29  2 15  0.0000000  0  7G25G15G06G01G16G30G10
  21409941.725    21409939.5184  112510037.50948  87670164.17046     -1219.56248
      -950.30246
  23071204.674    23071203.7744  121240011.55648  94472731.47646      3579.20948
      2788.98446
  21346050.876    21346049.1934  112174331.42848  87408554.46946     -1912.53648
     -1490.28646
  25309703.551    25309708.0804  133003395.56648 103639017.53142     -2734.83148
     -2131.12042
  22471898.440    22471894.9294  118090638.85148  92018674.65446      2662.52948
      2074.69446
  22664409.671    22664408.5744  119102416.01548  92807060.28346     -2867.60348
     -2234.50846
  24726943.577    24726940.2514  129940965.21647 101252674.24345      -188.78647
      -147.06045
 05  5 29  2 15 30.0000000  0  7G25G15G06G01G16G30G10
  21416952.859    21416950.1634  112546879.91649  87698872.53546     -1236.51549
      -963.52146
  23050787.777    23050786.8924  121132723.08748  94389130.12346      3573.40348
      2784.45446
  21356988.029    21356985.0404  112231804.42148  87453338.61646     -1918.70348
     -1495.10046
  25325315.606    25325309.2204  133085437.02647 103702912.85245     -2734.55847
     -2130.95245
  22456710.267    22456707.7514  118010824.92448  91956481.99546      2658.31348
      2071.42946
  22680803.053    22680801.1874  119188561.96348  92874186.99646     -2875.11648
     -2240.34546
  24728071.308    24728066.2004  129946889.44347 101257290.47946      -206.46447
      -160.85146
 05  5 29  2 16  0.0000000  0  7G25G15G06G01G16G30G10
  21424060.561    21424058.0014  112584231.09549  87727977.35046     -1253.73849
      -976.94346
  23030405.407    23030404.9234  121025609.28648  94305664.86946      3567.29348
      2779.67846
  21367960.195    21367957.7194  112289463.49848  87498267.76546     -1925.09948
     -1500.08146
  25340921.308    25340921.6764  133167454.21947 103766837.64255     -2733.58847
     -2130.00655
  22441547.184    22441543.9734  117931144.04048  91894393.00546      2653.51148
      2067.67846
  22697238.801    22697236.3494  119274931.86748  92941488.23446     -2882.88248
     -2246.41946
  24729304.264    24729306.2514  129953367.23648 101262345.06845      -225.56548
      -175.82945
 05  5 29  2 16 30.0000000  0  7G25G15G06G01G16G30G10
  21431265.615    21431263.0484  112622095.26448  87757481.88746     -1270.67248
      -990.13946
  23010056.568    23010056.2734  120918678.14748  94222341.91546      3561.18648
      2774.92646
  21378968.746    21378966.3944  112347313.61448  87543345.77846     -1931.65548
     -1505.18946
  25356525.802    25356520.1164  133249441.57047 103830708.22142     -2732.45147
     -2129.08642
  22426411.253    22426408.2104  117851603.31848  91832413.24746      2648.78948
      2064.00646
  22713717.409    22713716.3554  119361530.54148  93008967.67145     -2890.53448
     -2252.37445
  24730642.465    24730645.3804  129960404.58847 101267838.79045      -243.65347
      -189.96145
 05  5 29  2 17  0.0000000  0  7G25G15G06G01G16G30G10
  21438567.818    21438565.2504  112660468.66848  87787383.23746     -1287.52148
     -1003.26146
  22989743.993    22989740.9664  120811929.87548  94139161.53246      3555.32948
      2770.38346
  21390012.349    21390010.2584  112405350.98848  87588569.70046     -1937.66048
     -1509.87046
  25372124.223    25372124.7854  133331411.29157 103894609.35552     -2731.30357
     -2128.05952
  22411301.781    22411298.4924  117772201.84948  91770541.98246      2644.43948
      2060.59146
  22730240.526    22730238.6264  119448354.66348  93076622.85746     -2897.77448
     -2258.00346
  24732087.018    24732088.6514  129967999.29347 101273742.73946      -262.42147
      -204.48246
 05  5 29  2 17 30.0000000  0  7G25G15G06G01G16G30G10
  21445966.081    21445963.0804  112699343.82248  87817675.55946     -1304.56348
     -1016.53846
  22969464.655    22969462.7154  120705360.90348  94056120.85346      3549.03648
      2765.49146
  21401090.835    21401088.8284  112463568.17548  87633933.74046     -1943.81848
     -1514.66446
  25387714.918    25387719.5094  133413345.36947 103958456.08746     -2730.73047
     -2127.85246
  22396217.613    22396215.2294  117692934.97648  91708775.59946      2639.80448
      2056.99346
  22746803.705    22746801.3824  119535397.15548  93144448.18346     -2905.16848
     -2263.75846
  24733637.402    24733635.6424  129976145.44547 101280114.39645      -280.70047
      -218.74245
 05  5 29  2 18  0.0000000  0  7G25G15G06G01G16G30G10
  21453460.918    21453458.6434  112738730.88048  87848366.77546     -1321.35448
     -1029.63146
  22949221.846    22949221.1974  120598985.05148  93973230.62546      3542.63648
      2760.50546
  21412204.932    21412203.6444  112521975.89048  87679446.23546     -1949.90548
     -1519.39746
  25403301.928    25403302.4274  133495245.82448 104022283.24746     -2729.75548
     -2127.07846
  22381161.545    22381159.4034  117613815.73348  91647124.25746      2634.96948
      2053.22346
  22763411.122    22763409.4694  119622668.56048  93212451.85145     -2912.80848
     -2269.73645
  24735293.716    24735293.0614  129984854.34547 101286886.53446      -299.43347
      -233.28446
 05  5 29  2 18 30.0000000  0  7G25G15G06G01G16G30G10
  21461049.049    21461046.8824  112778608.68148  87879440.37846     -1337.46348
     -1042.18446
  22929013.472    22929011.9284  120492785.22448  93890477.52345      3537.12248
      2756.19345
  21423352.420    21423349.9174  112580553.21448  87725090.90746     -1955.34848
     -1523.64646
  25418878.773    25418878.4324  133577104.07147 104086068.95442     -2727.34547
     -2125.19242
  22366130.885    22366127.0894  117534826.21048  91585573.99746      2630.96048
      2050.10046
  22780057.414    22780055.9784  119710148.47048  93280618.01746     -2919.22248
     -2274.70946
  24737054.834    24737050.7774  129994106.94347 101294096.36945      -317.56147
      -247.46745
 05  5 29  2 19  0.0000000  0  7G25G15G06G01G16G30G10
  21468733.200    21468731.7274  112818989.74248  87910906.15146     -1354.94648
     -1055.81146
  22908839.847    22908838.6414  120386777.99348  93807874.54346      3529.75848
      2750.44346
  21434533.832    21434531.3944  112639313.23448  87770877.94446     -1962.16848
     -1528.96446
  25434448.190                   133658923.89547                     -2727.54547

  22351127.336    22351123.8574  117455981.50548  91524136.56946      2625.35048
      2045.73746
  22796747.018    22796745.3234  119797849.95848  93348956.84845     -2927.56448
     -2281.21945
  24738921.806    24738922.4244  130003917.39647 101301740.86646      -336.91347
      -262.52446
 05  5 29  2 19 30.0000000  0  7G25G15G06G01G16G30G10
  21476515.427    21476513.4524  112859885.20848  87942772.73746     -1371.53548
     -1068.72646
  22888707.581    22888706.4384  120280978.21648  93725433.16446      3523.30448
      2745.41646
  21445752.398    21445750.5304  112698267.21148  87816816.09946     -1967.94348
     -1533.46446
  25450012.180    25450016.0344  133740715.24548 104213547.41845     -2725.54348
     -2123.79545
  22336153.494    22336149.6424  117377295.77548  91462823.00746      2620.42048
      2041.87146
  22813480.519    22813477.9994  119885784.42948  93417477.23946     -2934.83948
     -2286.91446
  24740896.829    24740895.3964  130014298.01447 101309829.67445      -355.32647
      -276.80045
 05  5 29  2 20  0.0000000  0  7G25G15G06G01G16G30G10
  21484392.516    21484390.5554  112901278.40948  87975027.18746     -1387.94248
     -1081.51646
  22868611.157    22868609.2544  120175372.98448  93643143.42246      3516.88148
      2740.44746
  21457004.850    21457002.7184  112757398.91848  87862892.76246     -1973.99648
     -1538.17446
  25465568.597    25465565.1974  133822464.75757 104277243.49055     -2724.07357
     -2122.56155
  22321207.666    22321204.9594  117298755.43248  91401622.76346      2615.51448
      2038.05846
  22830254.905    22830253.5334  119973935.91548  93486166.67446     -2941.93648
     -2292.40546
  24742978.797    24742974.5634  130025233.66248 101318350.96346      -373.65348
      -291.14646
 05  5 29  2 20 30.0000000  0  7G25G15G06G01G16G30G10
  21492363.732    21492361.5914  112943167.71648  88007668.19046     -1404.37648
     -1094.32446
  22848552.833    22848549.4724  120069964.93948  93561007.31245      3510.47048
      2735.43745
  21468290.828    21468288.5394  112816707.36548  87909107.14146     -1979.72348
     -1542.63946
  25481113.155    25481106.5324  133904158.24847 104340871.13456     -2722.35347
     -2121.22056
  22306289.764    22306287.1084  117220361.81548  91340536.84646      2610.89148
      2034.45746
  22847071.438    22847067.9094  120062303.42448  93555024.45945     -2948.88948
     -2297.85345
  24745165.570    24745164.4774  130036724.61847 101327304.96646      -392.61447
      -305.93946
 05  5 29  2 21  0.0000000  0  6G25G15G06G16G30G10
  21500430.333    21500427.6634  112985558.56848  88040700.01146     -1421.74548
     -1107.85346
  22828532.693    22828531.0224  119964763.44248  93479032.16746      3503.25348
      2729.75746
  21479611.305    21479609.3304  112876198.20448  87955463.62346     -1986.39948
     -1547.85046
  22291401.986    22291398.8134  117142123.29848  91279571.76746      2605.13548
      2029.96146
  22863927.763    22863927.4624  120150892.93248  93624055.22046     -2957.06548
     -2304.19146
  24747459.031    24747453.9834  130048777.48448 101336696.73642      -411.04248
      -320.30342
 05  5 29  2 21 30.0000000  0  6G25G15G06G16G30G10
  21508591.095    21508589.3124  113028443.63948  88074116.95146     -1437.55148
     -1120.16746
  22808552.174    22808550.7264  119859765.07648  93397215.28046      3496.74148
      2724.75546
  21490965.753    21490963.4854  112935864.60548  88001956.91346     -1991.60648
     -1551.90846
  22276541.854    22276538.0634  117064035.85148  91218724.41046      2600.47948
      2026.32946
  22880828.410    22880826.1724  120239697.54648  93693253.59045     -2963.69148
     -2309.35645
  24749859.379    24749855.6754  130061386.83848 101346522.27042      -429.37448
      -334.51442
 05  5 29  2 22  0.0000000  0  6G25G15G06G16G30G10
  21516844.717    21516842.4164  113071816.81148  88107914.22646     -1454.32748
     -1133.24746
  22788609.730    22788608.8824  119754967.94948  93315555.17946      3489.41648
      2719.01846
  21502352.041    21502349.6814  112995701.02148  88048582.68946     -1997.89648
     -1556.79046
  22261710.592    22261708.2184  116986096.12748  91157992.17346      2595.06548
      2022.11346
  22897766.893    22897765.2684  120328712.01548  93762615.47646     -2971.23248
     -2315.25446
  24752362.844    24752362.7404  130074547.81047 101356777.58045      -448.13647
      -349.17445
 05  5 29  2 22 30.0000000  0  6G25G15G06G16G30G10
  21525195.132    21525193.0794  113115697.67548  88142107.09246     -1471.15548
     -1146.35446
  22768710.874    22768709.4474  119650395.50348  93234070.20346      3482.14748
      2713.36946
  21513774.506    21513772.5364  113055727.42748  88095356.50046     -2004.04548
     -1561.58746
  22246911.745    22246908.7314  116908326.88648  91097392.78346      2589.64448
      2017.89946
  22914749.311    22914747.8424  120417956.43848  93832156.60846     -2978.64848
     -2321.04046
  24754976.270    24754976.0974  130088281.63048 101367489.26045      -466.92848
      -363.77445
 05  5 29  2 23  0.0000000  0  6G25G15G06G16G30G10
  21533637.889    21533636.4284  113160067.28748  88176680.81346     -1487.21348
     -1158.87346
  22748851.084    22748849.1304  119546032.88348  93152748.70446      3475.19848
      2707.92746
  21525229.854    21525227.8724  113115925.38048  88142263.98946     -2009.50048
     -1565.84746
  22232142.060    22232138.9474  116830712.49848  91036914.04546      2584.50948
      2013.89546
  22931771.964    22931770.2574  120507412.21348  93901862.38846     -2985.31848
     -2326.21946
  24757696.096    24757691.0064  130102570.61948 101378617.48445      -485.42548
      -378.26445
 05  5 29  2 23 30.0000000  0  6G25G15G06G16G30G10
  21542171.240    21542169.3274  113204905.86649  88211619.95946     -1501.23749
     -1169.79346
  22729028.122    22729026.8314  119441864.41248  93071578.52746      3470.37648
      2704.15746
  21536714.276    21536712.0194  113176275.67948  88189290.20246     -2012.93948
     -1568.52646
  22217399.105    22217395.8384  116753236.22748  90976542.95746      2581.51348
      2011.58646
  22948831.777    22948828.5974  120597060.63048  93971718.29846     -2990.26648
     -2330.03846
  24760516.793    24760516.8394  130117396.78247 101390170.42446      -501.72547
      -390.97846
 05  5 29  2 24  0.0000000  0  6G25G15G06G16G30G10
  21550795.876    21550793.4804  113250229.71048  88246937.23646     -1520.53748
     -1184.83646
  22709245.565    22709243.9634  119337910.65548  92990575.61246      3460.00248
      2696.10446
  21548230.800    21548228.0354  113236795.61048  88236448.57446     -2021.81848
     -1575.44246
  22202685.394    22202682.7664  116675917.99248  90916294.98246      2573.15148
      2005.05446
  22965931.415    22965929.1234  120686918.81848  94041737.66646     -3000.40448
     -2337.98046
  24763444.138    24763440.7624  130132778.34947 101402154.04146      -523.62947
      -408.08446
 05  5 29  2 24 30.0000000  0  6G25G15G06G16G30G10
  21559519.606    21559517.1474  113296073.36548  88282659.54646     -1535.85448
     -1196.77046
  22689512.955    22689512.9824  119234209.84648  92909769.83046      3453.51848
      2691.23646
  21559786.828    21559783.8384  113297520.10348  88283766.37346     -2026.49348
     -1579.08846
  22188009.904    22188005.7214  116598795.26848  90856199.37646      2568.42448
      2001.37646
  22983077.479    22983076.0574  120777021.58248  94111947.62346     -3006.56748
     -2342.79946
  24766483.784    24766482.8464  130148750.80847 101414595.09845      -540.82847
      -421.40045
 05  5 29  2 25  0.0000000  0  6G25G15G06G16G30G10
  21568331.172    21568328.5624  113342378.60448  88318741.54246     -1551.36748
     -1208.85746
  22669816.725    22669816.2194  119130708.16348  92829119.17646      3446.37048
      2685.51146
  21571370.305    21571367.6234  113358391.61748  88331198.72346     -2031.81848
     -1583.23446
  22173360.556    22173357.3054  116521813.07348  90796213.27546      2563.41948
      1997.48046
  23000259.581    23000256.0244  120867311.40948  94182303.29446     -3013.06548
     -2347.85246
  24769625.596    24769625.2264  130165257.35447 101427485.41242      -559.39347
      -435.93342
 05  5 29  2 25 30.0000000  0  6G25G15G06G16G30G10
  21577235.252    21577232.5964  113389170.53948  88355202.77046     -1567.83448
     -1221.69246
  22650164.331    22650163.8834  119027434.75348  92748646.40846      3438.92648
      2679.66246
  21582986.376    21582984.1744  113419435.68948  88378765.52246     -2037.72848
     -1587.85246
  22158743.514    22158740.5994  116444999.74748  90736358.75046      2557.65948
      1992.99246
  23017480.459    23017478.4204  120957814.35948  94252825.07546     -3020.19648
     -2353.41446
  24772872.904    24772868.5694  130182324.96148 101440757.72845      -578.34948
      -450.67945
 05  5 29  2 26  0.0000000  0  6G25G15G06G16G30G10
  21586231.362    21586228.2064  113436444.39048  88392039.52446     -1583.59548
     -1233.97646
  22630555.836    22630554.3544  118924388.95748  92668351.01445      3431.15148
      2673.65945
  21594634.525    21594632.5234  113480648.40648  88426463.73846     -2043.29748
     -1592.18846
  22144157.361    22144155.2514  116368353.63448  90676634.53046      2552.16748
      1988.70446
  23034742.356    23034740.9234  121048526.23848  94323509.64645     -3027.14748
     -2358.80245
  24776227.501    24776226.2594  130199950.23248 101454486.69046      -596.64648
      -464.98246
 05  5 29  2 26 30.0000000  0  6G25G15G06G16G30G10
  21595316.761    21595314.9764  113484189.99648  88429243.87046     -1599.54048
     -1246.39046
  22610988.830    22610987.9784  118821564.88548  92588228.37246      3423.47948
      2667.63246
  21606313.508    21606311.6214  113542020.37848  88474286.06646     -2048.47248
     -1596.20546
  22129603.246    22129600.3614  116291868.22148  90617035.52146      2546.52248
      1984.31046
  23052042.643    23052040.2784  121139437.60948  94394349.68346     -3033.94548
     -2364.10146
  24779685.119    24779677.4714  130218124.31147 101468648.34246      -614.75047
      -478.97746
 05  5 29  2 27  0.0000000  0  7G25G15G06G16G03G30G10
  21604493.704    21604491.3124  113532413.94448  88466820.96546     -1615.46948
     -1258.80546
  22591466.390    22591464.9674  118718973.43348  92508287.00846      3415.61548
      2661.54046
  21618023.918    21618021.7194  113603558.97548  88522238.19946     -2054.20848
     -1600.67946
  22115080.884    22115077.6144  116215553.24548  90557569.32346      2540.90248
      1979.93546
  25047151.019                   131623672.26947                      3094.50647

  23069381.694    23069379.0294  121230556.06648  94465351.04646     -3040.75048
     -2369.42846
  24783249.393    24783247.1754  130236855.26147 101483258.91545      -634.16347
      -493.88645
 05  5 29  2 27 30.0000000  0  7G25G15G06G16G03G30G10
  21613762.725    21613760.4554  113581122.75048  88504775.85846     -1631.34248
     -1271.16446
  22571990.318    22571989.2454  118616625.09748  92428535.08346      3407.62548
      2655.29446
  21629767.242    21629765.3914  113665271.13448  88570325.60446     -2059.71948
     -1604.98346
  22100593.202    22100590.4534  116139418.88548  90498243.86846      2534.98148
      1975.31946
  25029491.995    25029491.6504  131530873.10247 102491587.40446      3092.28847
      2409.58946
  23086761.759    23086759.8904  121321888.64148  94536519.27546     -3047.83748
     -2374.94646
  24786920.638    24786921.4574  130256151.17447 101498286.74245      -652.41847
      -508.41745
 05  5 29  2 28  0.0000000  0  7G25G15G06G16G03G30G10
  21623120.175    21623118.7124  113630296.89248  88543093.34746     -1647.09848
     -1283.45746
  22552556.740    22552556.0474  118514504.48548  92348960.60846      3400.07748
      2649.41546
  21641540.185    21641538.1854  113727138.39148  88618533.85746     -2065.09448
     -1609.16746
  22086136.612    22086132.9424  116063448.76648  90439046.40246      2529.45848
      1970.99246
  25011845.920    25011845.0914  131438141.55348 102419331.23845      3089.86048
      2407.71245
  23104179.693    23104177.9774  121413416.59248  94607839.76846     -3054.31648
     -2380.01246
  24790695.479    24790696.5084  130275993.96047 101513755.53342      -670.65647
      -522.57042
 05  5 29  2 28 30.0000000  0  7G25G15G06G16G03G30G10
  21632566.952    21632564.9604  113679941.32548  88581777.29346     -1663.15848
     -1295.96746
  22533169.518    22533168.6244  118412620.96048  92269570.85546      3391.66148
      2642.85146
  21653343.523    21653341.0594  113789166.49648  88666867.43446     -2070.71048
     -1613.54246
  22071712.728    22071709.9044  115987651.41748  90379983.54946      2523.14848
      1966.08546
  24994213.603    24994213.2084  131345484.75248 102347131.30144      3086.65448
      2405.20644
  23121632.897    23121632.3004  121505145.53548  94679316.81346     -3061.36248
     -2385.47846
  24794576.815    24794578.1744  130296389.78647 101529641.29046      -689.03347
      -537.07846
 05  5 29  2 29  0.0000000  0  8G25G15G06G18G16G03G30G10
  21642104.315    21642103.0194  113730062.88548  88620833.02146     -1678.32348
     -1307.78146
  22513828.947    22513827.9044  118310985.65448  92190374.54846      3384.18548
      2637.02346
  21665179.291    21665177.4244  113851363.02148  88715332.26646     -2075.70948
     -1617.43546
  25584232.732    25584234.4474  134446050.56247 104763150.84845      2886.26647
      2249.07345
  22057324.082    22057320.8034  115912036.59948  90321062.92946      2517.75848
      1961.89446
  24976598.395    24976598.0164  131252912.07348 102274996.93645      3084.63848
      2403.59645
  23139130.252    23139128.3144  121597083.41448  94750956.70546     -3067.75548
     -2390.45346
  24798565.923    24798559.4574  130317347.22747 101545960.88146      -707.95147
      -551.82146
 05  5 29  2 29 30.0000000  0  8G25G15G06G18G16G03G30G10
  21651731.327    21651729.3144  113780649.71348  88660251.31746     -1694.25548
     -1320.20146
  22494533.825    22494532.4964  118209590.66548  92111365.50445      3375.45348
      2630.22245
  21677044.734    21677043.4304  113913716.82148  88763919.64446     -2081.28348
     -1621.78246
  25567743.024    25567738.3264  134359398.60947 104695580.07555      2889.65047
      2251.55855
  22042967.454    22042965.2844  115836596.38248  90262278.37146      2511.47848
      1957.00946
  24958994.240    24958995.6044  131160413.55947 102202920.34442      3081.61347
      2401.18942
  23156662.134    23156659.1184  121689218.76248  94822750.47446     -3075.03948
     -2396.11246
  24802658.826    24802661.8074  130338855.55747 101562716.58346      -726.51247
      -566.12046
 05  5 29  2 30  0.0000000  0  8G25G15G06G18G16G03G30G10
  21661447.588    21661445.9964  113831708.33548  88700037.23146     -1709.81448
     -1332.32646
  22475286.553    22475285.2854  118108447.18348  92032552.45546      3367.21648
      2623.80046
  21688941.363    21688939.8894  113976235.69448  88812635.62946     -2086.60248
     -1625.92446
  25551229.678                   134272616.24247                      2894.00547

  22028647.006    22028644.1364  115761341.00648  90203637.84346      2505.47348
      1952.32246
  24941409.776    24941409.1774  131067998.46047 102130900.68445      3079.10847
      2399.26945
  23174235.137    23174232.2744  121781559.40048  94894704.18646     -3081.42148
     -2401.07446
  24806859.217    24806858.8584  130360923.22347 101579927.21246      -744.67047
      -580.37046
 05  5 29  2 30 30.0000000  0  8G25G15G06G18G16G03G30G10
  21671252.186    21671249.6804  113883231.26848  88740184.93846     -1724.97248
     -1344.13746
  22456087.197    22456085.0934  118007551.86748  91953932.73246      3359.24348
      2617.57646
  21700868.891    21700866.9714  114038912.81948  88861474.94546     -2091.61448
     -1629.83046
  25534697.082    25534698.2594  134185733.76647 104560320.78254      2898.62047
      2258.92054
  22014361.221    22014358.1124  115686266.03848  90145137.87546      2499.56248
      1947.70846
  24923838.554    24923832.9814  130975661.57047 102058948.19946      3076.49447
      2397.38746
  23191844.728    23191842.3984  121874098.42348  94966812.48946     -3087.63248
     -2405.95646
  24811163.264    24811166.4484  130383543.71347 101597508.54046      -762.60747
      -594.20746
 05  5 29  2 31  0.0000000  0  8G25G15G06G18G16G03G30G10
  21681144.401    21681142.1184  113935214.57848  88780691.40346     -1740.32748
     -1356.14946
  22436934.261    22436934.0054  117906905.06948  91875506.70946      3350.69648
      2610.93246
  21712825.532    21712823.5684  114101745.56848  88910435.50946     -2097.05448
     -1634.06146
  25518142.253    25518138.1614  134098737.07147 104492509.83655      2902.25047
      2261.42855
  22000109.190    22000105.5644  115611371.44848  90086778.49746      2493.53248
      1943.01446
  24906281.814    24906285.2294  130883401.44847 101987073.01656      3073.75047
      2395.12356
  23209490.023    23209489.3254  121966833.10348  95039073.25546     -3094.46148
     -2411.25946
  24815573.399                   130406715.11847                      -781.65947

 05  5 29  2 31 30.0000000  0  8G25G15G06G18G16G03G30G10
  21691124.673    21691122.7164  113987660.29148  88821558.16846     -1755.85248
     -1368.19946
  22417830.404    22417829.3214  117806512.88448  91797279.09546      3342.15948
      2604.31546
  21724812.470    21724810.2514  114164736.28948  88959519.17246     -2102.18548
     -1638.06546
  25501563.178    25501562.7044  134011615.22047 104424647.46146      2906.33247
      2264.75646
  21985892.975    21985888.5164  115536662.85448  90028564.02646      2487.33848
      1938.16946
  24888741.117                   130791222.02547                      3071.04247

  23227175.752    23227173.7114  122059766.00248  95111488.49345     -3101.01548
     -2416.39445
  24820088.652    24820090.0944  130430440.24247 101634103.24645      -799.59947
      -623.05945
 05  5 29  2 32  0.0000000  0  8G25G15G06G18G16G03G30G10
  21701192.215    21701190.0294  114040566.39648  88862783.68546     -1771.39448
     -1380.36446
  22398775.185    22398773.8934  117706377.46948  91719251.54046      3333.11448
      2597.23946
  21736828.892    21736827.3124  114227884.12048  89008725.27846     -2107.81448
     -1642.47246
  25484961.766    25484954.0884  133924383.84347 104356630.73446      2909.36247
      2267.06546
  21971711.383    21971707.8674  115462141.50048  89970495.44546      2480.66848
      1932.98146
  24871214.241    24871213.5344  130699112.69557 101843460.29655      3068.11057
      2390.84455
  23244897.615    23244896.4314  122152895.86348  95184057.22645     -3107.98348
     -2421.79045
  24824706.911    24824706.1484  130454718.57447 101653010.44145      -818.59047
      -637.85745
 05  5 29  2 32 30.0000000  0  8G25G15G06G18G16G03G30G10
  21711347.958    21711345.6984  114093937.20148  88904371.30946     -1786.42848
     -1392.08546
  22379771.358    22379770.7074  117606508.03148  91641431.25046      3324.66648
      2590.66246
  21748877.169    21748874.8404  114291194.45848  89058057.99846     -2112.77848
     -1646.32746
  25468340.907    25468344.3244  133837050.55347 104288611.82255      2913.22747
      2270.19655
  21957567.890    21957564.1374  115387815.47448  89912579.10546      2474.52348
      1928.18746
  24853706.759    24853701.5124  130607109.54157 101771751.56656      3065.47457
      2388.77356
  23262657.862    23262655.9364  122246228.01448  95256783.56345     -3114.04848
     -2426.53145
  24829433.337    24829433.2474  130479556.23447 101672381.42945      -836.78347
      -652.01645
 05  5 29  2 33  0.0000000  0  8G25G15G06G18G16G03G30G10
  21721588.729    21721586.7544  114147750.87348  88946304.03146     -1801.23848
     -1403.55646
  22360813.971    22360812.7624  117506886.63948  91563804.23446      3316.42148
      2584.22546
  21760951.356    21760948.8734  114354646.41848  89107501.05446     -2117.68848
     -1650.14946
  25451701.497                   133749598.33947                      2917.01147

  21943458.371    21943453.5744  115313666.37648  89854800.59746      2468.56048
      1923.55446
  24836210.999    24836211.4364  130515167.93947 101700132.98155      3063.46247
      2386.94155
  23280452.907    23280449.8124  122339741.45048  95329651.16045     -3120.16848
     -2431.32245
  24834262.450    24834262.2874  130504932.29247 101692149.96244      -855.26847
      -666.33044
 05  5 29  2 33 30.0000000  0  8G25G15G06G18G16G03G30G10
  21731914.614    21731913.1464  114202017.34748  88988589.59846     -1816.29648
     -1415.29346
  22341906.427    22341905.3754  117407527.67348  91486381.70646      3307.70148
      2577.42246
  21773054.828    21773052.4164  114418250.95648  89157063.01946     -2122.66448
     -1654.03046
  25435041.925    25435047.1964  133662041.69947 104152266.21052      2920.31747
      2275.40452
  21929383.674    21929379.6404  115239707.85148  89797170.59546      2461.95948
      1918.41246
  24818729.470    24818725.9084  130423307.35047 101628532.94455      3060.30847
      2384.70555
  23298284.535    23298281.6424  122433447.18948  95402668.63046     -3127.04948
     -2436.64746
  24839195.631    24839194.9634  130530857.96747 101712297.80246      -873.06747
      -680.36446
 05  5 29  2 34  0.0000000  0  8G25G15G06G18G16G03G30G10
  21742328.160    21742326.4454  114256738.68348  89031229.59246     -1831.52948
     -1427.14546
  22323050.507    22323048.4804  117308437.71748  91409168.77846      3298.48548
      2570.28446
  21785188.345    21785185.8294  114482011.10948  89206746.25646     -2127.80848
     -1658.03446
  25418360.239    25418358.4324  133574386.75047 104083947.69542      2923.50047
      2277.91042
  21915347.168    21915344.0544  115165945.61248  89739693.56146      2455.37148
      1913.26846
  24801265.260    24801261.9824  130331532.22147 101557020.57755      3057.61747
      2382.52355
  23316153.239    23316153.3694  122527348.14548  95475838.19045     -3133.40048
     -2441.61445
  24844234.679                   130557336.83447                      -891.91347

 05  5 29  2 34 30.0000000  0  8G25G15G06G18G16G03G30G10
  21752827.651    21752826.1394  114311913.89448  89074223.24846     -1846.64048
     -1438.93646
  22304245.700    22304244.3974  117209619.92448  91332167.95646      3289.51148
      2563.25746
  21797350.772    21797347.6174  114545927.07048  89256550.88946     -2132.92948
     -1662.03146
  25401659.207    25401658.5414  133486637.36947 104015544.56056      2926.70947
      2280.33556
  21901349.097    21901345.1764  115092382.44448  89682371.62546      2448.75448
      1908.11646
  24783816.718    24783816.2724  130239844.08447 101485587.08645      3054.92347
      2380.58945
  23334059.772    23334058.3874  122621444.00248  95549159.60845     -3139.79348
     -2446.58945
  24849379.399    24849378.9364  130584369.31347 101754041.04746      -910.43047
      -709.51646
 05  5 29  2 35  0.0000000  0  8G25G15G06G18G16G03G30G10
  21763412.976    21763410.2844  114367537.62648  89117566.39446     -1861.47348
     -1450.48746
  22285492.748    22285490.4764  117111073.58648  91255378.63446      3280.67048
      2556.25646
  21809542.286    21809539.9384  114609994.83548  89306473.82346     -2138.03048
     -1665.99746
  25384945.091    25384941.2144  133398781.82847 103947090.30552      2930.16447
      2283.52852
  21887388.007    21887383.8644  115019017.18448  89625203.91546      2442.34548
      1903.10746
  24766384.099    24766383.2804  130148240.11247 101414198.84856      3052.10547
      2377.96356
  23351999.896    23352000.5314  122715730.94148  95622629.90545     -3145.70148
     -2451.19845
  24854627.561    24854624.6054  130611951.76347 101775531.57956      -928.18147
      -723.23856
 05  5 29  2 35 30.0000000  0  8G25G15G06G18G16G03G30G10
  21774081.647    21774078.6914  114423602.91948  89161253.63146     -1876.21348
     -1461.96746
  22266791.525    22266790.1844  117012795.95448  91178798.73145      3271.27848
      2549.06545
  21821762.013    21821759.9864  114674208.36748  89356510.32846     -2142.75048
     -1669.67846
  25368211.541    25368206.3854  133310850.30647 103878555.60343      2933.49347
      2285.87143
  21873463.303    21873460.4254  114945845.99848  89568187.42146      2435.90348
      1898.10846
  24748967.907    24748968.4614  130056715.36547 101342872.69546      3049.61247
      2376.30746
  23369977.502    23369975.9554  122810202.61648  95696244.23446     -3152.07148
     -2456.15046
  24859980.312    24859981.1494  130640078.26547 101797449.51045      -946.39547
      -737.45745
 05  5 29  2 36  0.0000000  0  8G25G15G06G18G16G03G30G10
  21784834.609    21784832.9404  114480112.44948  89205287.01146     -1891.00048
     -1473.50246
  22248142.826    22248140.5194  116914794.18948  91102433.76546      3262.01148
      2541.83946
  21834009.835    21834007.1994  114738571.53048  89406663.43546     -2147.68448
     -1673.52246
  25351458.872                   133222817.55347                      2935.67947

  21859577.802    21859573.8354  114872875.33948  89511327.19846      2428.88148
      1892.63846
  24731568.251    24731569.7964  129965275.55348 101271621.03545      3046.64748
      2373.94545
  23387992.565    23387988.6934  122904862.69248  95770005.28646     -3158.69348
     -2461.32946
  24865436.145    24865436.4164  130668752.89847 101819804.22152      -964.87147
      -751.83352
 05  5 29  2 36 30.0000000  0  8G25G15G06G18G16G03G30G10
  21795671.698    21795669.1394  114537059.21948  89249661.11946     -1905.65248
     -1484.90946
  22229545.010    22229543.3024  116817065.83048  91026281.84546      3252.95248
      2534.77346
  21846284.956    21846281.9424  114803078.35448  89456928.48446     -2152.71248
     -1677.43646
  25334689.218    25334679.9144  133134692.30647 103741290.36255      2938.53747
      2289.87655
  21845729.831    21845726.3204  114800102.32848  89454620.96446      2422.35248
      1887.54246
  24714182.031    24714183.2784  129873916.24647 101200432.14546      3044.34547
      2372.17446
  23406039.600    23406038.7614  122999705.08148  95843908.43146     -3164.60848
     -2465.93846
  24870996.121    24870994.1054  130697969.93347 101842559.86446      -982.98347
      -765.99646
 05  5 29  2 37  0.0000000  0  8G25G15G06G18G16G03G30G10
  21806593.187    21806591.0384  114594453.21648  89294383.69746     -1920.43948
     -1496.45346
  22211002.333    22211001.6564  116719625.14948  90950354.08746      3243.17748
      2527.16946
  21858589.122    21858586.7314  114867740.17648  89507314.32146     -2157.90948
     -1681.49446
  25317902.101    25317901.9504  133046472.96157 103672576.00455      2940.62557
      2291.41655
  21831921.719    21831918.2624  114727540.59748  89398079.37446      2415.25048
      1881.99146
  24696814.298    24696812.6174  129782649.46347 101129315.32646      3040.74047
      2369.45646
  23424124.654    23424119.8654  123094740.83048  95917962.24245     -3170.92448
     -2470.82045
  24876661.197    24876657.3934  130727740.53147 101865760.71044     -1001.73747
      -780.62544
 05  5 29  2 37 30.0000000  0  8G25G15G06G18G16G03G30G10
  21817598.092    21817596.2794  114652284.75348  89339447.21546     -1934.90548
     -1507.63946
  22192514.015    22192513.6714  116622467.03948  90874646.51046      3233.90648
      2519.92546
  21870921.948    21870919.1484  114932548.24248  89557814.09346     -2162.91948
     -1685.38846
  25301101.390    25301101.8604  132958185.79447 103603782.52942      2944.89447
      2294.75942
  21818152.224    21818149.3384  114655184.38448  89341697.93246      2408.60748
      1876.84246
  24679464.769    24679461.3344  129691468.53848 101058265.32544      3038.13848
      2367.46044
  23442244.990    23442241.3754  123189961.33848  95992159.99745     -3177.14548
     -2475.67445
  24882429.983    24882428.3014  130758056.51447 101889383.53555     -1019.65947
      -794.47555
 05  5 29  2 38  0.0000000  0  8G25G15G06G18G16G03G30G10
  21828685.718    21828684.0184  114710549.36648  89384848.19146     -1949.54448
     -1519.19646
  22174079.083    22174078.2074  116525591.16148  90799158.87746      3224.23048
      2512.38546
  21883281.770    21883279.8964  114997499.18048  89608425.24246     -2167.62748
     -1689.06546
  25284287.093    25284284.3294  132869823.86147 103534868.67745      2946.97847
      2296.43145
  21804422.265    21804419.0954  114583032.73348  89285475.87946      2401.24248
      1871.09746
  24662129.066    24662128.7244  129600371.37448 100987284.69146      3034.85148
      2364.85646
  23460399.068    23460397.1014  123285362.80548  96066498.79545     -3183.38948
     -2480.54145
  24888303.330    24888304.5884  130788914.45247 101913426.75445     -1038.38047
      -809.21045
 05  5 29  2 38 30.0000000  0  8G25G15G06G18G16G03G30G10
  21839855.588    21839853.8334  114769248.62448  89430587.85446     -1963.67448
     -1530.13146
  22155699.889    22155697.7654  116429003.68248  90723895.93446      3215.01948
      2505.21646
  21895668.461    21895666.9504  115062596.12148  89659150.09846     -2172.04348
     -1692.50446
  25267457.258    25267452.2914  132781378.37947 103466005.03946      2949.67247
      2298.41946
  21790732.999    21790729.0054  114511091.28148  89229417.60546      2394.81148
      1866.09746
  24644810.169    24644808.9964  129509362.28247 100916368.70545      3032.91847
      2363.24245
  23478589.000    23478585.6584  123380948.07848  96140980.87446     -3189.12548
     -2485.01246
  24894279.098    24894273.0594  130820317.43947 101937895.63445     -1055.87947
      -822.67845
 05  5 29  2 39  0.0000000  0  8G25G15G06G18G16G03G30G10
  21851106.016    21851104.4294  114828370.65048  89476656.95046     -1978.54448
     -1541.72246
  22137373.333    22137371.6134  116332697.29648  90648852.04346      3204.78148
      2497.23846
  21908082.179    21908080.4004  115127828.18948  89709980.27146     -2177.29548
     -1696.58546
  25250610.509                   132692849.42347                      2951.28247

  21777080.975    21777076.8304  114439352.20448  89173517.05046      2387.23048
      1860.18546
  24627507.094    24627508.2154  129418431.63647 100845513.75545      3028.97347
      2360.25245
  23496811.362    23496808.1954  123476706.17948  96215597.58745     -3195.55548
     -2490.03045
  24900355.718    24900350.0824  130852254.74447 101962769.65244     -1073.63447
      -836.69544
 05  5 29  2 39 30.0000000  0  8G25G15G06G18G16G03G30G10
  21862441.459    21862439.3714  114887938.86248  89523073.72546     -1992.73448
     -1552.78846
  22119105.065    22119103.8134  116236699.75748  90574048.81146      3195.05148
      2489.66646
  21920526.319    21920523.9034  115193220.49148  89760935.29046     -2182.09248
     -1700.32446
  25233753.214    25233745.6834  132604267.22257 103327969.94456      2954.04257
      2301.72956
  21763472.945    21763469.8514  114367842.62448  89117795.29846      2380.05348
      1854.58946
  24610222.870    24610218.4284  129327605.33447 100774747.14446      3025.76147
      2357.69346
  23515070.047    23515068.1964  123572661.69748  96290368.09745     -3201.66248
     -2494.78045
  24906539.357    24906536.9564  130884751.08747 101988107.52145     -1092.07847
      -850.91345
 05  5 29  2 40  0.0000000  0  8G25G15G06G18G16G03G30G10
  21873858.190    21873856.0364  114947933.31948  89569822.64646     -2006.82948
     -1563.75146
  22100893.295    22100891.3264  116140995.47948  90499474.07346      3185.42648
      2482.14546
  21932997.088    21932995.3634  115258753.88748  89812000.28046     -2186.56948
     -1703.81846
  25216882.483    25216879.9354  132515611.30747 103258907.69556      2956.79547
      2304.18156
  21749906.223    21749902.7244  114296546.22548  89062239.67546      2373.37448
      1849.38446
  24592955.160    24592955.2124  129236866.21347 100704039.40454      3023.37547
      2355.93254
  23533363.724    23533360.9854  123668795.53448  96365277.53346     -3206.98348
     -2498.95946
  24912826.407    24912822.8664  130917787.61547 102013800.23942     -1110.36047
      -865.19042
 05  5 29  2 40 30.0000000  0  8G25G15G06G18G16G03G30G10
  21885354.232    21885351.4974  115008344.79148  89616896.48946     -2020.72748
     -1574.59946
  22082736.448    22082734.5934  116045579.82348  90425124.24646      3175.59648
      2474.49546
  21945492.955    21945490.7744  115324420.67948  89863169.21046     -2191.23748
     -1707.46246
  25199997.163    25199990.4134  132426878.44847 103189756.21842      2958.87547
      2305.47642
  21736378.561    21736374.3574  114225457.91848  89006846.17546      2366.08748
      1843.71046
  24575704.368    24575705.0084  129146207.87748 100633402.72845      3020.37648
      2353.55245
  23551689.971    23551685.7314  123765099.64848  96440319.72245     -3213.05248
     -2503.68545
  24919214.826                   130951356.89147                     -1128.05947

 05  5 29  2 41  0.0000000  0  8G25G15G06G18G16G03G30G10
  21896929.853    21896928.2754  115069177.74648  89664298.78246     -2034.65648
     -1585.44546
  22064635.457    22064633.8214  115950461.81148  90351006.34746      3165.77648
      2466.84346
  21958015.939    21958013.7834  115390226.78448  89914446.69846     -2195.60448
     -1710.85046
  25183101.353    25183100.8054  132338083.04347 103120566.03442      2960.99647
      2307.20242
  21722891.632    21722888.4314  114154586.36448  88951621.59346      2358.90548
      1838.11546
  24558468.831                   129055637.50847                      3017.97647

  23570049.221    23570048.0044  123861579.67448  96515499.01145     -3218.89148
     -2508.19645
  24925705.540    24925707.9704  130985464.47647 102066606.70755     -1145.74047
      -892.86855
 05  5 29  2 41 30.0000000  0  8G25G15G06G18G16G03G30G10
  21908586.499    21908584.3004  115130429.37448  89712027.32046     -2048.60848
     -1596.32446
  22046592.051    22046590.8614  115855643.18048  90277121.72346      3155.90648
      2459.07046
  21970564.835    21970562.2244  115456170.78548  89965831.62046     -2200.37348
     -1714.56746
  25166193.074    25166192.0704  132249224.28547 103051338.54545      2961.87147
      2307.96645
  21709447.320    21709443.6664  114083932.56648  88896566.67146      2351.57648
      1832.40046
  24541250.936    24541245.1724  128965154.71347 100492311.41545      3015.15547
      2349.52845
  23588442.125    23588440.3764  123958233.70048  96590813.79646     -3224.36048
     -2512.48146
  24932298.079    24932294.8844  131020108.59547 102093597.84446     -1163.71347
      -906.87446
 05  5 29  2 42  0.0000000  0  8G25G15G06G18G16G03G30G10
  21920323.344    21920321.0974  115192106.12248  89760087.10746     -2063.04648
     -1607.57046
  22028608.048    22028606.0514  115761134.86348  90203478.89446      3145.00848
      2450.66246
  21983140.779    21983139.2034  115522260.28948  90017329.93646     -2205.56148
     -1718.61646
  25149273.269    25149268.8724  132160313.43647 102982051.36952      2964.99547
      2310.44252
  21696045.269    21696041.9984  114013507.24348  88841689.80746      2343.55548
      1826.14546
  24524049.124    24524055.3394  128874768.55347 100421895.85645      3011.11847
      2346.26445
  23606868.698    23606864.3714  124055069.35948  96666270.11746     -3231.06948
     -2517.72046
  24938991.403    24938989.3564  131055286.08747 102120981.36442     -1182.49947
      -921.46242
 05  5 29  2 42 30.0000000  0  8G25G15G06G18G16G03G30G10
  21932140.050    21932137.3254  115254203.31548  89808474.51546     -2076.70848
     -1618.22046
  22010682.348    22010680.4764  115666936.65348  90130077.70246      3135.05648
      2442.90946
  21995744.059    21995742.3924  115588491.98648  90068939.05046     -2209.82548
     -1721.93646
  25132343.572    25132339.3304  132071350.52347 102912727.58956      2966.60447
      2311.68356
  21682687.009    21682682.6854  113943309.13748  88786989.99546      2336.27648
      1820.47146
  24506868.381    24506876.0524  128784477.01347 100351547.82546      3008.22447
      2343.94346
  23625329.225    23625329.6964  124152083.21548  96741865.34746     -3236.61248
     -2522.05246
  24945792.396    24945789.2544  131091015.47247 102148835.70255     -1199.39747
      -934.63055
 05  5 29  2 43  0.0000000  0  8G25G15G06G18G16G03G30G10
  21944034.760    21944031.5504  115316709.22348  89857180.39946     -2090.33148
     -1628.82846
  21992814.462    21992812.9044  115573041.27848  90056912.46846      3124.62648
      2434.75046
  22008373.089    22008370.5374  115654855.70448  90120651.02046     -2214.25048
     -1725.38946
  25115402.177    25115405.9114  131982328.79947 102843388.26955      2968.39347
      2312.89055
  21669371.043    21669367.4714  113873331.05248  88732461.59246      2328.91448
      1814.74246
  24489702.672    24489696.9124  128694271.22947 100281213.78755      3005.42547
      2341.78255
  23643822.630    23643821.0464  124249264.35148  96817590.95446     -3242.27448
     -2526.40946
  24952692.547    24952689.5234  131127274.87947 102177075.69146     -1217.75347
      -948.88646
 05  5 29  2 43 30.0000000  0  8G25G15G06G18G16G03G30G10
  21956007.165    21956004.4394  115379625.10948  89906205.73746     -2103.78148
     -1639.31346
  21975005.251    21975004.3074  115479454.84648  89983987.99046      3114.60148
      2426.95846
  22021027.163    22021025.0974  115721354.25048  90172468.06446     -2218.71948
     -1728.87046
  25098452.199    25098448.6764  131893254.66047 102773943.86646      2969.67847
      2314.07746
  21656097.289    21656093.7684  113803578.20748  88678108.73046      2321.46548
      1808.93146
  24472553.892    24472555.5234  128604155.35847 100211025.67642      3002.37547
      2339.58442
  23662348.021    23662346.3144  124346615.20548  96893448.62246     -3247.81748
     -2530.73346
  24959695.472                   131164066.99447                     -1235.31947

 05  5 29  2 44  0.0000000  0  8G25G15G06G18G16G03G30G10
  21968055.553    21968053.9584  115442941.63948  89955543.26446     -2117.03648
     -1649.65846
  21957254.319    21957252.7774  115386172.42348  89911300.36746      3104.48148
      2419.07346
  22033705.310    22033703.1394  115787979.69848  90224383.98046     -2222.82848
     -1732.06946
  25081491.476    25081490.8394  131804123.66547 102704504.41246      2971.41647
      2315.35746
  21642864.931    21642861.7814  113734045.41048  88623927.32946      2314.22148
      1803.28346
  24455422.298    24455422.0184  128514122.59748 100140864.45552      2999.72348
      2337.45252
  23680904.549    23680901.6674  124444127.82548  96969432.53044     -3253.10048
     -2534.84544
  24966795.490    24966788.7754  131201383.83447 102234825.82254     -1252.38547
      -976.14554
 05  5 29  2 44 30.0000000  0  8G25G15G06G18G16G03G30G10
  21980184.298    21980181.8814  115506679.35148  90005208.99946     -2131.46148
     -1660.87546
  21939566.516    21939564.9814  115293219.12248  89838869.22946      3093.07848
      2410.20046
  22046412.018    22046411.0344  115854753.94648  90276415.86846     -2228.07648
     -1736.16546
  25064523.574    25064522.5024  131714955.29047 102635029.47755      2973.10347
      2316.67555
  21629680.292    21629677.1384  113664757.43048  88569936.68746      2305.59448
      1796.55846
  24438309.679    24438309.5164  128424196.08248 100070803.86646      2995.74748
      2334.74946
  23699495.366    23699494.3294  124541823.77848  97045559.16445     -3259.54748
     -2539.86045
  24974001.054    24973999.1474  131239247.34947 102264338.65152     -1270.57247
      -990.15352
 05  5 29  2 45  0.0000000  0  8G25G15G06G18G16G03G30G10
  21992389.358    21992387.6524  115570816.77748  90055186.17246     -2144.73948
     -1671.19746
  21921937.379    21921935.7114  115200577.60448  89766681.01046      3082.69548
      2402.09846
  22059143.362    22059141.3184  115921656.82748  90328547.98446     -2232.16648
     -1739.34046
  25047547.776    25047543.1044  131625751.97947 102565497.88842      2974.33947
      2317.77642
  21616538.707    21616535.9054  113595696.26748  88516122.78146      2298.31948
      1790.89546
  24421212.333    24421214.2134  128334356.63648 100000799.18546      2993.33648
      2332.46846
  23718116.900    23718119.4134  124639682.22548  97121812.52845     -3264.86648
     -2544.08745
  24981306.598    24981304.0404  131277636.64847 102294262.72055     -1288.11447
     -1003.63155
 05  5 29  2 45 30.0000000  0  8G25G15G06G18G16G03G30G10
  22004670.395    22004668.0004  115635356.29248  90105476.68246     -2157.90248
     -1681.48046
  21904369.041    21904367.0894  115108255.12848  89694741.42146      3072.09448
      2393.84346
  22071900.139    22071897.2284  115988692.62848  90380783.68846     -2236.56448
     -1742.77746
  25030565.383                   131536501.69148                      2975.79148

  21603441.555    21603437.7434  113526868.95348  88462491.12346      2290.37048
      1784.70446
  24404134.963    24404134.6184  128244610.07848  99930866.95845      2990.15148
      2330.04545
  23736771.306    23736768.7714  124737707.25148  97198195.68642     -3270.30348
     -2548.23542
  24988711.408    24988712.5624  131316555.69147 102324587.85352     -1306.53447
     -1018.19352
 05  5 29  2 46  0.0000000  0  8G25G15G06G18G16G03G30G10
  22017027.796    22017027.6294  115700296.82448  90156079.66246     -2171.34048
     -1691.95446
  21886861.739    21886859.7884  115016255.31748  89623053.23746      3061.30748
      2385.43646
  22084682.288    22084679.3324  116055861.52448  90433123.07346     -2241.36448
     -1746.51946
  25013573.697    25013569.3714  131447214.82147 102426385.05845      2976.73047
      2319.48745
  21590389.068    21590385.4734  113458278.29048  88409043.85246      2282.28848
      1778.40346
  24387074.479    24387074.8644  128154958.00648  99861008.26546      2986.89648
      2327.45946
  23755456.062    23755456.3144  124835898.78948  97274708.54745     -3275.89148
     -2552.67345
  24996219.335    24996221.5124  131356004.36647 102355347.41555     -1323.88647
     -1031.72055
 05  5 29  2 46 30.0000000  0  8G25G15G06G18G16G03G30G10
  22029462.421    22029460.4234  115765639.30048  90206995.84246     -2184.56848
     -1702.25346
  21869416.822    21869415.8384  114924583.69248  89551620.81646      3050.41448
      2376.94946
  22097489.399    22097487.9784  116123166.16348  90485568.25946     -2245.61848
     -1749.83546
  24996577.050    24996575.3784  131357897.40947 102356804.22542      2978.40147
      2320.70042
  21577382.457    21577379.4614  113389929.30648  88355784.90146      2274.31948
      1772.18946
  24370033.800    24370029.5384  128065403.99948  99791226.02545      2983.42048
      2324.74645
  23774174.078    23774169.8704  124934259.02348  97351352.88046     -3281.55148
     -2557.03146
  25003824.853    25003830.3674  131395988.88647 102386492.85652     -1341.77847
     -1045.66652
 05  5 29  2 47  0.0000000  0  8G25G15G06G18G16G03G30G10
  22041971.502    22041970.4454  115831375.05248  90258218.48046     -2197.51648
     -1712.35346
  21852034.592    21852032.9664  114833236.02248  89480440.81846      3039.60848
      2368.52646
  22110320.959    22110319.2754  116190599.30048  90538113.54746     -2249.81348
     -1753.09946
  24979575.039                   131268546.31047                      2979.05847

  21564421.543    21564418.3894  113321817.79148  88302710.99646      2266.47148
      1766.08446
  24353008.957    24353009.8784  127975942.21948  99721515.57746      2980.92848
      2322.80146
  23792922.132    23792921.0494  125032780.40148  97428122.83045     -3286.63548
     -2561.00145
  25011534.304                   131436493.66247                     -1358.68647

 05  5 29  2 47 30.0000000  0  8G25G15G06G18G16G03G30G10
  22054555.224    22054553.8124  115897504.08748  90309747.58146     -2210.93148
     -1722.80346
  21834714.728    21834713.1474  114742217.25148  89409517.09846      3028.32748
      2359.73746
  22123178.278    22123175.6074  116258162.92048  90590760.51446     -2254.53248
     -1756.77346
  24962564.874    24962563.2824  131179166.53547 102217498.61144      2979.89547
      2321.93044
  21551506.312    21551503.1814  113253948.35248  88249825.71346      2258.05748
      1759.53246
  24336002.576    24336003.4704  127886575.92048  99651879.57946      2976.88548
      2319.67546
  23811700.397    23811697.8664  125131464.27548  97505019.34346     -3292.40848
     -2565.52346
  25019341.274    25019341.4514  131477526.28747 102450020.21852     -1376.47447
     -1072.41352
 05  5 29  2 48  0.0000000  0  8G25G15G06G18G16G03G30G10
  22067214.894    22067212.2874  115964026.83848  90361583.44846     -2223.97248
     -1732.96546
  21817457.626    21817456.8814  114651531.83648  89338853.16846      3017.33348
      2351.18646
  22136060.078    22136058.4024  116325858.47748  90643510.31046     -2258.77548
     -1760.09146
  24945551.661    24945552.0764  131089759.37647 102147846.81145      2980.59947
      2322.67845
  21538638.150    21538634.2474  113186324.85648  88197132.07346      2250.06448
      1753.29646
  24319015.484    24319014.3414  127797307.68948  99582319.98646      2973.98148
      2317.38046
  23830511.484    23830505.7514  125230311.98248  97582043.52045     -3297.73348
     -2569.71545
  25027250.555    25027244.7334  131519082.84947 102482370.26445     -1394.89647
     -1086.91045
 05  5 29  2 48 30.0000000  0  8G25G15G06G18G16G03G30G10
  22079948.040    22079945.4294  116030939.19848  90413722.93246     -2236.84848
     -1742.99246
  21800263.805    21800262.1094  114561180.32448  89268449.40146      3006.17048
      2342.46846
  22148966.524    22148965.5074  116393683.44948  90696360.91246     -2263.15748
     -1763.49546
  24928535.742    24928532.2984  131000333.77847 102078172.31654      2981.01447
      2323.04454
  21525816.593    21525812.7114  113118947.38448  88144630.13846      2241.87748
      1746.91746
  24302046.532    24302041.9724  127708136.15648  99512835.76746      2970.91248
      2315.00346
  23849351.457    23849349.7274  125329320.44348  97659192.99145     -3302.74248
     -2573.55245
  25035257.992    25035252.5504  131561166.00557 102515161.04556     -1411.86057
     -1100.12256
 05  5 29  2 49  0.0000000  0  8G25G15G06G18G16G03G30G10
  22092754.726    22092752.4694  116098237.70848  90466163.30546     -2250.28448
     -1753.47146
  21783134.811    21783132.1854  114471163.55448  89198306.48446      2994.34148
      2333.24546
  22161897.478    22161896.5034  116461636.03948  90749310.97746     -2267.86248
     -1767.15146
  24911513.105    24911513.6584  130910887.16147 102008464.11944      2981.01747
      2322.93244
  21513042.291    21513037.9644  113051816.90149  88092320.67146      2232.93149
      1739.95446
  24285095.396    24285094.0894  127619060.62647  99443400.29945      2966.88547
      2311.95145
  23868222.104    23868219.9194  125428487.51548  97736465.96645     -3308.76348
     -2578.27945
  25043363.662    25043358.6464  131603762.96457 102548378.26252     -1428.93957
     -1113.67752
 05  5 29  2 49 30.0000000  0  8G25G15G06G18G16G03G30G10
  22105635.094    22105633.5074  116165927.09148  90518908.24746     -2262.62648
     -1763.08646
  21766069.536    21766069.0144  114381491.46148  89128432.15846      2983.48848
      2324.79746
  22174853.911    22174852.9654  116529722.87048  90802365.66346     -2271.66248
     -1770.13546
  24894490.492    24894487.9824  130821429.87147 101938762.24345      2982.45247
      2324.10545
  21500316.698    21500312.5004  112984942.47049  88040210.71746      2225.03449
      1733.79746
  24268164.572    24268163.2334  127530089.16647  99374022.00856      2964.09947
      2309.58756
  23887124.571    23887122.2344  125527819.42448  97813867.48045     -3313.99048
     -2582.33645
  25051573.013    25051573.2464  131646900.47947 102582004.44056     -1446.04447
     -1126.94156
 05  5 29  2 50  0.0000000  0  8G25G15G06G18G16G03G30G10
  22118588.482    22118585.9584  116233993.90448  90571947.28946     -2275.44348
     -1773.06046
  21749070.091    21749068.8584  114292155.40348  89058819.64746      2971.89748
      2315.76146
  22187834.393    22187832.4054  116597932.43948  90855515.97546     -2276.14148
     -1773.63246
  24877463.293                   130731954.18747                      2982.61047

  21487637.442    21487633.6424  112918315.00148  87988293.19546      2216.47248
      1727.13046
  24251251.706    24251250.1104  127441211.24847  99304825.42445      2960.85147
      2307.23645
  23906055.038    23906053.1884  125627303.82248  97891387.78245     -3318.83048
     -2586.08745
  25059875.693    25059878.9844  131690534.94557 102616014.33652     -1464.00357
     -1140.66752
 05  5 29  2 50 30.0000000  0  8G25G15G06G18G16G03G30G10
  22131612.031    22131610.6584  116302436.77548  90625279.38546     -2287.11248
     -1782.16346
  21732134.504    21732133.3994  114203157.93148  88989470.99346      2961.60048
      2307.72446
  22200837.853    22200835.5434  116666264.60048  90908761.79946     -2279.06448
     -1775.88946
  24860433.857    24860426.3784  130642463.25448 101799294.90146      2984.01848
      2325.31446
  21475006.041    21475002.9274  112851937.12948  87936570.17746      2209.07848
      1721.36146
  24234357.905    24234350.1084  127352428.09547  99235643.75446      2958.75547
      2305.47446
  23925015.048    23925016.7754  125726940.40747  97969026.66545     -3322.98147
     -2589.39945
  25068282.569                   131734715.88047                     -1481.03147

 05  5 29  2 51  0.0000000  0  8G25G15G06G18G16G03G30G10
  22144707.584    22144705.4734  116371254.26948  90678903.40146     -2300.25948
     -1792.41546
  21715264.279    21715263.1514  114114502.82648  88920389.11246      2949.28648
      2298.14646
  22213864.452    22213862.2294  116734719.88248  90962103.57446     -2284.15548
     -1779.86846
  24843402.271    24843397.3974  130552961.20647 101729520.94742      2983.48047
      2324.85342
  21462422.989    21462419.1044  112785812.15448  87885044.22846      2199.88048
      1714.19346
  24217480.165                   127263741.37647                      2954.50947

  23944005.745    23943999.8054  125826729.19148  98046784.09546     -3329.04748
     -2594.02946
  25076781.956    25076782.6414  131779378.35357 102685232.75652     -1497.82957
     -1167.32352
 05  5 29  2 51 30.0000000  0  8G25G15G06G18G16G03G30G10
  22157875.693    22157873.4964  116440451.27148  90732823.13346     -2312.97548
     -1802.30946
  21698460.315    21698459.6384  114026199.21348  88851581.12946      2937.51848
      2288.97446
  22226915.211    22226913.9264  116803304.79648  91015546.35746     -2288.57148
     -1783.30846
  24826370.286    24826364.8314  130463457.97447 101659810.48645      2983.45547
      2324.77845
  21449889.263    21449885.4294  112719948.83648  87833722.16146      2191.07748
      1707.32846
  24200623.692    24200622.8864  127175158.64547  99097526.84346      2950.71847
      2299.15346
  23963024.680    23963022.8684  125926676.24448  98124664.89746     -3334.34648
     -2598.20746
  25085383.682    25085385.2394  131824575.23347 102720458.15252     -1515.48747
     -1180.66952
 05  5 29  2 52  0.0000000  0  8G25G15G06G18G16G03G30G10
  22171114.091    22171112.2694  116510019.22448  90787031.89446     -2324.17248
     -1811.04946
  21681723.083    21681721.3134  113938243.23448  88783044.01746      2926.99848
      2280.78646
  22239989.446    22239988.5934  116872012.46048  91069084.78246     -2291.47048
     -1785.57346
  24809337.934    24809335.6894  130373950.18247 101590064.34046      2984.68647
      2325.69946
  21437405.095    21437401.2144  112654343.23048  87782600.89746      2183.43148
      1701.37246
  24183786.246    24183788.0394  127086674.17047  99028572.10246      2948.52847
      2297.48246
  23982072.599    23982069.2794  126026774.30248  98202663.39945     -3338.19548
     -2601.11945
  25094081.384    25094091.3474  131870281.84547 102756109.02646     -1530.62947
     -1192.76546
 05  5 29  2 52 30.0000000  0  8G25G15G06G18G16G03G30G10
  22184420.136    22184419.6454  116579945.45948  90841519.86046     -2337.94048
     -1821.67946
  21665050.558    21665048.2724  113850626.91348  88714771.57546      2913.97448
      2270.62346
  22253085.644    22253084.5414  116940832.23748  91122710.59146     -2296.91948
     -1789.82046
  24792301.891    24792299.8994  130284431.04948 101520325.29846      2983.19148
      2324.53246
  21424968.433    21424964.3754  112588987.29348  87731674.19146      2173.37948
      1693.55546
  24166964.122                   126998278.45348                      2943.96448

  24001146.974    24001146.9834  126127011.96648  98280770.69645     -3344.64148
     -2606.15545
  25102873.141    25102870.8814  131916487.78757 102792059.31652     -1549.61657
     -1207.39752
 05  5 29  2 53  0.0000000  0  8G25G15G06G18G16G03G30G10
  22197799.638    22197798.0504  116650255.49948  90896306.87446     -2349.08348
     -1830.44946
  21648448.182    21648446.5034  113763380.39648  88646787.31846      2903.18748
      2262.22546
  22266208.547    22266206.8524  117009791.10448  91176444.74846     -2299.81248
     -1792.08146
  24775271.277    24775268.6134  130194931.07148 101450585.16345      2983.97348
      2325.16345
  21412584.742    21412580.9654  112523910.64948  87680965.12346      2165.53748
      1687.43146
  24150166.349    24150162.0724  126909999.86848  98890832.77145      2941.70648
      2292.24145
  24020252.778    24020252.6614  126227416.06248  98359007.62445     -3348.71248
     -2609.32345
  25111770.416    25111767.4464  131963231.66247 102828445.12146     -1565.96647
     -1220.17246
 05  5 29  2 53 30.0000000  0  8G25G15G06G18G16G03G30G10
  22211244.272    22211241.6934  116720906.37548  90951359.48946     -2361.33048
     -1839.98946
  21631908.217    21631906.0964  113676465.23448  88579061.23846      2890.91448
      2252.65946
  22279349.560    22279347.6914  117078847.93648  91230255.28646     -2304.21048
     -1795.48146
  24758236.575    24758236.6094  130105412.09248 101380830.10846      2983.54548
      2324.83746
  21400246.689    21400243.1064  112459074.50648  87630443.45846      2156.47148
      1680.37746
  24133382.205    24133379.9004  126821798.20448  98822104.28745      2938.46148
      2289.68045
  24039382.879    24039382.6634  126327944.58048  98437341.54145     -3353.73748
     -2613.25745
  25120753.837                   132010452.31957                     -1582.84357

 05  5 29  2 54  0.0000000  0  8G25G15G06G18G16G03G30G10
  22224762.244    22224760.7454  116791944.53448  91006713.88146     -2374.07248
     -1849.86546
  21615442.236    21615440.1274  113589932.66148  88511633.28446      2878.32348
      2242.85246
  22292518.324    22292516.3534  117148051.00548  91284179.73046     -2308.80948
     -1799.07246
  24741208.310    24741197.1644  130015926.37447 101311100.88846      2982.90947
      2324.17346
  21387964.093    21387960.8394  112394529.59948  87580148.73046      2147.02048
      1672.99946
  24116622.065    24116621.4344  126733722.90148  98753544.18945      2933.85748
      2286.13845
  24058546.490    24058541.3504  126428645.44748  98515809.71845     -3359.16148
     -2617.54245
  25129842.586    25129842.2664  132058213.50157 102902502.75956     -1600.26457
     -1246.86856
 05  5 29  2 54 30.0000000  0  8G25G15G06G18G16G03G30G10
  22238349.624    22238348.0214  116863347.60448  91062352.62346     -2385.76748
     -1859.04046
  21599044.840    21599043.0304  113503764.74248  88444489.49146      2866.30048
      2233.49346
  22305711.249    22305708.6924  117217379.59848  91338202.01946     -2312.97248
     -1802.32146
  24724182.354    24724172.8214  129926456.57547 101241368.40042      2982.72847
      2324.32842
  21375734.003    21375730.3804  112330257.98349  87530066.95346      2138.05949
      1666.02846
  24099881.261    24099880.2204  126645754.51248  98684997.44446      2930.76248
      2283.70246
  24077737.725    24077735.9754  126529497.43448  98594395.74145     -3363.85148
     -2621.15745
  25139025.398    25139021.5104  132106469.60657 102940090.41052     -1618.10357
     -1260.73052
 05  5 29  2 55  0.0000000  0  8G25G15G06G18G16G03G30G10
  22252002.975    22252001.1584  116935094.88148  91118259.56846     -2397.21148
     -1867.88846
  21582712.975    21582712.5724  113417945.24248  88377617.18546      2854.90848
      2224.60946
  22318924.524    22318922.2254  117286814.93448  91392307.47346     -2316.32148
     -1804.93346
  24707156.768    24707152.3334  129836987.45147 101171639.23546      2982.51047
      2324.05546
  21363552.043    21363548.3014  112266243.49048  87480185.53946      2129.48848
      1659.33446
  24083158.594    24083160.7094  126557875.42548  98616520.28842      2927.86148
      2281.43342
  24096953.808    24096953.5804  126630481.07648  98673084.25746     -3368.15648
     -2624.54146
  25148302.642                   132155221.52156                     -1636.45556

 05  5 29  2 55 30.0000000  0  7G25G15G06G18G16G03G30
  22265722.130    22265719.8074  117007189.61348  91174437.24246     -2409.13948
     -1877.25146
  21566450.227    21566449.0044  113332482.14048  88311022.58846      2842.60748
      2215.01446
  22332158.471    22332155.3154  117356362.03848  91446500.00046     -2320.25748
     -1808.00046
  24690133.528    24690129.4284  129747527.73348 101101930.48346      2981.84748
      2323.55946
  21351420.793    21351417.6654  112202493.68348  87430510.38446      2120.46048
      1652.30346
  24066453.858    24066455.7454  126470091.64648  98548117.37746      2924.44048
      2278.78546
  24116196.271    24116193.0114  126731601.19748  98751879.11844     -3373.11948
     -2628.35044
 05  5 29  2 56  0.0000000  0  8G25G15G06G18G16G03G30G10
  22279509.122    22279506.8784  117079639.46648  91230891.67546     -2421.31248
     -1886.72946
  21550257.406    21550255.4564  113247387.77848  88244715.32946      2829.92348
      2205.13746
  22345416.068    22345413.9674  117426030.62948  91500787.19146     -2324.62948
     -1811.40146
  24673114.308    24673112.9734  129658090.97847 101032290.51946      2980.20347
      2322.16746
  21339342.415    21339338.8124  112139020.75148  87381050.94746      2110.73448
      1644.72946
  24049768.894    24049768.5154  126382413.98247  98479797.15045      2920.61147
      2275.84045
  24135467.071    24135464.1664  126832866.59048  98830787.23445     -3378.29048
     -2632.57545
  25167148.684                   132254259.71157                     -1666.73357

 05  5 29  2 56 30.0000000  0  8G25G15G06G18G16G03G30G10
  22293363.843    22293361.9634  117152445.70748  91287623.79646     -2432.31248
     -1895.30946
  21534135.360    21534134.4564  113162667.90148  88178699.87346      2818.14448
      2195.96046
  22358697.328    22358694.5224  117495823.68848  91555171.40646     -2328.21848
     -1814.19846
  24656100.059    24656097.8754  129568683.08647 100962586.14846      2979.83647
      2321.94446
  21327317.177    21327314.4294  112075830.67048  87331811.95146      2102.05248
      1637.97646
  24033105.809    24033105.3474  126294846.50648  98411562.75545      2917.67048
      2273.49045
  24154765.285    24154765.2374  126934279.79948  98909810.48746     -3382.06548
     -2635.38446
  25176715.763                   132304531.42957                     -1684.09257

 05  5 29  2 57  0.0000000  0  8G25G15G06G18G16G03G30G10
  22307284.806    22307283.2514  117225599.08748  91344626.38946     -2444.70048
     -1904.96346
  21518084.346    21518082.3104  113078318.12448  88112972.78646      2805.02448
      2185.72746
  22372000.865    22371998.2184  117565733.86048  91609646.89046     -2332.85648
     -1817.82546
  24639091.195    24639086.1574  129479300.51547 100892943.39345      2978.13447
      2320.47045
  21315346.026    21315342.1874  112012918.37348  87282789.39446      2091.94348
      1630.09046
  24016461.553    24016462.8264  126207383.11448  98343409.55146      2913.14448
      2270.00246
  24174090.099    24174088.9094  127035832.90648  98988840.68946     -3387.51948
     -2639.56646
  25186374.673                   132355291.61257                     -1700.67057

 05  5 29  2 57 30.0000000  0  8G25G15G06G18G16G03G30G10
  22321271.689    22321270.1744  117299101.85248  91401901.23946     -2455.86748
     -1913.58746
  21502105.082    21502103.3444  112994345.41448  88047539.54746      2792.86148
      2176.25846
  22385327.196    22385323.7114  117635765.60748  91664217.04146     -2336.21248
     -1820.42446
  24622087.109    24622087.6334  129389951.01747 100823324.52146      2977.86747
      2320.43446
  21303427.941    21303424.6294  111950290.79748  87233988.69246      2082.79248
      1622.95346
  23999839.239    23999837.0094  126120029.28248  98275341.59146      2909.94748
      2267.47946
  24193441.780    24193441.6484  127137529.78848  99068085.03244     -3392.16848
     -2643.26844
  25196133.909    25196140.0034  132406577.67457 103173980.54756     -1717.65857
     -1338.36856
 05  5 29  2 58  0.0000000  0  8G25G15G06G18G16G03G30G10
  22335322.864    22335319.9314  117372939.86948  91459437.36446     -2466.65048
     -1922.08046
  21486195.852    21486194.1574  112910740.24048  87982392.68946      2780.89448
      2166.93846
  22398674.336    22398671.8714  117705906.39648  91718872.20145     -2339.77448
     -1823.21445
  24605088.874    24605087.0914  129300625.92047 100753721.58145      2977.36047
      2320.05945
  21291562.517    21291559.9584  111887937.99648  87185402.11646      2074.18948
      1616.25046
  23983235.427    23983235.9514  126032773.70848  98207350.27345      2906.84548
      2265.12745
  24212820.215    24212817.9214  127239357.38148  99147431.20745     -3396.29448
     -2646.46645
  25205984.716    25205984.5944  132458344.31857 103214232.59556     -1733.59957
     -1350.91956
 05  5 29  2 58 30.0000000  0  7G25G15G06G18G16G03G30
  22349436.355    22349435.5884  117447108.35248  91517230.97546     -2478.12548
     -1930.94146
  21470356.295    21470354.5224  112827502.42748  87917532.09046      2768.26848
      2157.08946
  22412041.988    22412040.4324  117776153.71048  91773610.37946     -2343.52448
     -1826.09846
  24588096.736    24588092.5214  129211325.96247 100684145.25443      2975.87547
      2318.88043
  21279749.799    21279746.4704  111825859.78748  87137029.50846      2064.48848
      1608.69546
  23966651.205    23966650.3594  125945614.71248  98139434.19242      2903.35248
      2262.40242
  24232220.930    24232224.2384  127341312.23748  99226876.47946     -3400.63848
     -2649.85646
 05  5 29  2 59  0.0000000  0  8G25G15G06G18G16G03G30G10
  22363618.231    22363616.6474  117521635.16748  91575303.77546     -2489.66248
     -1939.95746
  21454592.400    21454590.8844  112744664.32348  87852982.94246      2755.03048
      2146.78346
  22425435.959    22425434.7964  117846536.87348  91828454.36646     -2347.88548
     -1829.50146
  24571114.620    24571110.2084  129122084.02448 100614609.14645      2973.91748
      2317.26245
  21267994.777    21267992.0114  111764088.44348  87088896.01346      2054.39248
      1600.83946
  23950088.092    23950089.1924  125858582.99348  98071589.34246      2899.78148
      2259.42146
  24251650.809    24251650.1044  127443423.34248  99306443.62245     -3406.04648
     -2654.02445
  25225966.918                   132563330.69956                     -1765.15056

 05  5 29  2 59 30.0000000  0  8G25G15G06G18G16G03G30G10
  22377860.222    22377860.0384  117596480.94248  91633625.17046     -2499.42248
     -1947.60646
  21438898.330    21438896.3334  112662191.22548  87788718.21146      2743.59648
      2137.86646
  22438848.091    22438845.4504  117917018.56248  91883375.15046     -2350.34448
     -1831.45146
  24554137.279    24554137.7034  129032866.57248 100545074.03846      2973.83548
      2317.30846
  21256291.918    21256288.3864  111702589.33748  87040974.63746      2045.94248
      1594.24446
  23933543.841    23933543.0254  125771642.26348  98003843.40546      2897.10748
      2257.50546
  24271105.733    24271103.2854  127545652.85048  99386102.94646     -3408.76548
     -2656.21546
  25236091.644                   132616556.01056                     -1778.29556

 05  5 29  3  0  0.0000000  0  8G25G15G06G18G16G03G30G10
  22392164.821    22392163.9364  117671650.73748  91692198.99446     -2511.35048
     -1956.88946
  21423275.672    21423273.7624  112580092.67048  87724745.34846      2730.10448
      2127.34846
  22452280.477    22452278.3944  117987605.87048  91938378.24646     -2354.89448
     -1834.99046
  24537166.364    24537163.7704  128943683.93948 100475593.16946      2971.80248
      2315.67046
  21244642.765    21244639.3914  111641371.89548  86993272.76046      2035.55848
      1586.14946
  23917016.590    23917015.7624  125684800.46648  97936174.51146      2892.96648
      2254.24746
  24290583.169    24290581.5574  127648007.14048  99465859.49445     -3413.98348
     -2660.27945
  25246318.029    25246304.5134  132670297.58857 103379395.84256     -1798.48357
     -1401.43756
 05  5 29  3  0 30.0000000  0  7G25G15G06G18G16G03G30
  22406535.003    22406533.3104  117747164.16448  91751040.60546     -2522.65848
     -1965.75246
  21407728.837    21407726.4524  112498392.88149  87661083.21046      2716.86049
      2117.03146
  22465737.083    22465734.4874  118058320.41148  91993480.46246     -2359.04548
     -1838.22346
  24520206.545    24520202.8564  128854561.37048 100406147.00245      2969.84248
      2314.18545
  21233051.212    21233048.8124  111580460.21148  86945809.12446      2025.57248
      1578.36646
  23900515.614    23900513.3094  125598080.60848  97868624.67246      2888.89648
      2251.16746
  24310088.502    24310087.6894  127750507.08148  99545729.59145     -3418.69148
     -2663.92945
 05  5 29  3  1  0.0000000  0  7G25G15G06G18G16G03G30
  22420963.353    22420962.0134  117822988.77348  91810124.68546     -2532.70848
     -1973.54846
  21392252.058    21392250.0344  112417063.95548  87597710.04546      2704.62348
      2107.49446
  22479211.715    22479210.7464  118129131.59648  92048658.01546     -2362.18748
     -1840.64646
  24503254.332    24503252.5654  128765472.03348 100336726.85545      2968.90248
      2313.38645
  21221513.338    21221510.0274  111519826.25748  86898561.90346      2016.31448
      1571.15946
  23884031.491    23884030.1924  125511453.12748  97801122.74246      2885.77748
      2248.62846
  24329615.252    24329615.8464  127853121.61448  99625688.95045     -3422.65848
     -2666.90045
 05  5 29  3  1 30.0000000  0  8G25G15G06G18G16G03G30G10
  22435454.771    22435453.1784  117899141.32248  91869464.31046     -2544.05048
     -1982.38446
  21376849.552    21376848.5064  112336127.41648  87534642.63546      2691.25948
      2097.08246
  22492708.482    22492706.4294  118200058.51748  92103925.74946     -2366.31648
     -1843.87946
  24486312.236    24486308.0074  128676438.55348 100267350.11245      2966.44348
      2311.52845
  21210031.811    21210029.1124  111459491.50248  86851547.82246      2006.12748
      1563.21546
  23867567.987    23867565.1704  125424937.92948  97733708.29046      2881.79248
      2245.58146
  24349167.687    24349167.5154  127955868.89648  99705751.71945     -3427.23048
     -2670.54845
  25277541.292                   132834375.02357                     -1847.60657

 05  5 29  3  2  0.0000000  0  8G25G15G06G18G16G03G30G10
  22450009.347    22450006.3454  117975624.53248  91929061.58646     -2554.56248
     -1990.54146
  21361524.601    21361522.4754  112255590.60248  87471886.70846      2678.18148
      2086.89646
  22506229.378    22506226.4364  118271105.75048  92159287.21646     -2370.16348
     -1846.87746
  24469380.650    24469377.7384  128587468.81048 100198023.00944      2964.64748
      2310.15244
  21198609.083    21198606.0614  111399463.42848  86804772.71146      1995.91748
      1555.26146
  23851127.385    23851127.8744  125338540.90948  97666386.00044      2878.10148
      2242.72044
  24368745.400    24368742.2314  128058753.09048  99785921.26145     -3431.66548
     -2673.99745
  25288135.847                   132890049.50756                     -1862.71756

