     2.11           OBSERVATION DATA    G (GPS)             RINEX VERSION / TYPE
teqc  2008Oct2                          20100319 00:14:00UTCPGM / RUN BY / DATE
MSXP|IAx86-PII|bcc32 5.0|MSWin95->XP|486/DX+                COMMENT
teqc  2008Oct2      ICC                 20100319 00:12:29UTCCOMMENT
BIT 2 OF LLI FLAGS DATA COLLECTED UNDER A/S CONDITION       COMMENT
CREU                                                        MARKER NAME
13432M001                                                   MARKER NUMBER
ICC                 ICC                                     OBSERVER / AGENCY
4536257121          TRIMBLE NETRS       1.15                REC # / TYPE / VERS
12422774            TRM41249.00     NONE                    ANT # / TYPE
  4715420.3054   273177.8809  4271946.7957                  APPROX POSITION XYZ
        0.0540        0.0000        0.0000                  ANTENNA: DELTA H/E/N
     1     1                                                WAVELENGTH FACT L1/2
     4    L1    L2    C1    P2                              # / TYPES OF OBSERV
    30.0000                                                 INTERVAL
coordenades ajust ICC 2006.0                                COMMENT
 SNR is mapped to RINEX snr flag value [0-9]                COMMENT
  L1 & L2: min(max(int(snr_dBHz/6), 0), 9)                  COMMENT
teqc windowed: start @ 2010 Mar 18 00:00:00.000             COMMENT
teqc windowed: delta = 86399.999 sec                        COMMENT
Forced Modulo Decimation to 30 seconds                      COMMENT
  2010     3    18     0     0    0.0000000     GPS         TIME OF FIRST OBS
                                                            END OF HEADER
 10  3 18  0  0  0.0000000  0  9G26G31G 2G14G27G 9G12G30G29
   2106673.45846   1662832.08043  25103237.6724   25103233.1954
 -13372121.13247 -10400505.85645  22686299.8624   22686293.8974
 -12189134.66047  -9482038.68145  22882754.1674   22882746.9654
 -15878482.49947 -12359973.53444  22304778.8134   22304773.3574
  -1883565.94145  -1452090.74642  24638733.0164   24638728.7944
  -2187102.82246  -1696896.72242  24829952.8324   24829948.4604
 -17682593.09348 -13755838.32545  21761480.3354   21761475.3004
 -26985941.11348 -21008946.12046  20037007.7804   20037002.7264
 -23628749.85448 -18395213.71246  20540049.3964   20540044.3374
 10  3 18  0  0 30.0000000  0  9G26G31G 2G14G27G 9G12G30G29
   2220720.05446   1751699.26643  25124939.6374   25124935.7744
 -13455658.72447 -10465600.07345  22670403.0974   22670397.6454
 -12181934.65647  -9476428.27245  22884124.3584   22884117.1904
 -15818049.73747 -12312883.08244  22316279.2484   22316273.3924
  -1784205.58246  -1374667.18242  24657641.1334   24657636.1214
  -2067976.98645  -1604071.42342  24852621.4054   24852617.2514
 -17624393.79648 -13710488.23845  21772555.5664   21772549.7444
 -26975592.46548 -21000882.23746  20038976.9344   20038972.1454
 -23669329.55548 -18426834.25246  20532327.3544   20532322.6794
 10  3 18  0  1  0.0000000  0  9G26G31G 2G14G27G 9G12G30G29
   2334680.49546   1840499.39143  25146624.6514   25146621.4974
 -13538962.94847 -10530512.44145  22654550.7104   22654545.1184
 -12174180.92547  -9470386.40345  22885599.8914   22885592.5694
 -15757156.70147 -12265433.96644  22327867.6304   22327861.3564
  -1684706.35946  -1297135.34143  24676574.4754   24676570.9604
  -1948785.02446  -1511194.59742  24875303.7144   24875299.0234
 -17566013.13147 -13664996.81845  21783664.4774   21783659.2164
 -26964901.29848 -20992551.46346  20041011.4014   20041006.2264
 -23709424.92448 -18458077.38946  20524697.4164   20524692.3614
 10  3 18  0  1 30.0000000  0  9G26G31G 2G14G27G 9G12G30G29
   2448552.48446   1929230.50543  25168294.3344   25168290.6114
 -13622031.07647 -10595240.83545  22638743.4714   22638738.0144
 -12165872.86847  -9463912.58345  22887181.1354   22887174.3114
 -15695805.35947 -12217627.73644  22339540.6614   22339535.6084
  -1585069.31846  -1219496.19043  24695534.9294   24695531.5384
  -1829528.26746  -1418267.31742  24897997.4784   24897992.9894
 -17507451.06248 -13619364.05445  21794808.5604   21794803.1484
 -26953867.16448 -20983953.43846  20043111.0294   20043105.8234
 -23749035.01048 -18488942.38046  20517159.7184   20517155.0184
 10  3 18  0  2  0.0000000  0  9G26G31G 2G14G27G 9G12G30G29
   2562333.50645   2017890.76442  25189946.6324   25189943.3494
 -13704860.36847 -10659783.14745  22622982.3844   22622975.6934
 -12157010.69647  -9457006.98145  22888866.7654   22888860.4704
 -15633998.48847 -12169466.55644  22351302.5734   22351297.4544
  -1485296.22945  -1141751.02342  24714521.0604   24714517.1254
  -1710208.70146  -1325291.03242  24920703.0234   24920699.5964
 -17448708.53948 -13573590.67645  21805987.0874   21805982.0234
 -26942490.01348 -20975088.13546  20045276.3324   20045270.9504
 -23788159.49748 -18519428.99246  20509714.8414   20509709.4784
 10  3 18  0  2 30.0000000  0  9G26G31G 2G14G27G 9G12G30G29
   2676020.20745   2106477.50342  25211579.9184   25211577.5994
 -13787449.28147 -10724138.13945  22607265.8874   22607259.2034
 -12147594.49447  -9449669.66945  22890658.4114   22890651.9274
 -15571739.57847 -12120953.12645  22363149.8894   22363144.6044
  -1385389.39345  -1063901.57542  24733533.4104   24733528.4384
  -1590828.59246  -1232267.60742  24943420.7744   24943415.7564
 -17389785.74748 -13527676.81346  21817199.7794   21817194.6504
 -26930770.64448 -20965956.16046  20047506.4024   20047501.5714
 -23826798.79648 -18549537.53046  20502361.9394   20502357.2224
 10  3 18  0  3  0.0000000  0  9G26G31G 2G14G27G 9G12G30G29
   2789610.36945   2194988.96742  25233195.9024   25233193.1044
 -13869795.06147 -10788303.68445  22591595.4394   22591588.9374
 -12137624.56647  -9441900.88745  22892556.1414   22892549.1764
 -15509030.70447 -12072089.08244  22375082.9704   22375077.2044
  -1285350.09045   -985948.98142  24752569.6324   24752565.5654
  -1471389.79146  -1139198.41543  24966148.6814   24966143.4544
 -17330683.17848 -13481622.86846  21828446.7604   21828441.4144
 -26918708.50648 -20956557.09546  20049801.6574   20049796.8184
 -23864952.12848 -18579267.39146  20495101.5324   20495096.8364
 10  3 18  0  3 30.0000000  0  9G26G31G 2G14G27G 9G12G30G29
   2903101.66745   2283423.33242  25254793.0444   25254789.5544
 -13951895.57047 -10852278.10845  22575972.3624   22575966.0134
 -12127100.41247  -9433700.24245  22894559.3264   22894552.0264
 -15445874.13947 -12022876.17144  22387101.0574   22387096.4164
  -1185180.09246   -907894.55542  24771632.2684   24771627.1714
  -1351893.84446  -1046084.77042  24988887.9954   24988883.2314
 -17271401.16848 -13435429.10646  21839727.5614   21839722.0244
 -26906303.78748 -20946891.08446  20052162.3544   20052156.8534
 -23902618.76948 -18608618.01046  20487934.0104   20487928.9204
 10  3 18  0  4  0.0000000  0  9G26G31G 2G14G27G 9G12G30G29
   3016491.41646   2371778.68942  25276371.0604   25276367.1204
 -14033748.72447 -10916059.78045  22560396.2724   22560389.9274
 -12116022.10747  -9425067.79345  22896667.1914   22896660.0214
 -15382272.71747 -11973316.64344  22399204.5374   22399198.7364
  -1084881.26046   -829739.74442  24790718.4144   24790713.8294
  -1232342.94846   -952928.32542  25011638.2204   25011633.6724
 -17211939.74248 -13389095.53745  21851042.8254   21851037.2804
 -26893556.63948 -20936958.24246  20054588.0814   20054582.9954
 -23939798.87348 -18637589.52446  20480858.9444   20480853.8224
 10  3 18  0  4 30.0000000  0  9G26G31G 2G14G27G 9G12G30G29
   3129776.75046   2460052.64842  25297928.2274   25297925.6934
 -14115352.02347 -10979646.76745  22544867.5334   22544861.8694
 -12104389.85747  -9416003.70245  22898880.4534   22898873.2014
 -15318229.20147 -11923412.61944  22411391.4514   22411385.9624
   -984454.91646   -751485.57542  24809829.5344   24809825.3764
  -1112738.43246   -859730.03543  25034398.9204   25034393.9344
 -17152299.59848 -13342622.71645  21862391.7974   21862386.3784
 -26880466.86048 -20926758.41146  20057078.8984   20057073.6794
 -23976492.17248 -18666181.69446  20473876.5444   20473871.5204
 10  3 18  0  5  0.0000000  0  9G26G31G 2G14G27G 9G12G30G29
   3242955.55445   2548243.55742  25319465.4554   25319463.1614
 -14196703.03847 -11043037.15645  22529387.0944   22529381.4264
 -12092203.56547  -9406507.88145  22901199.5994   22901192.6104
 -15253746.10747 -11873166.04744  22423661.7824   22423656.5894
   -883902.55745   -673133.24742  24828963.4634   24828959.4984
   -993082.39345   -766491.59342  25057168.7054   25057163.7094
 -17092481.03648 -13296010.86046  21873775.1354   21873769.6984
 -26867034.32248 -20916291.51346  20059635.1134   20059630.0894
 -24012697.89848 -18694393.93746  20466986.5274   20466981.5614
 10  3 18  0  5 30.0000000  0  9G26G31G 2G14G27G 9G12G30G29
   3356024.59346   2636348.97342  25340983.6674   25340978.8674
 -14277800.13647 -11106229.69445  22513954.7494   22513949.0794
 -12079464.01747  -9396580.94745  22903624.1804   22903616.6034
 -15188826.60147 -11822579.42544  22436015.7254   22436010.8274
   -783226.54445   -594684.49742  24848120.6714   24848116.9914
   -873377.61746   -673215.28142  25079947.6104   25079942.7744
 -17032484.89048 -13249260.64245  21885191.9644   21885186.9014
 -26853259.90048 -20905558.19546  20062256.6564   20062251.4504
 -24048416.66848 -18722226.73746  20460189.4884   20460184.6904
 10  3 18  0  6  0.0000000  0  9G26G31G 2G14G27G 9G12G30G29
   3468981.71646   2724367.17242  25362478.6724   25362474.5754
 -14358640.46447 -11169222.14145  22498571.2594   22498565.6874
 -12066170.72547  -9386222.53045  22906153.8284   22906146.8864
 -15123473.13447 -11771654.64944  22448452.0524   22448447.5454
   -682428.19846   -516140.56242  24867303.3384   24867298.3444
   -753625.24745   -579901.82142  25102733.7144   25102729.9434
 -16972311.41048 -13202372.22246  21896642.7194   21896637.3934
 -26839143.18848 -20894558.16746  20064942.5564   20064937.5994
 -24083647.86348 -18749679.60846  20453485.0214   20453480.0044
 10  3 18  0  6 30.0000000  0  9G26G31G 2G14G27G 9G12G30G29
   3581824.36446   2812296.15042  25383951.5234   25383948.7774
 -14439221.88447 -11232012.85145  22483237.0484   22483230.7974
 -12052324.04247  -9375432.89845  22908788.1214   22908781.1404
 -15057688.33247 -11720393.78544  22460971.1344   22460965.5864
   -581509.19746   -437502.56742  24886507.3574   24886502.5154
   -633827.13646   -486552.75542  25125532.0784   25125527.5714
 -16911960.89048 -13155345.84445  21908126.9354   21908121.7474
 -26824684.26747 -20883291.47746  20067694.1154   20067689.1914
 -24118391.40048 -18776752.48946  20446873.7124   20446868.7134
 10  3 18  0  7  0.0000000  0  9G26G31G 2G14G27G 9G12G30G29
   3694549.96846   2900133.97042  25405402.3664   25405400.1134
 -14519542.28647 -11294600.17345  22467952.8674   22467946.6384
 -12037924.06247  -9364212.11845  22911528.3564   22911521.4274
 -14991475.18747 -11668799.11844  22473570.6194   22473565.3744
   -480470.96346   -358771.65142  24905732.9614   24905730.3944
   -513985.26146   -393169.55842  25148337.8214   25148333.5254
 -16851433.30548 -13108181.49545  21919645.1914   21919640.0184
 -26809883.19147 -20871758.17246  20070510.3694   20070505.4324
 -24152646.91548 -18803445.08847  20440355.0084   20440350.0754
 10  3 18  0  7 30.0000000  0  9G26G31G 2G14G27G 9G12G30G29
   3807155.85746   2987878.41342  25426830.8104   25426828.4274
 -14599599.21147 -11356982.19745  22452718.2594   22452711.9234
 -12022970.90747  -9352560.30645  22914373.9934   22914366.9744
 -14924836.21147 -11616872.66144  22486251.9504   22486246.5144
   -379315.60546   -279949.46942  24924984.4784   24924980.5664
   -394101.29646   -299753.59042  25171150.8634   25171146.9254
 -16790729.26347 -13060879.67245  21931196.6854   21931191.7274
 -26794740.28348 -20859958.50246  20073392.2464   20073387.5444
 -24186414.29748 -18829757.32946  20433929.3284   20433924.6334
 10  3 18  0  8  0.0000000  0  9G26G31G 2G14G27G 9G12G30G29
   3919639.51546   3075527.66542  25448237.5414   25448233.8954
 -14679390.51647 -11419157.23545  22437534.4374   22437528.1694
 -12007464.88547  -9340477.69345  22917324.8144   22917317.9974
 -14857774.56047 -11564616.83244  22499012.8634   22499007.8484
   -278044.82545   -201037.41542  24944254.6424   24944251.4734
   -274177.38745   -206306.47242  25193970.2604   25193966.3304
 -16729849.47548 -13013440.87645  21942781.8264   21942776.4524
 -26779255.38747 -20847892.36346  20076338.9234   20076333.9844
 -24219693.50848 -18855689.17946  20427596.4144   20427591.7554
 10  3 18  0  8 30.0000000  0  9G26G31G 2G14G27G 9G12G30G29
   4031998.88246   3163080.01042  25469618.0824   25469615.9654
 -14758913.76047 -11481123.39645  22422402.0704   22422395.7354
 -11991405.84247  -9327964.14745  22920380.4594   22920373.4884
 -14790292.28147 -11512033.24644  22511855.1134   22511849.0434
   -176659.92246   -122036.32643  24963548.8424   24963543.6514
   -154215.04145   -112829.40742  25216798.7344   25216794.1764
 -16668793.61548 -12965864.89745  21954399.8924   21954394.8804
 -26763428.07547 -20835559.39346  20079350.5544   20079345.9664
 -24252484.04948 -18881240.24146  20421357.0234   20421351.7734
 10  3 18  0  9  0.0000000  0  9G26G31G 2G14G27G 9G12G30G29
   4144231.13046   3250533.25542  25490975.8424   25490973.4844
 -14838166.51847 -11542878.79245  22407320.3964   22407314.3364
 -11974794.16847  -9315019.97045  22923541.6654   22923534.3094
 -14722392.39947 -11459124.25644  22524775.7034   22524769.9494
    -75162.89246    -42947.93542  24982863.2744   24982857.8954
    -34216.31645    -19324.14342  25239633.9554   25239630.5604
 -16607562.30447 -12918152.19745  21966052.0294   21966046.4834
 -26747258.91147 -20822960.05046  20082427.6674   20082422.6044
 -24284785.68248 -18906410.33646  20415209.8284   20415204.7814
 10  3 18  0  9 30.0000000  0  9G26G31G 2G14G27G 9G12G30G29
   4256333.50346   3337885.31442  25512309.4654   25512305.7794
 -14917146.92047 -11604421.96245  22392291.2554   22392284.9704
 -11957630.83747  -9301645.94845  22926807.9634   22926801.0624
 -14654078.11047 -11405892.34744  22537775.6764   22537769.4884
     26444.36646     36226.34442  25002198.2114   25002193.4644
     85816.57946     74207.87042  25262477.4374   25262472.0044
 -16546156.38748 -12870303.44945  21977737.0954   21977731.8774
 -26730748.20248 -20810094.56146  20085569.5004   20085564.4194
 -24316599.11148 -18931200.01246  20409156.1404   20409151.1584
 10  3 18  0 10  0.0000000  0  8G26G31G 2G14G 9G12G30G29
   4368305.35745   3425135.69142  25533616.7484   25533613.1234
 -14995850.88947 -11665749.72745  22377314.1654   22377308.1954
 -11939914.16347  -9287840.74145  22930179.4174   22930172.4534
 -14585350.39647 -11352338.29144  22550854.1464   22550848.1714
    205883.85646    167766.60942  25285325.7254   25285320.2434
 -16484574.21648 -12822317.34845  21989456.4374   21989450.9094
 -26713894.20048 -20796961.58246  20088776.4024   20088771.9304
 -24347921.99748 -18955607.45246  20403195.2054   20403190.6084
 10  3 18  0 10 30.0000000  0  8G26G31G 2G14G 9G12G30G29
   4480141.21345   3512280.04842  25554895.4634   25554894.4704
 -15074279.28547 -11726862.75045  22362389.4984   22362383.9614
 -11921647.41647  -9273606.90145  22933655.5064   22933648.8104
 -14516215.13647 -11298466.67044  22564008.9484   22564003.8024
    325980.16745    261347.99242  25308177.2374   25308174.9134
 -16422819.51548 -12774196.80645  22001207.1554   22001202.2524
 -26696700.11148 -20783563.59246  20092048.4854   20092043.6194
 -24378757.74548 -18979635.29947  20397327.5984   20397322.5534
 10  3 18  0 11  0.0000000  0  8G26G31G 2G14G 9G12G30G29
   4591839.91646   3599317.56842  25576151.6044   25576150.6504
 -15152428.24048 -11787758.03345  22347518.5034   22347512.6444
 -11902829.63447  -9258943.68445  22937235.8264   22937229.5284
 -14446673.99547 -11244278.77244  22577242.9574   22577237.7954
    446105.32946    354951.83842  25331037.9044   25331033.3654
 -16360891.54247 -12725941.26545  22012991.9534   22012986.6754
 -26679164.66648 -20769899.61146  20095385.4924   20095380.5614
 -24409104.87648 -19003282.40447  20391552.7424   20391547.7794
 10  3 18  0 11 30.0000000  0  8G26G31G 2G14G 9G12G30G29
   4703398.81146   3686246.11142  25597384.4044   25597382.4224
 -15230295.39948 -11848433.73145  22332700.7624   22332695.0784
 -11883461.03747  -9243851.26545  22940921.9414   22940914.8864
 -14376729.45847 -11189776.54744  22590552.7624   22590547.5614
    566257.80946    448576.90642  25353903.1424   25353897.8314
 -16298789.40947 -12677550.00645  22024809.3474   22024804.4424
 -26661287.58948 -20755969.42446  20098787.1874   20098782.2124
 -24438962.78548 -19026548.30847  20385870.6944   20385865.6174
 10  3 18  0 12  0.0000000  0  9G26G31G 2G14G24G 9G12G30G29
   4814815.67946   3773064.01542  25618585.8564   25618584.2424
 -15307878.80648 -11908888.33645  22317937.2574   22317931.4854
 -11863542.34847  -9228330.20245  22944712.0244   22944705.2534
 -14306384.85447 -11134962.57044  22603938.7144   22603933.5904
    585633.87245                  24962357.4574
    686434.90346    542221.29742  25376770.7804   25376764.4474
 -16236514.45447 -12629024.08145  22036660.3394   22036654.7394
 -26643069.56248 -20741773.56646  20102253.8834   20102248.8864
 -24468332.10248 -19049433.47147  20380282.1954   20380277.1634
 10  3 18  0 12 30.0000000  0  9G26G31G 2G14G24G 9G12G30G29
   4926086.82145   3859768.26542  25639760.5024   25639757.8124
 -15385177.01547 -11969120.70545  22303227.5654   22303221.8744
 -11843074.77247  -9212381.44345  22948607.3004   22948599.9804
 -14235643.66447 -11079839.57944  22617400.5174   22617395.7184
    477394.50945                  24941757.7884
    806633.98846    635882.76442  25399644.5984   25399639.6854
 -16174067.84347 -12580364.38845  22048543.4294   22048538.0904
 -26624511.30348 -20727312.59346  20105785.6364   20105780.4224
 -24497213.61848 -19071938.55046  20374786.2354   20374781.4514
 10  3 18  0 13  0.0000000  0  9G26G31G 2G14G24G 9G12G30G29
   5037212.23245   3946359.11542  25660906.9414   25660905.0994
 -15462185.23247 -12029127.10745  22288574.0904   22288567.5694
 -11822056.48347  -9196003.55645  22952606.8784   22952599.7934
 -14164506.42447 -11024407.96944  22630938.0824   22630932.6324
    369072.71646                  24921146.3204
    926855.71345    729561.82342  25422521.3704   25422517.6094
 -16111447.43647 -12531569.26445  22060459.4124   22060454.1594
 -26605610.58148 -20712584.76346  20109382.3634   20109377.3704
 -24525604.93648 -19094061.64646  20369383.2344   20369378.5304
 10  3 18  0 13 30.0000000  0  8G26G31G 2G14G24G12G30G29
   5148186.83345   4032832.47342  25682024.3144   25682022.6744
 -15538904.18547 -12088908.09545  22273974.5414   22273968.3124
 -11800490.82847  -9179199.13845  22956710.7194   22956703.2634
 -14092979.20147 -10968672.47944  22644548.5714   22644543.9194
    260668.46746                  24900517.8934
 -16048656.78847 -12482641.48345  22072408.7024   22072403.0434
 -26586370.43148 -20697592.44846  20113043.8574   20113038.7834
 -24553508.92048 -19115805.00047  20364073.1564   20364068.7244
 10  3 18  0 14  0.0000000  0  7G31G 2G14G24G12G30G29
 -15615323.79347 -12148455.85245  22259432.7204   22259426.4454
 -11778370.36347  -9161962.41545  22960919.8084   22960912.7194
 -14021056.90747 -10912629.13444  22658235.7134   22658230.3004
    152191.94346                  24879874.8234
 -15985688.10447 -12433574.98745  22084390.8304   22084385.4104
 -26566783.00748 -20682329.52046  20116770.7204   20116765.8854
 -24580918.32548 -19137162.97947  20358857.5234   20358853.0614
 10  3 18  0 14 30.0000000  0  7G31G 2G14G24G12G30G29
 -15691451.51847 -12207776.15545  22244945.4534   22244939.9224
 -11755705.28847  -9144301.30745  22965232.9794   22965225.4684
 -13948752.41747 -10856287.97444  22671994.1184   22671988.7404
     43635.90346                  24859216.4484
 -15922551.68147 -12384377.79445  22096405.0604   22096400.1364
 -26546858.21448 -20666803.70746  20120562.3524   20120557.6364
 -24607842.06548 -19158142.50747  20353734.3514   20353729.3724
 10  3 18  0 15  0.0000000  0  7G31G 2G14G24G12G30G29
 -15767281.54148 -12266864.48045  22230515.5264   22230509.8804
 -11732493.22747  -9126213.96945  22969649.9384   22969642.6094
 -13876065.13547 -10799648.54544  22685825.9414   22685821.1714
    -64993.65046                  24838543.5774
 -15859244.33847 -12335047.41645  22108452.4724   22108447.2654
 -26526592.77148 -20651012.46446  20124418.8964   20124414.2134
 -24634277.47548 -19178741.52647  20348703.6064   20348698.8874
 10  3 18  0 15 30.0000000  0  7G31G 2G14G24G12G30G29
 -15842811.29147 -12325718.83145  22216143.0474   22216137.4914
 -11708734.06447  -9107700.33145  22974171.1554   22974164.4164
 -13802997.85047 -10742713.00044  22699730.2804   22699725.2754
   -173693.56646                  24817858.8944
 -15795766.57347 -12285584.24045  22120531.6094   22120527.1634
 -26505986.60148 -20634955.71446  20128340.1274   20128335.1854
 -24660224.32648 -19198959.83647  20343766.0644   20343761.2314
 10  3 18  0 16  0.0000000  0  7G31G 2G14G24G12G30G29
 -15918039.01247 -12384337.81845  22201827.5224   22201822.1224
 -11684428.70747  -9088761.08045  22978796.2314   22978789.4534
 -13729553.46847 -10685483.61444  22713706.3844   22713701.2234
   -282461.50846                  24797161.6794
 -15732118.29847 -12235988.19645  22132644.0224   22132638.4694
 -26485039.87548 -20618633.59346  20132325.7684   20132320.7714
 -24685682.93247 -19218797.71347  20338921.4334   20338916.7614
 10  3 18  0 16 30.0000000  0  7G31G 2G14G24G12G30G29
 -15992962.17148 -12442719.49445  22187570.3394   22187564.4034
 -11659577.67647  -9069396.64245  22983525.7534   22983518.8504
 -13655735.02547 -10627962.75444  22727753.4654   22727748.4184
   -391294.63446                  24776450.8304
 -15668300.00847 -12186259.67345  22144788.0674   22144782.5114
 -26463752.88048 -20602046.33046  20136376.9854   20136371.9294
 -24710653.38848 -19238255.20047  20334170.0684   20334165.4514
 10  3 18  0 17  0.0000000  0  7G31G 2G14G24G12G30G29
 -16067577.67748 -12500861.44945  22173371.2544   22173365.2634
 -11634181.36747  -9049607.29344  22988358.2894   22988351.1854
 -13581545.37547 -10570152.64944  22741871.9654   22741866.5104
   -500190.51746                  24755727.4864
 -15604311.98447 -12136398.89145  22156964.3544   22156959.1434
 -26442125.16948 -20585193.57246  20140492.7884   20140487.5194
 -24735135.49148 -19257332.15447  20329511.2704   20329506.0464
 10  3 18  0 17 30.0000000  0  8G21G31G 2G14G24G12G30G29
    612047.87645                  25327902.2964
 -16141883.67447 -12558762.23245  22159231.8464   22159225.0994
 -11608240.41147  -9029393.55245  22993294.5354   22993287.6824
 -13506986.97647 -10512055.21544  22756059.9944   22756054.5604
   -609146.66446                  24734993.2694
 -15540154.19547 -12086405.81445  22169173.3014   22169167.9934
 -26420156.87148 -20568075.42646  20144672.8294   20144668.1104
 -24759128.97148 -19276028.36547  20324945.0964   20324940.2124
 10  3 18  0 18  0.0000000  0  8G21G31G 2G14G24G12G30G29
    515443.55845                  25309522.7924
 -16215883.54548 -12616424.47245  22145149.6314   22145143.5974
 -11581760.72547  -9008760.01544  22998333.7434   22998326.6884
 -13432068.65147 -10453677.30644  22770315.6424   22770310.8654
   -718165.56146                  24714249.3604
 -15475832.66847 -12036285.16045  22181413.1424   22181408.1024
 -26397853.60348 -20550696.25846  20148917.1704   20148912.0674
 -24782640.01048 -19294348.65547  20320471.0964   20320466.3184
 10  3 18  0 18 30.0000000  0  8G21G31G 2G14G24G12G30G29
    418752.86045                  25291122.7974
 -16289564.51847 -12673838.20845  22131128.6694   22131122.4664
 -11554732.97247  -8987699.41844  23003476.7204   23003469.8334
 -13356783.31547 -10395013.42344  22784642.3494   22784637.1544
   -827234.24746                  24693492.9224
 -15411337.46947 -11986029.16945  22193686.6024   22193681.3184
 -26375205.42248 -20533048.32746  20153226.8004   20153221.5084
 -24805658.45148 -19312285.10347  20316091.0154   20316086.2354
 10  3 18  0 19  0.0000000  0  8G21G31G 2G14G24G12G30G29
    321973.48546                  25272706.5554
 -16362929.27448 -12731005.55245  22117167.9164   22117162.1024
 -11527163.22947  -8966216.50045  23008723.0664   23008715.9334
 -13281139.00047 -10336069.79644  22799037.3684   22799031.5964
   -936355.26746   -716653.67342  24672727.4754   24672725.0214
 -15346674.23047 -11935642.25245  22205991.2784   22205986.0494
 -26352217.65748 -20515135.78946  20157601.4084   20157596.8144
 -24828189.76948 -19329841.96247  20311803.2854   20311798.6494
 10  3 18  0 19 30.0000000  0  8G21G31G 2G14G24G12G30G29
    225107.80346                  25254271.1734
 -16435975.43148 -12787924.61845  22103267.7484   22103261.5234
 -11499051.60947  -8944311.33244  23014072.7024   23014065.4094
 -13205138.16747 -10276848.37344  22813499.7524   22813494.2854
  -1045525.40346   -801721.03742  24651953.1784   24651949.9644
 -15281842.49648 -11885124.03745  22218328.7224   22218322.8174
 -26328889.85148 -20496958.28746  20162040.4044   20162035.4674
 -24850233.61248 -19347018.98047  20307608.8954   20307603.1424
 10  3 18  0 20  0.0000000  0  8G21G31G 2G14G24G12G30G29
    128157.61045                  25235823.1494
 -16508701.19648 -12844594.05745  22089428.3354   22089422.5454
 -11470399.26247  -8921984.84145  23019524.7474   23019517.6564
 -13128784.64647 -10217352.12744  22828028.9794   22828023.9354
  -1154742.67046   -886825.10842  24631169.8184   24631166.1814
 -15216843.28148 -11834475.30045  22230697.8034   22230692.1354
 -26305222.59848 -20478516.27446  20166544.0574   20166538.7104
 -24871791.04448 -19363816.96847  20303506.3864   20303501.2954
 10  3 18  0 20 30.0000000  0  8G21G31G 2G14G24G12G30G29
     31124.86146                  25217358.1664
 -16581103.79148 -12901011.66445  22075650.8064   22075644.3814
 -11441206.63947  -8899237.33144  23025080.1694   23025072.2724
 -13052080.98247 -10157583.04944  22842625.1034   22842620.0994
  -1264003.88045   -971963.46442  24610376.4824   24610373.2214
 -15151676.64147 -11783696.11845  22243097.9974   22243092.7844
 -26281215.87848 -20459809.74646  20171112.6414   20171107.3154
 -24892861.69348 -19380235.64847  20299496.5984   20299491.7304
 10  3 18  0 21  0.0000000  0  8G21G31G 2G14G24G12G30G29
    -65988.39645                  25198877.9684
 -16653180.84748 -12957175.60745  22061934.8344   22061928.5254
 -11411474.58247  -8876069.49244  23030738.0474   23030730.2134
 -12975029.98947 -10097543.31044  22857287.8904   22857282.4434
  -1373306.31746  -1057133.99742  24589577.2824   24589574.2404
 -15086342.92448 -11732786.74545  22255530.6354   22255524.9754
 -26256869.30748 -20440838.40146  20175745.4304   20175740.8354
 -24913445.82648 -19396275.23047  20295579.5454   20295575.1424
 10  3 18  0 21 30.0000000  0  8G21G31G 2G14G24G12G30G29
   -163178.74946                  25180382.7204
 -16724929.94047 -13013083.98545  22048281.4364   22048275.3424
 -11381203.72347  -8852481.81544  23036498.2194   23036490.9124
 -12897634.78947 -10037235.37344  22872015.7114   22872010.2114
  -1482647.03046  -1142334.31543  24568770.8484   24568767.1904
 -15020842.32247 -11681747.32245  22267995.0444   22267989.4774
 -26232183.18748 -20421602.46446  20180443.2624   20180438.1024
 -24933543.34148 -19411935.62247  20291755.4664   20291750.2474
 10  3 18  0 22  0.0000000  0  8G21G31G 2G14G24G12G30G29
   -260444.31346                  25161873.8004
 -16796348.94048 -13068735.14545  22034691.1274   22034684.6174
 -11350394.83747  -8828474.88144  23042360.8994   23042353.3254
 -12819898.73347  -9976661.83744  22886808.2464   22886802.8484
  -1592023.61846  -1227562.59642  24547956.8314   24547953.6224
 -14955174.87747 -11630577.89645  22280491.3504   22280485.4704
 -26207157.53748 -20402101.96646  20185205.4774   20185200.5764
 -24953154.92248 -19427217.37147  20288023.3974   20288018.4544
 10  3 18  0 22 30.0000000  0  8G21G31G 2G14G24G12G30G29
   -357783.64846                  25143350.8574
 -16867436.21548 -13124127.82745  22021163.0944   22021157.2704
 -11319049.71347  -8804050.11344  23048325.4364   23048318.5974
 -12741825.05347  -9915825.20744  22901665.0934   22901660.0924
  -1701433.84046  -1312817.07442  24527136.2304   24527132.4814
 -14889341.73748 -11579279.35545  22293018.8074   22293013.2704
 -26181793.38748 -20382337.69246  20190032.2304   20190027.5414
 -24972281.77748 -19442121.41447  20284383.6024   20284378.4914
 10  3 18  0 23  0.0000000  0  8G21G31G 2G14G24G12G30G29
   -455194.20446                  25124814.4714
 -16938188.78448 -13179259.70045  22007699.7844   22007693.3474
 -11287168.82347  -8779207.84944  23054392.2274   23054385.6324
 -12663416.36747  -9854727.52844  22916585.6294   22916580.5154
  -1810874.66246  -1398095.45143  24506310.2444   24506306.6324
 -14823343.14247 -11527851.89245  22305578.1684   22305572.6274
 -26156090.20848 -20362309.25346  20194923.1394   20194918.4204
 -24990923.70948 -19456647.58247  20280835.8914   20280830.4944
 10  3 18  0 23 30.0000000  0  8G21G31G 2G14G24G12G30G29
   -552674.14346                  25106261.8574
 -17008604.50348 -13234129.09645  21994300.3304   21994294.0214
 -11254753.03847  -8753948.78744  23060561.3434   23060553.6954
 -12584676.53047  -9793371.82044  22931569.5514   22931564.0654
  -1920343.25446  -1483395.42042  24485479.3454   24485475.4384
 -14757178.97447 -11476295.41745  22318168.8174   22318163.5814
 -26130048.30848 -20342016.86646  20199878.9184   20199873.9724
 -25009080.97848 -19470796.10247  20277381.1694   20277375.9674
 10  3 18  0 24  0.0000000  0  8G21G31G 2G14G24G12G30G29
   -650220.55746                  25087700.8184
 -17078680.76748 -13288733.98045  21980965.1004   21980958.6764
 -11221802.81847  -8728273.28844  23066831.3184   23066824.5834
 -12505607.56147  -9731759.65544  22946616.0064   22946610.3824
  -2029836.53146  -1568714.72242  24464642.4364   24464639.5694
 -14690849.16347 -11424609.85645  22330790.5934   22330785.7154
 -26103667.52248 -20321460.41546  20204898.8294   20204894.0814
 -25026753.23748 -19484566.68747  20274017.7204   20274013.1254
 10  3 18  0 24 30.0000000  0  8G21G31G 2G14G24G12G30G29
   -747831.71746                  25069126.1944
 -17148415.69148 -13343072.88445  21967695.0154   21967689.0144
 -11188319.27047  -8702182.19544  23073202.7854   23073196.0064
 -12426213.02347  -9669893.79144  22961723.8564   22961718.3004
  -2139352.17246  -1654051.37542  24443802.3164   24443798.8234
 -14624354.24447 -11372795.64645  22343444.5504   22343439.1504
 -26076948.06948 -20300640.06546  20209983.5094   20209978.3724
 -25043941.57048 -19497960.18247  20270747.2124   20270742.4114
 10  3 18  0 25  0.0000000  0  8G21G31G 2G14G24G12G30G29
   -845505.15746                  25050538.8324
 -17217807.08348 -13397144.09946  21954490.0894   21954484.0464
 -11154303.48347  -8675676.40244  23079675.9364   23079668.8684
 -12346496.01847  -9607776.64444  22976893.9114   22976888.2394
  -2248887.34446  -1739403.29642  24422958.8034   24422954.6814
 -14557694.71747 -11320853.17345  22356129.0904   22356124.2484
 -26049890.65048 -20279556.37246  20215132.2754   20215126.9484
 -25060646.25848 -19510976.82247  20267568.2284   20267563.5914
 10  3 18  0 25 30.0000000  0  8G21G31G 2G14G24G12G30G29
   -943238.35946                  25031940.4024
 -17286852.27547 -13450945.54946  21941351.1064   21941345.5154
 -11119756.44147  -8648756.61344  23086249.7504   23086242.7224
 -12266459.52947  -9545410.55344  22992123.9384   22992118.7064
  -2358439.09346  -1824768.14843  24402111.7774   24402108.0344
 -14490871.04647 -11268782.79145  22368845.2984   22368839.8234
 -26022494.76948 -20258208.93646  20220345.5744   20220340.4214
 -25076867.67948 -19523616.88347  20264481.5664   20264476.8544
 10  3 18  0 26  0.0000000  0  8G21G31G 2G14G24G12G30G29
  -1041029.25646   -791911.52342  25013330.2094   25013325.3244
 -17355549.11547 -13504475.54545  21928278.4914   21928272.6164
 -11084679.02047  -8621423.57444  23092924.7184   23092917.4544
 -12186106.72347  -9482797.98543  23007414.6434   23007409.5544
  -2468004.73646  -1910143.78542  24381261.9314   24381257.3284
 -14423883.48347 -11216584.70945  22381592.7624   22381587.1854
 -25994760.75948 -20236598.03246  20225623.3264   20225618.7024
 -25092606.34348 -19535880.76947  20261486.6134   20261481.5114
 10  3 18  0 26 30.0000000  0  8G21G31G 2G14G24G12G30G29
  -1138875.57346   -868154.97642  24994710.9754   24994705.1294
 -17423895.23648 -13557732.26246  21915272.3354   21915266.8574
 -11049072.33547  -8593678.09044  23099700.0884   23099693.0594
 -12105440.71247  -9419941.36243  23022764.7504   23022759.3304
  -2577581.53046  -1995528.10242  24360409.1324   24360405.9434
 -14356732.05747 -11164258.92945  22394371.4804   22394365.6694
 -25966688.49848 -20214723.54646  20230965.1584   20230960.5374
 -25107862.57948 -19547768.74147  20258583.3454   20258578.4094
 10  3 18  0 27  0.0000000  0  8G21G31G 2G14G24G12G30G29
  -1236775.84646   -944440.56742  24976081.8834   24976074.9284
 -17491888.80448 -13610714.25645  21902334.0154   21902328.2344
 -11012937.45947  -8565521.04144  23106576.7884   23106569.2194
 -12024464.93447  -9356843.35544  23038173.6484   23038168.8704
  -2687167.25746  -2080919.43643  24339555.9794   24339552.0064
 -14289417.51947 -11111806.04445  22407181.0604   22407175.0354
 -25938278.66548 -20192586.01446  20236371.0754   20236366.7684
 -25122637.27548 -19559281.48447  20255772.1454   20255766.6384
 10  3 18  0 27 30.0000000  0  8G21G31G 2G14G24G12G30G29
  -1334726.77846  -1020765.66842  24957441.1054   24957435.6924
 -17559527.15648 -13663419.46345  21889463.2344   21889457.0314
 -10976275.43247  -8536953.23144  23113553.6204   23113546.0994
 -11943182.07346  -9293506.07443  23053641.6054   23053636.6624
  -2796758.41946  -2166315.01743  24318701.4654   24318697.5104
 -14221939.62848 -11059225.88345  22420021.3464   22420016.1704
 -25909530.85448 -20170185.12446  20241842.0704   20241837.1874
 -25136930.07148 -19570418.72047  20253051.7544   20253047.0814
 10  3 18  0 28  0.0000000  0  8G21G31G 2G14G24G12G30G29
  -1432726.61746  -1097128.81742  24938792.2764   24938787.6054
 -17626808.33048 -13715846.35546  21876659.3954   21876654.1344
 -10939087.69247  -8507975.76744  23120629.6494   23120622.8334
 -11861595.85846  -9229932.41344  23069167.2134   23069161.9684
  -2906352.51746  -2251712.84643  24297846.7224   24297842.0874
 -14154299.07147 -11006518.96345  22432892.6724   22432887.4224
 -25880445.75248 -20147521.42046  20247376.5344   20247371.6274
 -25150742.29048 -19581181.48547  20250423.2954   20250418.6904
 10  3 18  0 28 30.0000000  0  8G21G31G 2G14G24G12G30G29
  -1530773.16046  -1173528.40242  24920133.8074   24920129.0084
 -17693730.23548 -13767993.29745  21863925.0914   21863918.7124
 -10901375.25347  -8478589.45044  23127806.5484   23127799.6214
 -11779709.18247  -9166124.63343  23084749.4364   23084744.0894
  -3015946.97146  -2337110.97542  24276991.2864   24276986.9734
 -14086496.37747 -10953685.70845  22445795.2244   22445790.1574
 -25851023.68948 -20124595.14046  20252975.5504   20252970.4444
 -25164074.72548 -19591570.39447  20247886.4894   20247881.7534
 10  3 18  0 29  0.0000000  0  8G21G31G 2G14G24G12G30G29
  -1628863.96746  -1249962.48142  24901467.6074   24901462.3904
 -17760289.99348 -13819858.04845  21851258.8554   21851252.5254
 -10863138.66747  -8448794.72144  23135082.5304   23135075.4304
 -11697525.05947  -9102085.05043  23100389.1374   23100383.3364
  -3125538.42646  -2422506.78043  24256136.7974   24256132.5924
 -14018531.20548 -10900725.85845  22458728.8384   22458723.5284
 -25821264.03148 -20101405.79446  20258638.5554   20258633.8904
 -25176926.91148 -19601585.08147  20245440.8394   20245436.0484
 10  3 18  0 29 30.0000000  0  8G21G31G 2G14G24G12G30G29
  -1726996.35446  -1326428.88042  24882793.8284   24882787.9074
 -17826485.52248 -13871438.98046  21838662.3384   21838656.1604
 -10824379.21247  -8418592.54645  23142458.2644   23142451.0404
 -11615046.49247  -9037816.05744  23116083.7684   23116078.3604
  -3235124.25446  -2507898.21643  24235282.9184   24235279.7544
 -13950404.21447 -10847639.91045  22471692.9354   22471687.4344
 -25791167.21348 -20077953.73946  20264365.9024   20264361.0794
 -25189299.63848 -19611226.15947  20243086.4724   20243081.4224
 10  3 18  0 30  0.0000000  0  8G21G31G 2G14G24G12G30G29
  -1825168.35846  -1402926.24642  24864111.7384   24864106.2194
 -17892314.60748 -13922734.37846  21826135.7464   21826128.9334
 -10785098.44247  -8387984.15845  23149933.2574   23149926.2614
 -11532276.89147  -8973320.28543  23131834.2224   23131829.0504
  -3344701.83846  -2593283.23443  24214431.1754   24214427.0984
 -13882115.36247 -10794427.82045  22484687.9134   22484682.5054
 -25760733.47648 -20054239.14246  20270157.2114   20270152.3674
 -25201193.44148 -19620494.04747  20240822.9424   20240818.1034
 10  3 18  0 30 30.0000000  0  8G21G31G 2G14G24G12G30G29
  -1923377.62146  -1479452.69642  24845423.5534   24845417.6554
 -17957774.88048 -13973742.38346  21813678.9314   21813672.7864
 -10745296.97347  -8356970.02644  23157507.1684   23157499.9644
 -11449218.93546  -8908599.79444  23147639.5754   23147634.7424
  -3454267.89446  -2678659.23543  24193581.0494   24193577.7444
 -13813665.13747 -10741090.00445  22497713.5664   22497708.3284
 -25729962.75848 -20030261.97246  20276012.9064   20276007.3534
 -25212609.01748 -19629389.30847  20238650.7754   20238645.4764
 10  3 18  0 31  0.0000000  0  8G21G31G 2G14G24G12G30G29
  -2021622.04046  -1556006.47942  24826728.3484   24826721.3304
 -18022864.36448 -14024461.46946  21801292.5874   21801286.6604
 -10704976.48447  -8325551.46544  23165179.9754   23165172.9104
 -11365876.42446  -8843657.60744  23163499.4174   23163493.9474
  -3563820.06846  -2764024.45643  24172733.6284   24172730.6694
 -13745053.83947 -10687626.67445  22510769.9054   22510764.3064
 -25698855.75848 -20006022.75346  20281932.0874   20281927.1794
 -25223547.01948 -19637912.42347  20236569.1924   20236564.3484
 10  3 18  0 31 30.0000000  0  8G21G31G 2G14G24G12G30G29
  -2119899.70246  -1632586.09542  24808025.6884   24808019.5654
 -18087581.18548 -14074890.14846  21788977.5894   21788971.2134
 -10664138.69147  -8293729.80044  23172950.8944   23172943.9084
 -11282252.80446  -8778496.35044  23179412.4854   23179407.2854
  -3673356.10546  -2849377.16743  24151891.0234   24151886.1984
 -13676282.24547 -10634038.43545  22523856.6474   22523851.4624
 -25667413.08448 -19981521.97746  20287915.4564   20287910.6044
 -25234008.92448 -19646064.55347  20234578.5154   20234573.9704
 10  3 18  0 32  0.0000000  0  8G21G31G 2G14G24G12G30G29
  -2218207.98446  -1709189.71342  24789317.7464   24789312.6974
 -18151922.45848 -14125026.20846  21776733.9214   21776727.9604
 -10622783.80047  -8261505.19544  23180820.2674   23180813.3134
 -11198350.49647  -8713117.93043  23195379.0794   23195373.5614
  -3782872.20146  -2934714.24142  24131050.0374   24131045.3984
 -13607349.88847 -10580324.92845  22536973.9984   22536969.2024
 -25635633.68248 -19956758.80746  20293963.0894   20293958.1914
 -25243993.95048 -19653845.08847  20232678.2144   20232673.4564
 10  3 18  0 32 30.0000000  0  8G21G31G 2G14G24G12G30G29
  -2316544.36546  -1785815.27643  24770605.1984   24770600.0394
 -18215885.74848 -14174867.73346  21764562.2214   21764556.5094
 -10580913.23847  -8228878.79344  23188788.3464   23188780.8804
 -11114172.73246  -8647524.87443  23211397.3684   23211391.7214
  -3892365.57046  -3020033.62543  24110213.7934   24110209.7784
 -13538257.16947 -10526486.46045  22550122.1284   22550116.4034
 -25603517.85648 -19931733.50446  20300074.4654   20300069.6224
 -25253502.74548 -19661254.53647  20230868.7134   20230863.7584
 10  3 18  0 33  0.0000000  0  8G21G31G 2G14G24G12G30G29
  -2414906.34146  -1862460.77242  24751887.2424   24751881.7444
 -18279468.98048 -14224413.10146  21752462.4314   21752456.7294
 -10538528.49347  -8195851.71944  23196853.9294   23196846.6534
 -11029722.72347  -8581719.67643  23227467.6384   23227462.0214
  -4001833.53546  -3105333.22343  24089382.1994   24089378.9144
 -13469004.53047 -10472523.38245  22563300.3424   22563295.1304
 -25571066.11248 -19906446.43646  20306249.7824   20306245.1974
 -25262535.99648 -19668293.42947  20229150.0284   20229145.1144
 10  3 18  0 33 30.0000000  0  8G21G31G 2G14G24G12G30G29
  -2513291.88646  -1939124.66742  24733165.0444   24733159.8264
 -18342670.36348 -14273660.92346  21740435.5364   21740429.9074
 -10495631.22847  -8162425.27444  23205016.9384   23205010.4184
 -10945003.76046  -8515704.92543  23243589.1064   23243582.9214
  -4111273.63546  -3190611.15843  24068556.8464   24068552.9774
 -13399592.54948 -10418436.13745  22576508.9904   22576503.5804
 -25538278.64148 -19880897.76646  20312488.5864   20312484.2534
 -25271095.13148 -19674962.88247  20227521.2524   20227516.4554
 10  3 18  0 34  0.0000000  0  8G21G31G 2G14G24G12G30G29
  -2611698.86546  -2015805.25342  24714439.3964   24714433.0414
 -18405487.57548 -14322609.39746  21728481.7084   21728476.3314
 -10452222.37747  -8128600.20844  23213277.2684   23213270.3234
 -10860019.38647  -8449483.34843  23259761.0354   23259755.7084
  -4220683.03746  -3275865.11543  24047737.6174   24047732.4364
 -13330021.35347 -10364224.82545  22589748.0764   22589742.6154
 -25505155.95948 -19855087.88946  20318791.8344   20318786.8774
 -25279180.68948 -19681263.30747  20225982.5984   20225977.8314
 10  3 18  0 34 30.0000000  0  8G21G31G 2G14G24G12G30G29
  -2710124.72946  -2092500.59643  24695708.6264   24695702.5814
 -18467918.31248 -14371256.72146  21716601.4644   21716595.7944
 -10408303.01647  -8094377.32345  23221635.2254   23221628.0434
 -10774772.48746  -8383057.19244  23275982.8094   23275977.3304
  -4330058.37846  -3361092.61843  24026923.7574   24026919.0884
 -13260290.88247 -10309889.41345  22603017.4924   22603011.7374
 -25471697.94347 -19829016.71846  20325159.0564   20325154.2004
 -25286792.91648 -19687194.91047  20224534.1184   20224529.4084
 10  3 18  0 35  0.0000000  0  8G21G31G 2G14G24G12G30G29
  -2808567.77546  -2169209.32742  24676975.6244   24676970.0864
 -18529960.64648 -14419601.39546  21704795.6614   21704789.4714
 -10363875.29147  -8059758.31744  23230089.4804   23230082.5364
 -10689266.68147  -8316429.30844  23292253.7544   23292248.3524
  -4439397.32346  -3446291.70643  24006117.1794   24006111.7324
 -13190402.03947 -10255430.58345  22616316.6744   22616311.3134
 -25437905.25848 -19802684.76046  20331589.3084   20331584.4104
 -25293933.41648 -19692758.92947  20223175.3244   20223170.4144
 10  3 18  0 35 30.0000000  0  8G21G31G 2G14G24G12G30G29
  -2907024.72746  -2245928.87443  24658240.5134   24658233.8814
 -18591611.69448 -14467641.17446  21693063.6634   21693057.7434
 -10318939.54547  -8024743.44544  23238640.1034   23238633.1104
 -10603504.49547  -8249601.64243  23308574.4564   23308568.9144
  -4548696.53746  -3531459.88243  23985317.3854   23985313.5964
 -13120354.35947 -10200847.98945  22629646.6164   22629640.9214
 -25403777.28048 -19776091.53946  20338083.8854   20338078.9364
 -25300601.47448 -19697954.81547  20221906.3204   20221901.3804
 10  3 18  0 36  0.0000000  0  8G21G31G 2G14G24G12G30G29
  -3005493.53946  -2322657.67443  24639501.2884   24639495.5304
 -18652869.68148 -14515374.66246  21681406.4944   21681400.5824
 -10273497.73447  -7989334.25744  23247287.7424   23247280.5304
 -10517489.36846  -8182576.87643  23324942.2814   23324936.7054
  -4657953.33846  -3616595.01143  23964527.4094   23964522.7024
 -13050148.61447 -10146142.22745  22643006.2774   22643000.8474
 -25369314.37648 -19749237.33246  20344642.0514   20344637.0354
 -25306798.52948 -19702783.68847  20220727.0584   20220722.3244
 10  3 18  0 36 30.0000000  0  8G21G31G 2G14G24G12G30G29
  -3103972.13746  -2399394.07943  24620760.9244   24620755.7404
 -18713732.09448 -14562799.92046  21669825.2524   21669819.2354
 -10227550.99447  -7953531.59944  23256030.7474   23256023.7374
 -10431224.40346  -8115357.43943  23341358.1954   23341352.3494
  -4767164.83146  -3701694.79943  23943744.8754   23943740.1134
 -12979784.76047 -10091313.26845  22656396.1004   22656390.6514
 -25334516.57248 -19722122.16446  20351263.4384   20351258.6374
 -25312525.03048 -19707245.88847  20219637.2884   20219631.9754
 10  3 18  0 37  0.0000000  0  8G21G31G 2G14G24G12G30G29
  -3202458.06246  -2476136.27143  24602020.0094   24602014.1554
 -18774197.08048 -14609915.48846  21658318.8754   21658313.0044
 -10181101.02647  -7917336.82644  23264870.0674   23264862.5314
 -10344713.13546  -8047946.07743  23357820.4214   23357815.2494
  -4876328.27646  -3786757.18343  23922971.2344   23922967.5134
 -12909263.21347 -10036361.42545  22669815.1234   22669810.2764
 -25299384.51548 -19694746.55046  20357948.8624   20357944.1434
 -25317782.06548 -19711342.27447  20218636.9314   20218632.2774
 10  3 18  0 37 30.0000000  0  8G21G31G 2G14G24G12G30G29
  -3300949.06346  -2552882.35943  24583277.8964   24583271.3524
 -18834262.52448 -14656719.72646  21646888.5664   21646882.9364
 -10134149.18947  -7880750.98044  23273805.1094   23273796.9734
 -10257958.45146  -7980345.03443  23374329.6504   23374323.8774
  -4985440.50446  -3871779.62343  23902207.9924   23902203.8664
 -12838584.33647  -9981287.00645  22683265.4804   22683260.1654
 -25263918.23048 -19667110.47946  20364698.1544   20364693.0704
 -25322570.32048 -19715073.37747  20217725.9804   20217720.7834
 10  3 18  0 38  0.0000000  0  8G21G31G 2G14G24G12G30G29
  -3399443.30946  -2629630.99442  24564535.0834   24564528.4134
 -18893926.48448 -14703211.12346  21635535.1414   21635529.1094
 -10086697.52347  -7843775.65844  23282834.4684   23282826.9274
 -10170964.25146  -7912557.36143  23390883.5594   23390878.4074
  -5094499.31046  -3956760.48243  23881454.1934   23881450.8384
 -12767749.08847  -9926090.71545  22696744.3964   22696739.8684
 -25228118.70248 -19639214.75346  20371510.5474   20371505.3304
 -25326891.26648 -19718440.34647  20216903.6044   20216898.8294
 10  3 18  0 38 30.0000000  0  8G21G31G 2G14G24G12G30G29
  -3497937.46646  -2706379.58743  24545792.4314   24545786.4034
 -18953186.35548 -14749387.65546  21624258.2944   21624252.2774
 -10038746.95147  -7806411.56244  23291959.4844   23291951.9804
 -10083733.16046  -7844585.08043  23407482.7774   23407478.8584
  -5203501.11646  -4041696.93043  23860712.0364   23860708.5264
 -12696757.27347  -9870772.42945  22710254.2394   22710248.8474
 -25191985.45148 -19611058.97246  20378386.4044   20378381.6864
 -25330744.90048 -19721443.18047  20216170.1454   20216165.2064
 10  3 18  0 39  0.0000000  0  8G21G31G 2G14G24G12G30G29
  -3596429.67646  -2783126.65942  24527049.0884   24527043.2094
 -19012039.96548 -14795247.61146  21613059.0404   21613052.9674
  -9990298.98747  -7768659.91144  23301179.1884   23301171.2844
  -9996268.59146  -7776430.88743  23424127.2184   23424121.9494
  -5312442.88546  -4126586.52643  23839981.2614   23839977.3594
 -12625608.59347  -9815331.91845  22723793.5774   22723787.9664
 -25155518.39948 -19582643.09646  20385325.8334   20385320.7574
 -25334132.33648 -19724082.74247  20215525.5044   20215520.9894
 10  3 18  0 39 30.0000000  0  8G21G31G 2G14G24G12G30G29
  -3694917.57246  -2859870.35142  24508308.0984   24508302.0634
 -19070484.93448 -14840789.14846  21601937.0914   21601931.2684
  -9941354.91647  -7730521.66644  23310492.5674   23310485.2534
  -9908573.49346  -7708097.06943  23440815.0064   23440809.8274
  -5421321.91846  -4211427.30943  23819261.9584   23819258.6674
 -12554303.41247  -9759769.44345  22737362.5544   22737356.8444
 -25118717.69248 -19553967.23146  20392328.9014   20392323.8594
 -25337053.84248 -19726359.23847  20214969.8314   20214964.9574
 10  3 18  0 40  0.0000000  0  8G21G31G 2G14G24G12G30G29
  -3793398.68046  -2936608.80543  24489567.5174   24489561.0544
 -19128519.51448 -14886010.90046  21590893.2914   21590887.8774
  -9891916.13947  -7691997.94744  23319900.1744   23319892.7714
  -9820651.10846  -7639586.14143  23457546.2524   23457541.1314
  -5530135.47346  -4296217.06043  23798555.1644   23798552.2394
 -12482842.02947  -9704085.26845  22750961.2164   22750955.8704
 -25081583.91348 -19525031.82446  20399395.3144   20399389.9304
 -25339510.16248 -19728273.24947  20214502.3204   20214497.3594
 10  3 18  0 40 30.0000000  0  8G21G31G 2G14G24G12G30G29
  -3891870.28146  -3013339.78943  24470829.5124   24470823.1724
 -19186141.26248 -14930910.96346  21579928.6294   21579922.4984
  -9841983.94147  -7653089.71944  23329401.7124   23329394.6924
  -9732504.45346  -7570900.45743  23474319.9474   23474314.6404
  -5638880.40747  -4380953.33343  23777862.1324   23777858.0734
 -12411224.67047  -9648279.53245  22764589.4444   22764584.1694
 -25044116.80248 -19495836.67546  20406524.6574   20406520.0004
 -25341502.06448 -19729825.36847  20214123.1884   20214118.0484
 10  3 18  0 41  0.0000000  0  8G21G31G 2G14G24G12G30G29
  -3990330.66446  -3090062.12343  24452092.5684   24452086.4234
 -19243348.09748 -14975487.72046  21569042.3974   21569036.3394
  -9791560.72047  -7613798.91244  23338996.9974   23338990.6534
  -9644137.39346  -7502043.02343  23491135.9794   23491130.3294
  -5747554.04046  -4465634.04743  23757182.3564   23757178.8024
 -12339452.41747  -9592353.11345  22778246.9364   22778241.7044
 -25006317.04048 -19466382.32446  20413717.6644   20413713.0664
 -25343031.43648 -19731017.08347  20213832.2074   20213827.0754
 10  3 18  0 41 30.0000000  0  8G21G31G 2G14G24G12G30G29
  -4088777.09246  -3166773.52043  24433358.9274   24433352.5174
 -19300137.87548 -15019739.50146  21558235.6354   21558229.9064
  -9740647.73547  -7574126.47744  23348685.5174   23348678.5004
  -9555552.86646  -7433016.13943  23507992.9894   23507987.1254
  -5856153.11047  -4550256.67143  23736516.7754   23736512.4094
 -12267524.75647  -9536305.59145  22791934.5144   22791929.3904
 -24968184.64648 -19436668.78846  20420974.6634   20420969.6614
 -25344098.31348 -19731848.41247  20213629.2704   20213624.1104
 10  3 18  0 42  0.0000000  0  8G21G31G 2G14G24G12G30G29
  -4187207.73346  -3243472.64743  24414628.4104   24414621.8924
 -19356508.69848 -15063664.81746  21547508.4734   21547503.0364
  -9689246.89347  -7534073.88544  23358466.5704   23358459.9464
  -9466754.07146  -7363822.28343  23524891.0434   23524885.1304
  -5964675.34147  -4634819.42043  23715865.7584   23715861.4844
 -12195442.37847  -9480137.52345  22805651.3484   22805646.1544
 -24929720.23948 -19406696.53446  20428294.0624   20428289.2324
 -25344704.19248 -19732320.52247  20213513.9134   20213509.0734
 10  3 18  0 42 30.0000000  0  8G21G31G 2G14G24G12G30G29
  -4285619.78146  -3320157.29543  24395901.0964   24395894.9364
 -19412458.48347 -15107262.05946  21536861.4574   21536856.1254
  -9637359.26647  -7493641.98144  23368340.6214   23368333.2264
  -9377744.03146  -7294463.84143  23541828.7524   23541823.4074
  -6073117.19446  -4719319.56043  23695229.7214   23695224.7944
 -12123205.50947  -9423849.06145  22819397.8614   22819392.0194
 -24890923.53248 -19376465.34346  20435676.5444   20435672.2074
 -25344849.53748 -19732433.77847  20213486.5594   20213481.3674
 10  3 18  0 43  0.0000000  0  8G21G31G 2G14G24G12G30G29
  -4384011.21046  -3396825.89243  24377178.7394   24377171.6584
 -19467985.42748 -15150529.80746  21526295.3694   21526289.6894
  -9584987.01347  -7452832.44544  23378306.9934   23378299.5614
  -9288526.69646  -7224943.85043  23558806.4234   23558801.2794
  -6181476.32346  -4803755.20643  23674609.6924   23674605.5764
 -12050814.48647  -9367440.48645  22833173.2254   22833168.0664
 -24851795.28448 -19345975.81346  20443122.2844   20443117.3634
 -25344535.72048 -19732189.24147  20213546.3474   20213540.8784
 10  3 18  0 43 30.0000000  0  8G21G31G 2G14G24G12G30G29
  -4482379.64646  -3473476.55543  24358458.5234   24358452.1494
 -19523086.84648 -15193465.97446  21515810.0064   21515804.1354
  -9532131.39247  -7411646.24344  23388364.9454   23388357.6624
  -9199104.98546  -7155264.62243  23575822.7054   23575817.2464
  -6289749.54146  -4888123.91543  23654006.2514   23654000.9334
 -11978269.38047  -9310911.83245  22846978.0384   22846972.6554
 -24812335.27448 -19315227.75446  20450631.7984   20450626.9264
 -25343763.26648 -19731587.33147  20213692.6294   20213688.2544
 10  3 18  0 44  0.0000000  0  8G21G31G 2G14G24G12G30G29
  -4580722.54646  -3550107.32243  24339745.1124   24339738.3704
 -19577760.47548 -15236068.80146  21505406.0524   21505399.9254
  -9478793.70447  -7370084.39644  23398515.0644   23398507.6774
  -9109481.82146  -7085428.39743  23592877.1824   23592872.0034
  -6397933.74746  -4972423.26943  23633419.5414   23633414.9604
 -11905570.46447  -9254263.34945  22860812.0234   22860806.9864
 -24772543.65348 -19284221.30446  20458203.4254   20458198.7064
 -25342532.68948 -19730628.44147  20213926.6684   20213921.9584
 10  3 18  0 44 30.0000000  0  8G21G31G 2G14G24G12G30G29
  -4679037.45547  -3626716.28943  24321036.2834   24321029.5294
 -19632004.71948 -15278337.04746  21495083.5924   21495077.4044
  -9424976.33347  -7328148.76944  23408755.8254   23408748.0994
  -9019660.56046  -7015437.84143  23609969.5624   23609964.8664
  -6506026.52046  -5056651.36643  23612849.9804   23612845.4344
 -11832718.09347  -9197495.27745  22874675.2954   22874670.2834
 -24732421.36648 -19252957.20246  20465838.5474   20465833.9764
 -25340845.56448 -19729313.79747  20214248.0984   20214243.1414
 10  3 18  0 45  0.0000000  0  8G21G31G 2G14G24G12G30G29
  -4777321.95447  -3703301.57043  24302332.6404   24302326.3084
 -19685817.40848 -15320269.01746  21484842.9834   21484837.1334
  -9370680.64547  -7285840.43244  23419087.6264   23419080.9554
  -8929644.45146  -6945295.42343  23627099.4434   23627093.9684
  -6614024.47746  -5140805.59343  23592298.2214   23592294.0274
 -11759712.52247  -9140607.83945  22888567.8654   22888562.6054
 -24691968.20848 -19221435.26946  20473536.5944   20473531.5794
 -25338702.82048 -19727644.12347  20214655.6184   20214650.9334
 10  3 18  0 45 30.0000000  0  8G21G31G 2G14G24G12G30G29
  -4875573.27947  -3779861.01243  24283635.9124   24283629.7214
 -19739195.97448 -15361862.71046  21474685.7764   21474679.4814
  -9315907.90947  -7243160.37344  23429510.4504   23429503.0724
  -8839436.68746  -6875003.70143  23644265.9484   23644259.4014
  -6721924.11546  -5224883.19543  23571765.8554   23571761.7044
 -11686553.44947  -9083600.78845  22902490.1974   22902484.6294
 -24651184.00048 -19189655.37346  20481297.1894   20481292.8374
 -25336104.48148 -19725619.43847  20215150.2524   20215145.4904
 10  3 18  0 46  0.0000000  0  8G21G31G 2G14G24G12G30G29
  -4973789.77946  -3856393.30943  24264946.1694   24264940.1954
 -19792138.77448 -15403116.83646  21464610.7404   21464605.4444
  -9260660.53547  -7200110.47444  23440023.8224   23440016.6894
  -8749040.34946  -6804564.99843  23661467.8904   23661461.6884
  -6829723.08146  -5308882.36443  23551252.3934   23551248.3374
 -11613241.88347  -9026474.90145  22916440.4994   22916435.6114
 -24610069.36248 -19157618.00746  20489121.7594   20489116.7624
 -25333052.34048 -19723241.14347  20215731.3154   20215726.2994
 10  3 18  0 46 30.0000000  0  8G21G31G 2G14G24G12G30G29
  -5071969.09046  -3932896.64843  24246263.5364   24246256.1354
 -19844644.00948 -15444030.00846  21454619.5904   21454613.9454
  -9204940.14047  -7156691.98744  23450626.9104   23450619.8344
  -8658459.09446  -6733982.22443  23678704.8194   23678698.2364
  -6937418.70946  -5392801.00443  23530758.3214   23530753.8634
 -11539778.66347  -8969230.84045  22930419.6124   22930414.4424
 -24568624.99248 -19125323.69846  20497008.0904   20497003.0604
 -25329547.62848 -19720510.19947  20216398.0844   20216393.0554
 10  3 18  0 47  0.0000000  0  8G21G31G 2G14G24G12G30G29
  -5170108.70547  -4009369.02743  24227587.8804   24227581.8764
 -19896709.54848 -15484600.56446  21444711.5304   21444706.2064
  -9148748.27147  -7112906.12044  23461319.8724   23461312.8024
  -8567695.78446  -6663257.57643  23695975.6784   23695970.3934
  -7045007.66046  -5476636.52143  23510285.0674   23510281.2614
 -11466162.71647  -8911867.77045  22944428.8054   22944423.5364
 -24526850.54648 -19092772.19246  20504957.3214   20504952.4504
 -25325591.00848 -19717427.11247  20217150.8794   20217145.9224
 10  3 18  0 47 30.0000000  0  9G21G31G 2G14G24G16G12G30G29
  -5268206.04447  -4085808.49343  24208921.1174   24208914.1334
 -19948333.12948 -15524826.72746  21434888.3094   21434882.5584
  -9092086.85447  -7068754.37344  23472102.8394   23472095.3434
  -8476754.13346  -6592393.98343  23713279.7764   23713276.4404
  -7152487.27046  -5560386.83544  23489832.0724   23489828.3884
    630784.48446    504635.15042  25124921.7434   25124917.2444
 -11392395.05647  -8854386.49345  22958466.2954   22958460.8594
 -24484746.35448 -19059963.74546  20512969.7554   20512964.7104
 -25321183.58548 -19713992.75547  20217989.6574   20217985.1434
 10  3 18  0 48  0.0000000  0  9G21G31G 2G14G24G16G12G30G29
  -5366264.60947  -4162217.72943  24190261.1624   24190254.0604
 -19999518.59848 -15564711.51146  21425148.1494   21425142.4994
  -9034963.18847  -7024242.44044  23482972.9164   23482966.1704
  -8385642.52646  -6521397.94243  23730618.9964   23730614.4774
  -7259859.99646  -5644053.88043  23469399.9754   23469396.2364
    542430.03445    435787.59042  25108108.7184   25108102.3614
 -11318481.47647  -8796791.51445  22972531.2244   22972526.3314
 -24442318.57648 -19026903.15446  20521043.6744   20521038.5114
 -25316331.95848 -19710212.26347  20218912.3334   20218907.8484
 10  3 18  0 48 30.0000000  0  9G21G31G 2G14G24G16G12G30G29
  -5464270.61047  -4238586.00943  24171610.2194   24171603.8454
 -20050252.50848 -15604244.42546  21415493.4704   21415488.1404
  -8977367.84747  -6979362.96544  23493933.2124   23493925.9724
  -8294353.36846  -6450263.54943  23747991.0644   23747986.4184
  -7367111.57246  -5727626.50043  23448990.9954   23448986.6564
    454084.85446    366947.20542  25091297.1834   25091289.9344
 -11244411.17347  -8739074.40645  22986626.8294   22986621.6534
 -24399555.97948 -18993581.65346  20529180.6054   20529175.8934
 -25311025.94748 -19706077.71247  20219922.5034   20219917.9484
 10  3 18  0 49  0.0000000  0  9G21G31G 2G14G24G16G12G30G29
  -5562227.12847  -4314915.73143  24152970.0644   24152964.2104
 -20100538.27248 -15643428.13746  21405924.5494   21405918.5704
  -8919308.27247  -6934121.72244  23504980.8394   23504973.8884
  -8202894.98146  -6378997.29943  23765395.6844   23765390.1464
  -7474244.68146  -5811106.83743  23428603.3284   23428599.6754
    365744.01146    298110.23642  25074486.6794   25074479.4914
 -11170189.80147  -8681239.58245  23000750.1834   23000745.5574
 -24356464.53148 -18960003.90146  20537381.0034   20537376.4414
 -25305271.99748 -19701594.10947  20221017.3624   20221012.5384
 10  3 18  0 49 30.0000000  0  9G21G31G 2G14G24G16G12G30G29
  -5660131.96047  -4391205.17143  24134339.1984   24134333.1834
 -20150374.32948 -15682261.42246  21396440.9504   21396435.3934
  -8860786.01547  -6888519.96944  23516117.7734   23516110.5754
  -8111270.96346  -6307601.99343  23782830.7674   23782825.2734
  -7581256.53746  -5894492.67643  23408240.2704   23408236.0534
    277406.98546    229276.23842  25057676.3044   25057668.9754
 -11095817.59146  -8623287.22445  23014903.2594   23014897.9454
 -24313044.68647 -18926170.26446  20545643.1984   20545638.6174
 -25299071.44648 -19696762.51247  20222197.1194   20222192.2534
 10  3 18  0 50  0.0000000  0  9G21G31G 2G14G24G16G12G30G29
  -5757982.82647  -4467452.55743  24115718.6854   24115712.9854
 -20199758.59248 -15720742.66846  21387043.6014   21387037.5804
  -8801803.01847  -6842559.18644  23527341.6514   23527334.1184
  -8019484.50946  -6236080.08543  23800296.9954   23800291.8264
  -7688144.16246  -5977781.71943  23387899.8464   23387896.4114
    189074.53446    160445.78342  25040867.0314   25040859.9644
 -11021294.87147  -8565217.59345  23029084.0644   23029079.5074
 -24269296.55048 -18892080.80646  20553968.3324   20553963.5904
 -25292425.20648 -19691583.61847  20223462.1384   20223457.2114
 10  3 18  0 50 30.0000000  0  9G21G31G 2G14G24G16G12G30G29
  -5855777.20247  -4543655.95143  24097109.4064   24097103.3764
 -20248688.58148 -15758869.93446  21377732.5164   21377726.7294
  -8742361.10247  -6796240.80544  23538653.6444   23538645.8844
  -7927538.48746  -6164433.89343  23817793.9184   23817788.9634
  -7794904.34746  -6060971.42644  23367584.4274   23367580.3694
    100747.41646     91619.52342  25024058.9604   25024051.3274
 -10946622.17347  -8507031.08445  23043294.1764   23043288.5854
 -24225219.99147 -18857735.44746  20562355.7134   20562351.1634
 -25285334.19948 -19686058.16247  20224811.5874   20224806.7734
 10  3 18  0 51  0.0000000  0  9G21G31G 2G14G24G16G12G30G29
  -5953512.59147  -4619813.34943  24078511.1854   24078504.9754
 -20297162.84848 -15796642.09146  21368508.1884   21368502.3564
  -8682462.40647  -6749566.50344  23550051.0154   23550043.8414
  -7835436.49046  -6092666.12343  23835320.1194   23835314.8904
  -7901534.48446  -6144059.84843  23347293.1804   23347288.6924
     12425.71946     22797.45342  25007252.5704   25007244.8034
 -10871799.51247  -8448727.72845  23057532.5954   23057527.6104
 -24180815.59047 -18823134.63646  20570805.6504   20570801.3634
 -25277799.65848 -19680187.09347  20226245.3194   20226240.2484
 10  3 18  0 51 30.0000000  0  9G21G31G 2G14G24G16G12G30G29
  -6051186.68347  -4695923.01043  24059923.7124   24059917.8734
 -20345179.18048 -15834057.41446  21359370.8324   21359365.1154
  -8622108.68647  -6702537.62744  23561535.6684   23561528.9974
  -7743181.71646  -6020779.28743  23852876.2484   23852871.1034
  -8008031.19446  -6227044.26844  23327027.4634   23327023.5674
    -75890.11146    -46020.00842  24990447.0684   24990438.7174
 -10796826.83047  -8390307.47045  23071799.6114   23071794.2964
 -24136083.78548 -18788278.69246  20579318.2344   20579313.2874
 -25269822.58148 -19673971.18247  20227763.1634   20227758.1014
 10  3 18  0 52  0.0000000  0  9G21G31G 2G14G24G16G12G30G29
  -6148797.09947  -4771983.06143  24041349.6954   24041342.7014
 -20392736.06847 -15871114.73646  21350321.0444   21350315.3174
  -8561301.91947  -6655155.72444  23573107.1934   23573100.2014
  -7650777.57446  -5948776.10443  23870459.9094   23870454.4784
  -8114391.80646  -6309922.64444  23306787.4734   23306783.6414
   -164199.65146   -114832.59842  24973641.2714   24973634.6484
 -10721705.09446  -8331771.06445  23086094.6384   23086088.7564
 -24091025.10248 -18753168.03846  20587892.3414   20587887.7604
 -25261404.46948 -19667411.61447  20229365.3234   20229360.3044
 10  3 18  0 52 30.0000000  0  9G21G31G 2G14G24G16G12G30G29
  -6246341.30047  -4847991.48443  24022786.8424   24022781.0064
 -20439831.20548 -15907812.23946  21341359.4524   21341352.9014
  -8500043.54247  -6607421.93944  23584764.5974   23584756.7954
  -7558226.70446  -5876658.56243  23888071.6514   23888066.7044
  -8220612.91446  -6392692.33044  23286574.8554   23286570.9814
   -252502.14446   -183639.69742  24956837.6594   24956831.7294
 -10646434.24447  -8273118.47545  23100418.1994   23100412.2024
 -24045639.08348 -18717802.31346  20596528.8184   20596524.2894
 -25252545.72048 -19660508.69647  20231051.1374   20231046.2994
 10  3 18  0 53  0.0000000  0  9G21G31G 2G14G24G16G12G30G29
  -6343817.44047  -4923946.88743  24004237.9044   24004231.7744
 -20486463.28548 -15944148.91646  21332485.5214   21332479.7414
  -8438336.21747  -6559338.30544  23596507.3234   23596499.5864
  -7465533.39946  -5804430.02643  23905710.5574   23905705.3544
  -8326692.31246  -6475351.57644  23266388.3904   23266384.3384
   -340797.97046   -252441.61842  24940035.8594   24940028.8944
 -10571014.96247  -8214350.22445  23114770.1214   23114764.4484
 -23999926.79147 -18682182.35346  20605227.7214   20605222.9724
 -25243248.52348 -19653264.12747  20232820.3954   20232815.1594
 10  3 18  0 53 30.0000000  0  9G21G31G 2G14G24G16G12G30G29
  -6441222.62347  -4999846.98443  23985702.6024   23985696.5734
 -20532629.65948 -15980122.72646  21323700.3364   21323694.2144
  -8376181.36247  -6510905.95644  23608334.8864   23608327.5774
  -7372700.03246  -5732092.37643  23923376.7384   23923370.6314
  -8432626.41846  -6557897.62844  23246229.9014   23246225.6584
   -429086.18846   -321237.57842  24923233.6604   24923228.0174
 -10495447.06847  -8155466.16045  23129150.4184   23129144.7924
 -23953887.95748 -18646307.94046  20613988.6864   20613984.5554
 -25233513.24948 -19645678.19947  20234672.7674   20234668.3334
 10  3 18  0 54  0.0000000  0  9G21G31G 2G14G24G16G12G30G29
  -6538554.72847  -5075690.16443  23967181.1814   23967174.7254
 -20578328.41547 -16015732.13846  21315004.1344   21314998.4074
  -8313580.94047  -6462126.40444  23620247.2754   23620240.1094
  -7279729.93046  -5659648.15443  23941068.0524   23941062.7924
  -8538412.38046  -6640328.23444  23226099.5054   23226095.2084
   -517366.31246   -390027.23842  24906435.2814   24906428.0184
 -10419730.95047  -8096466.60245  23143558.3994   23143552.8324
 -23907523.24448 -18610179.60546  20622811.8854   20622806.9894
 -25223341.23248 -19637751.95547  20236608.3094   20236603.3424
 10  3 18  0 54 30.0000000  0  9G21G31G 2G14G24G16G12G30G29
  -6635811.20846  -5151474.39543  23948673.6544   23948667.2554
 -20623557.85947 -16050975.85846  21306397.0064   21306391.1904
  -8250537.20247  -6413001.41144  23632244.5574   23632237.2334
  -7186626.22346  -5587099.86443  23958785.7654   23958779.2854
  -8644047.17846  -6722641.04844  23205997.3894   23205993.4244
   -605637.77946   -458810.18742  24889638.3294   24889631.7234
 -10343866.84847  -8037351.71845  23157994.9854   23157989.5754
 -23860832.85947 -18573797.50146  20631696.5584   20631691.9274
 -25212733.45048 -19629486.14447  20238626.8354   20238622.1214
 10  3 18  0 55  0.0000000  0  9G21G31G 2G14G24G16G12G30G29
  -6732989.99347  -5227198.10843  23930181.0544   23930174.7624
 -20668316.44447 -16085852.68246  21297880.1134   21297873.7254
  -8187051.76947  -6363532.24744  23644325.0374   23644318.5174
  -7093392.49246  -5514450.22143  23976527.1194   23976522.0394
  -8749527.96446  -6804833.84044  23185925.5584   23185920.8494
   -693900.17846   -527586.00042  24872841.7714   24872836.3714
 -10267855.02447  -7978121.73945  23172459.6534   23172454.0754
 -23813816.94447 -18537161.73446  20640643.5814   20640638.4824
 -25201691.27448 -19620881.84747  20240728.2944   20240723.2414
 10  3 18  0 55 30.0000000  0  9G21G31G 2G14G24G16G12G30G29
  -6830088.12947  -5302858.96243  23911703.6594   23911697.4494
 -20712602.09047 -16120360.97546  21289452.7924   21289446.3384
  -8123126.64347  -6313720.46344  23656489.5524   23656482.2694
  -7000031.80046  -5441701.65243  23994292.5964   23994287.9204
  -8854851.74146  -6886904.32344  23165882.8414   23165878.7934
   -782153.29646   -596354.65142  24856049.3404   24856042.1404
 -10191695.90646  -7918776.98345  23186951.6994   23186946.3954
 -23766475.86647 -18500272.59346  20649651.8194   20649647.5624
 -25190216.04948 -19611940.11747  20242911.6374   20242906.8524
 10  3 18  0 56  0.0000000  0  9G21G31G 2G14G24G16G12G30G29
  -6927103.65047  -5378455.44943  23893242.4764   23893236.3514
 -20756412.95047 -16154499.30646  21281115.3494   21281109.5284
  -8058763.81747  -6263567.61644  23668737.2804   23668729.9834
  -6906547.32946  -5368856.64543  24012083.1634   24012077.6274
  -8960015.47047  -6968850.05744  23145871.0344   23145866.7474
   -870396.67646   -665115.66042  24839256.3544   24839249.6594
 -10115389.80247  -7859317.69545  23201472.7884   23201467.3974
 -23718810.03548 -18463130.39346  20658722.6204   20658717.7374
 -25178308.56648 -19602661.55047  20245177.3814   20245172.8634
 10  3 18  0 56 30.0000000  0  9G21G31G 2G14G24G16G12G30G29
  -7024033.62747  -5453985.26543  23874797.1544   23874790.6694
 -20799746.86347 -16188265.99546  21272869.3694   21272863.6334
  -7993965.27047  -6213075.24344  23681067.5724   23681061.4154
  -6812942.00446  -5295917.44543  24029894.4554   24029888.7474
  -9065016.08847  -7050668.70744  23125890.1224   23125886.2784
   -958629.45246   -733868.43342  24822465.7404   24822458.8984
 -10038936.57547  -7799743.76145  23216021.1684   23216015.8944
 -23670819.55647 -18425735.22246  20667854.8154   20667850.0494
 -25165969.96748 -19593047.06047  20247525.7594   20247520.8374
 10  3 18  0 57  0.0000000  0  9G21G31G 2G14G24G16G12G30G29
  -7120876.01747  -5529446.84143  23856368.7354   23856362.5984
 -20842602.22547 -16221659.78846  21264714.6024   21264708.4834
  -7928733.14947  -6162245.01344  23693481.5474   23693474.6404
  -6719219.10946  -5222886.64543  24047728.8694   24047724.2434
  -9169850.51547  -7132357.86244  23105940.5464   23105936.7684
  -1046851.61146   -802612.91842  24805678.5704   24805671.0074
  -9962336.92346  -7740055.72245  23230597.1384   23230592.3904
 -23622504.95647 -18388087.49446  20677048.8414   20677043.9324
 -25153201.77148 -19583097.80947  20249955.4154   20249950.4954
 10  3 18  0 57 30.0000000  0  9G21G31G 2G14G24G16G12G30G29
  -7217628.51147  -5604838.38343  23837957.3864   23837951.0884
 -20884977.40948 -16254679.40946  21256650.7884   21256644.6694
  -7863069.43547  -6111078.49144  23705977.1534   23705969.6944
  -6625382.23146  -5149767.02242  24065586.2654   24065580.5204
  -9274516.11547  -7213915.49944  23086023.2274   23086019.2164
  -1135062.46646   -871348.61242  24788890.7084   24788885.8064
  -9885591.01046  -7680253.71745  23245201.1644   23245196.2984
 -23573866.49947 -18350187.40846  20686304.8044   20686299.9464
 -25140005.14248 -19572814.73247  20252466.9494   20252461.8434
 10  3 18  0 58  0.0000000  0  9G21G31G 2G14G24G16G12G30G29
  -7314288.66447  -5680157.94643  23819564.3724   23819557.0254
 -20926870.30748 -16287323.22346  21248678.7444   21248672.5364
  -7796976.20147  -6059577.28244  23718554.0294   23718547.1114
  -6531434.13446  -5076560.74443  24083464.1084   24083458.4054
  -9379009.88246  -7295339.16344  23066138.8074   23066134.7094
  -1223261.51346   -940075.11142  24772107.4614   24772101.5764
  -9808699.28347  -7620338.08345  23259833.9174   23259828.7834
 -23524904.43148 -18312035.14746  20695621.9934   20695616.7134
 -25126381.23248 -19562198.69047  20255059.0974   20255054.0664
 10  3 18  0 58 30.0000000  0  9G21G31G 2G14G24G16G12G30G29
  -7410854.51447  -5755404.05343  23801187.3254   23801181.4574
 -20968280.10547 -16319590.60546  21240798.9324   21240792.5384
  -7730455.94647  -6007743.31344  23731213.0644   23731205.3694
  -6437378.74546  -5003270.87343  24101362.6984   24101357.0004
  -9483329.14046  -7376626.88844  23046287.2854   23046283.0834
  -1311448.72946  -1008792.37742  24755325.7224   24755319.7304
  -9731662.49747  -7560309.42345  23274493.3764   23274488.2144
 -23475619.67847 -18273631.45446  20705000.1544   20704995.5094
 -25112331.72648 -19551251.02547  20257732.7864   20257727.9624
 10  3 18  0 59  0.0000000  0  9G21G31G 2G14G24G16G12G30G29
  -7507322.81747  -5830574.14043  23782830.1544   23782823.7904
 -21009204.02947 -16351479.37746  21233011.1704   21233005.4524
  -7663510.19447  -5955577.78944  23743952.2634   23743944.9734
  -6343218.84146  -4929899.54143  24119280.4234   24119274.8434
  -9587470.14347  -7457775.73044  23026469.5694   23026466.1344
  -1399622.99246  -1077499.58543  24738548.1194   24738541.2884
  -9654479.93347  -7500167.17744  23289180.6314   23289175.2114
 -23426011.66747 -18234975.87846  20714440.2444   20714435.2524
 -25097857.25148 -19539972.21547  20260487.2434   20260482.2824
 10  3 18  0 59 30.0000000  0  9G21G31G 2G14G24G16G12G30G29
  -7603691.58047  -5905666.63643  23764491.5724   23764485.6354
 -21049640.19348 -16382988.07346  21225316.7364   21225310.5734
  -7596140.77347  -5903082.13844  23756771.4164   23756764.9624
  -6248957.43546  -4856449.14442  24137217.3934   24137212.4534
  -9691430.06846  -7538783.43444  23006687.3124   23006683.4794
  -1487784.04346  -1146196.51342  24721770.7284   24721764.6544
  -9577152.14447  -7439911.76245  23303895.8024   23303890.2054
 -23376081.15047 -18196068.97946  20723941.7014   20723937.0394
 -25082959.17648 -19528363.32247  20263322.1064   20263317.0784
 10  3 18  1  0  0.0000000  0  9G21G31G 2G14G24G16G12G30G29
  -7699958.20147  -5980679.57943  23746172.8274   23746166.5444
 -21089587.16547 -16414115.59246  21217714.7444   21217708.9174
  -7528349.94247  -5850258.11944  23769671.9624   23769665.1484
  -6154597.67346  -4782922.05942  24155173.8374   24155168.3754
  -9795205.81146  -7619647.64744  22986939.2744   22986935.5164
  -1575931.20246  -1214882.56542  24704997.2104   24704990.5944
  -9499679.56247  -7379543.52444  23318638.4324   23318633.1864
 -23325828.33648 -18156910.96246  20733504.4174   20733499.9134
 -25067638.79348 -19516425.35247  20266237.8224   20266232.7204
 10  3 18  1  0 30.0000000  0  9G21G31G 2G14G24G16G12G30G29
  -7796120.38147  -6055611.12043  23727873.9504   23727867.7894
 -21129043.55148 -16444860.82346  21210206.7934   21210200.3214
  -7460140.23447  -5797107.68544  23782651.7384   23782645.1044
  -6060142.94546  -4709321.02043  24173147.9794   24173142.2584
  -9898794.87946  -7700366.38144  22967226.7914   22967223.1674
  -1664064.22846  -1283557.63642  24688226.7654   24688219.0184
  -9422062.95247  -7319063.05244  23333408.6514   23333402.9664
 -23275253.57247 -18117502.06746  20743128.7214   20743124.0684
 -25051897.56148 -19504159.46147  20269232.8264   20269227.9124
 10  3 18  1  1  0.0000000  0  9G21G31G 2G14G24G16G12G30G29
  -7892175.65947  -6130459.37444  23709594.6414   23709589.3544
 -21168006.83148 -16475221.82746  21202792.1154   21202786.6824
  -7391513.43347  -5743632.24944  23795711.4684   23795703.9804
  -5965596.34346  -4635648.38142  24191139.8974   24191133.9244
 -10002194.03247  -7780937.14744  22947550.5374   22947546.7364
  -1752182.44246  -1352221.15843  24671457.6044   24671450.9274
  -9344302.07747  -7258470.17944  23348205.5114   23348200.4764
 -23224357.36747 -18077842.70346  20752813.7524   20752809.1174
 -25035736.67448 -19491566.56347  20272308.4154   20272302.9714
 10  3 18  1  1 30.0000000  0  9G21G31G 2G14G24G16G12G30G29
  -7988121.96147  -6205222.69843  23691337.5504   23691331.4954
 -21206476.02747 -16505197.82146  21195471.8374   21195465.9004
  -7322471.64547  -5689833.46644  23808848.7514   23808842.1794
  -5870961.16446  -4561906.70842  24209148.1404   24209142.2704
 -10105400.30547  -7861357.60544  22927910.8274   22927906.7294
  -1840285.37246  -1420872.70442  24654692.1064   24654685.1024
  -9266397.24247  -7197765.12344  23363030.6934   23363025.1264
 -23173139.96048 -18037933.04746  20762560.4274   20762555.9094
 -25019157.42048 -19478647.65847  20275463.4814   20275458.4624
 10  3 18  1  2  0.0000000  0  9G21G31G 2G14G24G16G12G30G29
  -8083956.52747  -6279898.96143  23673100.6364   23673094.8054
 -21244449.22147 -16534787.33146  21188245.5134   21188239.5184
  -7253017.01947  -5635712.97644  23822065.5754   23822059.6984
  -5776240.27946  -4488098.23042  24227173.4864   24227167.9464
 -10208410.81747  -7941625.53344  22908308.4824   22908304.8244
  -1928372.14746  -1489511.76342  24637930.0244   24637923.4144
  -9188348.73747  -7136948.11644  23377882.2834   23377877.2224
 -23121601.68047 -17997773.35446  20772367.6404   20772362.7414
 -25002160.69948 -19465403.45747  20278697.4234   20278692.2594
 10  3 18  1  2 30.0000000  0  9G21G31G 2G14G24G16G12G30G29
  -8179677.28147  -6354486.56543  23654885.3134   23654879.1604
 -21281924.86847 -16563989.14046  21181114.2764   21181108.1084
  -7183151.70647  -5581272.47344  23835360.6394   23835354.3844
  -5681437.51446  -4414225.95442  24245212.9874   24245208.1464
 -10311222.31047  -8021738.37244  22888744.4134   22888740.1864
  -2016443.27546  -1558138.62042  24621170.2824   24621163.9164
  -9110156.86247  -7076019.39044  23392761.7664   23392757.0064
 -23069743.23247 -17957364.19346  20782235.9774   20782231.0754
 -24984748.16748 -19451835.24647  20282011.3294   20282005.9724
 10  3 18  1  3  0.0000000  0  9G21G31G 2G14G24G16G12G30G29
  -8275281.80447  -6428983.56343  23636691.9894   23636686.0794
 -21318901.09447 -16592801.78446  21174077.6654   21174071.8654
  -7112877.60047  -5526513.43443  23848733.7884   23848726.7314
  -5586555.48846  -4340291.95842  24263268.8694   24263263.5454
 -10413831.93647  -8101693.91844  22869218.7334   22869214.2864
  -2104497.76646  -1626752.47642  24604413.4864   24604407.4914
  -9031822.15046  -7014979.36844  23407668.6254   23407663.1474
 -23017564.98447 -17916705.82846  20792165.1004   20792160.2144
 -24966921.53248 -19437944.36747  20285403.3234   20285398.4574
 10  3 18  1  3 30.0000000  0  9G21G31G 2G14G24G16G12G30G29
  -8370767.45147  -6503387.95143  23618521.8214   23618516.0294
 -21355376.25947 -16621223.99046  21167136.6404   21167130.8844
  -7042197.19247  -5471437.80844  23862183.6974   23862176.8324
  -5491597.46146  -4266298.71542  24281338.3584   24281333.4234
 -10516236.71047  -8181489.83844  22849731.7314   22849727.7244
  -2192534.61546  -1695352.53542  24587661.1904   24587654.4974
  -8953344.70747  -6953828.12144  23422601.9014   23422597.2534
 -22965067.03547 -17875798.34546  20802155.4344   20802150.7794
 -24948681.39348 -19423731.26047  20288874.2664   20288869.5414
 10  3 18  1  4  0.0000000  0  9G21G31G 2G14G24G16G12G30G29
  -8466131.81247  -6577697.83144  23600375.3654   23600368.4824
 -21391348.83447 -16649254.56646  21160291.2684   21160285.5294
  -6971112.68047  -5416047.27544  23875710.8714   23875703.9994
  -5396566.63746  -4192248.77642  24299422.7624   24299417.4214
 -10618433.96647  -8261124.04744  22830284.3694   22830280.2214
  -2280553.31446  -1763938.49242  24570912.1064   24570905.1634
  -8874725.02847  -6892566.04344  23437563.2904   23437558.0704
 -22912249.86647 -17834642.11646  20812206.3664   20812201.1764
 -24930029.33048 -19409197.18747  20292423.7564   20292418.6884
 10  3 18  1  4 30.0000000  0  9G21G31G 2G14G24G16G12G30G29
  -8561372.87546  -6651911.62843  23582250.2554   23582245.0264
 -21426817.29947 -16676892.33746  21153542.2024   21153536.1034
  -6899626.08747  -5360343.42944  23889314.3044   23889307.0754
  -5301466.39846  -4118144.71642  24317519.4724   24317513.8834
 -10720420.32447  -8340593.91944  22810876.8914   22810872.5844
  -2368553.93746  -1832510.38143  24554166.6264   24554159.4214
  -8795963.64147  -6831193.56144  23452550.9844   23452545.2164
 -22859113.63047 -17793237.26946  20822317.8154   20822312.5674
 -24910966.97848 -19394343.40747  20296051.1534   20296046.2714
 10  3 18  1  5  0.0000000  0  9G21G31G 2G14G24G16G12G30G29
  -8656488.38446  -6726027.57744  23564152.0414   23564144.9974
 -21461779.82248 -16704135.86646  21146888.9094   21146882.6034
  -6827739.52947  -5304327.92344  23902993.9214   23902986.7074
  -5206299.52346  -4043988.73743  24335629.4184   24335623.2444
 -10822192.83047  -8419897.16644  22791510.0164   22791506.0854
  -2456535.71146  -1901067.63043  24537423.4734   24537416.3774
  -8717060.24047  -6769710.39244  23467565.8824   23467560.7254
 -22805658.83647 -17751584.19545  20832489.9054   20832485.5094
 -24891495.08748 -19379170.50247  20299756.5584   20299751.6974
 10  3 18  1  5 30.0000000  0  9G21G31G 2G14G24G16G12G30G29
  -8751474.95646  -6800043.08844  23546075.8274   23546069.6714
 -21496234.91648 -16730983.99546  21140332.4624   21140326.3634
  -6755455.11947  -5248002.39244  23916749.2414   23916741.9864
  -5111069.08846  -3969783.31242  24353750.0874   24353745.2974
 -10923748.32547  -8499031.30744  22772184.9324   22772180.4064
  -2544497.50846  -1969609.22542  24520685.2024   24520677.9264
  -8638015.22847  -6708116.87044  23482607.7114   23482602.2854
 -22751885.49147 -17709682.89446  20842722.1014   20842718.1264
 -24871615.45448 -19363679.87747  20303539.8004   20303534.3534
 10  3 18  1  6  0.0000000  0  9G21G31G 2G14G24G16G12G30G29
  -8846330.68346  -6873956.62843  23528025.6764   23528019.0544
 -21530180.82248 -16757435.34946  21133872.5094   21133867.0334
  -6682775.10347  -5191368.64543  23930578.8464   23930572.7284
  -5015778.15046  -3895530.63142  24371883.6244   24371878.2114
 -11025083.95247  -8577994.12544  22752900.8514   22752897.0914
  -2632439.28546  -2038135.23343  24503949.8934   24503944.1974
  -8558828.78347  -6646413.14344  23497676.0644   23497670.8614
 -22697794.13447 -17667533.79745  20853015.5244   20853011.0494
 -24851329.08248 -19347872.30847  20307400.1494   20307394.8744
 10  3 18  1  6 30.0000000  0  9G21G31G 2G14G24G16G12G30G29
  -8941054.16046  -6947767.07944  23510000.0774   23509993.7774
 -21563616.65348 -16783489.24346  21127509.9114   21127503.7964
  -6609702.11047  -5134428.64043  23944484.6644   23944477.6764
  -4920430.64846  -3821233.91242  24390027.2384   24390022.9104
 -11126197.40247  -8656783.80444  22733659.8124   22733655.4404
  -2720360.83046  -2106645.54642  24487220.2374   24487212.4564
  -8479502.02447  -6584600.08444  23512771.7424   23512766.3294
 -22643385.99147 -17625137.85445  20863369.2684   20863364.5554
 -24830638.01848 -19331749.40547  20311337.1074   20311332.0264
 10  3 18  1  7  0.0000000  0  9G21G31G 2G14G24G16G12G30G29
  -9035641.47346  -7021471.48843  23492000.5284   23491994.2854
 -21596539.92348 -16809143.74446  21121244.8564   21121238.8474
  -6536237.94247  -5077183.83643  23958464.5044   23958458.0264
  -4825029.06146  -3746895.04642  24408183.1324   24408176.1384
 -11227085.05347  -8735397.54644  22714461.9604   22714457.7234
  -2808260.82546  -2175139.02542  24470492.0864   24470485.6834
  -8400034.59847  -6522677.41445  23527894.0404   23527888.9154
 -22588660.50948 -17582494.63545  20873783.3464   20873778.5494
 -24809542.73248 -19315311.51447  20315351.6504   20315346.7294
 10  3 18  1  7 30.0000000  0  9G21G31G 2G14G24G16G12G30G29
  -9130090.80346  -7095068.37744  23474027.5824   23474021.4774
 -21628949.64348 -16834398.07146  21115077.7074   21115071.3104
  -6462384.93147  -5019636.06243  23972518.2894   23972511.2454
  -4729576.64746  -3672516.54143  24426346.4454   24426340.6084
 -11327744.00647  -8813833.08144  22695306.5644   22695302.0914
  -2896138.77146  -2243615.30742  24453769.4084   24453762.1824
  -8320426.80747  -6460645.38744  23543042.8554   23543037.7434
 -22533618.39147 -17539604.67646  20884257.3664   20884252.2514
 -24788045.04848 -19298560.07647  20319442.3774   20319437.1544
 10  3 18  1  8  0.0000000  0  9G21G31G 2G14G24G16G12G30G29
  -9224399.96146  -7168556.02144  23456080.9954   23456074.7944
 -21660844.25748 -16859251.01846  21109008.2794   21109002.0624
  -6388145.29147  -4961786.98543  23986645.6204   23986639.1224
  -4634076.52646  -3598100.97642  24444519.9154   24444513.7824
 -11428171.26347  -8892088.07744  22676196.0104   22676192.0964
  -2983994.60346  -2312074.34842  24437051.0554   24437044.3704
  -8240679.37847  -6398504.55344  23558218.0914   23558212.6554
 -22478260.00047 -17496468.27046  20894791.6754   20894786.8674
 -24766146.31848 -19281496.13147  20323609.4724   20323604.7354
 10  3 18  1  8 30.0000000  0  9G21G31G 2G14G24G16G12G30G29
  -9318566.32046  -7241932.34544  23438161.5614   23438155.7674
 -21692222.14548 -16883701.32446  21103037.1044   21103031.1484
  -6313521.26147  -4903638.38444  24000846.2724   24000839.1734
  -4538531.90146  -3523650.66942  24462701.8124   24462696.0814
 -11528363.85647  -8970160.23144  22657129.4844   22657126.0754
  -3071827.70146  -2380515.71842  24420337.0124   24420329.6714
  -8160792.21947  -6336254.85644  23573420.2754   23573414.9364
 -22422586.28147 -17453086.16045  20905385.8984   20905381.5434
 -24743848.01048 -19264120.81947  20327852.9724   20327848.1044
 10  3 18  1  9  0.0000000  0  9G21G31G 2G14G24G16G12G30G29
  -9412587.36146  -7315195.50644  23420269.9834   23420264.2024
 -21723081.74848 -16907747.76846  21097164.6584   21097158.9014
  -6238514.83647  -4845191.83644  24015119.4144   24015112.5084
  -4442945.11946  -3449167.51842  24480891.1444   24480885.8124
 -11628318.43047  -9048046.90144  22638109.1354   22638105.8824
  -3159636.83946  -2448938.39343  24403627.8734   24403620.1064
  -8080765.56047  -6273896.43044  23588648.8074   23588643.1594
 -22366596.68347 -17409457.91946  20916040.7274   20916035.7524
 -24721150.95248 -19246434.80147  20332171.9394   20332167.0104
 10  3 18  1  9 30.0000000  0  9G21G31G 2G14G24G16G12G30G29
  -9506461.59746  -7388344.24744  23402406.0974   23402400.8484
 -21753422.37448 -16931389.82246  21091391.1494   21091385.2434
  -6163129.11047  -4786449.70344  24029465.0444   24029457.5894
  -4347320.84946  -3374655.15942  24499087.3664   24499082.2274
 -11728033.07847  -9125746.60744  22619134.4484   22619130.1634
  -3247422.05046  -2517342.42942  24386923.4394   24386915.8654
  -8000600.56147  -6211430.20844  23603903.9284   23603897.8254
 -22310292.54547 -17365584.58245  20926754.7984   20926749.8814
 -24698057.92848 -19228440.23847  20336566.3134   20336561.4804
 10  3 18  1 10  0.0000000  0  9G21G31G 2G14G24G16G12G30G29
  -9600185.99646  -7461376.24044  23384571.2734   23384565.5604
 -21783241.77948 -16954625.71546  21085716.5674   21085710.8624
  -6087366.04247  -4727413.54843  24043882.1034   24043875.4614
  -4251661.32046  -3300115.31742  24517290.9204   24517285.9434
 -11827504.09547  -9203256.48444  22600205.3654   22600201.6714
  -3335182.60546  -2585727.30043  24370221.8414   24370215.9034
  -7920296.90447  -6148855.91844  23619184.6024   23619179.2684
 -22253674.00847 -17321466.25545  20937528.8064   20937524.1784
 -24674569.30148 -19210137.41147  20341036.3554   20341030.9494
 10  3 18  1 10 30.0000000  0  9G21G31G 2G14G24G16G12G30G29
  -9693758.00746  -7534289.48444  23366765.3684   23366758.7184
 -21812538.48048 -16977454.32346  21080142.0704   21080135.8224
  -6011227.14947  -4668084.54643  24058370.3354   24058363.0114
  -4155969.23046  -3225550.11242  24535500.6784   24535495.1024
 -11926728.38147  -9280574.09645  22581324.0544   22581320.0124
  -3422917.43246  -2654092.03743  24353527.0244   24353521.0824
  -7839854.53447  -6086173.55844  23634492.8534   23634487.1664
 -22196740.92647 -17277102.82246  20948362.9564   20948358.3444
 -24650686.09548 -19191527.11247  20345580.9414   20345575.7984
 10  3 18  1 11  0.0000000  0  9G21G31G 2G14G24G16G12G30G29
  -9787175.03146  -7607081.95744  23348988.4594   23348982.6464
 -21841311.09348 -16999874.55246  21074666.3834   21074660.3914
  -5934714.98846  -4608464.67743  24072930.5524   24072922.5254
  -4060248.13046  -3150962.31342  24553715.3094   24553710.9014
 -12025703.06647  -9357697.21544  22562489.0344   22562485.9774
  -3510626.12646  -2722436.53743  24336835.9714   24336829.2704
  -7759274.19447  -6023383.69344  23649826.7434   23649821.6554
 -22139493.91648 -17232494.77646  20959256.8394   20959252.2474
 -24626410.24248 -19172610.86347  20350200.5304   20350195.1264
 10  3 18  1 11 30.0000000  0  9G21G31G 2G14G24G16G12G30G29
  -9880435.02546  -7679752.07844  23331241.7944   23331235.9134
 -21869558.68048 -17021885.65546  21069291.0774   21069285.2274
  -5857832.19946  -4548556.01043  24087560.0264   24087553.4694
  -3964501.09946  -3076354.31042  24571935.8614   24571930.7444
 -12124425.29347  -9434623.61044  22543702.8374   22543699.1104
  -3598308.22446  -2790760.18843  24320151.6434   24320144.7804
  -7678556.46047  -5960486.76644  23665186.6834   23665181.4574
 -22081933.61047 -17187642.60045  20970210.1094   20970205.6244
 -24601742.96448 -19153389.60647  20354894.7324   20354889.5894
 10  3 18  1 12  0.0000000  0  9G21G31G 2G14G24G16G12G30G29
  -9973535.71246  -7752298.04744  23313525.1854   23313519.2454
 -21897279.29248 -17043486.12946  21064016.2904   21064010.1644
  -5780580.87447  -4488360.19143  24102261.2484   24102253.6984
  -3868730.95546  -3001728.31142  24590160.1604   24590154.9844
 -12222892.02847  -9511350.93244  22524966.1074   22524961.3794
  -3685962.94446  -2859062.52343  24303469.6534   24303463.2654
  -7597701.19347  -5897482.67144  23680573.0264   23680567.4824
 -22024060.14747 -17142546.41345  20981223.0244   20981218.2534
 -24576685.80648 -19133864.54447  20359662.5834   20359657.4154
 10  3 18  1 12 30.0000000  0  9G21G31G 2G14G24G16G12G30G29
 -10066474.74146  -7824718.06444  23295838.8844   23295833.2404
 -21924472.12148 -17064675.35446  21058841.4564   21058835.6274
  -5702963.69747  -4427879.25143  24117030.9014   24117024.2324
  -3772941.42245  -2927087.19542  24608389.3934   24608383.3054
 -12321100.74647  -9587877.20344  22506277.0414   22506272.7024
  -3773590.21746  -2927343.50643  24286795.7674   24286789.0924
  -7516709.27147  -5834372.10344  23695985.0854   23695979.4264
 -21965874.64547 -17097207.06646  20992295.5834   20992290.5004
 -24551240.59048 -19114037.10047  20364504.8404   20364499.3314
 10  3 18  1 13  0.0000000  0  9G21G31G 2G14G24G16G12G30G29
 -10159250.03346  -7897010.48244  23278185.2084   23278178.5554
 -21951136.17048 -17085452.53246  21053767.5114   21053761.4724
  -5624983.11647  -4367115.15544  24131870.9044   24131863.4314
  -3677135.43045  -2852433.28642  24626619.5354   24626615.0534
 -12419048.59047  -9664200.19044  22487638.5254   22487634.0994
  -3861189.26946  -2995602.51743  24270126.2304   24270119.7404
  -7435580.99947  -5771155.27044  23711423.5594   23711418.0314
 -21907377.49648 -17051624.89145  21003426.8864   21003422.2304
 -24525409.09848 -19093908.66347  20369420.4654   20369415.1894
 10  3 18  1 13 30.0000000  0  9G21G31G 2G14G24G16G12G30G29
 -10251859.01146  -7969173.32744  23260561.9044   23260555.9414
 -21977269.56148 -17105816.22246  21048794.3674   21048788.4314
  -5546640.83947  -4306069.23143  24146778.5754   24146771.5314
  -3581315.49945  -2777768.43342  24644853.6864   24644848.8884
 -12516732.24647  -9740317.31344  22469049.9054   22469045.6684
  -3948759.10446  -3063838.73143  24253462.4354   24253455.4194
  -7354316.20747  -5707832.08144  23726887.4654   23726882.0694
 -21848568.80847 -17005799.94745  21014617.9364   21014613.2894
 -24499192.11748 -19073479.84847  20374409.3074   20374404.0334
 10  3 18  1 14  0.0000000  0  9G21G31G 2G14G24G16G12G30G29
 -10344298.74446  -8041204.27644  23242970.9644   23242965.0554
 -22002870.75348 -17125765.19946  21043922.4934   21043916.6414
  -5467939.23347  -4244743.31344  24161755.1004   24161748.2014
  -3485484.75245  -2703095.22642  24663090.2694   24663084.4614
 -12614148.66347  -9816226.21244  22450512.3504   22450508.1574
  -4036299.05346  -3132051.64343  24236804.2604   24236797.9064
  -7272915.43847  -5644402.91444  23742377.4754   23742372.1634
 -21789448.81047 -16959732.43045  21025868.3884   21025863.3494
 -24472590.83148 -19052751.57147  20379471.2824   20379466.0104
 10  3 18  1 14 30.0000000  0  9G21G31G 2G14G24G16G12G30G29
 -10436567.12246  -8113101.69744  23225413.1114   23225406.8194
 -22027938.56848 -17145298.56346  21039152.2204   21039146.5004
  -5388880.83647  -4183139.36443  24176799.1604   24176792.3104
  -3389646.16945  -2628415.89442  24681326.0344   24681320.9864
 -12711294.78147  -9891924.45945  22432025.6364   22432021.7874
  -4123808.23846  -3200240.61043  24220152.3884   24220145.2854
  -7191379.21747  -5580868.20944  23757893.7214   23757888.3094
 -21730018.09647 -16913422.79745  21037177.6984   21037172.7224
 -24445606.51248 -19031724.82847  20384606.2084   20384601.3814
 10  3 18  1 15  0.0000000  0  9G21G31G 2G14G24G16G12G30G29
 -10528661.50247  -8184863.54544  23207888.4534   23207881.6904
 -22052471.40048 -17164415.06146  21034484.0384   21034478.3544
  -5309467.47947  -4121258.84443  24191911.2584   24191903.9064
  -3293803.06945  -2553733.06642  24699566.1854   24699561.2974
 -12808167.49847  -9967409.69845  22413591.2444   22413587.4904
  -4211285.94046  -3268405.01843  24203504.5714   24203498.1954
  -7109707.38047  -5517227.83144  23773435.2344   23773429.7844
 -21670276.78947 -16866871.13645  21048545.6354   21048540.9764
 -24418240.50248 -19010400.66047  20389814.1364   20389808.9464
 10  3 18  1 15 30.0000000  0  9G21G31G 2G14G24G16G12G30G29
 -10620580.50246  -8256488.73844  23190397.2094   23190390.6664
 -22076468.50448 -17183114.10346  21029917.8554   21029911.8604
  -5229702.18446  -4059104.06543  24207090.0094   24207082.5514
  -3197958.69845  -2479049.22042  24717804.7484   24717800.1644
 -12904764.46947 -10042680.04544  22395209.2594   22395206.3534
  -4298732.04346  -3336544.84643  24186865.2164   24186858.1704
  -7027900.46847  -5453482.18744  23789002.1224   23788997.2204
 -21610225.80547 -16820078.16945  21059973.2594   21059968.7544
 -24390495.17547 -18988780.92847  20395093.3154   20395089.0014
 10  3 18  1 16  0.0000000  0  9G21G31G 2G14G24G16G12G30G29
 -10712321.22646  -8327975.00244  23172938.3404   23172933.2894
 -22099928.63048 -17201394.72046  21025453.2304   21025447.5984
  -5149587.19146  -3996676.79943  24222335.2814   24222327.6254
  -3102115.91145  -2404366.68042  24736043.4284   24736038.3554
 -13001082.68347 -10117733.20144  22376880.9894   22376877.1544
  -4386146.05146  -3404659.60942  24170230.0134   24170224.0104
  -6945959.28547  -5389631.92144  23804595.4064   23804590.1624
 -21549865.83947 -16773044.44145  21071459.1454   21071454.7914
 -24362371.80747 -18966866.61847  20400445.1624   20400440.3994
 10  3 18  1 16 30.0000000  0  9G21G31G 2G14G24G16G12G30G29
 -10803880.99247  -8399320.26744  23155515.5184   23155510.1004
 -22122850.75848 -17219256.12346  21021091.2694   21021085.2744
  -5069124.76346  -3933978.81443  24237646.9414   24237639.1944
  -3006277.49845  -2329687.48842  24754280.7074   24754275.7464
 -13097119.28647 -10192566.89745  22358605.5834   22358601.7534
  -4473526.82646  -3472748.49343  24153602.4404   24153595.8454
  -6863883.71347  -5325676.94244  23820214.3994   23820208.8934
 -21489197.21047 -16725770.18645  21083004.0784   21082999.7354
 -24333871.77348 -18944658.78947  20405868.8554   20405863.5374
 10  3 18  1 17  0.0000000  0  9G21G31G 2G14G24G16G12G30G29
 -10895258.36647  -8470523.41044  23138126.8294   23138121.7494
 -22145233.52648 -17236697.23646  21016831.7114   21016826.1124
  -4988317.29146  -3871011.98143  24253023.2064   24253016.4134
  -2910446.82145  -2255014.30742  24772517.0004   24772512.0684
 -13192871.46247 -10267178.96345  22340385.1164   22340380.6364
  -4560873.72546  -3540811.01343  24136980.8854   24136974.0924
  -6781674.42147  -5261617.75444  23835857.9554   23835852.7174
 -21428220.32447 -16678255.74245  21094608.0864   21094603.1584
 -24304996.54347 -18922158.60847  20411363.4404   20411358.5244
 10  3 18  1 17 30.0000000  0  9G21G31G 2G14G24G16G12G30G29
 -10986450.10347  -8541581.89844  23120773.3344   23120768.0534
 -22167075.77748 -17253717.17946  21012675.4794   21012669.7874
  -4907167.22946  -3807778.16543  24268466.4644   24268458.8364
  -2814626.76245  -2180349.43242  24790750.6334   24790745.7764
 -13288336.18247 -10341567.05045  22322218.3444   22322214.3594
  -4648186.39346  -3608846.86743  24120365.3794   24120359.4234
  -6699331.82147  -5197454.71344  23851527.0214   23851522.3624
 -21366935.76548 -16630501.54645  21106269.8414   21106265.6534
 -24275747.62948 -18899367.24847  20416929.1494   20416924.1884
 10  3 18  1 18  0.0000000  0  9G21G31G 2G14G24G16G12G30G29
 -11077453.94947  -8612493.97544  23103455.8124   23103450.4074
 -22188376.15348 -17270314.87846  21008622.1364   21008616.6194
  -4825676.70246  -3744279.06243  24283972.4124   24283966.2944
  -2718820.34645  -2105695.20442  24808982.5294   24808976.8814
 -13383510.12347 -10415728.55745  22304107.8544   22304103.5014
  -4735463.59346  -3676855.02743  24103757.7684   24103751.1654
  -6616855.84047  -5133187.71744  23867221.1624   23867215.6254
 -21305343.85747 -16582507.86945  21117990.2814   21117985.7454
 -24246126.31647 -18876285.70447  20422565.9334   20422561.2194
 10  3 18  1 18 30.0000000  0  9G21G31G 2G14G24G16G12G30G29
 -11168268.00547  -8683258.15744  23086174.8324   23086169.1204
 -22209133.89248 -17286489.74146  21004672.2654   21004666.3284
  -4743848.41546  -3680516.76443  24299544.8234   24299537.4944
  -2623030.64745  -2031053.92142  24827208.9514   24827203.4524
 -13478390.87947 -10489661.62845  22286052.7504   22286048.2634
  -4822705.27946  -3744835.57543  24087156.0284   24087149.6234
  -6534247.30147  -5068817.45644  23882941.6824   23882936.1934
 -21243445.46447 -16534275.36745  21129769.5104   21129764.6764
 -24216134.54848 -18852915.49247  20428273.5114   20428268.3914
 10  3 18  1 19  0.0000000  0  9G21G31G 2G14G24G16G12G30G29
 -11258889.39447  -8753872.22244  23068930.7964   23068924.7484
 -22229347.17048 -17302240.35046  21000825.6794   21000819.9974
  -4661684.27446  -3616492.71943  24315179.6954   24315172.5264
  -2527260.10745  -1956427.63842  24845434.4214   24845429.3144
 -13572974.72347 -10563363.31045  22268053.6404   22268049.4414
  -4909909.81846  -3812787.12243  24070560.9704   24070555.0404
  -6451505.73147  -5004343.51844  23898687.0024   23898681.2634
 -21181240.05747 -16485803.62245  21141606.4094   21141601.6984
 -24185772.81748 -18829256.99347  20434051.3864   20434045.8874
 10  3 18  1 19 30.0000000  0  9G21G31G 2G14G24G16G12G30G29
 -11349316.16047  -8824334.62444  23051723.1534   23051716.8404
 -22249015.20548 -17317566.09446  20997082.9314   20997077.1554
  -4579187.10746  -3552209.18443  24330878.8894   24330871.7584
  -2431512.17345  -1881819.02842  24863654.9464   24863649.9764
 -13667259.53747 -10636831.98444  22250111.5954   22250107.2934
  -4997077.12046  -3880709.70643  24053974.0584   24053967.9164
  -6368632.29947  -4939766.82044  23914457.2604   23914451.6474
 -21118728.92947 -16437093.65345  21153501.7644   21153497.2104
 -24155043.64747 -18805312.18547  20439898.0554   20439893.8794
 10  3 18  1 20  0.0000000  0  9G21G31G 2G14G24G16G12G30G29
 -11439545.63247  -8894643.30544  23034552.7324   23034546.6594
 -22268136.79748 -17332466.03346  20993444.2594   20993438.2664
  -4496358.79646  -3487667.66143  24346640.5124   24346633.8024
  -2335789.68845  -1807230.24042  24881870.3474   24881865.8174
 -13761241.93347 -10710065.02545  22232227.6164   22232223.4674
  -5084206.18046  -3948602.46343  24037393.3854   24037387.7754
  -6285626.99647  -4875087.37744  23930252.4204   23930247.4424
 -21055912.16747 -16388145.54445  21165455.2734   21165450.2644
 -24123947.85448 -18781081.70147  20445815.9084   20445811.0134
 10  3 18  1 20 30.0000000  0  9G21G31G 2G14G24G16G12G30G29
 -11529575.58947  -8964796.50444  23017420.5984   23017414.3504
 -22286711.35148 -17346939.71546  20989909.6834   20989903.6004
  -4413202.22646  -3422870.34543  24362464.2854   24362457.6974
  -2240095.88345  -1732663.81042  24900080.8994   24900076.1874
 -13854919.48647 -10783060.50745  22214401.2654   22214397.0004
  -5171296.70946  -4016465.22343  24020821.0324   24020814.7544
  -6202490.74447  -4810305.89144  23946072.5884   23946067.8204
 -20992790.52747 -16338959.84845  21177467.0324   21177462.4964
 -24092487.39048 -18756567.05247  20451802.8524   20451797.7754
 10  3 18  1 21  0.0000000  0  9G21G31G 2G14G24G16G12G30G29
 -11619404.16647  -9034792.79444  23000326.3454   23000320.6784
 -22304737.86748 -17360986.34946  20986479.2884   20986473.5414
  -4329720.01146  -3357819.27143  24378351.1384   24378344.0664
  -2144433.94345  -1658122.12242  24918282.4124   24918277.8554
 -13948289.54047 -10855816.38345  22196633.3154   22196629.1634
  -5258347.67746  -4084297.10043  24004255.9154   24004249.6854
  -6119223.47047  -4745422.31844  23961918.2934   23961912.4574
 -20929364.77547 -16289537.20045  21189536.3174   21189532.1724
 -24060663.61547 -18731769.30647  20457858.6334   20457853.9274
 10  3 18  1 21 30.0000000  0  9G21G31G 2G14G24G16G12G30G29
 -11709028.31147  -9104629.78544  22983272.2884   22983265.6524
 -22322214.48848 -17374604.49446  20983153.5554   20983147.8644
  -4245913.84846  -3292515.78243  24394299.2714   24394291.7364
  -2048806.20545  -1583607.25842  24936480.8754   24936475.6204
 -14041348.64847 -10928329.97045  22178924.8254   22178920.9584
  -5345358.22646  -4152097.50843  23987697.3174   23987692.0894
  -6035825.00547  -4680436.51844  23977788.0044   23977783.2274
 -20865634.61247 -16239877.33945  21201663.9704   21201660.0654
 -24028477.79747 -18706689.44646  20463983.2314   20463978.4104
 10  3 18  1 22  0.0000000  0  9G21G31G 2G14G24G16G12G30G29
 -11798446.28647  -9174306.12844  22966255.8094   22966249.7254
 -22339140.80248 -17387793.83946  20979932.6124   20979926.9164
  -4161786.73546  -3226962.19143  24410306.8184   24410300.3434
  -1953215.79245  -1509121.37842  24954672.7474   24954666.9914
 -14134094.14147 -11000599.17445  22161275.9094   22161272.4784
  -5432327.66846  -4219865.86443  23971148.7294   23971142.0584
  -5952296.33347  -4615349.29244  23993683.3594   23993678.2424
 -20801601.29947 -16189981.25945  21213849.6004   21213844.7204
 -23995931.78047 -18681328.91047  20470176.4454   20470171.3394
 10  3 18  1 22 30.0000000  0 10G21G31G 2G14G24G16G12G 5G30G29
 -11887655.14347  -9243819.51744  22949280.2024   22949274.1494
 -22355515.45548 -17400553.30746  20976816.8334   20976811.1834
  -4077340.38546  -3161159.86143  24426376.9324   24426369.5954
  -1857665.37145  -1434666.73042  24972854.3884   24972849.3254
 -14226522.85547 -11072621.54445  22143687.3064   22143683.1784
  -5519255.21346  -4287601.59943  23954605.1094   23954599.5294
  -5868637.66047  -4550160.74144  24009603.0984   24009597.6784
    700682.38046    555022.38943  25182295.1844   25182290.9194
 -20737264.79348 -16139848.92945  21226092.2494   21226087.6944
 -23963026.64247 -18655688.53647  20476437.9704   20476433.7404
 10  3 18  1 23  0.0000000  0 10G21G31G 2G14G24G16G12G 5G30G29
 -11976654.34147  -9313169.52744  22932344.4504   22932337.9894
 -22371339.08948 -17412883.41246  20973805.5284   20973799.7014
  -3992578.61946  -3095111.73843  24442507.2964   24442499.7134
  -1762159.66945  -1360246.99442  24991028.4654   24991022.9044
 -14318633.59347 -11144396.13845  22126159.3684   22126155.2504
  -5606141.45946  -4355305.17043  23938072.5664   23938066.3374
  -5784851.23547  -4484872.61644  24025546.9634   24025541.6264
    649674.09346    515275.67343  25172588.1894   25172584.7054
 -20672627.24047 -16089482.00945  21238392.1754   21238387.7354
 -23929765.93747 -18629771.10146  20482767.3734   20482762.4764
 10  3 18  1 23 30.0000000  0 10G21G31G 2G14G24G16G12G 5G30G29
 -12065436.69047  -9382350.58144  22915449.6914   22915443.6674
 -22386605.85848 -17424779.59646  20970900.3524   20970894.5624
  -3907499.86746  -3028816.59243  24458697.3214   24458689.2864
                                  25009193.1664   25009189.1834
 -14410418.85047 -11215917.11145  22108693.1994   22108689.2244
  -5692980.98946  -4422972.31543  23921548.1384   23921541.9194
  -5700932.10147  -4419481.08544  24041516.0214   24041510.3954
    599018.58946    475803.87543  25162949.4284   25162945.0434
 -20607684.55447 -16038877.32745  21250750.5764   21250745.7044
 -23896146.14248 -18603573.85746  20489165.0074   20489160.4464
 10  3 18  1 24  0.0000000  0 10G21G31G 2G14G24G16G12G 5G30G29
 -12154008.23547  -9451367.35644  22898594.8364   22898588.7924
 -22401323.67648 -17436248.02946  20968099.7364   20968093.6434
  -3822114.79646  -2962282.73843  24474945.0864   24474937.4534
  -1571287.99945  -1211516.42742  25027350.2274   25027345.3424
 -14501884.38547 -11287188.95445  22091288.2504   22091284.1224
  -5779781.84446  -4490609.34243  23905030.3504   23905023.5044
  -5616888.80047  -4353992.79944  24057509.9664   24057503.8314
    548709.79546    436602.19643  25153375.6824   25153371.6354
 -20542445.77947 -15988041.92645  21263165.3324   21263160.5784
 -23862176.71947 -18577104.17546  20495629.5684   20495624.2994
 10  3 18  1 24 30.0000000  0 10G21G31G 2G14G24G16G12G 5G30G29
 -12242359.28947  -9520212.32544  22881782.7134   22881775.8844
 -22415483.54548 -17447281.68646  20965405.1714   20965399.1944
  -3736418.12346  -2895506.13643  24491252.4774   24491245.1054
  -1475928.42345  -1137210.50842  25045496.4454   25045492.0184
 -14593019.43747 -11358203.27145  22073945.1984   22073941.4324
  -5866535.05146  -4558209.24643  23888521.6354   23888515.2054
  -5532714.78547  -4288402.65544  24073527.4404   24073521.7914
    498758.27746    397679.00643  25143871.1744   25143866.0524
 -20476903.70047 -15936970.18645  21275637.3404   21275632.6664
 -23827851.87947 -18550357.54546  20502161.0474   20502156.0754
 10  3 18  1 25  0.0000000  0 10G21G31G 2G14G24G16G12G 5G30G29
 -12330487.07347  -9588883.32144  22865012.1514   22865006.3094
 -22429084.30948 -17457879.69246  20962816.7864   20962810.9824
  -3650411.73646  -2828488.16343  24507619.6134   24507611.6144
                                  25063633.3914
 -14683820.71947 -11428957.51945  22056666.5214   22056662.2914
  -5953239.74746  -4625771.30343  23872022.3654   23872016.3854
  -5448409.84147  -4222710.51644  24089569.4104   24089564.0884
    449166.86146    359036.34343  25134434.0744   25134428.7794
 -20411058.55547 -15885662.28045  21288167.0794   21288162.1934
 -23793172.92547 -18523334.97846  20508760.3074   20508755.2794
 10  3 18  1 25 30.0000000  0 10G21G31G 2G14G24G16G12G 5G30G29
 -12418394.89047  -9657382.92044  22848283.5974   22848277.2784
 -22442131.12048 -17468046.03446  20960334.2214   20960328.2684
  -3564103.83546  -2761235.27343  24524043.3594   24524034.8144
                                  25081757.7214
 -14774291.07347 -11499453.88545  22039450.5984   22039446.3494
  -6039900.67046  -4693299.28643  23855531.3674   23855525.0594
  -5363980.01847  -4156921.05844  24105635.8194   24105631.3064
    399932.41646    320671.85543  25125064.5564   25125060.7514
 -20344916.44647 -15834122.98345  21300753.6544   21300748.4264
 -23758147.02047 -18496042.06547  20515425.5944   20515420.4234
 10  3 18  1 26  0.0000000  0 10G21G31G 2G14G24G16G12G 5G30G29
 -12506081.75047  -9725710.34044  22831597.3544   22831591.3394
 -22454624.36248 -17477781.03346  20957956.6614   20957950.8884
  -3477498.23146  -2693750.39543  24540523.6374   24540515.6694
  -1190191.81445                  25099871.3794
 -14864429.02947 -11569691.24345  22022297.1854   22022293.4184
  -6126518.25146  -4760793.49243  23839048.7964   23839042.0074
  -5279427.15347  -4091035.71644  24121726.3034   24121720.7494
    351056.05346    282586.41043  25115764.6564   25115759.4354
 -20278479.24847 -15782353.74945  21313396.0874   21313392.0514
 -23722777.19347 -18468481.16346  20522156.1874   20522151.2024
 10  3 18  1 26 30.0000000  0  9G21G31G 2G24G16G12G 5G30G29
 -12593534.17147  -9793855.07444  22814956.0904   22814949.7514
 -22466551.56748 -17487074.96746  20955687.2034   20955681.5064
  -3390585.95246  -2626026.62943  24557062.3914   24557054.9034
 -14954220.24447 -11639658.41645  22005210.9544   22005207.4844
  -6213080.61446  -4828244.65443  23822575.9874   23822569.4304
  -5194740.08747  -4025045.82344  24137842.1774   24137836.8704
    302551.70046    244790.81143  25106533.9454   25106529.0754
 -20211736.05547 -15730346.06945  21326096.9374   21326092.6104
 -23687053.46947 -18440644.48346  20528954.2284   20528949.1004
 10  3 18  1 27  0.0000000  0  9G21G31G 2G24G16G12G 5G30G29
 -12680761.18747  -9861824.17944  22798357.1654   22798351.3634
 -22477923.28848 -17495936.04646  20953523.3724   20953517.1694
  -3303380.87846  -2558074.56943  24573657.2744   24573649.3324
 -15043673.47647 -11709362.23445  21988188.5434   21988184.7294
  -6299598.20046  -4895660.96843  23806112.6834   23806105.8254
  -5109930.61647  -3958960.53044  24153980.6864   24153975.3564
    254410.64346    207278.28543  25097373.2214   25097368.3574
 -20144699.05147 -15678109.45445  21338853.7514   21338849.5494
 -23650988.69147 -18412542.06746  20535817.2684   20535811.9844
 10  3 18  1 27 30.0000000  0  9G21G31G 2G24G16G12G 5G30G29
 -12767756.58047  -9929612.79144  22781802.3254   22781796.3384
 -22488734.87248 -17504360.66046  20951466.0774   20951460.2734
  -3215881.26446  -2489893.03343  24590308.0064   24590300.1714
 -15132782.06747 -11778797.48845  21971231.6664   21971227.5644
  -6386066.27146  -4963038.64843  23789658.0424   23789650.9154
  -5024995.22947  -3892777.12144  24170142.6734   24170138.0664
    206638.94546    170053.61643  25088281.7464   25088277.5414
 -20077364.96447 -15625641.34345  21351667.2214   21351662.7074
 -23614580.59747 -18384172.12146  20542745.3604   20542740.1164
 10  3 18  1 28  0.0000000  0  9G21G31G 2G24G16G12G 5G30G29
 -12854517.51547  -9997218.70444  22765292.7594   22765286.1444
 -22498985.29048 -17512348.00446  20949515.3024   20949509.4864
  -3128089.43046  -2421483.80843  24607014.3824   24607006.1034
 -15221542.74647 -11847961.64945  21954341.9614   21954336.9734
  -6472483.33646  -5030376.57543  23773213.3854   23773207.2284
  -4939934.26347  -3826495.86644  24186329.3454   24186323.8304
    159239.74246    133119.15043  25079263.0244   25079257.5894
 -20009733.76247 -15572941.71645  21364536.6304   21364532.3904
 -23577830.11447 -18355535.38046  20549739.1144   20549733.4454
 10  3 18  1 28 30.0000000  0  9G21G31G 2G24G16G12G 5G30G29
 -12941042.45047 -10064640.72345  22748827.4634   22748821.0594
 -22508674.25548 -17519897.84846  20947671.7024   20947665.9444
  -3040008.36446  -2352849.20043  24623774.8794   24623767.8674
 -15309953.46447 -11916853.11845  21937517.6004   21937513.2784
  -6558849.38546  -5097674.81743  23756778.3434   23756772.1354
  -4854748.20346  -3760117.12443  24202539.2624   24202534.6754
    112214.80046     96476.32443  25070314.5474   25070309.0234
 -19941806.52547 -15520011.40545  21377462.6214   21377458.4014
 -23540739.41647 -18326633.54246  20556796.6374   20556791.5284
 10  3 18  1 29  0.0000000  0  9G21G31G 2G24G16G12G 5G30G29
 -13027328.57847 -10131876.66144  22732407.6604   22732401.7524
 -22517800.58548 -17527009.28346  20945934.7354   20945928.9194
  -2951639.90246  -2283990.66143  24640590.4484   24640583.6384
 -15398010.89447 -11985469.29545  21920760.6254   21920756.5344
  -6645162.99446  -5164932.14443  23740353.2894   23740346.5944
  -4769437.22746  -3693641.05144  24218773.8394   24218768.4154
     65567.02546     60127.43143  25061437.1224   25061431.3924
 -19873583.34447 -15466850.50245  21390445.4254   21390441.1854
 -23503309.53247 -18297467.40546  20563919.5224   20563914.2524
 10  3 18  1 29 30.0000000  0  9G21G31G 2G24G16G12G 5G30G29
 -13113373.73347 -10198924.82245  22716033.6874   22716028.1094
 -22526363.56748 -17533681.73946  20944305.3584   20944299.1594
  -2862986.49146  -2214910.10743  24657460.5844   24657454.0984
 -15485712.12547 -12053807.90045  21904071.5264   21904067.5584
  -6731423.71246  -5232148.27643  23723938.7114   23723932.5134
  -4684001.41447  -3627067.71444  24235031.3284   24235026.4294
     19298.95746     24074.39643  25052632.7754   25052626.9244
 -19805064.79547 -15413459.44445  21403484.1104   21403479.6964
 -23465541.80448 -18268037.99946  20571106.5934   20571101.5104
 10  3 18  1 30  0.0000000  0  9G21G31G 2G24G16G12G 5G30G29
 -13199176.45547 -10265784.08845  22699705.8284   22699699.7964
 -22534363.52648 -17539915.47946  20942782.8704   20942777.1624
  -2774051.62646  -2145610.25443  24674384.6194   24674377.4644
 -15573055.49447 -12121867.66345  21887450.7894   21887446.3204
  -6817630.67746  -5299322.52743  23707533.7184   23707527.6314
  -4598442.18447  -3560398.20344  24251312.9544   24251307.6134
    -26587.75346    -11681.42743  25043900.2664   25043895.1684
 -19736252.18947 -15359839.24045  21416578.3404   21416573.5654
 -23427439.18247 -18238347.65146  20578357.6874   20578352.1054
 10  3 18  1 30 30.0000000  0  9G21G31G 2G24G16G12G 5G30G29
 -13284734.26647 -10332452.51144  22683424.9684   22683418.8534
 -22541799.37148 -17545709.64946  20941367.9844   20941361.8294
  -2684837.28146  -2076092.56743  24691362.3644   24691354.9114
 -15660037.59248 -12189645.91245  21870898.1804   21870894.2764
  -6903783.42746  -5366454.54643  23691139.4024   23691133.5064
  -4512759.84047  -3493632.75644  24267617.8024   24267612.8504
    -72090.68846    -47138.24342  25035242.2834   25035236.0714
 -19667146.06647 -15305990.32645  21429729.4284   21429724.3774
 -23389002.66848 -18208397.11946  20585671.3474   20585665.9894
 10  3 18  1 31  0.0000000  0  9G21G31G 2G24G16G12G 5G30G29
 -13370044.37947 -10398927.91645  22667190.7884   22667184.9524
 -22548670.10748 -17551063.47346  20940060.5224   20940054.6734
  -2595345.76146  -2006358.91643  24708391.0754   24708384.1524
 -15746655.41047 -12257140.31145  21854415.3834   21854411.7484
  -6989880.47147  -5433543.13243  23674756.6644   23674749.4584
  -4426954.40347  -3426771.37244  24283946.4424   24283941.1624
   -117206.86646    -82293.66642  25026656.9994   25026651.0554
 -19597746.45247 -15251912.71045  21442935.4004   21442930.7274
 -23350233.28147 -18178187.21446  20593048.9904   20593044.0514
 10  3 18  1 31 30.0000000  0  9G21G31G 2G24G16G12G 5G30G29
 -13455104.66647 -10465208.65744  22651004.4714   22650998.2354
 -22554975.17848 -17555976.51646  20938860.7864   20938855.1074
  -2505579.55546  -1936411.27243  24725473.1764   24725466.1414
 -15832906.75348 -12324349.14645  21838002.6864   21837998.6014
  -7075921.38746  -5500588.01844  23658382.6804   23658376.8744
  -4341026.40247  -3359814.47743  24300297.5874   24300292.3024
   -161934.26146   -117146.20942  25018145.5624   25018139.9904
 -19528054.14047 -15197607.01945  21456197.6924   21456192.9454
 -23311133.26648 -18147719.66546  20600489.2214   20600484.0744
 10  3 18  1 32  0.0000000  0  9G21G31G 2G24G16G12G 5G30G29
 -13539912.70047 -10531292.82645  22634865.4844   22634859.8564
 -22560713.66048 -17560448.06946  20937768.7754   20937763.4324
  -2415541.04946  -1866251.37043  24742607.5684   24742600.3104
 -15918788.49648 -12391269.96245  21821659.7614   21821655.8164
  -7161904.93046  -5567588.11143  23642020.6204   23642014.7024
  -4254976.12446  -3292762.35043  24316672.3354   24316667.2814
   -206270.26046   -151693.71342  25009708.4544   25009703.1744
 -19458069.88947 -15143073.84745  21469514.9514   21469510.3614
 -23271703.41048 -18116995.10246  20607992.8574   20607987.7124
 10  3 18  1 32 30.0000000  0  9G21G31G 2G24G16G12G 5G30G29
 -13624466.62747 -10597179.00745  22618775.7384   22618770.1484
 -22565885.65148 -17564478.20446  20936784.6194   20936779.0614
  -2325232.85046  -1795881.33942  24759791.7334   24759783.7204
 -16004298.19448 -12457900.90245  21805387.8154   21805383.7594
  -7247830.41146  -5634543.03243  23625669.4524   23625663.4474
  -4168804.25846  -3225615.43844  24333070.9064   24333065.0004
   -250212.50145   -185934.42842  25001345.4384   25001340.1724
 -19387794.20547 -15088313.58245  21482888.1674   21482883.7294
 -23231945.33147 -18086014.78646  20615558.5864   20615553.0584
 10  3 18  1 33  0.0000000  0  9G21G31G 2G24G16G12G 5G30G29
 -13708764.16347 -10662865.38945  22602734.5594   22602729.1194
 -22570490.29148 -17568066.23646  20935908.5344   20935902.5174
  -2234657.21746  -1725302.87243  24777027.9794   24777019.9674
 -16089432.88848 -12524239.61845  21789187.4144   21789183.5284
  -7333696.83146  -5701451.89543  23609329.3774   23609323.7404
  -4082511.15546  -3158374.05544  24349491.9334   24349486.5534
   -293758.77145   -219866.47642  24993059.0704   24993053.4704
 -19317227.58847 -15033326.61945  21496316.6274   21496312.1774
 -23191860.87148 -18054780.13946  20623186.1424   20623181.0204
 10  3 18  1 33 30.0000000  0  9G21G31G 2G24G16G12G 5G30G29
 -13792802.97547 -10728350.17245  22586742.5164   22586736.7994
 -22574527.33348 -17571211.98846  20935140.0564   20935134.4914
  -2143816.75546  -1654518.06743  24794314.2694   24794306.9254
 -16174190.03947 -12590284.13745  21773058.1734   21773054.4164
  -7419503.33946  -5768314.09443  23593001.2364   23592995.1344
  -3996096.96846  -3091038.33544  24365935.4024   24365931.1314
   -336906.89545                  24984849.1434
 -19246370.70447 -14978113.46745  21509799.7464   21509795.5964
 -23151451.71747 -18023292.48746  20630875.7914   20630870.1094
 10  3 18  1 34  0.0000000  0  9G21G31G 2G24G16G12G 5G30G29
 -13876580.98747 -10793631.73945  22570800.1554   22570794.1074
 -22577995.90648 -17573914.78246  20934479.8704   20934474.1954
  -2052714.01646  -1583528.94843  24811650.7844   24811644.2824
 -16258566.84247 -12656032.29445  21757002.0564   21756998.2584
  -7505248.89546  -5835128.77143  23576684.6864   23576678.4644
  -3909562.41446  -3023608.81944  24382402.8814   24382398.3044
   -379654.33945                  24976714.3544
 -19175224.17647 -14922674.62945  21523338.6734   21523334.3104
 -23110719.23648 -17991552.89646  20638626.5604   20638621.8654
 10  3 18  1 34 30.0000000  0  9G21G31G 2G24G16G12G 5G30G29
 -13960095.99147 -10858708.34945  22554907.9504   22554902.4664
 -22580895.89248 -17576174.51546  20933928.2334   20933922.7354
  -1961351.96146  -1512337.70943  24829036.4674   24829029.7444
 -16342560.93747 -12721482.23045  21741018.1464   21741014.6494
  -7590933.09847  -5901895.66043  23560379.5594   23560373.1744
  -3822908.08246  -2956085.99644  24398893.2404   24398887.9624
   -421999.06945                  24968656.8334
 -19103789.13647 -14867010.95745  21536932.7494   21536927.6964
 -23069665.35648 -17959562.86046  20646439.3574   20646434.2564
 10  3 18  1 35  0.0000000  0  9G21G31G 2G24G16G12G 5G30G29
 -14043345.67747 -10923578.23545  22539065.9614   22539059.6364
 -22583226.32048 -17577990.43746  20933484.9204   20933478.7804
  -1869732.23246  -1440945.72743  24846470.5054   24846463.6374
 -16426169.25147 -12786631.55545  21725108.1714   21725104.5664
  -7676554.60247  -5968613.71943  23544086.4204   23544079.5484
  -3736134.25047  -2888470.02044  24415405.0364   24415399.6774
   -463938.37245                  24960675.5374
 -19032065.83447 -14811122.67345  21550581.1674   21550576.8504
 -23028291.00347 -17927323.10846  20654312.4424   20654307.2694
 10  3 18  1 35 30.0000000  0  9G21G31G 2G24G16G12G 5G30G29
 -14126328.20547 -10988239.93645  22523275.1094   22523268.6274
 -22584987.13548 -17579362.50646  20933149.9074   20933143.6544
  -1777857.43046  -1369355.00843  24863953.5674   24863946.9364
 -16509389.10447 -12851478.18845  21709272.4144   21709268.1524
  -7762112.57947  -6035282.25743  23527804.8144   23527798.9364
  -3649241.20446  -2820761.15943  24431940.2354   24431935.2034
   -505470.23445                  24952773.1604
 -18960054.79047 -14755010.18145  21564284.2734   21564279.2114
 -22986598.09248 -17894835.13646  20662246.5854   20662241.2434
 10  3 18  1 36  0.0000000  0  9G21G31G 2G24G16G12G 5G30G29
 -14209040.64247 -11052691.18145  22507535.0094   22507529.1834
 -22586177.84048 -17580290.33446  20932922.9864   20932917.5164
  -1685730.22246  -1297567.50943  24881484.4714   24881478.1574
 -16592217.89947 -12916020.09845  21693510.4164   21693506.2714
  -7847605.92746  -6101900.42143  23511536.1864   23511529.5074
  -3562229.59046  -2752959.92343  24448497.1974   24448493.3404
   -546592.27645                  24944947.3354
 -18887756.74947 -14698674.04245  21578042.1084   21578037.8154
 -22944587.86447 -17862099.89446  20670240.3764   20670235.4894
 10  3 18  1 36 30.0000000  0  9G21G31G 2G24G16G12G 5G30G29
 -14291481.30847 -11116930.65745  22491847.6494   22491840.9434
 -22586797.84148 -17580773.45646  20932805.0244   20932799.1494
  -1593352.95346  -1225585.22943  24899063.7164   24899057.7154
 -16674653.17747 -12980255.36545  21677823.0754   21677819.6344
  -7933033.75847  -6168467.59043  23495279.5874   23495272.8384
  -3475099.78446  -2685066.61443  24465078.3654   24465073.3194
   -587302.26245                  24937199.9394
 -18815172.32547 -14642114.75045  21591854.2344   21591849.9984
 -22902262.16647 -17829118.82646  20678295.2504   20678289.5444
 10  3 18  1 37  0.0000000  0  9G21G31G 2G24G16G12G 5G30G29
 -14373648.21547 -11180956.81345  22476211.4464   22476205.4614
 -22586847.42548 -17580812.10546  20932795.7554   20932790.2414
  -1500728.58546  -1153410.46142  24916690.1004   24916683.2234
 -16756692.72647 -13044182.28445  21662211.7534   21662207.7294
  -8018395.50846  -6234983.22444  23479035.3314   23479029.5354
  -3387852.62146  -2617081.81443  24481680.4674   24481675.0394
   -627598.49545                  24929531.4184
 -18742302.46947 -14585333.04545  21605720.7484   21605716.5714
 -22859623.19348 -17795893.65246  20686409.0734   20686404.0324
 10  3 18  1 37 30.0000000  0  9G21G31G 2G24G16G12G 5G30G29
 -14455539.45147 -11244768.15845  22460627.8064   22460622.6094
 -22586325.93348 -17580405.74846  20932895.1484   20932889.2164
  -1407859.49245  -1081044.78142  24934357.4684   24934353.3474
 -16838333.66748 -13107798.58845  21646676.4444   21646672.1094
  -8103690.27646  -6301446.67243  23462804.5774   23462798.8194
  -3300488.58846  -2549005.95243  24498305.7174   24498299.7124
   -667478.62945                  24921941.8234
 -18669147.65747 -14528329.31545  21619641.8364   21619637.2644
 -22816671.73648 -17762424.98446  20694582.3704   20694577.2174
 10  3 18  1 38  0.0000000  0  9G21G31G 2G24G16G12G 5G30G29
 -14537151.60547 -11308362.04245  22445097.8774   22445091.5984
 -22585232.28948 -17579553.55946  20933102.9274   20933097.0554
  -1314747.14045  -1008489.66342  24952078.4824   24952071.9574
 -16919572.56147 -13171101.61845  21631216.7224   21631212.7874
  -8188916.50147  -6367856.70643  23446586.8334   23446580.3774
  -3213006.92646  -2480838.43843  24514952.7544   24514947.6294
                                  24914431.2274
 -18595707.82147 -14471103.47845  21633617.0074   21633612.6414
 -22773408.85048 -17728713.64346  20702814.9534   20702810.0194
 10  3 18  1 38 30.0000000  0  9G21G31G 2G24G16G12G 5G30G29
 -14618483.90347 -11371737.85045  22429621.1844   22429614.3904
 -22583567.31548 -17578256.18446  20933420.0564   20933414.1834
  -1221395.15146   -935747.89542  24969845.7004   24969838.0414
 -17000408.15447 -13234090.38545  21615833.9154   21615830.1804
  -8274073.94447  -6434213.13243  23430381.4304   23430375.5524
  -3125409.62247  -2412580.80543  24531622.2794   24531616.4044
                                  24907003.5574
 -18521984.67347 -14413656.89045  21647645.8764   21647641.4644
 -22729837.21748 -17694761.72346  20711106.3644   20711101.7504
 10  3 18  1 39  0.0000000  0  8G21G31G 2G24G16G12G30G29
 -14699533.19347 -11434893.13945  22414197.1684   22414191.1114
 -22581330.20948 -17576512.99446  20933844.8594   20933839.8484
  -1127805.69746   -862820.97142  24987656.3804   24987647.7564
 -17080837.22447 -13296762.38645  21600529.2494   21600524.9894
  -8359161.19547  -6500514.88344  23414190.1894   23414184.1764
  -3037696.61947  -2344233.00443  24548313.5544   24548308.1004
 -18447978.68047 -14355989.88445  21661728.9684   21661724.4944
 -22685958.08348 -17660570.19746  20719456.3754   20719451.5314
 10  3 18  1 39 30.0000000  0  8G21G31G 2G24G16G12G30G29
 -14780298.09547 -11497826.82145  22398828.6474   22398822.2594
 -22578521.30548 -17574324.23946  20934380.4484   20934374.6714
  -1033981.56646   -789711.25642  25005509.1234   25005501.3594
 -17160857.49947 -13359115.84345  21585301.6894   21585297.8944
  -8444177.56246  -6566761.39044  23398012.0574   23398006.2714
  -2949868.65847  -2275795.63943  24565026.6564   24565021.6224
 -18373690.82747 -14298103.25945  21675865.6634   21675861.0884
 -22641773.08248 -17626140.32346  20727864.1654   20727859.6204
 10  3 18  1 40  0.0000000  0  8G21G31G 2G24G16G12G30G29
 -14860775.86047 -11560536.76045  22383514.1874   22383508.1024
 -22575139.11148 -17571688.76846  20935023.7104   20935017.9204
   -939924.40346   -716419.95743  25023408.2724   25023400.0514
 -17240465.50448 -13421148.04945  21570152.9884   21570149.1224
  -8529121.56147  -6632951.48644  23381847.5064   23381842.0794
  -2861925.32546  -2207268.37043  24581762.0244   24581756.5654
 -18299120.95447 -14239996.85245  21690055.9354   21690051.2764
 -22597282.86148 -17591472.62246  20736330.5164   20736326.0574
 10  3 18  1 40 30.0000000  0  8G21G31G 2G24G16G12G30G29
 -14940964.48747 -11623021.40645  22368254.9384   22368248.4314
 -22571184.08548 -17568606.94246  20935776.4294   20935770.5944
   -845637.04146   -642949.21143  25041350.0344   25041342.0994
 -17319659.38048 -13482857.55645  21555083.0834   21555078.7234
  -8613992.15846  -6699084.41844  23365697.3264   23365690.9844
  -2773867.66046  -2138652.00543  24598518.0934   24598513.3014
 -18224270.09547 -14181671.52445  21704299.6474   21704294.7624
 -22552489.58848 -17556568.78246  20744854.2314   20744849.5444
 10  3 18  1 41  0.0000000  0  8G21G31G 2G24G16G12G30G29
 -15020862.57047 -11685279.64245  22353050.7704   22353044.4204
 -22566656.57648 -17565079.01146  20936637.8744   20936632.5214
   -751122.25146   -569301.28043  25059336.2654   25059327.9404
 -17398436.83248 -13544242.57545  21540091.8914   21540087.9064
  -8698788.87446  -6765159.76144  23349561.0904   23349555.2454
  -2685696.33647  -2069947.10843  24615297.0304   24615292.0214
 -18149139.24747 -14123128.01545  21718596.0344   21718591.9014
 -22507395.27148 -17521430.35946  20753435.8824   20753430.4174
 10  3 18  1 41 30.0000000  0  8G21G31G 2G24G16G12G30G29
 -15100466.85947 -11747308.95445  22337902.2984   22337895.8124
 -22561555.87048 -17561104.44546  20937608.5594   20937602.8984
   -656382.26746   -495477.89943  25077363.0464   25077355.9134
 -17476794.96248 -13605300.84645  21525180.6404   21525176.8024
  -8783510.51847  -6831176.61343  23333438.8774   23333432.5414
  -2597411.69946  -2001153.89743  24632097.0094   24632091.6194
 -18073728.74947 -14064366.60745  21732946.5584   21732941.9374
 -22462000.93748 -17486058.15046  20762073.9814   20762069.3734
 10  3 18  1 42  0.0000000  0  7G21G31G24G16G12G30G29
 -15179775.18347 -11809107.65045  22322810.4734   22322804.5854
 -22555881.38848 -17556682.78346  20938688.5294   20938682.6544
 -17554730.61348 -13666029.92645  21510349.9814   21510346.0234
  -8868155.51946  -6897133.73243  23317331.8314   23317325.7424
  -2509013.68346  -1932272.30743  24648918.9694   24648913.5264
 -17998038.82647 -14005387.45745  21747349.5574   21747344.8364
 -22416307.65048 -17450453.00446  20770769.0794   20770764.1864
 10  3 18  1 42 30.0000000  0  8G21G31G24G16G12G 5G30G29
 -15258783.90047 -11870672.87145  22307775.9464   22307769.3944
 -22549630.81948 -17551812.21146  20939877.8934   20939872.0214
 -17632239.53548 -13726426.47345  21495600.9664   21495596.5214
  -8952720.93146  -6963028.86844  23301239.1274   23301233.0454
  -2420501.12746  -1863301.53643  24665761.9014   24665756.8474
    553033.63445                  24850502.0224
 -17922068.11648 -13946189.50845  21761806.6804   21761801.9574
 -22370315.15448 -17414614.69546  20779521.1564   20779516.0654
 10  3 18  1 43  0.0000000  0  8G21G31G24G16G12G 5G30G29
 -15337496.87047 -11932007.64645  22292796.8974   22292790.5544
 -22542810.87648 -17546497.97646  20941175.6934   20941169.9974
 -17709325.66748 -13786493.58645  21480931.7324   21480927.8204
  -9037212.05747  -7028866.09743  23285161.5414   23285154.6724
  -2331880.33446  -1794246.38143  24682626.1324   24682620.5464
    517874.14145                  24843810.7544
 -17845823.87347 -13886778.41045  21776314.8454   21776311.0384
 -22324031.38448 -17378549.42946  20788328.6694   20788323.6044
 10  3 18  1 43 30.0000000  0  8G21G31G24G16G12G 5G30G29
 -15415907.34648 -11993106.71045  22277875.9854   22277870.0644
 -22535416.33948 -17540736.00246  20942582.9244   20942577.0334
 -17785981.61148 -13846225.49245  21466344.4784   21466340.7054
  -9121623.05046  -7094640.87443  23269098.3384   23269091.8604
  -2243147.13946  -1725103.65643  24699510.3504   24699506.0194
    483157.24445                  24837205.8944
 -17769301.96947 -13827150.96445  21790877.2414   21790872.7504
 -22277452.78448 -17342254.41746  20797192.4084   20797187.5094
 10  3 18  1 44  0.0000000  0  8G21G31G24G16G12G 5G30G29
 -15494014.61647 -12053969.51145  22263012.4314   22263006.8834
 -22527448.42748 -17534527.24146  20944099.0414   20944093.3054
 -17862206.04648 -13905621.14645  21451839.5914   21451835.6744
  -9205953.87847  -7160353.21843  23253050.8484   23253044.1734
  -2154303.22446  -1655874.62543  24716417.1154   24716412.9504
    448884.03445                  24830683.3124
 -17692504.04147 -13767308.43945  21805491.1864   21805486.4584
 -22230582.03648 -17305731.75846  20806111.4544   20806106.5054
 10  3 18  1 44 30.0000000  0  8G21G31G24G16G12G 5G30G29
 -15571815.20947 -12114593.34045  22248207.8714   22248201.6194
 -22518906.43748 -17527871.14846  20945724.5814   20945718.8024
 -17937996.00548 -13964678.25045  21437417.2744   21437413.3274
  -9290203.11247  -7226001.94644  23237019.0784   23237012.2944
  -2065348.63346  -1586559.37543  24733344.8094   24733340.1154
    415056.93745                  24824246.4764
 -17615430.70347 -13707251.30045  21820157.4004   21820152.8694
 -22183420.67848 -17268982.65146  20815085.9754   20815081.2494
 10  3 18  1 45  0.0000000  0  8G21G31G24G16G12G 5G30G29
 -15649309.50847 -12174978.50545  22233460.7844   22233455.4664
 -22509792.58148 -17520769.45146  20947458.8424   20947453.2814
 -18013351.40047 -14023396.72945  21423077.8444   21423073.5544
  -9374371.66147  -7291587.83544  23221001.9204   23220995.6764
  -1976286.13546  -1517160.02443  24750292.9614   24750287.5664
    381675.62044                  24817892.4844
 -17538084.50447 -13646981.55345  21834875.9484   21834872.0824
 -22135971.79548 -17232009.49346  20824115.3804   20824110.4044
 10  3 18  1 45 30.0000000  0  8G21G31G24G16G12G 5G30G29
 -15726492.69047 -12235121.22745  22218773.3284   22218767.6974
 -22500103.79648 -17513219.75146  20949302.3744   20949296.8924
 -18088266.54148 -14081772.16045  21408821.8444   21408817.7664
  -9458455.74547  -7357107.90544  23205001.4614   23204995.1474
  -1887112.95346  -1447674.44843  24767262.6274   24767256.7894
    348745.09544                  24811625.5464
 -17460463.12547 -13586497.37445  21849647.1534   21849642.4454
 -22088233.99048 -17194811.21646  20833199.2754   20833194.6614
 10  3 18  1 46  0.0000000  0  8G21G31G24G16G12G 5G30G29
 -15803364.15547 -12295021.06145  22204145.2014   22204139.5204
 -22489841.50648 -17505223.17146  20951255.5204   20951249.8764
 -18162740.16947 -14139803.54945  21394649.9484   21394645.8194
  -9542455.21347  -7422562.01844  23189016.7024   23189009.9654
  -1797831.26546  -1378104.30143  24784252.3904   24784246.4154
  -1259154.06345                  24805446.0704
 -17382569.09747 -13525800.74445  21864470.5774   21864465.7324
 -22040210.12648 -17157390.02746  20842337.9314   20842333.0864
 10  3 18  1 46 30.0000000  0  8G21G31G24G16G12G 5G30G29
 -15879921.78047 -12354676.35945  22189576.7884   22189570.6884
 -22479005.88648 -17496779.83046  20953317.4854   20953311.8444
 -18236770.32348 -14197489.38045  21380562.2794   21380558.8084
  -9626369.43247  -7487949.72244  23173048.3074   23173041.9774
  -1708441.28346  -1308449.77643  24801262.5044   24801257.3474
  -1291179.65944                  24799351.0164
 -17304403.02747 -13464892.12745  21879344.6484   21879340.0114
 -21991902.16848 -17119747.46346  20851530.7964   20851525.9954
 10  3 18  1 47  0.0000000  0  8G21G31G24G16G12G 5G30G29
 -15956163.03747 -12414085.11845  22175068.7764   22175063.0194
 -22467596.69948 -17487889.55946  20955488.3124   20955482.9254
 -18310354.08548 -14254827.36445  21366560.1124   21366556.2644
  -9710196.89147  -7553269.78844  23157096.6624   23157090.8604
  -1618943.47946  -1238711.21543  24818293.1814   24818288.7804
  -1322749.95344                  24793342.6784
 -17225964.83747 -13403771.47145  21894270.8264   21894266.0774
 -21943311.22048 -17081884.39646  20860777.3474   20860772.0974
 10  3 18  1 47 30.0000000  0  8G21G31G24G16G12G 5G30G29
 -16032086.09347 -12473245.94345  22160621.2264   22160615.0414
 -22455614.25348 -17478552.58646  20957768.5464   20957762.6774
 -18383489.10147 -14311815.68845  21352643.0134   21352638.8554
  -9793936.53447  -7618521.43344  23141161.1184   23141154.9954
  -1529338.40946  -1168889.07743  24835344.9094   24835339.7294
  -1353863.05545                  24787423.4144
 -17147255.76547 -13342439.72845  21909248.4864   21909243.4494
 -21894438.69448 -17043801.91146  20870077.6754   20870072.5374
 10  3 18  1 48  0.0000000  0  8G21G31G24G16G12G 5G30G29
 -16107689.19047 -12532157.43545  22146234.1394   22146228.4384
 -22443058.69848 -17468769.05246  20960157.6294   20960152.3324
 -18456173.27347 -14368452.69745  21338811.5724   21338807.5584
  -9877587.57547  -7683704.04144  23125243.3084   23125236.8164
  -1439626.67646  -1098983.84743  24852416.0754   24852410.2164
  -1384517.06845                  24781591.7244
 -17068276.77947 -13280897.66845  21924277.9574   21924273.5474
 -21845286.40648 -17005501.42846  20879430.8284   20879425.5104
 10  3 18  1 48 30.0000000  0  8G21G31G24G16G12G 5G30G29
 -16182970.44347 -12590818.14345  22131908.6164   22131902.5094
 -22429930.33148 -17458539.16046  20962656.2784   20962650.3504
 -18528404.70047 -14424736.91645  21325066.0244   21325062.5104
  -9961148.72747  -7748816.60344  23109341.6954   23109336.0084
  -1349808.99846  -1028996.03243  24869507.7334   24869501.9944
                                  24775842.5604
 -16989028.47347 -13219145.75445  21939358.2844   21939353.4214
 -21795856.21348 -16966984.40046  20888837.3034   20888831.9704
 10  3 18  1 49  0.0000000  0  8G21G31G24G16G12G 5G30G29
 -16257927.97947 -12649226.60545  22117644.4384   22117638.7384
 -22416229.45448 -17447863.15846  20965263.2624   20965257.8894
 -18600180.79647 -14480666.33645  21311407.6064   21311403.5354
 -10044619.11447  -7813858.45044  23093457.8374   23093451.4654
  -1259886.26746   -958926.37843  24886619.3894   24886614.0874
  -1444440.61644                  24770187.0254
 -16909512.04347 -13157184.90545  21954489.7804   21954484.8904
 -21746149.48247 -16928251.88046  20898295.9364   20898290.9294
 10  3 18  1 49 30.0000000  0  8G21G31G24G16G12G 5G30G29
 -16332559.22147 -12707380.81045  22103442.8564   22103436.2174
 -22401955.61248 -17436740.69046  20967979.1284   20967973.8204
 -18671498.74347 -14536238.75145  21297836.4404   21297832.5974
 -10127997.01647  -7878828.24144  23077591.7554   23077585.7414
  -1169858.01146   -888774.47443  24903751.3304   24903745.9444
                                  24764617.9044
 -16829727.58647 -13095015.21545  21969671.8754   21969667.6254
 -21696166.95447 -16889304.46246  20907807.1954   20907802.3474
 10  3 18  1 50  0.0000000  0  8G21G31G24G16G12G 5G30G29
 -16406862.77547 -12765279.68645  22089303.2804   22089297.4864
 -22387109.79248 -17425172.52546  20970804.4324   20970798.9154
 -18742356.84247 -14591452.84445  21284352.5664   21284348.5684
 -10211282.07447  -7943725.68644  23061742.7224   23061737.0344
  -1079725.58046   -818541.43043  24920902.5334   24920897.2134
                                  24759136.3274
 -16749676.27247 -13032637.57045  21984905.3274   21984900.8554
 -21645910.76847 -16850143.80146  20917370.8864   20917365.7084
 10  3 18  1 50 30.0000000  0  8G21G31G24G16G12G 5G30G29
 -16480836.38747 -12822921.45345  22075226.2684   22075220.9054
 -22371691.80048 -17413158.51246  20973738.4204   20973732.8604
 -18812752.66747 -14646306.72245  21270956.2654   21270952.6104
 -10294472.84647  -8008549.67444  23045912.3234   23045905.7914
   -989489.58946   -748227.67043  24938075.2524   24938068.8344
  -1530837.61745                  24753746.2974
 -16669358.85747 -12970052.57445  22000189.5904   22000185.1704
 -21595382.47747 -16810771.10946  20926985.8694   20926981.1334
 10  3 18  1 51  0.0000000  0  8G21G31G24G16G12G 5G30G29
 -16554474.06847 -12880301.46345  22061214.1374   22061207.9684
 -22355697.58848 -17400695.49746  20976782.3204   20976776.3874
 -18882679.54547 -14700795.19145  21257649.9574   21257645.5494
 -10377563.59747  -8073295.71844  23030100.3934   23030094.2084
   -899145.58046   -677829.77543  24955266.1344   24955260.3724
  -1558694.98445                  24748445.6494
 -16588771.72447 -12907257.40345  22015524.2244   22015520.1344
 -21544579.19248 -16771184.14146  20936653.5934   20936648.7834
 10  3 18  1 51 30.0000000  0  8G21G31G24G16G12G 5G30G29
 -16627782.60648 -12937424.98945  22047264.4034   22047257.5804
 -22339137.10048 -17387791.22446  20979933.0434   20979928.0254
 -18952144.54248 -14754923.75545  21244431.0894   21244426.8334
 -10460562.77547  -8137970.39644  23014306.7364   23014300.1784
   -808704.02446   -607355.81443  24972477.5134   24972471.3784
  -1586085.83345                  24743234.3834
 -16507925.32547 -12844260.21845  22030909.1184   22030904.4744
 -21493512.06548 -16731391.57346  20946371.1724   20946366.2004
 10  3 18  1 52  0.0000000  0  8G21G31G24G16G12G 5G30G29
 -16700755.30747 -12994286.82245  22033377.3794   22033371.2034
 -22322005.17848 -17374441.68146  20983193.4774   20983187.9484
 -19021140.20548 -14808686.60646  21231301.6144   21231297.2634
 -10543464.12947  -8202568.84244  22998530.4754   22998524.6874
   -718160.29046   -536802.26243  24989706.4654   24989701.4014
  -1613003.27545                  24738112.4454
 -16426814.68647 -12781057.12845  22046343.9344   22046339.2074
 -21442177.34848 -16691390.49846  20956139.9384   20956135.0314
 10  3 18  1 52 30.0000000  0  8G21G31G24G16G12G 5G30G29
 -16773390.17547 -13050885.42845  22019555.4804   22019549.6834
 -22304301.76248 -17360646.82046  20986562.8374   20986556.8424
 -19089663.95448 -14862081.73446  21218262.3094   21218258.2614
 -10626266.02047  -8267089.78344  22982774.4994   22982768.5894
   -627514.32046   -466169.06443  25006955.9764   25006950.7144
  -1639445.15245                  24733079.3484
 -16345440.59247 -12717648.74545  22061828.9824   22061824.6334
 -21390575.92648 -16651181.59146  20965959.2414   20965953.9264
 10  3 18  1 53  0.0000000  0  8G21G31G24G16G12G 5G30G29
 -16845684.93147 -13107218.99845  22005798.3584   22005792.1894
 -22286028.59448 -17346407.99346  20990039.9704   20990034.0264
 -19157714.37248 -14915108.02946  21205312.1204   21205308.7264
 -10708967.90147  -8331532.80144  22967036.6714   22967030.3214
   -536767.67346   -395457.37343  25024224.9714   25024219.3084
  -1665410.62645                  24728138.4524
 -16263804.65447 -12654036.32545  22077363.8864   22077358.9334
 -21338710.05748 -16610766.64046  20975828.8734   20975823.9514
 10  3 18  1 53 30.0000000  0  8G21G31G24G16G12G 5G30G29
 -16917638.41947 -13163286.64645  21992105.8374   21992100.0374
 -22267186.04948 -17331725.49946  20993625.1554   20993619.8764
 -19225289.62048 -14967764.05745  21192453.5764   21192449.3424
 -10791569.08447  -8395897.34244  22951318.6654   22951312.7204
   -445921.00446   -324667.77643  25041512.6134   25041506.9524
  -1690898.32045                  24723288.1634
 -16181908.00947 -12590220.77345  22092948.1144   22092943.4674
 -21286581.66148 -16570147.11446  20985748.7844   20985743.7454
 10  3 18  1 54  0.0000000  0  8G21G31G24G16G12G 5G30G29
 -16989249.07847 -13219087.15545  21978478.3444   21978472.8244
 -22247773.76448 -17316599.05046  20997319.0874   20997313.8174
 -19292386.96847 -15020047.69446  21179685.4184   21179681.4604
 -10874067.97447  -8460182.19044  22935620.1884   22935613.2294
   -354974.38846   -253800.26043  25058819.0194   25058814.3004
  -1715906.12645                  24718529.5554
 -16099750.75447 -12526202.12945  22108582.2294   22108577.8534
 -21234191.70748 -16529323.77146  20995718.1824   20995713.4234
 10  3 18  1 54 30.0000000  0  8G21G31G24G16G12G 5G30G29
 -17060514.36647 -13274618.53945  21964917.7144   21964911.6624
 -22227792.15148 -17301028.96346  21001121.8284   21001115.9304
 -19359004.26947 -15071957.26845  21167008.0844   21167004.1994
 -10956463.09747  -8524386.18244  22919939.8954   22919933.9004
   -263928.47146   -182855.40343  25076144.0704   25076139.1234
  -1740432.04145                  24713863.1884
 -16017333.63847 -12461981.01545  22124265.9764   22124261.5064
 -21181541.54447 -16488297.67346  21005737.0904   21005732.3614
 10  3 18  1 55  0.0000000  0  9G21G31G 6G24G16G12G 5G30G29
 -17131432.29747 -13329879.25545  21951422.4014   21951416.3074
 -22207241.90848 -17285015.79546  21005032.5374   21005026.9434
   -794607.01745                  24927998.2884
 -19425139.40547 -15123491.13546  21154423.3584   21154419.3174
 -11038753.53647  -8588508.60944  22904280.2604   22904274.3514
   -172784.03846   -111833.78043  25093489.3914   25093483.1404
  -1764474.81845                  24709287.3264
 -15934657.71847 -12397558.22745  22139998.2444   22139993.9224
 -21128632.92847 -16447070.18146  21015805.4254   21015800.4604
 10  3 18  1 55 30.0000000  0  9G21G31G 6G24G16G12G 5G30G29
 -17202005.79247 -13384871.58745  21937992.3964   21937986.7084
 -22186127.91247 -17268563.33646  21009050.2674   21009044.4614
   -885217.48945                  24910754.8434
 -19490794.76547 -15174651.15246  21141929.2554   21141925.2004
 -11120942.68747  -8652552.08844  22888640.3404   22888634.0004
    -81546.13746    -40739.32143  25110850.2684   25110845.4114
  -1788037.56545  -2451826.14442  24704804.2264   24704798.9554
 -15851728.46747 -12332938.03545  22155779.3094   22155775.2394
 -21075471.78647 -16405645.91446  21025921.5274   21025917.1674
 10  3 18  1 56  0.0000000  0  9G21G31G 6G24G16G12G 5G30G29
 -17272223.48648 -13439586.66745  21924630.5854   21924624.3744
 -22164441.43348 -17251664.78946  21013176.9774   21013171.6514
   -975727.35945                  24893531.2064
 -19555958.86047 -15225428.35646  21129529.0944   21129525.1014
 -11203019.46747  -8716508.01544  22873021.7064   22873015.7184
      9794.11146     30434.89543  25128231.5514   25128227.4054
  -1811108.76245  -2469803.59042  24700413.5904   24700408.0084
 -15768537.16247 -12268113.64245  22171609.6044   22171605.4204
 -21022050.39047 -16364018.85646  21036087.2474   21036082.4054
 10  3 18  1 56 30.0000000  0  9G21G31G 6G24G16G12G 5G30G29
 -17342088.03047 -13494026.56445  21911335.9744   21911330.1354
 -22142187.66747 -17234324.20046  21017411.7094   21017405.7604
  -1066140.64145                  24876326.9814
 -19620634.39047 -15275824.87245  21117221.6524   21117217.4204
 -11284987.66347  -8780379.34044  22857423.8754   22857418.2944
    101231.55645    101684.86443  25145630.9074   25145626.3754
  -1833692.12546  -2487401.02442  24696115.2474   24696110.3624
 -15685089.14047 -12203089.20945  22187489.6964   22187485.3204
 -20968374.39147 -16322193.40046  21046301.8734   21046296.7694
 10  3 18  1 57  0.0000000  0  9G21G31G 6G24G16G12G 5G30G29
 -17411598.11848 -13548190.26745  21898108.7384   21898102.5694
 -22119367.40047 -17216542.18346  21021754.2674   21021748.6294
  -1156457.16645                  24859140.9124
 -19684819.41648 -15325839.16746  21105007.8244   21105003.7784
 -11366846.13347  -8844165.16344  22841846.3774   22841840.0694
    192765.15345    173009.74943  25163048.9594   25163044.8784
  -1855786.23046  -2504617.14443  24691911.3884   24691906.3584
 -15601385.49647 -12137865.60745  22203417.7604   22203414.0444
 -20914446.00547 -16280171.27446  21056564.1864   21056558.9724
 10  3 18  1 57 30.0000000  0  9G21G31G 6G24G16G12G 5G30G29
 -17480751.83548 -13602076.27345  21884948.6764   21884943.0644
 -22095981.12348 -17198319.11746  21026204.3634   21026199.0484
  -1246676.14146                  24841971.3484
 -19748512.21348 -15375469.91046  21092887.5184   21092883.4284
 -11448593.93647  -8907864.73944  22826290.5544   22826284.8444
    284394.07045    244408.89042  25180485.4304   25180481.2894
  -1877389.22746  -2521450.65743  24687800.9904   24687795.8194
 -15517427.34347 -12072443.67145  22219394.8584   22219390.2824
 -20860266.61748 -16237953.57646  21066873.9254   21066869.2584
 10  3 18  1 58  0.0000000  0  9G21G31G 6G24G16G12G 5G30G29
 -17549547.31748 -13655683.13645  21871857.5434   21871851.8814
 -22072028.99048 -17179655.12446  21030762.6314   21030756.9094
  -1336797.18545                  24824822.1024
 -19811710.47548 -15424715.30346  21080861.5124   21080857.3474
 -11530229.80547  -8971477.09044  22810755.5324   22810749.0084
    376118.25746    315882.27543  25197941.2364   25197935.2894
  -1898500.03246  -2537900.63743  24683783.4884   24683777.9864
 -15433215.39247 -12006823.99545  22235419.6044   22235415.3614
 -20805837.48947 -16195541.25946  21077231.2434   21077226.3144
 10  3 18  1 58 30.0000000  0  9G21G31G 6G24G16G12G 5G30G29
 -17617983.15248 -13709009.75045  21858834.7434   21858828.6854
 -22047513.09348 -17160551.83446  21035427.8074   21035421.9914
  -1426819.86446                  24807691.9994
 -19874412.52748 -15473574.03246  21068929.1334   21068925.3234
 -11611752.47247  -9035001.24244  22795242.7314   22795236.1504
    467936.59445    387429.03543  25215409.9954   25215406.5254
  -1919117.48346  -2553966.16043  24679860.4554   24679854.3814
 -15348751.05547 -11941007.62445  22251492.9194   22251488.3524
 -20751160.66148 -16152935.94646  21087636.0444   21087630.9514
 10  3 18  1 59  0.0000000  0  9G21G31G 6G24G16G12G 5G30G29
 -17686056.42048 -13762053.85245  21845880.8334   21845874.7944
 -22022432.62248 -17141008.61846  21040200.1334   21040194.9754
  -1516742.84346  -1175695.18143  24790579.7554   24790574.5894
 -19936615.25448 -15522043.68746  21057092.6274   21057088.5924
 -11693159.96347  -9098435.62844  22779751.0344   22779744.6184
    559849.23745    459049.26343  25232903.8194   25232898.8954
  -1939239.17646  -2569645.40143  24676030.9144   24676026.2304
 -15264034.21147 -11874994.50245  22267613.4804   22267609.5104
 -20696236.88648 -16110138.20746  21098087.9804   21098083.0344
 10  3 18  1 59 30.0000000  0  9G21G31G 6G24G16G12G 5G30G29
 -17753766.36748 -13814814.83845  21832995.7294   21832989.8334
 -21996788.98447 -17121026.56346  21045080.3914   21045074.6674
  -1606566.53245  -1245687.66242  24773486.7844   24773482.2574
 -19998317.78048 -15570123.57346  21045351.1134   21045346.9814
 -11774452.06547  -9161780.12844  22764281.5974   22764275.5124
    651854.58846    530741.76143  25250411.6244   25250406.6504
  -1958864.54746  -2584937.87043  24672296.3974   24672292.0034
 -15179066.40047 -11808785.82044  22283782.6534   22283777.9714
 -20641068.09447 -16067149.54446  21108585.5494   21108581.3114
 10  3 18  2  0  0.0000000  0  9G21G31G 6G24G16G12G 5G30G29
 -17821110.66348 -13867290.90445  21820181.1494   21820175.0524
 -21970582.42347 -17100605.87546  21050067.4804   21050061.4454
  -1696289.68345  -1315601.80243  24756411.7644   24756407.1064
 -20059517.62848 -15617811.75646  21033704.9944   21033700.5904
 -11855627.08047  -9225033.37044  22748834.6434   22748828.4704
    743952.62946    602506.48943  25267937.8474   25267932.3344
  -1977991.44747  -2599841.95143  24668657.0954   24668651.8874
 -15093848.29447 -11742382.11245  22299999.2234   22299994.7034
 -20585655.48847 -16023970.89146  21119130.4844   21119125.8284
 10  3 18  2  0 30.0000000  0  9G21G31G 6G24G16G12G 5G30G29
 -17888089.01648 -13919481.82945  21807435.3274   21807429.3534
 -21943815.28647 -17079748.37246  21055160.9654   21055155.2644
  -1785913.09945  -1385438.19842  24739358.0084   24739353.1014
 -20120214.23748 -15665107.80346  21022154.5084   21022150.9944
 -11936685.01547  -9288195.40244  22733410.1164   22733403.9574
    836141.26446    674341.76643  25285481.9974   25285474.6034
  -1996620.26447  -2614357.93343  24665111.8444   24665106.7514
 -15008382.08547 -11675785.07145  22316263.0714   22316258.1634
 -20530001.91147 -15980604.47846  21129721.1014   21129716.2894
 10  3 18  2  1  0.0000000  0  9G21G31G 6G24G16G12G 5G30G29
 -17954697.26948 -13971384.35545  21794760.1834   21794753.9114
 -21916485.86248 -17058452.72146  21060361.7564   21060355.6604
  -1875434.31045  -1455195.00443  24722322.8984   24722317.6574
 -20180403.16048 -15712008.25746  21010701.0504   21010697.0954
 -12017621.91747  -9351263.11544  22718007.9704   22718001.3924
    928422.43846    746249.16143  25303040.5124   25303035.9554
  -2014747.43047  -2628482.99743  24661662.1174   24661657.1854
 -14922666.38247 -11608993.62844  22332573.4784   22332569.5834
 -20474106.56347 -15937049.65646  21140357.7134   21140352.8234
 10  3 18  2  1 30.0000000  0  9G21G31G 6G24G16G12G 5G30G29
 -18020935.33348 -14022998.42645  21782155.3884   21782149.3214
 -21888595.87448 -17036720.27546  21065668.8814   21065662.9384
  -1964853.59645  -1524872.36042  24705307.6624   24705301.9714
 -20240083.90148 -15758512.71346  20999345.1504   20999340.6674
 -12098438.15647  -9414236.79044  22702629.1524   22702622.8124
   1020793.87146    818226.92443  25320617.7344   25320613.7994
  -2032372.48047  -2642216.79444  24658308.2154   24658303.5714
 -14836703.20847 -11542009.33644  22348932.2194   22348927.8664
 -20417971.98747 -15893308.43446  21151039.7694   21151034.7554
 10  3 18  2  2  0.0000000  0  9G21G31G 6G24G16G12G 5G30G29
 -18086800.72548 -14074322.10645  21769621.5514   21769615.6694
 -21860145.85948 -17014551.43546  21071082.7744   21071076.7774
  -2054170.02445  -1594469.57042  24688309.6574   24688303.5104
 -20299254.12048 -15804619.37246  20988084.2724   20988080.6494
 -12179131.87347  -9477115.00144  22687273.6774   22687267.5004
   1113255.68246    890275.07843  25338214.3964   25338208.7594
  -2049493.50047  -2655557.84444  24655050.9994   24655045.7774
 -14750492.90647 -11474832.50045  22365337.2714   22365333.2854
 -20361599.04847 -15849381.46846  21161767.3294   21161761.8524
 10  3 18  2  2 30.0000000  0  8G21G31G 6G24G16G 5G30G29
 -18152291.88248 -14125354.17345  21757159.1664   21757153.0514
 -21831137.21348 -16991947.30246  21076602.8364   21076597.0054
  -2143383.41945  -1663986.42642  24671334.2214   24671328.9754
 -20357912.26747 -15850327.01646  20976922.3594   20976918.7074
 -12259702.10447  -9539896.96544  22671941.4944   22671935.7634
  -2066109.78547  -2668505.59044  24651887.7794   24651883.1594
 -14664036.89947 -11407464.18844  22381789.3654   22381785.0874
 -20304989.80648 -15805270.37546  21172539.4324   21172533.8414
 10  3 18  2  3  0.0000000  0  8G21G31G 6G24G16G 5G30G29
 -18217407.20047 -14176093.37545  21744767.8914   21744761.6794
 -21801570.42548 -16968908.25746  21082229.0154   21082223.2764
  -2232493.07745  -1733422.49442  24654376.2854   24654369.8414
 -20416056.25947 -15895634.01446  20965857.6754   20965854.0904
 -12340147.35947  -9602581.57344  22656633.2824   22656627.1364
  -2082220.10647  -2681059.06144  24648823.0614   24648817.3544
 -14577336.11747 -11339905.13644  22398288.0784   22398284.0084
 -20248145.37148 -15760976.00746  21183357.0424   21183351.9084
 10  3 18  2  3 30.0000000  0  8G21G31G 6G24G16G 5G30G29
 -18282144.89547 -14226538.33245  21732449.0754   21732443.1574
 -21771446.40748 -16945435.00646  21087961.7004   21087955.7904
  -2321498.88945  -1802777.70542  24637435.9954   24637432.5644
 -20473684.74447 -15940539.31746  20954891.7624   20954887.4434
 -12420466.59347  -9665167.99444  22641349.3334   22641343.0294
  -2097823.38947  -2693217.41944  24645853.3984   24645848.5734
 -14490391.39447 -11272156.01145  22414833.1484   22414829.0714
 -20191067.62947 -15716499.84646  21194218.4024   21194212.9434
 10  3 18  2  4  0.0000000  0  8G21G31G 6G24G16G 5G30G29
 -18346503.46847 -14276687.86145  21720202.0364   21720196.0224
 -21740766.30748 -16921528.44046  21093800.0494   21093794.4614
  -2410400.16145  -1872051.39742  24620521.8964   24620515.2364
 -20530796.02647 -15985041.60946  20944023.6054   20944019.6864
 -12500659.00547  -9727655.58044  22626089.0054   22626082.9704
  -2112918.52347  -2704979.83344  24642981.5504   24642976.3344
 -14403203.67947 -11204217.53544  22431424.3364   22431419.9354
 -20133757.89347 -15671842.90946  21205123.9194   21205118.7344
 10  3 18  2  4 30.0000000  0  8G21G31G 6G24G16G 5G30G29
 -18410481.48747 -14326540.86445  21708027.0734   21708021.0224
 -21709531.36048 -16897189.53246  21099743.9684   21099738.1774
  -2499196.70045  -1941243.45742  24603625.6884   24603618.5824
 -20587388.06348 -16029139.29846  20933254.6414   20933250.4774
 -12580722.70447  -9790042.88344  22610853.5774   22610847.2964
  -2127504.19047  -2716345.26144  24640205.9744   24640200.6174
 -14315774.18047 -11136090.66744  22448061.7754   22448056.9834
 -20076217.76547 -15627006.44746  21216072.8804   21216068.0404
 10  3 18  2  5  0.0000000  0  8G21G31G 6G24G16G 5G30G29
 -18474077.01547 -14376095.79945  21695925.2804   21695919.8044
 -21677742.12948 -16872418.70846  21105793.1314   21105786.8114
  -2587887.68546  -2010353.32242  24586746.8964   24586741.5084
 -20643459.09247 -16072831.00146  20922584.4874   20922580.2394
 -12660656.32247  -9852328.80644  22595642.8274   22595635.9254
  -2141579.10747  -2727312.69544  24637527.1484   24637521.8254
 -14228103.52547 -11067775.87245  22464744.4304   22464740.0454
 -20018448.52747 -15581991.46846  21227066.6474   21227061.5244
 10  3 18  2  5 30.0000000  0  8G21G31G 6G24G16G 5G30G29
 -18537288.66547 -14425351.63045  21683897.0084   21683890.6184
 -21645399.20047 -16847216.43346  21111947.7004   21111942.0024
  -2676472.26945  -2079380.22642  24569890.9444   24569884.6004
 -20699007.11247 -16116115.16746  20912014.0124   20912010.5194
 -12740458.47247  -9914512.28444  22580456.7094   22580450.4874
  -2155141.93947  -2737881.11543  24634946.1814   24634940.9574
 -14140192.43447 -10999273.72645  22481474.5184   22481469.5474
 -19960451.47947 -15536798.96646  21238103.0254   21238098.0634
 10  3 18  2  6  0.0000000  0  8G21G31G 6G24G16G 5G30G29
 -18600114.20247 -14474306.58645  21671941.4384   21671935.2244
 -21612503.60348 -16821583.50846  21118207.8974   21118201.5994
  -2764950.07645  -2148323.97742  24553054.2824   24553049.2644
 -20754030.58447 -16158990.58946  20901543.2394   20901539.4874
 -12820127.79847  -9976592.27045  22565296.0684   22565290.0704
  -2168191.61246  -2748049.66043  24632462.0954   24632457.5494
 -14052041.85847 -10930584.97445  22498248.4334   22498243.7154
 -19902228.04047 -15491430.05046  21249182.2654   21249177.3444
 10  3 18  2  6 30.0000000  0  8G21G31G 6G24G16G 5G30G29
 -18662551.95248 -14522959.37045  21660059.5664   21660053.7834
 -21579056.28548 -16795520.66746  21124572.4644   21124566.5594
  -2853320.42346  -2217183.99542  24536237.7444   24536231.8664
 -20808527.31648 -16201455.56746  20891173.1914   20891169.3684
 -12899662.64547 -10038567.45544  22550161.0984   22550155.2164
  -2180726.70446  -2757817.22443  24630077.0134   24630072.4534
 -13963652.62147 -10861710.26244  22515068.6604   22515064.7094
 -19843779.36147 -15445885.62746  21260304.8304   21260300.2274
 10  3 18  2  7  0.0000000  0  8G21G31G 6G24G16G 5G30G29
 -18724601.59248 -14571309.72645  21648252.0424   21648246.3334
 -21545058.58448 -16769028.96446  21131041.9294   21131036.1334
  -2941583.15346  -2285960.19142  24519441.5334   24519436.5584
 -20862495.96548 -16243509.05846  20880903.0564   20880899.0934
 -12979062.14847 -10100437.20544  22535051.7934   22535045.7084
  -2192746.60446  -2767183.32943  24627789.6834   24627784.2764
 -13875026.08247 -10792650.62645  22531933.1004   22531928.9794
 -19785107.17347 -15400167.04246  21271469.6924   21271465.0794
 10  3 18  2  7 30.0000000  0  8G21G31G 6G24G16G 5G30G29
 -18786259.82448 -14619355.09845  21636518.8064   21636513.3384
 -21510511.34748 -16742109.04246  21137615.7964   21137610.2764
  -3029737.55746  -2354651.89442  24502667.5634   24502661.2534
 -20915934.76247 -16285149.67146  20870734.0384   20870730.0334
 -13058325.02147 -10162200.47144  22519968.7894   22519962.2564
  -2204250.05846  -2776147.05643  24625600.9324   24625595.8394
 -13786163.16247 -10723406.80344  22548843.3514   22548839.3734
 -19726212.69947 -15354275.25746  21282677.1324   21282672.0704
 10  3 18  2  8  0.0000000  0  8G21G31G 6G24G16G 5G30G29
 -18847525.50848 -14667094.58746  21624860.3354   21624854.7094
 -21475415.79548 -16714761.87046  21144294.3544   21144288.6774
  -3117783.13646  -2423258.80042  24485911.8044   24485906.3464
 -20968842.16648 -16326376.20546  20860665.8704   20860662.0484
 -13137449.56847 -10223855.94744  22504911.5734   22504905.4514
  -2215235.78046  -2784707.34043  24623510.1804   24623505.1224
 -13697064.87547 -10653979.57244  22565798.4344   22565793.7684
 -19667097.50948 -15308211.48046  21293926.2714   21293921.6404
 10  3 18  2  8 30.0000000  0  8G21G31G 6G24G16G 5G30G29
 -18908397.55448 -14714527.34245  21613276.9374   21613271.1804
 -21439772.81748 -16686988.12846  21151077.0254   21151071.6294
  -3205719.39746  -2491780.55843  24469178.2084   24469173.2354
 -21021216.52748 -16367187.38446  20850699.8464   20850695.7514
 -13216434.36447 -10285402.54444  22489881.6064   22489875.1514
  -2225702.77046  -2792863.42343  24621519.0474   24621513.7374
 -13607732.00447 -10584369.54644  22582797.5124   22582793.4014
 -19607762.95047 -15261976.76646  21305217.2244   21305212.6484
 10  3 18  2  9  0.0000000  0  8G21G31G 6G24G16G 5G30G29
 -18968875.01548 -14761652.63046  21601768.0204   21601762.1044
 -21403584.40248 -16658789.37746  21157963.5294   21157957.8644
  -3293546.57746  -2560217.32642  24452465.3974   24452460.5014
 -21073057.11848 -16407582.64746  20840834.8114   20840830.7784
 -13295279.00047 -10346839.90645  22474876.9454   22474871.9354
  -2235650.94047  -2800615.23843  24619626.0164   24619620.7664
 -13518166.18547 -10514577.98744  22599841.2744   22599837.0684
 -19548210.96348 -15215572.62546  21316549.9684   21316544.9934
 10  3 18  2  9 30.0000000  0  8G21G31G 6G24G16G 5G30G29
 -19028955.20648 -14808468.35845  21590335.5704   21590329.8944
 -21366850.47148 -16630165.53346  21164953.5804   21164947.9164
  -3381263.27245  -2628567.99143  24435772.2804   24435768.4864
 -21124361.18648 -16447559.83446  20831071.5914   20831067.8554
 -13373980.98847 -10408166.13344  22459901.4484   22459894.8544
  -2245078.41647  -2807961.33543  24617831.1154   24617826.0134
 -13428367.27547 -10444604.82844  22616930.1324   22616925.4234
 -19488442.07648 -15168999.46546  21327923.5724   21327918.3314
 10  3 18  2 10  0.0000000  0  8G21G31G 6G24G16G 5G30G29
 -19088636.83848 -14854973.52446  21578978.9314   21578972.6024
 -21329572.89948 -16601118.07846  21172047.1904   21172041.3644
  -3468869.33846  -2696832.41043  24419102.6574   24419097.2544
 -21175127.81248 -16487118.24546  20821411.3624   20821407.2714
 -13452539.09647 -10469380.24745  22444952.4344   22444946.4074
  -2253984.44947  -2814901.09943  24616136.2474   24616131.5144
 -13338336.77547 -10374451.19344  22634062.2544   22634057.5994
 -19428458.31547 -15122258.88146  21339337.8604   21339333.7764
 10  3 18  2 10 30.0000000  0  8G21G31G 6G24G16G 5G30G29
 -19147918.59048 -14901167.09345  21567697.6064   21567691.6004
 -21291752.51448 -16571647.65846  21179244.6954   21179238.1544
  -3556364.05246  -2765010.08442  24402452.9184   24402447.6624
 -21225354.90648 -16526256.23046  20811853.5054   20811849.3374
 -13530952.04047 -10530481.23744  22430030.7584   22430024.6594
  -2262368.02546  -2821433.75643  24614541.5554   24614536.5454
 -13248075.46347 -10304117.73144  22651238.1294   22651233.7454
 -19368260.77647 -15075351.71246  21350793.1234   21350788.1804
 10  3 18  2 11  0.0000000  0  8G21G31G 6G24G16G 5G30G29
 -19206798.60448 -14947047.62646  21556493.2464   21556487.3034
 -21253390.27048 -16541755.00346  21186544.8064   21186538.5684
  -3643746.88646  -2833100.59743  24385824.4624   24385819.2754
 -21275040.76647 -16564972.48146  20802398.5544   20802394.0514
 -13609218.36247 -10591467.97645  22415137.6434   22415131.4884
  -2270228.06847  -2827558.45343  24613046.1274   24613040.7344
 -13157584.05647 -10233604.96744  22668458.2484   22668453.9904
 -19307850.32547 -15028278.64046  21362289.1254   21362283.8364
 10  3 18  2 11 30.0000000  0  8G21G31G 6G24G16G 5G30G29
 -19265275.83047 -14992614.28545  21545365.2954   21545359.3104
 -21214487.58947 -16511441.23646  21193947.8474   21193941.9344
  -3731017.41745  -2901103.56043  24369215.5704   24369210.5434
 -21324184.15847 -16603266.03646  20793046.8954   20793042.8934
 -13687336.61147 -10652339.34145  22400272.1684   22400265.2174
  -2277563.79746  -2833274.60343  24611649.4874   24611644.4344
 -13066864.04147 -10162914.05244  22685721.7434   22685717.2614
 -19247228.60347 -14981040.94346  21373824.7364   21373820.2084
 10  3 18  2 12  0.0000000  0  8G21G31G 6G24G16G 5G30G29
 -19323347.98947 -15037865.31346  21534314.3704   21534308.3264
 -21175045.59147 -16480707.22046  21201452.9814   21201447.4254
  -3818175.11145  -2969018.65743  24352631.5204   24352627.1424
 -21372783.52947 -16641135.66046  20783798.3004   20783794.5454
 -13765305.22347 -10713094.09545  22385435.1994   22385428.6484
  -2284374.37346  -2838581.52443  24610353.3274   24610348.5004
 -12975916.23647 -10092045.64644  22703028.8604   22703024.1644
 -19186396.91647 -14933639.63146  21385401.3164   21385395.6934
 10  3 18  2 12 30.0000000  0  8G21G31G 6G24G16G 5G30G29
 -19381014.80648 -15082800.48446  21523340.8704   21523334.9704
 -21135066.12247 -16449554.39946  21209060.6694   21209055.2404
  -3905219.93245  -3036845.73443  24336067.5984   24336062.7324
 -21420837.96647 -16678580.66646  20774653.9644   20774650.0964
 -13843123.71647 -10773731.87444  22370626.2644   22370620.2754
  -2290659.31046  -2843478.84743  24609157.7264   24609152.5364
 -12884741.89147 -10021000.69744  22720378.5284   22720373.7954
 -19125357.30447 -14886076.29846  21397016.0954   21397011.1984
 10  3 18  2 13  0.0000000  0  8G21G31G 6G24G16G 5G30G29
 -19438273.62248 -15127417.74046  21512444.8334   21512439.0374
 -21094549.67647 -16417983.14746  21216770.7644   21216764.6994
  -3992150.85845  -3104584.12642  24319524.5514   24319519.9414
 -21468345.08848 -16715599.19846  20765613.8024   20765609.8384
 -13920789.11847 -10834250.35645  22355847.1304   22355841.2884
  -2296416.81746  -2847965.18843  24608062.5354   24608056.9754
 -12793341.62247  -9949779.71944  22737771.2784   22737766.4614
 -19064110.20347 -14838351.29646  21408671.1674   21408665.8834
 10  3 18  2 13 30.0000000  0  8G21G31G 6G24G16G 5G30G29
 -19495123.60748 -15171716.42846  21501626.5224   21501620.8284
 -21053498.29447 -16385995.06146  21224583.0134   21224576.6224
  -4078967.86345  -3172233.72043  24303004.3704   24302999.5374
 -21515304.34847 -16752190.81746  20756677.9194   20756673.8464
 -13998301.17347 -10894649.35945  22341097.1184   22341090.8274
  -2301647.28546  -2852040.84043  24607066.6894   24607062.2884
 -12701717.06547  -9878383.96544  22755206.6654   22755202.2004
 -19002657.78347 -14790466.30146  21420365.3144   21420360.4644
 10  3 18  2 14  0.0000000  0  8G21G31G 6G24G16G 5G30G29
 -19551563.59748 -15215695.63846  21490886.5254   21490880.3464
 -21011912.95548 -16353590.90746  21232496.3154   21232490.2994
  -4165670.62746  -3239794.32443  24286505.2394   24286499.7124
 -21561714.21548 -16788354.34646  20747846.1954   20747842.1874
 -14075658.11247 -10954927.49445  22326376.5144   22326370.3434
  -2306349.50846  -2855704.90143  24606171.8734   24606166.9174
 -12609869.04947  -9806814.10144  22772684.4944   22772680.3564
 -18941001.39647 -14742422.36646  21432098.1644   21432092.6504
 10  3 18  2 14 30.0000000  0  8G21G31G 6G24G16G 5G30G29
 -19607591.50648 -15259353.73746  21480224.8324   21480218.8804
 -20969794.98548 -16320771.71746  21240510.8634   21240505.5674
  -4252257.95445  -3307264.94243  24270027.6244   24270022.8654
 -21607572.78748 -16824088.29546  20739119.7324   20739115.8544
 -14152858.25947 -11015083.44445  22311685.9034   22311679.3414
  -2310522.01446  -2858956.17143  24605377.6084   24605372.7634
 -12517797.97247  -9735070.41644  22790205.6494   22790201.2244
 -18879141.69347 -14694220.00946  21443869.9214   21443864.2714
 10  3 18  2 15  0.0000000  0  8G21G31G 6G24G16G 5G30G29
 -19663206.48548 -15302690.07946  21469641.6654   21469635.4084
 -20927145.86248 -16287538.64946  21248626.7364   21248621.1264
  -4338730.03845  -3374645.76342  24253571.9364   24253566.9334
 -21652879.07248 -16859391.88946  20730497.9884   20730494.0714
 -14229900.65247 -11075116.47945  22297025.3024   22297018.9674
  -2314165.14046  -2861794.95443  24604685.2414   24604679.2314
 -12425505.46747  -9663154.18344  22807767.9104   22807763.8184
 -18817080.31747 -14645860.50346  21455679.8254   21455674.5454
 10  3 18  2 15 30.0000000  0  8G21G31G 6G24G16G 5G30G29
 -19718407.03348 -15345703.48846  21459137.0314   21459131.4174
 -20883966.86748 -16253892.68346  21256843.7074   21256837.4574
  -4425085.97746  -3441936.10943  24237139.9294   24237134.9634
 -21697631.59448 -16894263.97746  20721982.3714   20721978.1704
 -14306783.56647 -11135025.23545  22282394.8624   22282388.3244
  -2317277.72646  -2864220.31143  24604091.7604   24604087.4264
 -12332992.50147  -9591066.17944  22825372.6984   22825367.8144
 -18754818.80848 -14597345.04146  21467527.5234   21467522.5464
 10  3 18  2 16  0.0000000  0  8G21G31G 6G24G16G 5G30G29
 -19773192.23048 -15388393.24846  21448711.8114   21448705.7164
 -20840259.71647 -16219835.16846  21265160.6444   21265155.2404
  -4511326.10146  -3509136.17343  24220729.9074   24220724.3594
 -21741829.66848 -16928704.03546  20713571.8194   20713567.0244
 -14383505.64647 -11194808.68545  22267795.2904   22267789.3954
  -2319859.30546  -2866231.91043  24603600.7094   24603595.5424
 -12240260.55147  -9518807.50944  22843019.1874   22843014.5624
 -18692358.77247 -14548674.89846  21479413.2284   21479408.4254
 10  3 18  2 16 30.0000000  0  8G21G31G 6G24G16G 5G30G29
 -19827559.63648 -15430757.45646  21438365.9824   21438360.1844
 -20796025.25147 -16185366.76046  21273578.3044   21273572.7334
  -4597448.94446  -3576244.91643  24204340.5844   24204335.3984
 -21785470.96748 -16962710.22746  20705266.5914   20705262.8744
 -14460064.73247 -11254465.09645  22253226.1754   22253220.5074
  -2321908.71446  -2867828.87243  24603211.1004   24603205.8694
 -12147309.40447  -9446378.06544  22860707.4734   22860702.4844
 -18629700.49247 -14499850.27546  21491336.6194   21491331.5564
 10  3 18  2 17  0.0000000  0  8G21G31G 6G24G16G 5G30G29
 -19881508.87448 -15472795.81846  21428099.7544   21428093.9724
 -20751265.36047 -16150488.93046  21282095.8374   21282090.1124
  -4683454.95245  -3643262.52742  24187974.2024   24187969.0804
 -21828555.15248 -16996282.31446  20697068.5404   20697064.4074
 -14536460.41147 -11313994.18745  22238688.5244   22238682.7584
  -2323425.96746  -2869011.14343  24602922.4794   24602917.1584
 -12054141.39847  -9373779.62744  22878436.6784   22878431.7554
 -18566846.53248 -14450873.17646  21503297.3034   21503292.3974
 10  3 18  2 17 30.0000000  0  8G21G31G 6G24G16G 5G30G29
 -19935037.71248 -15514506.59946  21417913.7664   21417908.1354
 -20705981.19848 -16115202.58246  21290713.2934   21290707.5394
  -4769342.95145  -3710188.27243  24171630.1474   24171625.4084
 -21871080.05848 -17029418.59646  20688975.7324   20688971.6684
 -14612690.08847 -11373393.92745  22224182.9194   22224177.0254
  -2324409.59746  -2869777.58343  24602734.9714   24602729.9644
 -11960756.59647  -9301012.24844  22896206.7804   22896202.1204
 -18503796.96547 -14401743.64546  21515295.4954   21515290.0644
 10  3 18  2 18  0.0000000  0  8G21G31G 6G24G16G 5G30G29
 -19988145.69248 -15555889.43346  21407807.6664   21407801.6534
 -20660174.83448 -16079509.31546  21299430.0984   21299423.9234
  -4855112.86146  -3777021.97043  24155309.2924   24155303.7154
 -21913045.04848 -17062118.57846  20680990.5004   20680986.2344
 -14688753.25947 -11432663.92545  22209708.4414   22209702.2794
  -2324859.64646  -2870128.25743  24602649.8554   24602644.7034
 -11867156.62147  -9228077.23144  22914018.6374   22914014.0494
 -18440553.84547 -14352463.30046  21527329.9774   21527324.7734
 10  3 18  2 18 30.0000000  0  8G21G31G 6G24G16G 5G30G29
 -20040830.53048 -15596942.54946  21397781.6814   21397776.0814
 -20613846.68048 -16043409.46646  21308245.7544   21308239.8554
  -4940763.59846  -3843762.78443  24139010.6964   24139005.0754
 -21954447.95148 -17094380.57646  20673111.5864   20673107.4834
 -14764647.12147 -11491802.00945  22195266.1124   22195260.0254
  -2324775.00746  -2870062.29043  24602664.8394   24602660.4104
 -11773341.63747  -9154974.65344  22931871.1544   22931866.5374
 -18377117.63847 -14303032.49946  21539401.4914   21539396.9954
 10  3 18  2 19  0.0000000  0  8G21G31G 6G24G16G 5G30G29
 -20093091.54548 -15637665.41446  21387837.0764   21387831.4364
 -20566999.13748 -16006904.89046  21317160.5404   21317154.9344
  -5026295.54746  -3910411.08243  24122733.2484   24122729.0624
 -21995288.59348 -17126204.45046  20665339.5424   20665335.4344
 -14840371.16747 -11550807.74445  22180856.3184   22180850.2744
  -2324155.49346  -2869579.47843  24602783.6714   24602778.2034
 -11679313.57547  -9081706.05344  22949762.9354   22949759.7004
 -18313490.44847 -14253452.87145  21551509.1184   21551504.8444
 10  3 18  2 19 30.0000000  0  8G21G31G 6G24G16G 5G30G29
 -20144927.50548 -15678057.06446  21377972.8774   21377966.6024
 -20519633.69848 -15969996.76646  21326173.7734   21326168.0284
  -5111708.12446  -3976966.26243  24106480.4504   24106475.0724
 -22035565.84448 -17157589.31446  20657675.3434   20657671.1654
 -14915923.87647 -11609679.99045  22166479.2034   22166472.6674
  -2323000.53146  -2868679.47543  24603003.3334   24602997.4134
 -11585073.38547  -9008272.15344  22967697.1404   22967692.4234
 -18249673.74947 -14203725.58445  21563653.1234   21563648.3664
 10  3 18  2 20  0.0000000  0  8G21G31G 6G24G16G 5G30G29
 -20196337.06948 -15718116.46246  21368190.1114   21368184.1444
 -20471751.74348 -15932686.15746  21335285.4184   21335279.7394
  -5197000.73546  -4043428.07843  24090250.2894   24090244.4214
 -22075278.24948 -17188534.03846  20650118.3334   20650114.0784
 -14991303.43647 -11668417.28945  22152135.0574   22152129.0494
  -2321309.64946  -2867361.86943  24603324.9134   24603319.6124
 -11490621.97047  -8934673.66044  22985670.5134   22985666.0894
 -18185668.19847 -14153851.13546  21575833.2764   21575828.3764
 10  3 18  2 20 30.0000000  0  8G21G31G 6G24G16G 5G30G29
 -20247319.07948 -15757842.69746  21358488.7494   21358482.2174
 -20423355.10848 -15894974.49746  21344495.2664   21344489.0924
  -5282173.11746  -4109796.15943  24074042.1994   24074037.0634
 -22114424.89048 -17219037.90846  20642668.6594   20642664.9674
 -15066508.88747 -11727018.94145  22137823.1884   22137817.5674
  -2319082.65446  -2865626.53643  24603748.8154   24603743.3274
 -11395960.52147  -8860911.50544  23003684.0094   23003679.0984
 -18121475.37347 -14103830.76145  21588048.3774   21588043.5034
 10  3 18  2 21  0.0000000  0  8G21G31G 6G24G16G 5G30G29
 -20297872.08948 -15797234.65246  21348868.7234   21348862.5624
 -20374444.89248 -15856862.64746  21353802.3124   21353796.7984
  -5367224.58046  -4176069.99743  24057858.2234   24057852.4514
 -22153004.21448 -17249099.71346  20635327.5794   20635323.3484
 -15141537.73247 -11785482.95745  22123546.4234   22123539.8634
  -2316318.52646  -2863472.70543  24604274.3884   24604269.7524
 -11301090.10647  -8786986.50744  23021737.1174   23021733.3144
 -18057096.48247 -14053665.39245  21600299.4084   21600294.3894
 10  3 18  2 21 30.0000000  0  8G21G31G 6G24G16G 5G30G29
 -20347994.88948 -15836291.37246  21339330.4454   21339324.1494
 -20325022.70848 -15818351.86846  21363207.2004   21363201.3074
  -5452154.77546  -4242249.36543  24041694.9404   24041690.7014
 -22191015.51248 -17278718.89346  20628094.3144   20628090.3774
 -15216388.88047 -11843808.51645  22109302.5144   22109296.1824
  -2313017.15346  -2860900.19943  24604902.6024   24604897.2374
 -11206011.70947  -8712899.46344  23039830.3074   23039825.3974
 -17992532.89747 -14003356.12146  21612585.3584   21612580.4574
 10  3 18  2 22  0.0000000  0  8G21G31G 6G24G16G 5G30G29
 -20397686.05148 -15875011.75346  21329874.6464   21329868.6614
 -20275090.56648 -15779443.70646  21372709.2384   21372703.2434
  -5536963.35246  -4308333.97643  24025556.8844   24025552.3004
 -22228457.66148 -17307894.58946  20620969.1134   20620965.3574
 -15291060.71848 -11901994.36145  22095093.3554   22095086.6494
  -2309177.90546  -2857908.55543  24605634.3154   24605628.1534
 -11110726.25647  -8638651.05944  23057962.9924   23057957.7314
 -17927785.39447 -13952903.51445  21624906.7874   21624901.4164
 10  3 18  2 22 30.0000000  0  8G21G31G 6G24G16G 5G30G29
 -20446945.30648 -15913395.59146  21320501.0174   21320494.7224
 -20224650.43148 -15740139.71646  21382307.4384   21382301.8614
  -5621650.11546  -4374323.63743  24009441.8774   24009436.4414
 -22265329.98148 -17336626.26146  20613952.5844   20613948.6424
 -15365552.15647 -11960039.62345  22080918.1064   22080911.7804
  -2304800.85846  -2854497.84243  24606465.7994   24606460.8104
 -11015235.43547  -8564242.63544  23076133.6304   23076129.4354
 -17862855.92447 -13902309.13746  21637262.2324   21637257.2264
 10  3 18  2 23  0.0000000  0  8G21G31G 6G24G16G 5G30G29
 -20495770.63648 -15951441.28546  21311209.8034   21311203.3894
 -20173703.53048 -15700440.84046  21392002.1074   21391996.5144
  -5706214.16746  -4440217.70143  23993349.9914   23993344.3454
 -22301630.88248 -17364912.67246  20607044.7154   20607040.7524
 -15439861.17647 -12017942.75345  22066777.0644   22066770.8794
  -2299885.08146  -2850667.33243  24607402.1144   24607396.1924
 -10919539.99347  -8489674.78344  23094343.9094   23094339.6864
 -17797745.20047 -13851573.51145  21649652.4824   21649647.9794
 10  3 18  2 23 30.0000000  0  8G21G31G 6G24G16G 5G30G29
 -20544161.50748 -15989148.45846  21302001.4244   21301995.2644
 -20122252.21948 -15660348.92046  21401793.2114   21401787.2284
  -5790655.92246  -4506016.47643  23977280.6644   23977276.1994
 -22337360.27248 -17392753.74246  20600245.5374   20600241.6814
 -15513986.63347 -12075702.83645  22052671.6074   22052665.3704
  -2294430.84746  -2846417.27043  24608440.2944   24608433.9234
 -10823641.64047  -8414948.79344  23112592.5584   23112588.1774
 -17732455.35947 -13800698.31446  21662077.0144   21662071.6384
 10  3 18  2 24  0.0000000  0  8G21G31G 6G24G16G 5G30G29
 -20592115.99048 -16026515.57646  21292875.9054   21292869.8914
 -20070297.34248 -15619864.60946  21411679.6554   21411673.9944
  -5874974.15546  -4571719.00343  23961235.6904   23961230.6904
 -22372516.21348 -17420147.98046  20593555.6774   20593551.6094
 -15587926.44747 -12133318.26945  22038601.4544   22038594.9764
  -2288437.44646  -2841747.09943  24609580.6804   24609575.1154
 -10727540.43747  -8340064.74844  23130879.5534   23130875.7214
 -17666986.59347 -13749683.69846  21674535.2214   21674530.2964
 10  3 18  2 24 30.0000000  0  8G21G31G 6G24G16G 5G30G29
 -20639632.80648 -16063541.66446  21283833.7684   21283827.6164
 -20017840.49548 -15578989.14646  21421662.0904   21421656.4314
  -5959168.30046  -4637324.79843  23945213.4534   23945209.2604
 -22407097.94648 -17447094.77746  20586974.8924   20586970.9374
 -15661678.87348 -12190787.68445  22024566.5054   22024560.1744
  -2281904.35146  -2836656.37043  24610823.6564   24610818.6694
 -10631237.72447  -8265023.70844  23149206.1904   23149202.0014
 -17601340.04847 -13698530.55646  21687027.3404   21687022.3034
 10  3 18  2 25  0.0000000  0  8G21G31G 6G24G16G 5G30G29
 -20686711.65848 -16100226.47646  21274874.9334   21274868.9434
 -19964883.96948 -15537724.32646  21431739.4214   21431733.7034
  -6043238.55446  -4702834.07843  23929215.4454   23929210.8814
 -22441104.83448 -17473593.64346  20580503.9084   20580499.6264
 -15735242.81847 -12248110.22945  22010567.8954   22010561.5184
  -2274831.84346  -2831145.29443  24612168.4114   24612164.3484
 -10534735.01947  -8189826.80544  23167570.0734   23167565.0004
 -17535517.44547 -13647240.22446  21699553.0494   21699547.7974
 10  3 18  2 25 30.0000000  0  8G21G31G 6G24G16G 5G30G29
 -20733351.02048 -16136568.83346  21265999.7504   21265993.3174
 -19911429.41748 -15496071.43346  21441911.3674   21441905.6124
  -6127184.30746  -4768246.37143  23913241.4444   23913237.2914
 -22474535.82748 -17499643.75946  20574142.1384   20574137.9074
 -15808616.54647 -12305284.55745  21996605.6954   21996599.0944
  -2267219.32946  -2825213.45943  24613616.7874   24613612.2474
 -10438032.88747  -8114474.48744  23185971.9084   23185966.9984
 -17469519.75847 -13595813.45745  21712111.5024   21712106.9154
 10  3 18  2 26  0.0000000  0  8G21G31G 6G24G16G 5G30G29
 -20779550.25148 -16172568.22146  21257208.2644   21257202.4534
 -19857479.05148 -15454032.18546  21452177.6314   21452171.7484
  -6211005.39046  -4833561.49443  23897290.4534   23897286.6564
 -22507390.48648 -17525244.77946  20567890.1274   20567885.7654
 -15881798.53047 -12362309.46345  21982679.2694   21982672.8314
  -2259066.95446  -2818860.95643  24615169.0504   24615163.9334
 -10341133.13947  -8038968.22044  23204411.2834   23204406.6274
 -17403348.92847 -13544251.78745  21724703.6754   21724699.1294
 10  3 18  2 26 30.0000000  0  8G21G31G 6G24G16G 5G30G29
 -20825307.82948 -16208223.47946  21248501.0404   21248494.8784
 -19803034.10748 -15411607.56946  21462538.0674   21462532.5084
  -6294701.05546  -4898778.88843  23881364.0184   23881359.4764
 -22539667.52448 -17550395.71146  20561748.1674   20561743.5664
 -15954786.87048 -12419183.49345  21968789.9634   21968783.6994
  -2250374.05946  -2812087.24943  24616823.1984   24616817.6804
 -10244036.47047  -7963308.46344  23222887.7744   23222883.5664
 -17337005.41947 -13492555.55046  21737328.4784   21737323.9034
 10  3 18  2 27  0.0000000  0  8G21G31G 6G24G16G 5G30G29
 -20870622.22848 -16243533.39246  21239877.4834   21239871.6754
 -19748095.99848 -15368798.65846  21472992.4214   21472986.9644
  -6378270.55946  -4963897.98043  23865461.0254   23865456.6724
 -22571365.70548 -17575095.59246  20555715.6854   20555711.8984
 -16027579.80347 -12475905.24545  21954938.0054   21954931.6044
  -2241140.24646  -2804892.07143  24618580.4714   24618575.7564
 -10146743.57047  -7887495.83044  23241402.5464   23241397.5844
 -17270490.24547 -13440725.54945  21749985.9594   21749980.7204
 10  3 18  2 27 30.0000000  0  8G21G31G 6G24G16G 5G30G29
 -20915492.88348 -16278497.53346  21231339.1734   21231333.2344
 -19692667.45648 -15325607.59346  21483540.4254   21483534.7484
  -6461714.20746  -5028918.96843  23849583.0724   23849577.7304
 -22602485.05848 -17599344.43146  20549793.9944   20549789.6254
 -16100176.43548 -12532474.04945  21941123.6114   21941117.1594
  -2231366.04146  -2797275.79043  24620440.0624   24620435.3454
 -10049256.54847  -7811531.94044  23259953.6504   23259948.6254
 -17203804.89547 -13388762.93745  21762676.0234   21762670.9534
 10  3 18  2 28  0.0000000  0  8G21G31G 6G24G16G 5G30G29
 -20959919.08148 -16313115.34546  21222885.4754   21222879.3264
 -19636750.19748 -15282035.71146  21494180.9264   21494175.0604
  -6545031.52646  -5093841.58843  23833728.0834   23833722.8034
 -22633024.71948 -17623141.57046  20543982.6834   20543978.7384
 -16172574.83147 -12588888.37245  21927346.7914   21927340.3834
  -2221051.24646  -2789238.29043  24622402.8484   24622398.1404
  -9951576.36147  -7735417.51144  23278541.7584   23278537.3864
 -17136950.72347 -13336668.78945  21775397.8824   21775392.3484
 10  3 18  2 28 30.0000000  0  8G21G31G 6G24G16G 5G30G29
 -21003899.64248 -16347385.90846  21214515.9114   21214509.5354
 -19580346.23948 -15238084.57946  21504914.5414   21504908.7534
  -6628222.10346  -5158665.34243  23817897.4374   23817892.4364
 -22662983.77848 -17646486.28346  20538281.4424   20538277.2114
 -16244773.49347 -12645147.05845  21913607.4244   21913601.1534
  -2210195.70546  -2780779.39543  24624469.2174   24624463.4054
  -9853703.81947  -7659153.21244  23297165.9154   23297160.9374
 -17069929.09547 -13284444.15345  21788151.7014   21788146.4434
 10  3 18  2 29  0.0000000  0  8G21G31G 6G24G16G 5G30G29
 -21047433.94148 -16381308.73146  21206231.4844   21206225.5344
 -19523457.45448 -15193755.65346  21515739.9574   21515734.6764
  -6711285.74246  -5223390.26243  23802090.8424   23802086.3434
 -22692361.94248 -17669378.34746  20532691.1694   20532687.4514
 -16316771.22147 -12701249.17745  21899906.6464   21899900.3284
  -2198799.22246  -2771899.03443  24626637.7084   24626632.1404
  -9755640.35447  -7582740.11844  23315826.9124   23315821.9804
 -17002741.21347 -13232089.95845  21800936.8314   21800931.3284
 10  3 18  2 29 30.0000000  0  8G21G31G 6G24G16G 5G30G29
 -21090520.59148 -16414882.73646  21198032.4614   21198026.4914
 -19466085.71048 -15149050.40846  21526657.8194   21526651.8414
  -6794221.72546  -5288015.70343  23786308.4004   23786303.1974
 -22721158.16148 -17691816.95946  20527211.0984   20527207.2444
 -16388565.52347 -12757192.79345  21886244.8504   21886238.4744
  -2186861.91846  -2762597.21443  24628909.3854   24628903.7834
  -9657386.90547  -7506178.98644  23334523.7524   23334519.2454
 -16935387.59147 -13179606.62345  21813753.8084   21813748.4724
 10  3 18  2 30  0.0000000  0  8G21G31G 6G24G16G 5G30G29
 -21133157.96148 -16448106.65346  21189918.8734   21189913.3494
 -19408232.41048 -15103969.92446  21537666.8924   21537661.1224
  -6877029.51346  -5352541.26943  23770551.1814   23770546.0134
 -22749371.40848 -17713801.29846  20521842.3034   20521838.5224
 -16460154.59647 -12812976.47945  21872621.9194   21872615.8414
  -2174383.24546  -2752873.58043  24631283.9784   24631278.8364
  -9558944.57447  -7429470.69844  23353256.4544   23353252.3334
 -16867869.59747 -13126995.21445  21826602.1644   21826597.1844
 10  3 18  2 30 30.0000000  0  9G21G31G 6G18G24G16G 5G30G29
 -21175345.57548 -16480980.11446  21181891.0214   21181884.9364
 -19349899.72847 -15058515.89046  21548766.9564   21548761.3874
  -6959708.76046  -5416966.61643  23754817.7354   23754812.8224
   -757947.31245                  25275918.5944
 -22777001.15748 -17735330.96846  20516584.6944   20516580.4664
 -16531537.20947 -12868599.29045  21859038.1554   21859031.8164
  -2161363.41746  -2742728.21343  24633760.8854   24633756.2284
  -9460314.34747  -7352615.99644  23372025.8574   23372020.9264
 -16800188.43547 -13074256.66045  21839481.3074   21839476.0264
 10  3 18  2 31  0.0000000  0  9G21G31G 6G18G24G16G 5G30G29
 -21217083.24748 -16513502.96746  21173948.1834   21173942.3974
 -19291090.24147 -15012690.32246  21559957.8474   21559952.2594
  -7042259.89446  -5481292.21043  23739108.3494   23739103.5704
   -840647.27345                  25260180.1954
 -22804047.35148 -17756405.91746  20511438.0324   20511434.0564
 -16602712.38047 -12924060.46645  21845493.7624   21845487.3174
  -2147803.07346  -2732161.69843  24636342.4364   24636337.2894
  -9361498.04547  -7275616.30344  23390829.7544   23390825.5024
 -16732345.92647 -13021392.36945  21852391.3074   21852386.3724
 10  3 18  2 31 30.0000000  0  9G21G31G 6G18G24G16G 5G30G29
 -21258369.61348 -16545674.16046  21166091.9704   21166086.2434
 -19231805.12048 -14966494.12946  21571239.6464   21571233.7764
  -7124681.49146  -5545516.82843  23723424.2044   23723419.0184
   -923427.20145                  25244427.6824
 -22830508.36748 -17777024.88946  20506402.6714   20506398.7104
 -16673677.55448 -12979358.00145  21831989.6764   21831983.1134
  -2133701.16546  -2721173.17943  24639025.2254   24639020.4344
  -9262496.28047  -7198472.09044  23409669.0994   23409664.6854
 -16664342.08047 -12968402.36345  21865332.1224   21865327.2084
 10  3 18  2 32  0.0000000  0  9G21G31G 6G18G24G16G 5G30G29
 -21299203.55848 -16577492.80446  21158321.5354   21158315.5894
 -19172046.60548 -14919929.06346  21582611.2214   21582605.7504
  -7206973.46346  -5609640.43343  23707764.1274   23707759.9814
  -1006284.71546                  25228660.8394
 -22856384.16248 -17797187.84146  20501478.6234   20501474.3494
 -16744430.95948 -13034490.52645  21818525.6664   21818519.3784
  -2119058.33646  -2709763.17543  24641812.6694   24641806.8934
  -9163310.30246  -7121184.30944  23428543.3654   23428539.2324
 -16596178.56247 -12915287.94645  21878303.0264   21878298.6524
 10  3 18  2 32 30.0000000  0  9G21G31G 6G18G24G16G 5G30G29
 -21339583.38348 -16608957.60146  21150637.5544   21150631.5574
 -19111816.24048 -14872996.31446  21594072.3944   21594066.7754
  -7289135.14846  -5673662.49543  23692129.8754   23692125.3254
  -1089217.38446                  25212879.0454
 -22881673.85248 -17816894.08646  20496666.4044   20496662.0884
 -16814970.86548 -13089456.68945  21805102.5584   21805095.8894
  -2103874.34846  -2697931.50643  24644701.3214   24644696.3494
  -9063940.68447  -7043753.44744  23447452.8794   23447448.6604
 -16527855.98347 -12862049.58045  21891304.7404   21891299.7534
 10  3 18  2 33  0.0000000  0  9G21G31G 6G18G24G16G 5G30G29
 -21379509.41348 -16640068.78746  21143039.7224   21143033.7264
 -19051116.89248 -14825698.12746  21605623.2864   21605618.3004
  -7371166.80746  -5737583.25543  23676519.3024   23676514.5284
  -1172223.02245                  25197084.0024
 -22906377.56048 -17836143.71646  20491965.0564   20491961.3554
 -16885296.50448 -13144255.90145  21791720.3874   21791713.4984
  -2088149.95646  -2685678.73544  24647693.4824   24647688.7474
  -8964389.54447  -6966181.13944  23466396.8154   23466391.9574
 -16459376.33147 -12808688.82245  21904335.5924   21904330.7524
 10  3 18  2 33 30.0000000  0  9G21G31G 6G18G24G16G 5G30G29
 -21418980.89948 -16670825.78346  21135528.6094   21135522.4584
 -18989950.49748 -14778036.01046  21617263.0434   21617257.5044
  -7453068.11746  -5801402.44943  23660933.9604   23660929.5904
  -1255299.06646                  25181275.0304
 -22930494.57648 -17854936.19146  20487375.7584   20487372.1984
 -16955405.79847 -13198886.52445  21778378.5744   21778372.4844
  -2071884.98446  -2673004.72343  24650788.5434   24650782.7944
  -8864658.03347  -6888468.28044  23485375.3864   23485370.6224
 -16390740.55847 -12755206.41245  21917396.6354   21917391.4264
 10  3 18  2 34  0.0000000  0  9G21G31G 6G18G24G16G 5G30G29
 -21457995.61248 -16701226.85546  21128104.3384   21128098.4334
 -18928318.75148 -14730011.27945  21628990.9124   21628985.5604
  -7534837.90146  -5865119.13043  23645374.3944   23645369.5164
  -1338442.31846                  25165453.3674
 -22954023.93148 -17873270.74646  20482898.5534   20482894.3204
 -17025296.57347 -13253346.85645  21765078.6854   21765072.9624
  -2055079.07246  -2659909.20143  24653986.3914   24653982.0054
  -8764746.91647  -6810615.47444  23504388.0684   23504382.9824
 -16321949.25047 -12701602.80145  21930487.1864   21930482.8154
 10  3 18  2 34 30.0000000  0  9G21G31G 6G18G24G16G 5G30G29
 -21496553.77047 -16731272.17546  21120767.0644   21120760.6544
 -18866224.10148 -14681625.85046  21640807.3084   21640801.4024
  -7616476.61846  -5928733.70043  23629838.8674   23629834.0144
  -1421651.08945                  25149619.5604
 -22976966.04148 -17891147.71346  20478532.5014   20478528.7234
 -17094968.02347 -13307636.29345  21751820.7484   21751814.2384
  -2037733.12846  -2646392.86143  24657288.0834   24657282.1934
  -8664657.93247  -6732624.06543  23523433.8964   23523429.3754
 -16253004.23547 -12647879.42045  21943607.2384   21943602.2494
 10  3 18  2 35  0.0000000  0  9G21G31G 6G18G24G16G 5G30G29
 -21534654.54948 -16760961.08346  21113516.7634   21113510.4994
 -18803668.67148 -14632881.36146  21652711.6054   21652705.8744
  -7697983.75746  -5992245.74443  23614328.8144   23614323.5654
  -1504922.90245                  25133771.9524
 -22999320.14248 -17908566.48346  20474279.0604   20474274.9164
 -17164417.96547 -13361753.12545  21738604.6914   21738599.1804
  -2019847.19246  -2632455.74143  24660690.6004   24660686.1914
  -8564391.94847  -6654494.73644  23542513.4354   23542509.6604
 -16183906.16447 -12594036.78645  21956755.9504   21956750.9614
 10  3 18  2 35 30.0000000  0 10G21G31G 6G18G24G16G 3G 5G30G29
 -21572296.86648 -16790292.75046  21106353.3594   21106347.4604
 -18740654.31148 -14583779.26446  21664702.7644   21664696.8514
  -7779358.61846  -6055654.69243  23598843.6094   23598838.5764
  -1588254.59046                  25117915.5384
 -23021085.51348 -17925526.50146  20470137.2584   20470132.7514
 -17233644.52047 -13415695.89645  21725431.5424   21725425.6704
   -746295.96245                  24812443.6074
  -2001421.34146  -2618097.91243  24664197.4144   24664192.1654
  -8463949.95647  -6576228.25244  23561627.4084   23561623.1514
 -16114656.04347 -12540075.65345  21969933.9594   21969929.0584
 10  3 18  2 36  0.0000000  0 10G21G31G 6G18G24G16G 3G 5G30G29
 -21609483.02248 -16819268.96846  21099277.1714   21099271.4084
 -18677186.16347 -14534323.57346  21676779.8764   21676774.5254
  -7860604.07446  -6118962.83843  23583382.7234   23583377.7434
  -1671646.72946                  25102045.8144
 -23042264.90148 -17942029.92446  20466106.5454   20466102.8594
 -17302649.26447 -13469465.82745  21712300.3984   21712294.3354
   -843958.40445                  24793858.7844
  -1982458.84446  -2603321.90343  24667806.0724   24667801.0024
  -8363336.25147  -6497827.98644  23580773.3634   23580769.4574
 -16045258.02247 -12485999.27845  21983140.0174   21983135.4524
 10  3 18  2 36 30.0000000  0 10G21G31G 6G18G24G16G 3G 5G30G29
 -21646206.49948 -16847884.65946  21092288.8364   21092282.7704
 -18613260.59648 -14484511.44146  21688944.5654   21688939.2734
  -7941713.96646  -6182165.35343  23567948.2964   23567943.1364
  -1755091.08546                  25086167.6144
 -23062852.19348 -17958071.96546  20462189.1974   20462185.3644
 -17371424.36647 -13523056.82145  21699212.9544   21699206.5174
   -941553.84345                  24775287.6294
  -1962954.27146  -2588123.55843  24671517.2184   24671512.3824
  -8262546.22346  -6419290.31944  23599953.1004   23599949.1544
 -15975707.38447 -12431803.99045  21996374.7204   21996370.1994
 10  3 18  2 37  0.0000000  0 10G21G31G 6G18G24G16G 3G 5G30G29
 -21682469.47948 -16876141.52646  21085388.2444   21085382.3374
 -18548882.88648 -14434346.99346  21701195.3634   21701189.7644
  -8022690.85646  -6245264.19943  23552538.9754   23552533.0594
  -1838588.04846                  25070278.2284
 -23082849.86748 -17973654.55346  20458383.5774   20458379.4194
 -17439971.43948 -13576470.12445  21686168.9704   21686162.8784
  -1039084.77846                  24756727.8714
  -1942910.48946  -2572505.03143  24675331.6134   24675326.0834
  -8161584.33546  -6340618.71543  23619165.5994   23619160.7714
 -15906008.32047 -12377493.04245  22009638.1534   22009633.6374
 10  3 18  2 37 30.0000000  0 10G21G31G 6G18G24G16G 3G 5G30G29
 -21718271.05148 -16904038.84446  21078575.5924   21078569.6234
 -18484054.78047 -14383831.59746  21713531.7284   21713526.5954
  -8103534.22546  -6308259.03643  23537154.3394   23537149.6114
  -1922134.98246                  25054380.2754
 -23102257.41348 -17988777.31246  20454690.4024   20454686.8134
 -17508288.31448 -13629704.05745  21673168.8874   21673162.6854
  -1136549.85046                  24738181.8664
  -1922328.04846  -2556466.75543  24679248.1944   24679242.9804
  -8060451.34346  -6261813.80344  23638410.5414   23638405.9734
 -15836161.62947 -12323067.05645  22022929.7444   22022925.1724
 10  3 18  2 38  0.0000000  0 10G21G31G 6G18G24G16G 3G 5G30G29
 -21753610.72548 -16931576.24746  21071850.5444   21071844.7854
 -18418778.72547 -14332967.14746  21725953.4724   21725948.0894
  -8184243.71246  -6371149.52143  23521796.3114   23521791.0774
  -2005729.23746                  25038472.5744
 -23121074.87948 -18003440.26546  20451109.6454   20451105.2254
 -17576373.73748 -13682757.63945  21660212.3854   21660206.2864
  -1233948.99446                  24719646.9214
  -1901206.90246  -2540008.68943  24683267.5934   24683261.3874
  -7959148.49646  -6182876.54143  23657688.3474   23657683.9624
 -15766168.23947 -12268526.75845  22036248.5464   22036243.5574
 10  3 18  2 38 30.0000000  0 10G21G31G 6G18G24G16G 3G 5G30G29
 -21788487.83648 -16958753.21146  21065213.5354   21065207.5864
 -18353057.12847 -14281755.51446  21738460.3054   21738454.1514
  -8264819.34746  -6433935.73443  23506462.8884   23506457.9544
  -2089368.50046                  25022556.7174
 -23139302.27848 -18017643.42246  20447641.1514   20447637.2364
 -17644225.89847 -13735629.45645  21647300.6724   21647294.8524
  -1331281.96246                  24701124.3454
  -1879548.14646  -2523131.71943  24687389.2904   24687383.5424
  -7857677.23146  -6103808.02043  23676997.2674   23676992.9624
 -15696029.67747 -12213873.33545  22049595.5184   22049590.5964
 10  3 18  2 39  0.0000000  0 10G21G31G 6G18G24G16G 3G 5G30G29
 -21822901.73948 -16985569.23546  21058664.6474   21058659.0324
 -18286891.97447 -14230198.25546  21751050.8624   21751045.0694
  -8345260.51546  -6496617.13243  23491155.7834   23491150.8394
  -2173050.15546                  25006632.1104
 -23156939.27648 -18031386.53946  20444284.7964   20444280.7854
 -17711842.87448 -13788318.01045  21634433.2264   21634427.7134
  -1428548.27145  -1096307.81342  24682614.8804   24682609.5234
  -1857352.03346  -2505836.00943  24691613.5314   24691608.3304
  -7756038.69946  -6024609.17543  23696338.6264   23696333.7004
 -15625746.96547 -12159107.59145  22062970.1454   22062965.3474
 10  3 18  2 39 30.0000000  0 10G21G31G 6G18G24G16G 3G 5G30G29
 -21856851.71748 -17012023.75246  21052204.3544   21052198.3354
 -18220285.32447 -14178296.97346  21763725.4194   21763720.0634
  -8425566.90346  -6559193.52443  23475874.0474   23475869.4074
  -2256771.15146                  24990699.9534
 -23173985.25248 -18044669.11346  20441041.1954   20441037.0914
 -17779223.05348 -13840822.04145  21621611.6564   21621605.8724
  -1525746.59046  -1172046.73642  24664118.8794   24664114.1814
  -1834618.68246  -2488121.71343  24695938.7774   24695933.6624
  -7654234.10646  -5945280.90844  23715710.9554   23715706.3674
 -15555320.97347 -12104230.20345  22076372.0654   22076367.0334
 10  3 18  2 40  0.0000000  0 10G21G31G 6G18G24G16G 3G 5G30G29
 -21890336.84748 -17038116.05846  21045832.5954   21045826.2914
 -18153239.61448 -14126053.57045  21776483.8954   21776478.4704
  -8505738.21046  -6621664.65844  23460617.2654   23460613.0654
  -2340529.13246                  24974762.0474
 -23190440.06948 -18057491.04346  20437909.8264   20437905.3334
 -17846364.57048 -13893140.09545  21608834.2674   21608829.1744
  -1622876.31145  -1247732.22643  24645636.4194   24645631.0194
  -1811348.56346  -2469989.13743  24700366.9774   24700361.9264
  -7552264.73146  -5865824.25543  23735115.4494   23735110.5174
 -15484752.57147 -12049241.84345  22089800.8264   22089795.5874
 10  3 18  2 40 30.0000000  0 10G21G31G 6G18G24G16G 3G 5G30G29
 -21923356.64948 -17063845.76746  21039549.0444   21039542.7834
 -18085757.11748 -14073469.81146  21789325.3374   21789319.8104
  -8585773.93846  -6684030.15143  23445387.1274   23445382.6724
  -2424321.63646  -1881236.47343  24958816.4004   24958811.4504
 -23206303.87748 -18069852.44646  20434891.1634   20434886.7384
 -17913265.89448 -13945270.99445  21596103.7114   21596098.1694
  -1719936.82145  -1323363.77442  24627166.1394   24627161.5344
  -1787542.32246  -2451438.81043  24704897.3354   24704892.0074
  -7450131.88047  -5786240.23943  23754550.2654   23754546.0784
 -15414042.79447 -11994143.33045  22103255.9174   22103251.0194
 10  3 18  2 41  0.0000000  0 10G21G31G 6G18G24G16G 3G 5G30G29
 -21955910.43748 -17089212.35246  21033354.0554   21033348.6104
 -18017840.29447 -14020547.61746  21802249.1754   21802244.0474
  -8665673.89846  -6746289.84543  23430182.4134   23430178.1054
  -2508146.06346  -1946554.18842  24942865.8014   24942859.2754
 -23221576.49648 -18081753.17546  20431984.8994   20431980.5744
 -17979925.22048 -13997213.32045  21583419.0004   21583413.3014
  -1816927.91545  -1398941.23142  24608709.5094   24608704.0094
  -1763200.26646  -2432470.98543  24709529.6074   24709523.3184
  -7347836.58547  -5706529.61143  23774016.5414   23774012.3304
 -15343193.04547 -11938935.74145  22116738.7734   22116733.1614
 10  3 18  2 41 30.0000000  0 10G21G31G 6G18G24G16G 3G 5G30G29
 -21987997.61648 -17114215.34646  21027248.0534   21027242.0374
 -17949491.13948 -13967288.54346  21815255.9014   21815250.4954
  -8745437.68346  -6808443.40843  23415004.1354   23414999.6474
  -2591999.76046  -2011894.71142  24926909.2384   24926901.6424
 -23236257.68448 -18093193.05446  20429191.1944   20429186.8584
 -18046340.60848 -14048965.57345  21570780.7484   21570774.9054
  -1913848.68045  -1474463.88542  24590266.7114   24590260.3534
  -1738322.81946  -2413085.96043  24714263.7914   24714258.1624
  -7245380.29447  -5626693.55243  23793513.7104   23793509.4324
 -15272204.02047 -11883619.62345  22130247.3144   22130241.8824
 10  3 18  2 42  0.0000000  0 10G21G31G 6G18G24G16G 3G 5G30G29
 -22019617.25448 -17138854.01746  21021231.3994   21021225.0134
 -17880711.71348 -13913694.18846  21828344.3534   21828338.4674
  -8825064.70046  -6870490.41043  23399852.0364   23399847.0204
  -2675880.08846  -2077256.00742  24910946.4214   24910940.0044
 -23250346.97048 -18104171.71246  20426509.9094   20426505.7874
 -18112511.01148 -14100526.92645  21558188.8494   21558183.2724
  -2010698.49946  -1549931.22342  24571836.5504   24571830.3944
  -1712910.57946  -2393284.20543  24719099.0484   24719093.5564
  -7142764.23646  -5546732.99743  23813040.8354   23813036.5294
 -15201076.53647 -11828195.61545  22143782.4224   22143777.4804
 10  3 18  2 42 30.0000000  0 10G21G31G 6G18G24G16G 3G 5G30G29
 -22050769.41348 -17163128.42146  21015303.0044   21015297.6804
 -17811504.98047 -13859766.86345  21841513.5144   21841508.3074
  -8904555.10546  -6932430.97043  23384725.2104   23384720.3064
  -2759784.18746  -2142635.81142  24894980.2134   24894973.3104
 -23263844.67848 -18114689.39646  20423941.4894   20423937.0244
 -18178433.85648 -14151895.37945  21545644.1754   21545638.3564
  -2107477.05345  -1625343.08042  24553419.1344   24553414.5094
  -1686964.07746  -2373066.13243  24724036.6964   24724030.6104
  -7039989.63646  -5466648.91044  23832598.5854   23832593.7304
 -15129811.98347 -11772664.80245  22157343.5054   22157338.6214
 10  3 18  2 43  0.0000000  0 10G21G31G 6G18G24G16G 3G 5G30G29
 -22081453.32648 -17187037.95446  21009464.2344   21009458.1354
 -17741872.80148 -13805508.03545  21854764.5304   21854758.7714
  -8983908.22946  -6994264.55743  23369624.9764   23369620.2194
  -2843709.56846  -2208032.21242  24879009.9794   24879002.6924
 -23276750.63648 -18124745.97946  20421485.5674   20421481.1994
 -18244107.38548 -14203069.55545  21533147.0874   21533140.5314
  -2204183.58845  -1700698.84042  24535016.4384   24535011.1814
  -1660483.75246  -2352432.08743  24729074.8924   24729069.9854
  -6937057.43546  -5386441.98843  23852185.4044   23852181.4554
 -15058411.15247 -11717027.80145  22170930.5114   22170925.5704
 10  3 18  2 43 30.0000000  0 10G21G31G 6G18G24G16G 3G 5G30G29
 -22111668.64348 -17210582.35346  21003714.4194   21003708.2334
 -17671818.02747 -13750919.90546  21868095.2884   21868089.7264
  -9063123.95646  -7055991.08843  23354550.8944   23354546.1994
  -2927653.68746  -2273443.19442  24863035.9624   24863028.2664
 -23289065.13548 -18134341.68946  20419141.8304   20419137.6974
 -18309530.14647 -14254048.32345  21520697.2504   21520691.2454
  -2300817.80445  -1775998.13342  24516627.4154   24516622.8054
  -1633470.47146  -2331382.73643  24734215.8484   24734209.8104
  -6833969.53646  -5306113.77543  23871802.6874   23871797.7724
 -14986875.47247 -11661285.72145  22184543.8464   22184538.3454
 10  3 18  2 44  0.0000000  0 10G21G31G 6G18G24G16G 3G 5G30G29
 -22141414.22248 -17233760.71946  20998054.3134   20998047.8404
 -17601342.30048 -13696003.75746  21881506.4364   21881500.7824
  -9142201.73146  -7117610.11743  23339501.9564   23339497.2484
  -3011613.85546  -2338866.67542  24847058.4774   24847051.7874
 -23300787.67448 -18143476.13246  20416911.1514   20416906.9874
 -18374700.01747 -14304830.03945  21508295.5664   21508289.9984
  -2397378.47045  -1851240.22942  24498253.7454   24498248.4974
  -1605924.49646  -2309918.33343  24739457.4794   24739451.7804
  -6730726.67747  -5225664.80343  23891448.5594   23891444.2214
 -14915205.44147 -11605438.94445  22198181.4744   22198176.9384
 10  3 18  2 44 30.0000000  0 10G21G31G 6G18G24G16G 3G 5G30G29
 -22170690.27748 -17256573.23146  20992483.2294   20992477.3114
 -17530448.51448 -13640761.84445  21894997.1294   21894991.2434
  -9221141.44646  -7179121.54643  23324481.3624   23324476.0764
  -3095587.84246  -2404300.94142  24831078.9764   24831071.9074
 -23311918.63348 -18152149.59946  20414793.2084   20414788.8914
 -18439615.80548 -14355413.77545  21495942.8004   21495936.7864
  -2493865.09645  -1926424.59643  24479891.4494   24479887.2344
  -1577847.04346  -2288039.78643  24744800.0824   24744794.9804
  -6627330.48946  -5145096.33243  23911125.0624   23911120.3734
 -14843402.13547 -11549488.34345  22211845.7534   22211840.8624
 10  3 18  2 45  0.0000000  0 10G21G31G 6G18G24G16G 3G 5G30G29
 -22199495.65548 -17279018.97046  20987001.1364   20986995.7354
 -17459138.69548 -13585195.75845  21908567.0374   21908561.6804
  -9299942.62146  -7240525.05843  23309484.9104   23309480.9504
  -3179572.24546  -2469743.31042  24815096.6414   24815090.4894
 -23322458.02148 -18160362.10346  20412787.7654   20412783.3794
 -18504275.29848 -14405797.78945  21483638.4784   21483632.5304
  -2590277.42045  -2001551.07342  24461545.0724   24461540.4184
  -1549238.21046  -2265747.21243  24750245.3744   24750239.2024
  -6523782.08147  -5064409.27543  23930829.0914   23930825.5054
 -14771466.39847 -11493434.52545  22225534.7124   22225530.1994
 10  3 18  2 45 30.0000000  0 10G21G31G 6G18G24G16G 3G 5G30G29
 -22227830.27247 -17301097.88746  20981609.4134   20981603.2644
 -17387415.68648 -13529307.71245  21922215.7554   21922209.8384
  -9378605.02046  -7301820.42743  23294516.2044   23294511.6724
  -3263565.03746  -2535192.25142  24799113.3404   24799106.7274
 -23332406.02848 -18168113.78846  20410894.4394   20410890.3704
 -18568677.09448 -14455981.00545  21471382.9894   21471377.6264
  -2686614.69446  -2076619.08442  24443212.8944   24443207.9944
  -1520098.81646  -2243041.17243  24755789.8834   24755784.3244
  -6420082.87347  -4983604.70243  23950562.6034   23950557.7244
 -14699399.40547 -11437278.44845  22239248.2234   22239243.5514
 10  3 18  2 46  0.0000000  0 10G21G31G 6G18G24G16G 3G 5G30G29
 -22255693.80148 -17322809.72646  20976307.1324   20976301.3104
 -17315281.72148 -13473099.42845  21935941.4514   21935936.3714
  -9457128.52546  -7363007.56344  23279574.0974   23279569.2274
  -3347563.36146  -2600645.46242  24783129.4724   24783122.2904
 -23341762.59048 -18175404.61546  20409114.2354   20409109.7304
 -18632819.47347 -14505962.08145  21459177.1214   21459171.7004
  -2782876.17346  -2151627.96542  24424895.4434   24424889.8644
  -1490429.90846  -2219922.51643  24761436.0024   24761430.6834
  -6316233.87046  -4902683.39843  23970324.0274   23970319.3404
 -14627202.39047 -11381021.05045  22252987.1024   22252982.2094
 10  3 18  2 46 30.0000000  0 10G21G31G 6G18G24G16G 3G 5G30G29
 -22283084.94148 -17344153.45446  20971094.7024   20971088.9454
 -17242738.80648 -13416572.49046  21949746.7124   21949741.1044
  -9535512.13046  -7424085.67644  23264658.1974   23264653.8074
  -3431564.43346  -2666100.87843  24767144.4414   24767137.5974
 -23350527.47548 -18182234.38846  20407446.0694   20407442.1564
 -18696699.97147 -14555739.08745  21447021.3804   21447015.2594
  -2879060.77945  -2226577.04842  24406591.4994   24406586.2954
  -1460231.61046  -2196391.35343  24767181.6504   24767176.8934
  -6212236.14246  -4821646.22143  23990114.3624   23990110.2974
 -14554875.62347 -11324662.53745  22266750.5314   22266745.8434
 10  3 18  2 47  0.0000000  0 10G21G31G 6G18G24G16G 3G 5G30G29
 -22310004.37348 -17365129.63646  20965972.3294   20965966.0604
 -17169790.12347 -13359729.36645  21963628.0784   21963622.4334
  -9613756.34046  -7485055.15943  23249768.8014   23249763.7414
  -3515565.76146  -2731556.42942  24751159.4324   24751152.8154
 -23358701.82048 -18188604.00346  20405890.5114   20405886.3974
 -18760317.80448 -14605311.42445  21434915.0574   21434909.3724
  -2975168.76646  -2301466.42642  24388303.5444   24388298.2304
  -1429505.44146  -2172448.86443  24773028.3014   24773023.3824
  -6108091.72246  -4740494.73743  24009932.4964   24009928.1604
 -14482420.56247 -11268204.05345  22280538.0144   22280533.1334
 10  3 18  2 47 30.0000000  0 10G21G31G 6G18G24G16G 3G 5G30G29
 -22336452.21348 -17385738.33346  20960939.6154   20960933.5844
 -17096438.15347 -13302571.99546  21977586.5684   21977580.8174
  -9691860.86346  -7545915.79643  23234906.0374   23234901.0554
  -3599564.97446  -2797010.36842  24735174.6694   24735168.3904
 -23366285.70948 -18194513.51646  20404447.4854   20404443.3124
 -18823670.88447 -14654677.45945  21422859.7934   21422853.8034
  -3071199.57646  -2376295.58042  24370029.3704   24370024.6114
  -1398252.15246  -2148095.62343  24778976.1034   24778970.5374
  -6003801.70946  -4659229.79943  24029778.3234   24029773.7214
 -14409838.52647 -11211646.63445  22294349.8234   22294345.4494
 10  3 18  2 48  0.0000000  0 10G21G31G 6G18G24G16G 3G 5G30G29
 -22362427.04748 -17405978.46246  20955996.3074   20955990.5834
 -17022684.65448 -13245101.74345  21991621.4324   21991616.0714
  -9769824.81846  -7606666.90144  23220069.5684   23220065.0254
  -3683558.99346  -2862460.23643  24719190.2324   24719184.8874
 -23373278.57748 -18199962.49146  20403116.6074   20403112.7664
 -18886756.96347 -14703835.44145  21410854.4384   21410848.8174
  -3167151.82446  -2451063.59142  24351770.5184   24351765.2354
  -1366471.77546  -2123331.72943  24785024.1254   24785018.4264
  -5899367.05446  -4577852.16043  24049651.8314   24049647.3064
 -14337129.65947 -11154990.38145  22308185.8964   22308180.6494
 10  3 18  2 48 30.0000000  0 10G21G31G 6G18G24G16G 3G 5G30G29
 -22387928.01948 -17425849.34746  20951144.1724   20951137.8224
 -16948532.21948 -13187320.62245  22005732.2834   22005726.6424
  -9847647.72046  -7667308.10943  23205260.3064   23205255.1614
  -3767544.81946  -2927903.76642  24703209.3934   24703203.4584
 -23379680.61848 -18204951.09746  20401898.5504   20401894.4024
 -18949574.06248 -14752783.83245  21398901.1544   21398894.9734
  -3263025.44146  -2525770.25242  24333525.4914   24333520.6924
  -1334165.29846  -2098157.83343  24791171.3574   24791166.1684
  -5794788.90846  -4496362.69943  24069552.4894   24069547.3644
 -14264295.23247 -11098236.29545  22322046.4494   22322041.3374
 10  3 18  2 49  0.0000000  0 10G21G31G 6G18G24G16G 3G 5G30G29
 -22412955.76948 -17445351.48246  20946381.2584   20946375.0274
 -16873983.40948 -13129230.65045  22019918.1184   22019912.4284
  -9925329.76046  -7727839.55944  23190478.3514   23190473.3154
  -3851520.14546  -2993339.08142  24687230.6094   24687222.3524
 -23385492.49248 -18209479.82146  20400792.6414   20400787.9774
 -19012120.99548 -14801521.69545  21386999.0024   21386992.7414
  -3358819.40046  -2600414.91442  24315297.3574   24315291.9304
  -1301333.72946  -2072574.77643  24797419.2524   24797414.5584
  -5690069.02546  -4414762.78443  24089479.5194   24089474.8544
 -14191336.18547 -11041385.09145  22335929.9864   22335924.6654
 10  3 18  2 49 30.0000000  0 10G21G31G 6G18G24G16G 3G 5G30G29
 -22437509.73048 -17464484.43146  20941708.9614   20941703.0114
 -16799041.29547 -13070834.20345  22034179.3914   22034173.3754
 -10002870.75547  -7788261.08244  23175722.5194   23175717.4224
  -3935482.71346  -3058764.40942  24671252.3544   24671245.2454
 -23390714.65848 -18213549.03446  20399798.7714   20399794.9514
 -19074396.02848 -14850047.69645  21375148.1894   21375141.8354
  -3454533.82946  -2674997.55442  24297083.7184   24297077.3704
  -1267978.27946  -2046583.51443  24803766.4884   24803761.5934
  -5585208.88047  -4333053.61043  24109434.1814   24109429.4284
 -14118253.56247 -10984437.60845  22349836.9044   22349831.8574
 10  3 18  2 50  0.0000000  0 10G21G31G 6G18G24G16G 3G 5G30G29
 -22461589.07548 -17483247.55646  20937126.6024   20937120.5934
 -16723707.65547 -13012132.67045  22048514.8044   22048508.8584
 -10080270.05446  -7848572.21744  23160993.5794   23160989.2044
  -4019429.32246  -3124177.37843  24655277.9184   24655270.8774
 -23395346.83848 -18217158.52646  20398917.3084   20398913.1074
 -19136397.15647 -14898360.25745  21363349.4904   21363343.5384
  -3550167.34346  -2749517.16743  24278884.8494   24278879.6584
  -1234099.49646  -2020184.46443  24810213.8074   24810208.3964
  -5480209.39246  -4251235.83043  24129414.2964   24129410.2724
 -14045048.07447 -10927394.37545  22363767.2254   22363762.3164
 10  3 18  2 50 30.0000000  0 10G21G31G 6G18G24G16G 3G 5G30G29
 -22485194.02547 -17501641.01946  20932634.7504   20932628.6624
 -16647985.13148 -12953128.10845  22062924.5484   22062918.4734
 -10157527.46447  -7908772.75844  23146292.1364   23146288.0344
  -4103357.31646  -3189575.81542  24639306.1364   24639299.4654
 -23399389.69248 -18220308.79646  20398147.6074   20398143.7044
 -19198122.68248 -14946458.06545  21351603.3354   21351597.8254
  -3645719.69946  -2823973.53243  24260702.2334   24260697.2294
  -1199698.16846  -1993378.23243  24816759.7044   24816755.3014
  -5375071.93946  -4169310.54143  24149420.8074   24149417.0424
 -13971720.64847 -10870256.12945  22377721.2224   22377716.7194
 10  3 18  2 51  0.0000000  0 10G21G31G 6G18G24G16G 3G 5G30G29
 -22508324.32347 -17519664.62046  20928232.9534   20928227.2754
 -16571876.62347 -12893822.78645  22077407.3974   22077401.4994
 -10234642.67247  -7968862.53444  23131617.9034   23131612.7754
  -4187264.30346  -3254957.84642  24623339.7254   24623332.7364
 -23402843.65348 -18223000.18646  20397490.4234   20397486.5784
 -19259570.98648 -14994339.86446  21339910.6304   21339904.7464
  -3741189.97546  -2898365.93043  24242534.3504   24242529.5464
  -1164775.51846  -1966165.78343  24823405.3174   24823400.1014
  -5269797.76046  -4087278.68743  24169454.4284   24169449.9584
 -13898272.66847 -10813023.95045  22391698.3374   22391693.3024
 10  3 18  2 51 30.0000000  0 10G21G31G 6G18G24G16G 3G 5G30G29
 -22530979.13147 -17537317.72146  20923921.9684   20923916.4974
 -16495383.98547 -12834218.13545  22091963.3764   22091957.2514
 -10311615.18047  -8028841.09544  23116970.1274   23116965.4994
  -4271146.64446  -3320320.74443  24607377.1944   24607370.6704
 -23405708.71448 -18225232.69546  20396945.1604   20396941.1104
 -19320739.39148 -15042003.54846  21328270.3904   21328264.6594
  -3836577.53346  -2972693.89743  24224382.5714   24224377.7134
  -1129332.06546  -1938547.48943  24830150.2864   24830144.9854
  -5164388.06346  -4005141.27843  24189513.2164   24189508.8424
 -13824704.15547 -10755697.84945  22405697.5004   22405692.3964
 10  3 18  2 52  0.0000000  0 10G21G31G 6G18G24G16G 3G 5G30G29
 -22553159.30948 -17554600.96746  20919701.5534   20919695.5204
 -16418510.66748 -12774316.85245  22106592.1564   22106586.2974
 -10388445.13547  -8088708.57043  23102350.1654   23102344.8404
  -4355003.21146  -3385663.51843  24591420.5884   24591413.6914
 -23407986.02048 -18227007.21446  20396511.8114   20396507.5664
 -19381626.91147 -15089448.37446  21316684.5994   21316678.0244
  -3931882.43946  -3046957.47543  24206246.1974   24206241.8984
  -1093369.57146  -1910524.77043  24836993.4134   24836988.3394
  -5058845.04646  -3922899.95943  24209597.4934   24209593.2884
 -13751016.67247 -10698279.04645  22419719.9114   22419715.0644
 10  3 18  2 52 30.0000000  0 10G21G31G 6G18G24G16G 3G 5G30G29
 -22574863.41848 -17571513.25546  20915571.7234   20915565.2494
 -16341258.83347 -12714120.62445  22121292.5004   22121286.4464
 -10465131.86546  -8148464.45244  23087757.3644   23087751.6314
  -4438830.39546  -3450983.41243  24575468.1634   24575461.6424
 -23409675.58048 -18228323.75146  20396190.4784   20396186.2504
 -19442231.67047 -15136672.85545  21305151.3634   21305145.1874
  -4027103.34546  -3121155.56742  24188127.1864   24188121.6014
  -1056888.40746  -1882097.86443  24843935.7004   24843930.6834
  -4953169.52946  -3840555.42943  24229707.0114   24229702.5724
 -13677210.65547 -10640767.86345  22433764.5604   22433759.7264
 10  3 18  2 53  0.0000000  0 10G21G31G 6G18G24G16G 3G 5G30G29
 -22596092.44148 -17588055.34546  20911531.7914   20911525.3614
 -16263631.36747 -12653631.69645  22136064.4454   22136059.2734
 -10541675.44246  -8208108.78644  23073191.3144   23073186.2474
  -4522625.52546  -3516278.31043  24559523.1514   24559516.6934
 -23410777.96148 -18229182.73846  20395980.7134   20395976.6024
 -19502551.84748 -15183675.58346  21293672.6524   21293666.9654
  -4122240.21246  -3195288.16443  24170022.4424   24170018.1964
  -1019889.70446  -1853267.71943  24850976.6644   24850971.3144
  -4847362.87146  -3758108.68443  24249841.2434   24249836.8424
 -13603287.39147 -10583165.32145  22447831.9584   22447826.9294
 10  3 18  2 53 30.0000000  0 10G21G31G 6G18G24G16G 3G 5G30G29
 -22616845.08947 -17604226.23246  20907582.4544   20907576.4144
 -16185630.28447 -12592851.63345  22150907.5424   22150901.9014
 -10618075.01246  -8267640.90744  23058653.0094   23058648.0044
  -4606385.60446  -3581545.88543  24543582.7364   24543576.6464
 -23411293.41748 -18229584.38746  20395882.8784   20395878.9144
 -19562585.40048 -15230454.98046  21282248.8914   21282242.8324
  -4217291.86046  -3269354.34843  24151935.1174   24151930.5384
   -982374.20746  -1824034.86143  24858115.7134   24858109.9164
  -4741425.82046  -3675560.34743  24270000.5864   24269995.6504
 -13529247.46847 -10525471.88245  22461921.1014   22461915.8074
 10  3 18  2 54  0.0000000  0 10G21G31G 6G18G24G16G 3G 5G30G29
 -22637121.34848 -17620025.91446  20903723.8634   20903717.7734
 -16107258.13748 -12531782.43445  22165821.1374   22165815.7774
 -10694330.51446  -8327060.74844  23044141.7604   23044137.1204
  -4690108.22846  -3646784.26642  24527651.1534   24527644.8404
 -23411222.16748 -18229528.86446  20395896.3314   20395892.1974
 -19622330.60348 -15277009.67546  21270879.7474   21270873.4044
  -4312257.90546  -3343353.81842  24133863.8134   24133859.3384
   -944343.33946  -1794400.39143  24865351.9084   24865346.6314
  -4635360.17646  -3592911.79243  24290183.7454   24290179.2894
 -13455092.10247 -10467688.50345  22476032.0044   22476027.2804
 10  3 18  2 54 30.0000000  0 10G21G31G 6G18G24G16G 3G 5G30G29
 -22656921.25848 -17635454.40546  20899956.5034   20899950.4134
 -16028517.63248 -12470426.20545  22180805.1274   22180799.8094
 -10770441.54547  -8386368.02744  23029658.5714   23029653.4904
  -4773790.50246  -3711991.23443  24511727.7674   24511720.7734
 -23410564.79548 -18229016.62046  20396021.4744   20396017.4594
 -19681785.46848 -15323338.14046  21259565.9984   21259559.7154
  -4407137.46046  -3417285.96143  24115808.1314   24115802.8624
   -905798.05046  -1764365.05443  24872687.1384   24872682.1074
  -4529167.22746  -3510164.03143  24310391.6794   24310387.2334
 -13380821.57747 -10409815.37445  22490165.3434   22490160.6174
 10  3 18  2 55  0.0000000  0 10G21G31G 6G18G24G16G 3G 5G30G29
 -22676244.27248 -17650511.29246  20896279.0394   20896272.8594
 -15949411.58347 -12408785.13445  22195858.2874   22195852.7604
 -10846407.96147  -8445562.62144  23015202.1914   23015197.6614
  -4857430.02146  -3777164.90343  24495811.5384   24495804.6504
 -23409322.05448 -18228048.24146  20396257.4994   20396253.5974
 -19740948.41748 -15369439.13946  21248307.3014   21248300.9324
  -4501930.34646  -3491150.55543  24097770.6444   24097765.2794
   -866739.34246  -1733929.68043  24880120.0314   24880114.7144
  -4422848.36546  -3427318.17143  24330623.6384   24330619.5064
 -13306437.12247 -10351853.47845  22504320.4384   22504315.2044
 10  3 18  2 55 30.0000000  0 10G21G31G 6G18G24G16G 3G 5G30G29
 -22695090.99148 -17665197.04546  20892692.7494   20892686.7174
 -15869942.71547 -12346861.34745  22210980.7684   22210975.2514
 -10922229.54647  -8504644.36144  23000774.1394   23000769.2944
  -4941024.15546  -3842303.19043  24479903.8784   24479897.2864
 -23407494.42748 -18226624.11346  20396605.7414   20396601.5094
 -19799817.83347 -15415311.40846  21237104.5324   21237099.0194
  -4596635.78946  -3564947.01443  24079748.2074   24079742.7494
   -827168.33846  -1703095.16842  24887650.0074   24887643.6514
  -4316405.15346  -3344375.43643  24350879.2324   24350874.0534
 -13231939.80847 -10293803.63045  22518497.2584   22518491.8404
 10  3 18  2 56  0.0000000  0 10G21G31G 6G18G24G16G 3G 5G30G29
 -22713461.35448 -17679511.60946  20889197.0264   20889190.7294
 -15790113.62847 -12284656.86245  22226172.4194   22226166.3594
 -10997905.74147  -8563612.80644  22986373.5024   22986368.5394
  -5024569.73446  -3907403.62543  24464005.7974   24463999.3314
 -23405082.67648 -18224744.82946  20397064.6884   20397060.5814
 -19858391.54947 -15460953.26346  21225958.8164   21225952.3634
  -4691253.31146  -3638674.88243  24061742.8264   24061738.3744
   -787086.47946  -1671862.51743  24895277.4664   24895270.7174
  -4209838.61346  -3261336.58443  24371157.6894   24371153.6084
 -13157330.16647 -10235666.25845  22532694.6494   22532689.9604
 10  3 18  2 56 30.0000000  0 10G21G31G 6G18G24G16G 3G 5G30G29
 -22731354.30448 -17693454.16046  20885791.8284   20885785.9334
 -15709926.55547 -12222173.44445  22241430.7804   22241425.6704
 -11073436.12947  -8622467.64644  22972000.8274   22971995.6054
  -5108063.81446  -3972463.94743  24448117.1644   24448110.4274
 -23402086.94948 -18222410.48946  20397634.4484   20397630.4374
 -19916667.50147 -15506363.09346  21214869.0874   21214863.0094
  -4785781.85546  -3712333.51543  24043755.0144   24043750.0514
   -746494.37945  -1640232.25742  24903001.5494   24902995.0124
  -4103149.93846  -3178202.52043  24391460.5474   24391455.6104
 -13082608.72547 -10177441.76845  22546913.6234   22546908.6904
 10  3 18  2 57  0.0000000  0 10G21G31G 6G18G24G16G 3G 5G30G29
 -22748770.37248 -17707025.11246  20882477.9354   20882471.4674
 -15629384.57247 -12159413.46845  22256757.5564   22256752.0994
 -11148821.04147  -8681209.11244  22957655.7014   22957650.2994
  -5191504.54446  -4037482.68343  24432239.4304   24432232.6024
 -23398508.23948 -18219621.87346  20398315.6054   20398311.5424
 -19974644.52547 -15551539.98746  21203836.6374   21203830.6144
  -4880221.39646  -3785922.72343  24025784.1064   24025779.2374
   -705393.69846  -1608205.74743  24910823.0834   24910817.0374
  -3996340.90146  -3094974.72743  24411785.3864   24411781.7584
 -13007776.76547 -10119131.15845  22561153.8924   22561148.8284
 10  3 18  2 57 30.0000000  0 10G21G31G 6G18G24G16G 3G 5G30G29
 -22765709.50048 -17720224.42346  20879254.5464   20879248.4204
 -15548490.29347 -12096378.96645  22272151.2454   22272145.7904
 -11224059.79046  -8739836.71544  22943338.3684   22943332.9384
  -5274888.49746  -4102457.19743  24416371.7574   24416365.0984
 -23394347.18648 -18216379.49646  20399107.1954   20399103.3634
 -20032320.67448 -15596482.44046  21192860.9994   21192855.1844
  -4974570.75546  -3859441.72143  24007829.6854   24007824.7964
   -663785.66745  -1575783.87243  24918740.7694   24918734.4904
  -3889412.77446  -3011654.09943  24432133.3024   24432128.4874
 -12932835.13847 -10060735.10845  22575414.7834   22575409.7474
 10  3 18  2 58  0.0000000  0 10G21G31G 6G18G24G16G 3G 5G30G29
 -22782171.65448 -17733052.07546  20876121.5724   20876115.5844
 -15467246.25547 -12033071.92945  22287611.4004   22287605.8214
 -11299152.16946  -8798350.25243  22929048.9374   22929043.4774
  -5358213.23746  -4167385.59143  24400515.8234   24400508.6734
 -23389604.56548 -18212683.93646  20400009.8264   20400005.5514
 -20089693.90748 -15641188.85146  21181943.2004   21181937.7474
  -5068829.38946  -3932889.98643  23989892.9534   23989887.7984
   -621671.05146  -1542967.28243  24926755.4534   24926749.2304
  -3782366.74346  -2928241.63943  24452503.1054   24452497.9304
 -12857784.66147 -10002254.23045  22589696.1154   22589691.7394
 10  3 18  2 58 30.0000000  0 10G21G31G 6G18G24G16G 3G 5G30G29
 -22798156.75548 -17745507.98646  20873079.8764   20873073.8464
 -15385655.12547 -11969494.43345  22303137.6344   22303132.2484
 -11374097.74346  -8856749.38244  22914786.1054   22914781.7584
  -5441475.81946  -4232265.49043  24384672.1004   24384664.8784
 -23384280.76348 -18208535.50646  20401022.8534   20401018.7604
 -20146762.51048 -15685657.89346  21171083.4794   21171077.4374
  -5162996.61146  -4006267.04543  23971973.6614   23971969.0074
   -579051.49645  -1509757.25243  24934865.0274   24934859.4484
  -3675204.25846  -2844738.39643  24472895.2774   24472890.5124
 -12782625.95347  -9943689.00645  22603998.2194   22603993.4784
 10  3 18  2 59  0.0000000  0 10G21G31G 6G18G24G16G 3G 5G30G29
 -22813664.36347 -17757591.82746  20870128.7584   20870122.3794
 -15303719.26848 -11905648.31645  22318730.1354   22318724.4374
 -11448896.12446  -8915033.82744  22900552.9184   22900547.9204
  -5524673.70646  -4297094.99543  24368838.2864   24368833.2864
 -23378376.52648 -18203934.80046  20402146.4164   20402142.4044
 -20203524.37848 -15729887.90746  21160282.3744   21160276.2084
  -5257072.06446  -4079572.55743  23954071.7124   23954066.4164
   -535928.11745  -1476154.61343  24943070.3434   24943065.7054
  -3567926.73346  -2761145.49743  24493310.0864   24493305.7644
 -12707359.78347  -9885040.05245  22618321.1994   22618315.8674
 10  3 18  2 59 30.0000000  0 10G21G31G 6G18G24G16G 3G 5G30G29
 -22828694.68847 -17769303.77346  20867268.6124   20867262.4014
 -15221441.90247 -11841536.08145  22334386.4484   22334380.7184
 -11523547.18746  -8973203.48344  22886347.3844   22886342.2464
  -5607803.87546  -4361871.74243  24353019.5084   24353013.6384
 -23371892.51048 -18198882.31546  20403380.2924   20403375.9864
 -20259978.07248 -15773877.80446  21149539.0164   21149533.1594
  -5351054.99846  -4152805.99143  23936187.5384   23936182.3024
   -492301.90845  -1442160.18543  24951372.8794   24951366.8434
  -3460535.31946  -2677463.90243  24513745.1644   24513741.5844
 -12631986.88447  -9826307.94045  22632664.1724   22632659.5354
 10  3 18  3  0  0.0000000  0 10G21G31G 6G18G24G16G 3G 5G30G29
 -22843248.17148 -17780644.14146  20864499.4084   20864493.2334
 -15138825.54847 -11777159.71045  22350108.1484   22350101.9244
 -11598050.38947  -9031257.90944  22872169.6354   22872165.1104
  -5690863.74546  -4426593.73843  24337213.8534   24337208.1564
 -23364829.83548 -18193378.92946  20404724.1424   20404719.6224
 -20316121.58047 -15817625.99046  21138855.6544   21138849.2224
  -5444945.03646  -4225967.05843  23918320.7284   23918315.8124
   -448174.53646  -1407775.17543  24959770.0144   24959764.7394
  -3353031.68446  -2593694.83843  24534203.0964   24534198.5354
 -12556508.25347  -9767493.43145  22647027.1704   22647022.4594
 10  3 18  3  0 30.0000000  0 10G21G31G 6G18G24G16G 3G 5G30G29
 -22857324.27747 -17791612.53846  20861820.7424   20861814.5864
 -15055872.75647 -11712521.18445  22365893.4494   22365887.7834
 -11672405.69847  -9089197.10244  22858019.6584   22858015.6354
  -5773850.73146  -4491258.91643  24321422.2834   24321415.9024
 -23357189.13648 -18187425.13346  20406178.5964   20406174.4564
 -20371952.74647 -15861130.79846  21128231.4424   21128225.5504
  -5538741.17046  -4299054.94643  23900471.4574   23900466.9254
   -403546.91246  -1373000.34243  24968261.8364   24968257.1254
  -3245417.29246  -2509839.42843  24554681.5344   24554676.9104
 -12480924.67147  -9708597.14645  22661410.4064   22661405.2634
 10  3 18  3  1  0.0000000  0 10G21G31G 6G18G24G16G 3G 5G30G29
 -22870923.35647 -17802209.22046  20859232.8624   20859227.3124
 -14972586.58147 -11647622.87645  22381742.8764   22381736.6044
 -11746612.86747  -9147020.84844  22843899.5654   22843894.3464
  -5856761.41646  -4555864.62143  24305645.1944   24305638.3244
 -23348971.06648 -18181021.43946  20407742.2214   20407737.8824
 -20427470.28447 -15904391.21546  21117666.6264   21117660.8914
  -5632442.99946  -4372069.31843  23882640.9514   23882635.5844
   -358420.78946  -1337837.17643  24976849.3334   24976844.1874
  -3137693.05646  -2425898.50643  24575180.6364   24575176.6644
 -12405236.79247  -9649619.59145  22675813.2324   22675808.2094
 10  3 18  3  1 30.0000000  0 10G21G31G 6G18G24G16G 3G 5G30G29
 -22884045.45647 -17812434.22146  20856736.0754   20856729.8804
 -14888969.63847 -11582466.81145  22397654.3934   22397648.3224
 -11820671.63047  -9204728.97744  22829806.5364   22829801.6054
  -5939593.79846  -4620409.37143  24289882.9564   24289875.4974
 -23340176.59048 -18174168.58446  20409415.6284   20409411.4954
 -20482672.47148 -15947405.90546  21107162.1994   21107156.4254
  -5726049.98246  -4445009.82643  23864827.6994   23864822.4444
   -312797.57746  -1302286.61243  24985531.4084   24985526.5304
  -3029861.15246  -2341873.66643  24595700.8114   24595696.2194
 -12329445.94647  -9590561.80445  22690235.5454   22690230.6714
 10  3 18  3  2  0.0000000  0 10G21G31G 6G18G24G16G 3G 5G30G29
 -22896690.63047 -17822287.60246  20854329.5014   20854323.4344
 -14805024.72247 -11517055.19545  22413628.0064   22413622.5854
 -11894581.63247  -9262321.13944  22815741.8854   22815736.4044
  -6022344.92646  -4684890.74043  24274134.7134   24274128.4644
 -23330806.59248 -18166867.28546  20411198.6914   20411194.3184
 -20537557.27248 -15990173.28046  21096717.8774   21096711.8604
  -5819561.41746  -4517875.85543  23847033.3234   23847027.8384
   -266678.09646  -1266349.36143  24994307.6374   24994302.1974
  -2921922.39246  -2257765.54143  24616239.6884   24616235.8844
 -12253552.22447  -9531423.84345  22704677.7034   22704672.7734
 10  3 18  3  2 30.0000000  0 10G21G31G 6G18G24G16G 3G 5G30G29
 -22908859.06948 -17831769.49346  20852013.8834   20852008.0154
 -14720754.37247 -11451390.00245  22429664.5804   22429658.6874
 -11968342.59447  -9319797.22744  22801705.3114   22801699.9404
  -6105012.06046  -4749306.69743  24258403.7064   24258397.8434
 -23320861.86248 -18159118.13546  20413091.0734   20413086.9974
 -20592122.79148 -16032691.87046  21086334.1464   21086328.2324
  -5912976.36146  -4590666.72543  23829257.5464   23829251.5094
   -220064.27846  -1230026.86143  25003178.7424   25003172.9154
  -2813877.87046  -2173574.99243  24636800.3074   24636795.9064
 -12177556.61647  -9472206.50145  22719139.5164   22719134.7474
 10  3 18  3  3  0.0000000  0 10G21G31G 6G18G24G16G 3G 5G30G29
 -22920550.76947 -17840879.90246  20849789.2114   20849783.3174
 -14636161.17447 -11385473.22345  22445762.2064   22445756.4134
 -12041954.08747  -9377156.81544  22787697.7914   22787692.6344
  -6187592.11646  -4813654.79743  24242690.2674   24242682.8804
 -23310343.15548 -18150921.74346  20415092.6954   20415088.9334
 -20646367.02748 -16074960.10546  21076012.0444   21076005.8804
  -6006294.46346  -4663382.12643  23811499.3564   23811494.3924
   -172957.27646  -1193320.12343  25012141.8524   25012136.9944
  -2705729.37446  -2089303.46943  24657381.0144   24657375.6024
 -12101459.69747  -9412910.20845  22733620.4074   22733615.5514
 10  3 18  3  3 30.0000000  0 10G21G31G 6G18G24G16G 3G 5G30G29
 -22931765.94748 -17849618.99546  20847654.7834   20847648.5044
 -14551248.55547 -11319307.55345  22461920.3764   22461914.5214
 -12115416.12347  -9434399.94644  22773718.5814   22773713.2064
  -6270082.91546  -4877933.35743  24226992.5334   24226986.3344
 -23299251.83948 -18142279.14846  20417203.1494   20417199.2104
 -20700288.71047 -16116977.00046  21065750.8024   21065744.8084
  -6099515.00846  -4736021.49143  23793759.7004   23793755.0554
   -125358.90746  -1156230.50143  25021199.9234   25021193.8894
  -2597478.48546  -2004952.11143  24677980.4144   24677975.4564
 -12025262.92547  -9353536.11145  22748119.8004   22748115.4714
 10  3 18  3  4  0.0000000  0 10G21G31G 6G18G24G16G 3G 5G30G29
 -22942504.94148 -17857987.03946  20845611.5214   20845605.0204
 -14466018.83347 -11252894.78845  22478139.1774   22478133.3194
 -12188728.27347  -9491526.29344  22759767.3314   22759762.0054
  -6352481.55446  -4942140.06543  24211312.3774   24211306.1154
 -23287588.73048 -18133191.00446  20419422.6274   20419418.4014
 -20753885.95147 -16158741.08046  21055551.5534   21055545.7564
  -6192637.87246  -4808584.74543  23776039.5884   23776033.7404
    -77270.50346  -1118758.99543  25030350.7394   25030345.0724
  -2489126.60746  -1920522.07543  24698599.0284   24698594.2774
 -11948966.66047  -9294084.48145  22762638.7404   22762634.0854
 10  3 18  3  4 30.0000000  0 10G21G31G 6G18G24G16G 3G 5G30G29
 -22952767.20648 -17865983.60346  20843658.6194   20843652.5274
 -14380474.26647 -11186236.68745  22494417.4814   22494411.5344
 -12261889.67047  -9548535.15744  22745845.4424   22745840.2004
  -6434784.46346  -5006272.19943  24195650.7724   24195644.6434
 -23275354.01848 -18123657.46546  20421750.9894   20421747.0524
 -20807155.86648 -16200250.10246  21045414.7534   21045409.1054
  -6285661.52046  -4881070.68343  23758337.6554   23758332.6074
    -28692.69546  -1080906.15443  25039593.9404   25039590.0144
  -2380674.46246  -1836013.91443  24719236.6264   24719231.6034
 -11872570.84647  -9234555.28145  22777175.9754   22777171.6684
 10  3 18  3  5  0.0000000  0 10G21G31G 6G18G24G16G 3G 5G30G29
 -22962553.36748 -17873609.18646  20841796.1524   20841790.1714
 -14294618.30347 -11119335.94645  22510755.4194   22510749.6074
 -12334900.63247  -9605426.81744  22731951.8864   22731946.9504
  -6516989.66846  -5070328.21543  24180007.3174   24180001.6424
 -23262549.23748 -18113679.70046  20424187.5334   20424183.7474
 -20860098.11148 -16241503.79646  21035340.4464   21035334.3614
  -6378585.62346  -4953479.06343  23740652.6474   23740648.3144
     20372.33846  -1042673.65243  25048930.7764   25048926.2114
  -2272124.20846  -1751429.30443  24739892.5974   24739887.5144
 -11796077.00647  -9174949.70245  22791732.4094   22791727.8314
 10  3 18  3  5 30.0000000  0 10G21G31G 6G18G24G16G 3G 5G30G29
 -22971863.68148 -17880863.96246  20840024.2964   20840018.1394
 -14208453.68047 -11052194.68645  22527151.8964   22527146.2064
 -12407760.75047  -9662200.92044  22718087.1374   22718082.0934
  -6599094.31446  -5134305.85043  24164383.1454   24164377.9544
 -23249175.26148 -18103258.41746  20426732.4254   20426728.2494
 -20912709.65348 -16282499.80746  21025328.5984   21025322.5894
  -6471409.55046  -5025809.38543  23722990.3834   23722985.7194
     69923.45745  -1004062.37843  25058360.0614   25058354.7474
  -2163476.93246  -1666769.12142  24760568.1964   24760563.1094
 -11719485.72247  -9115268.19445  22806307.2874   22806302.6734
 10  3 18  3  6  0.0000000  0 10G21G31G 6G18G24G16G 3G 5G30G29
 -22980698.06848 -17887747.89546  20838343.0664   20838337.3834
 -14121983.10647 -10984815.02045  22543606.6044   22543600.9194
 -12480469.76247  -9718857.27044  22704251.1454   22704246.2604
  -6681095.27546  -5198202.71143  24148779.7494   24148772.3884
 -23235233.25348 -18092394.51046  20429385.6244   20429381.7284
 -20964989.07248 -16323237.01146  21015380.3164   21015374.1604
  -6564132.91846  -5098061.35243  23705346.0344   23705340.6814
    119958.74846   -965073.81943  25067882.6534   25067876.3934
  -2054734.14746  -1582034.45843  24781260.2754   24781255.6094
 -11642797.88547  -9055511.45245  22820900.6254   22820896.3994
 10  3 18  3  6 30.0000000  0 10G21G31G 6G18G24G16G 3G 5G30G29
 -22989056.89248 -17894261.25846  20836752.8514   20836746.7114
 -14035209.23847 -10917199.02745  22560119.1764   22560113.2124
 -12553027.26147  -9775395.56944  22690443.3414   22690438.5974
  -6762989.86446  -5262016.66343  24133195.5144   24133189.0524
 -23220724.19248 -18081088.74346  20432146.8644   20432143.0894
 -21016934.92848 -16363714.30446  21005495.5134   21005489.2614
  -6656754.81546  -5170234.22543  23687720.7654   23687715.5604
    170476.95146   -925709.01543  25077495.7574   25077490.0184
  -1945897.19346  -1497226.44842  24801972.0264   24801966.9014
 -11566014.01647  -8995679.86445  22835512.0344   22835506.9534
 10  3 18  3  7  0.0000000  0 10G21G31G 6G18G24G16G 3G 5G30G29
 -22996940.51548 -17900404.33846  20835252.3414   20835246.1064
 -13948134.83847 -10849348.85645  22576688.8504   22576683.0304
 -12625432.89946  -9831815.53843  22676665.2234   22676660.2254
  -6844775.44546  -5325745.67543  24117631.9604   24117626.8794
 -23205649.24148 -18069342.02146  20435015.3604   20435011.1604
 -21068544.93248 -16403929.90446  20995674.3134   20995667.8374
  -6749274.49746  -5242327.45243  23670114.6884   23670109.4964
    221476.16345   -885969.37742  25087200.4694   25087193.1264
  -1836967.36345  -1412346.03742  24822700.4854   24822696.1874
 -11489134.73647  -8935773.94945  22850142.0604   22850137.0644
 10  3 18  3  7 30.0000000  0 10G21G31G 6G18G24G16G 3G 5G30G29
 -23004348.65148 -17906176.90346  20833842.6784   20833836.6734
 -13860762.45147 -10781266.47545  22593315.5354   22593309.5244
 -12697686.19846  -9888116.79744  22662915.4014   22662911.4064
  -6926448.83046  -5389387.31043  24102090.3214   24102084.0884
 -23190008.87148 -18057154.71446  20437991.6374   20437987.6134
 -21119817.16248 -16443882.28746  20985917.5754   20985911.2204
  -6841690.96046  -5314340.25543  23652528.0854   23652523.1844
    272955.58945   -845855.53242  25096995.7344   25096990.1234
  -1727945.89645  -1327394.28442  24843445.4204   24843441.8104
 -11412160.53547  -8875794.05845  22864789.6074   22864784.9654
 10  3 18  3  8  0.0000000  0 10G21G31G 6G18G24G16G 3G 5G30G29
 -23011282.20348 -17911579.66946  20832523.2164   20832517.1444
 -13773095.62547 -10712954.65545  22609997.4404   22609992.2864
 -12769787.44946  -9944299.56244  22649195.7344   22649191.1714
  -7008007.77646  -5452939.68443  24086570.1064   24086563.8184
 -23173804.92348 -18044528.26146  20441075.1464   20441070.9894
 -21170750.76248 -16483570.80046  20976225.1674   20976219.2744
  -6934004.53646  -5386272.89543  23634962.0254   23634956.5994
    324912.78945   -805369.40142  25106882.6454   25106877.5484
  -1618834.87446  -1242372.71643  24864209.7424   24864204.6644
 -11335092.75447  -8815741.24445  22879455.1614   22879449.9004
 10  3 18  3  8 30.0000000  0 10G21G31G 6G18G24G16G 3G 5G30G29
 -23017741.26348 -17916612.69246  20831294.3824   20831288.3064
 -13685136.97447 -10644415.45545  22626736.1424   22626730.3044
 -12841736.20446 -10000363.53344  22635503.8354   22635499.9124
  -7089449.30946  -5516400.63643  24071071.8964   24071065.9294
 -23157038.29948 -18031463.35846  20444265.5354   20444261.4324
 -21221343.31548 -16522993.57446  20966598.1034   20966592.0904
  -7026214.34246  -5458124.68343  23617414.0704   23617409.8554
    377346.39646   -764512.01542  25116862.8594   25116855.6354
  -1509635.09446  -1157281.97942  24884990.1404   24884985.3004
 -11257931.95847  -8755615.96345  22894138.0294   22894133.6644
 10  3 18  3  9  0.0000000  0 10G21G31G 6G18G24G16G 3G 5G30G29
 -23023726.36548 -17921276.40646  20830155.2674   20830149.3984
 -13596889.33047 -10575651.06345  22643528.1904   22643522.8934
 -12913532.19647 -10056308.44544  22621841.5874   22621837.4854
  -7170771.17246  -5579768.31443  24055597.2014   24055591.3554
 -23139710.35748 -18017961.06446  20447563.2614   20447559.1274
 -21271592.90748 -16562149.10146  20957035.6974   20957029.5434
  -7118319.86946  -5529895.15343  23599887.0894   23599882.2904
    430254.60246   -723284.82342  25126930.1704   25126923.8514
  -1400348.52746  -1072123.63742  24905785.4834   24905781.2374
 -11180678.95747  -8695418.85145  22908839.0124   22908834.1354
 10  3 18  3  9 30.0000000  0 10G21G31G 6G18G24G16G 3G 5G30G29
 -23029237.63848 -17925570.90046  20829106.5034   20829100.7544
 -13508355.53047 -10506663.69345  22660376.5274   22660370.8774
 -12985175.04347 -10112134.02844  22608208.5374   22608203.8324
  -7251970.28146  -5643040.35043  24040145.3764   24040139.3614
 -23121822.08648 -18004022.14746  20450967.0094   20450962.8034
 -21321497.81448 -16601036.04946  20947538.7294   20947533.0924
  -7210319.94746  -5601583.52143  23582380.6634   23582375.2654
    483635.97645   -681688.99842  25137087.7304   25137082.1224
  -1290976.65246   -986898.78542  24926598.6424   24926593.9194
 -11103334.29247  -8635150.28845  22923557.5304   22923552.6694
 10  3 18  3 10  0.0000000  0 10G21G31G 6G18G24G16G 3G 5G30G29
 -23034275.56948 -17929496.54846  20828147.9204   20828141.9194
 -13419538.21947 -10437455.40345  22677277.9214   22677271.7824
 -13056664.49347 -10167840.09644  22594604.1714   22594599.8344
  -7333043.43846  -5706214.23543  24024717.9214   24024711.3534
 -23103374.57148 -17989647.45446  20454477.5794   20454473.6574
 -21371056.20748 -16639652.97146  20938107.9084   20938102.4054
  -7302214.02246  -5673189.28143  23564893.6274   23564888.6324
    537488.73946   -639725.70942  25147334.5694   25147329.2444
  -1181520.42646   -901608.25942  24947429.1884   24947423.1414
 -11025898.34347  -8574810.60145  22938293.1334   22938288.3274
 10  3 18  3 10 30.0000000  0 10G21G31G 6G18G24G16G 3G 5G30G29
 -23038840.29148 -17933053.47346  20827279.2224   20827273.2034
 -13330440.01147 -10368028.22945  22694232.3014   22694226.8264
 -13127999.95547 -10223426.15644  22581029.7224   22581024.9854
  -7413987.93646  -5769287.86943  24009315.1874   24009307.8584
 -23084369.13648 -17974838.01946  20458094.1134   20458089.9794
 -21420266.21048 -16677998.42846  20928743.4984   20928738.0544
  -7394001.59146  -5744712.05643  23547426.5414   23547421.9074
    591811.59146   -597396.20543  25157672.6154   25157666.5964
  -1071981.20646   -816253.02142  24968273.1694   24968268.3874
 -10948371.95847  -8514400.41745  22953045.7094   22953040.4844
 10  3 18  3 11  0.0000000  0 10G21G31G 6G18G24G16G 3G 5G30G29
 -23042932.37448 -17936242.10346  20826500.1684   20826494.1304
 -13241064.18447 -10298384.73345  22711239.9694   22711234.2394
 -13199181.70247 -10278892.44444  22567484.0444   22567479.1844
  -7494801.57347  -5832259.52943  23993936.5434   23993930.3434
 -23064807.19048 -17959594.93746  20461816.8094   20461812.4914
 -21469126.39248 -16716071.30046  20919445.8614   20919440.5324
  -7485681.86046  -5816151.17743  23529980.6824   23529976.2614
    646602.40146   -554702.05843  25168099.7544   25168093.8944
   -962360.98046   -730834.66542  24989132.7874   24989127.8054
 -10870755.92647  -8453920.39245  22967815.4754   22967810.5104
 10  3 18  3 11 30.0000000  0 10G21G31G 6G18G24G16G 3G 5G30G29
 -23046552.04048 -17939062.61646  20825811.8974   20825805.4224
 -13151413.61347 -10228527.15345  22728300.1824   22728294.5874
 -13270208.92647 -10334238.31244  22553968.4064   22553963.3854
  -7575481.11847  -5895126.70543  23978583.8884   23978577.5814
 -23044689.69648 -17943918.95446  20465644.8784   20465640.9344
 -21517634.61048 -16753869.90846  20910215.2174   20910209.6814
  -7577254.29246  -5887506.30743  23512555.5044   23512550.4144
    701859.64846   -511644.51443  25178613.9954   25178608.2204
   -852660.77546   -645353.93443  25010007.7844   25010003.1434
 -10793050.82647  -8393370.98245  22982602.4184   22982597.2094
 10  3 18  3 12  0.0000000  0 10G21G31G 6G18G24G16G 3G 5G30G29
 -23049699.35648 -17941515.06946  20825212.5134   20825206.5924
 -13061490.78947 -10158457.42945  22745412.0964   22745406.3644
 -13341081.41347 -10389463.62244  22540481.6554   22540477.0014
  -7656023.72247  -5957887.16443  23963256.1614   23963250.6124
 -23024017.74648 -17927810.94146  20469578.7324   20469574.5054
 -21565789.01248 -16791392.82246  20901051.6174   20901046.1324
  -7668718.27546  -5958776.92643  23495149.6464   23495145.1014
    757581.79646   -468224.60442  25189217.6334   25189211.8774
   -742881.82146   -559811.95542  25030897.7844   25030892.8884
 -10715257.25047  -8332752.63845  22997406.2804   22997401.6094
 10  3 18  3 12 30.0000000  0 10G21G31G 6G18G24G16G 3G 5G30G29
 -23052374.76348 -17943599.78546  20824704.0224   20824697.7474
 -12971298.61847 -10088177.83345  22762574.7344   22762569.0104
 -13411798.73047 -10444568.02944  22527025.8234   22527019.7234
  -7736426.55447  -6020538.69943  23947956.0924   23947950.1374
 -23002792.62548 -17911271.88446  20473617.4094   20473613.2554
 -21613588.08048 -16828638.84446  20891955.7894   20891949.9504
  -7760072.85846  -6029962.30143  23477765.8044   23477760.9824
    813767.46645   -424443.55643  25199909.3214   25199903.9444
   -633025.98146   -474210.01743  25051803.7654   25051798.5384
 -10637375.78547  -8272065.81045  23012226.3214   23012221.8364
 10  3 18  3 13  0.0000000  0 10G21G31G 6G18G24G16G 3G 5G30G29
 -23054579.45748 -17945317.72546  20824284.0354   20824277.6424
 -12880840.35647 -10017690.87745  22779787.8794   22779783.1734
 -13482361.16147 -10499551.74044  22513597.0824   22513592.2064
  -7816687.28347  -6083079.56343  23932682.9824   23932676.9484
 -22981015.79548 -17894302.91646  20477761.5304   20477757.6344
 -21661029.82248 -16865606.44146  20882928.0074   20882922.3834
  -7851317.71646  -6101062.13443  23460403.0694   23460397.8384
    870413.89946   -380303.41043  25210688.5654   25210683.5054
   -523094.55845   -388549.16542  25072722.2294   25072717.6764
 -10559407.46347  -8211311.30144  23027063.4224   23027058.1424
 10  3 18  3 13 30.0000000  0 10G21G31G 6G18G24G16G 3G 5G30G29
 -23056313.25748 -17946668.74046  20823954.2424   20823947.8614
 -12790118.60547  -9946998.60645  22797052.1934   22797046.6434
 -13552768.03847 -10554414.23044  22500199.2864   22500194.5884
  -7896802.84047  -6145507.24043  23917438.2294   23917431.8594
 -22958688.49248 -17876905.02146  20482010.5974   20482006.6414
 -21708112.55648 -16902294.28446  20873968.6584   20873962.5434
  -7942452.03446  -6172075.89843  23443059.9284   23443055.1984
    927520.00946   -335805.13743  25221556.4304   25221550.8654
   -413089.03346   -302830.56942  25093655.1394   25093650.5884
 -10481352.54247  -8150489.31745  23041916.9244   23041911.4404
 10  3 18  3 14  0.0000000  0 10G21G31G 6G18G24G16G 3G 5G30G29
 -23057576.56248 -17947653.12246  20823713.7954   20823707.7474
 -12699136.02447  -9876103.10545  22814365.6044   22814359.9684
 -13623018.82347 -10609155.08744  22486831.0544   22486825.8024
  -7976770.20247  -6207819.48443  23902220.2664   23902214.3754
 -22935811.80048 -17859079.01946  20486363.3974   20486359.4454
 -21754834.26848 -16938700.81146  20865077.4894   20865071.8814
  -8033475.04646  -6243002.88043  23425738.6284   23425734.4584
    985083.64446   -290950.33343  25232510.2184   25232504.2064
   -303010.67846   -217055.27342  25114603.4664   25114598.0634
 -10403211.67047  -8089600.32645  23056785.9744   23056781.5254
 10  3 18  3 14 30.0000000  0  9G21G31G 6G18G24G16G 3G30G29
 -23058371.64447 -17948272.66346  20823562.5604   20823556.5024
 -12607897.49447  -9805008.14645  22831727.6914   22831722.4684
 -13693115.09947 -10663775.54144  22473492.0504   22473487.5484
  -8056588.62747  -6270015.64543  23887031.5074   23887025.5394
 -22912389.14748 -17840827.59546  20490820.9344   20490816.6494
 -21801194.80848 -16974825.90746  20856255.7424   20856249.2774
  -8124388.02946  -6313844.15043  23408438.7474   23408433.7994
   -192862.71246   -131225.65242  25135562.4184   25135557.4804
 -10324987.32147  -8028646.31745  23071672.0044   23071667.1104
 10  3 18  3 15  0.0000000  0  9G21G31G 6G18G24G16G 3G30G29
 -23058695.52847 -17948525.04046  20823500.7854   20823494.1524
 -12516402.20747  -9733713.12145  22849138.3604   22849133.2064
 -13763053.06147 -10718272.64344  22460183.5274   22460178.7874
  -8136251.58547  -6332090.68543  23871871.9654   23871866.0554
 -22888418.16448 -17822148.90646  20495382.2884   20495378.5954
 -21847189.22848 -17010665.71546  20847502.8764   20847497.1904
  -8215186.63246  -6384596.29243  23391160.3814   23391155.3134
    -82643.13146    -45340.30542  25156537.4114   25156531.8174
 -10246676.41547  -7967624.85245  23086574.0664   23086569.4114
 10  3 18  3 15 30.0000000  0  9G21G31G 6G18G24G16G 3G30G29
 -23058550.62347 -17948412.12646  20823528.2484   20823522.2654
 -12424655.09947  -9662221.88245  22866597.4024   22866591.7594
 -13832834.38147 -10772647.69744  22446904.1464   22446899.9864
  -8215758.35847  -6394044.01543  23856742.9274   23856736.5234
 -22863902.61748 -17803045.87446  20500047.4934   20500043.4654
 -21892817.49948 -17046220.21646  20838820.6654   20838814.6774
  -8305871.81246  -6455260.05643  23373903.6724   23373898.7394
     27644.51346     40598.10742  25177523.9254   25177519.2364
 -10168281.69747  -7906538.08045  23101491.7494   23101487.6964
 10  3 18  3 16  0.0000000  0  9G21G31G 6G18G24G16G 3G30G29
 -23057937.47848 -17947934.34646  20823644.8234   20823638.9924
 -12332658.76847  -9590536.43445  22884104.0604   22884098.2764
 -13902458.75647 -10826900.42344  22433655.1954   22433650.5414
  -8295106.02147  -6455873.36643  23841643.5134   23841637.7754
 -22838843.33248 -17783519.16046  20504816.1674   20504811.8854
 -21938077.71848 -17081487.92046  20830207.6364   20830201.7584
  -8396443.20246  -6525835.17343  23356669.2064   23356663.1064
    137999.22045    126588.72642  25198523.7254   25198520.2654
 -10089803.52447  -7845386.26245  23116426.0714   23116421.2254
 10  3 18  3 16 30.0000000  0  9G21G31G 6G18G24G16G 3G30G29
 -23056856.69148 -17947092.17046  20823851.0644   20823844.5674
 -12240416.46647  -9518659.32045  22901657.2864   22901651.4914
 -13971926.04647 -10881030.77244  22420435.9814   22420430.8384
  -8374292.16647  -6517576.83343  23826574.4464   23826568.8544
 -22813241.99748 -17763570.05746  20509688.1014   20509683.8504
 -21982968.64348 -17116467.86246  20821665.1074   20821659.4524
  -8486900.03146  -6596321.01143  23339454.9364   23339450.1214
    248419.03546    212630.17342  25219536.5434   25219532.1704
 -10011242.75547  -7784170.09544  23131375.4074   23131370.8674
 10  3 18  3 17  0.0000000  0  9G21G31G 6G18G24G16G 3G30G29
 -23055307.91048 -17945885.32046  20824145.4644   20824139.7334
 -12147930.43547  -9446592.29445  22919256.6844   22919251.1064
 -14041235.02947 -10935037.75744  22407246.6244   22407242.4484
  -8453313.18947  -6579151.67343  23811537.5224   23811531.7644
 -22787099.32948 -17743199.14546  20514662.6654   20514658.6194
 -22027487.40148 -17151157.80646  20813193.3764   20813187.3524
  -8577241.38246  -6666716.83243  23322263.5124   23322258.6894
    358903.50045    298721.98642  25240559.8484   25240556.4544
  -9932599.41847  -7722889.59844  23146340.7994   23146335.8034
 10  3 18  3 17 30.0000000  0  9G21G31G 6G18G24G16G 3G30G29
 -23053292.89348 -17944315.16846  20824529.2504   20824523.0464
 -12055204.24747  -9374338.12645  22936901.6084   22936896.1024
 -14110386.48047 -10988921.99844  22394087.7624   22394082.8894
  -8532166.95647  -6640596.15143  23796531.6044   23796525.6124
 -22760417.89748 -17722408.41046  20519739.8904   20519736.0614
 -22071633.26448 -17185557.17746  20804792.7344   20804786.6454
  -8667467.06446  -6737022.56143  23305094.2324   23305088.5314
    469449.83045    384861.96842  25261595.9404   25261593.0404
  -9853874.97047  -7661545.89245  23161322.0724   23161316.5304
 10  3 18  3 18  0.0000000  0 10G21G31G 6G18G24G16G 3G22G30G29
 -23050811.97348 -17942381.98046  20825000.9394   20824994.9784
 -11962240.82847  -9301899.10645  22954591.7174   22954586.3324
 -14179379.93847 -11042683.12144  22380958.8224   22380953.9104
  -8610850.60147  -6701908.10243  23781559.5374   23781553.6124
 -22733198.69948 -17701198.64746  20524919.8204   20524915.3634
 -22115404.19248 -17219664.38446  20796463.1884   20796457.3934
  -8757576.40546  -6807237.60643  23287947.3694   23287942.1224
   -680997.65046                  25103736.0774
    580057.18846    471049.49442  25282646.1924   25282640.1594
  -9775069.77547  -7600139.26845  23176317.9364   23176312.9974
 10  3 18  3 18 30.0000000  0  9G21G31G 6G18G24G16G 3G22G29
 -23047863.07848 -17940084.14346  20825562.0864   20825556.2104
 -11869040.36747  -9229275.38145  22972327.0184   22972321.8404
 -14248212.40547 -11096318.79344  22367860.2244   22367856.0604
  -8689359.02147  -6763083.50143  23766619.3224   23766613.5184
 -22705440.69848 -17679569.03246  20530201.6604   20530197.6324
 -22158795.80548 -17253476.03946  20788206.1514   20788200.2854
  -8847566.09546  -6877359.41643  23270823.1524   23270818.0804
   -775933.49946                  25085670.5844
  -9696181.64847  -7538668.00245  23191329.9354   23191324.9064
 10  3 18  3 19  0.0000000  0  9G21G31G 6G18G24G16G 3G22G29
 -23044450.94648 -17937425.32846  20826211.5754   20826205.6394
 -11775610.08747  -9156472.56745  22990107.1234   22990101.4374
 -14316887.81947 -11149832.08344  22354791.5504   22354786.8064
  -8767693.53247  -6824123.35744  23751712.4064   23751707.1864
 -22677149.47548 -17657523.91346  20535585.3904   20535581.2464
 -22201810.52448 -17286993.99546  20780021.0884   20780015.1134
  -8937439.83346  -6947390.87343  23253720.4044   23253715.4454
   -870973.32646                  25067583.9594
  -9617215.61247  -7477136.06044  23206356.2074   23206351.7454
 10  3 18  3 19 30.0000000  0  9G21G31G 6G18G24G16G 3G22G29
 -23040573.71448 -17934404.10546  20826949.3564   20826943.1694
 -11681950.51747  -9083491.09345  23007929.7634   23007923.9794
 -14385403.62947 -11203221.02644  22341753.6654   22341748.6424
  -8845848.82647  -6885023.57743  23736840.9494   23736834.5624
 -22648324.59148 -17635062.95946  20541070.4634   20541066.4444
 -22244444.50048 -17320215.27546  20771908.0784   20771901.9974
  -9027194.34246  -7017329.42643  23236641.1324   23236634.7164
   -966112.41346                  25049480.6164
  -9538170.27047  -7415542.32644  23221398.2404   23221393.6604
 10  3 18  3 20  0.0000000  0  9G21G31G 6G18G24G16G 3G22G29
 -23036233.44148 -17931022.07246  20827774.9974   20827768.8604
 -11588065.71047  -9010334.10045  23025795.2744   23025789.9194
 -14453760.57447 -11256486.16844  22328746.0354   22328741.1504
  -8923823.54447  -6945783.08943  23722002.5534   23721996.1144
 -22618968.41948 -17612188.01646  20546657.1194   20546652.6664
 -22286697.04848 -17353139.34146  20763867.4194   20763861.3334
  -9116830.08946  -7087175.46243  23219583.0094   23219578.1434
  -1061349.62746   -820768.75742  25031355.8364   25031351.4704
  -9459046.54347  -7353887.50644  23236455.2624   23236450.0514
 10  3 18  3 20 30.0000000  0  9G21G31G 6G18G24G16G 3G22G29
 -23031430.45248 -17927279.47846  20828689.0974   20828682.8414
 -11493958.37447  -8937003.72045  23043703.2104   23043697.3474
 -14521958.04947 -11309627.05244  22315768.0444   22315763.0334
  -9001614.40947  -7006399.34843  23707198.7074   23707193.0594
 -22589082.55948 -17588900.32846  20552344.0574   20552339.7624
 -22328566.09848 -17385764.56346  20755899.8544   20755893.9314
  -9206346.17346  -7156928.23843  23202548.3304   23202544.3184
  -1156681.80746   -895053.30442  25013215.0224   25013208.7064
  -9379845.04947  -7292172.05045  23251526.7214   23251522.0044
 10  3 18  3 21  0.0000000  0  9G21G31G 6G18G24G16G 3G22G29
 -23026164.63147 -17923176.23146  20829691.5194   20829685.6274
 -11399630.54647  -8863501.53145  23061653.7664   23061647.6044
 -14589994.98847 -11362642.84244  22302821.0214   22302816.0944
  -9079218.37547  -7066869.96244  23692431.3194   23692426.0174
 -22558667.71348 -17565200.45546  20558132.0014   20558128.0924
 -22370049.41048 -17418089.22646  20748006.3204   20748000.4694
  -9295741.33546  -7226586.75443  23185537.6604   23185532.7464
  -1252105.77346   -969409.20542  24995056.9944   24995049.9954
  -9300565.71447  -7230395.96345  23266613.5224   23266608.1904
 10  3 18  3 21 30.0000000  0  9G21G31G 6G18G24G16G 3G22G29
 -23020437.14547 -17918713.25546  20830781.3234   20830775.2854
 -11305085.35346  -8789829.96145  23079644.3744   23079639.0244
 -14657871.82147 -11415533.87244  22289904.7434   22289900.0814
  -9156633.19247  -7127193.19843  23677700.1354   23677694.1564
 -22527725.81748 -17541089.87346  20564019.8494   20564015.9874
 -22411145.74848 -17450112.34846  20740185.5584   20740180.0994
  -9385015.36346  -7296150.92543  23168548.6684   23168544.6134
  -1347619.90646  -1043835.60542  24976881.1284   24976873.4204
  -9221209.34847  -7168559.85645  23281714.3444   23281709.6134
 10  3 18  3 22  0.0000000  0  9G21G31G 6G18G24G16G 3G22G29
 -23014248.80648 -17913891.16446  20831958.8774   20831952.6554
 -11210326.11747  -8715991.59744  23097676.5714   23097671.0564
 -14725587.76647 -11468299.54244  22277019.5944   22277014.3824
  -9233855.03947  -7187366.05144  23663005.3034   23662999.1674
 -22496258.32948 -17516569.75146  20570007.6364   20570003.9744
 -22451852.78548 -17481832.11746  20732439.8364   20732433.1594
  -9474167.00846  -7365619.71643  23151584.2024   23151579.6374
  -1443221.15346  -1118329.81242  24958688.0824   24958681.0344
  -9141776.83247  -7106664.42245  23296829.9744   23296825.5354
 10  3 18  3 22 30.0000000  0  9G21G31G 6G18G24G16G 3G22G29
 -23007599.53248 -17908709.91046  20833223.9714   20833218.0234
 -11115355.73547  -8641988.71444  23115749.0534   23115743.3634
 -14793142.57447 -11520939.63345  22264163.4184   22264158.9904
  -9310881.56447  -7247386.72844  23648347.4644   23648341.5064
 -22464267.09048 -17491641.51246  20576095.6794   20576091.5894
 -22492168.90948 -17513247.27746  20724767.4454   20724761.8634
  -9563195.85846  -7434992.80743  23134643.3724   23134638.5784
  -1538907.18046  -1192890.21043  24940479.2854   24940472.9004
  -9062268.19347  -7044709.67345  23311959.8934   23311954.6644
 10  3 18  3 23  0.0000000  0  9G21G31G 6G18G24G16G 3G22G29
 -23000490.78248 -17903170.62246  20834576.7464   20834570.7374
 -11020177.02147  -8567823.49245  23133860.7944   23133854.8924
 -14860536.30347 -11573454.19945  22251338.7804   22251334.3904
  -9387710.58647  -7307253.47744  23633727.2594   23633721.9184
 -22431753.82848 -17466306.50146  20582282.8134   20582278.7854
 -22532092.51548 -17544356.58646  20717170.6364   20717164.0564
  -9652101.15447  -7504269.63544  23117723.6384   23117719.8084
  -1634675.73646  -1267514.84842  24922255.5704   24922248.2174
  -8982684.50847  -6982696.43344  23327103.8724   23327099.0164
 10  3 18  3 23 30.0000000  0  9G21G31G 6G18G24G16G 3G22G29
 -22992923.24448 -17897273.83646  20836017.0404   20836011.0964
 -10924792.71847  -8493498.07745  23152012.0264   23152006.3394
 -14927768.34247 -11625842.78645  22238545.1154   22238540.1754
  -9464338.93647  -7366963.87644  23619145.4704   23619139.9354
 -22398719.86847 -17440565.74646  20588568.9644   20588564.7694
 -22571622.18048 -17575158.91846  20709648.1324   20709641.8464
  -9740882.37747  -7573449.80443  23100830.3554   23100825.4874
  -1730524.05146  -1342201.64142  24904016.6464   24904008.7474
  -8903026.24247  -6920625.08244  23342262.6674   23342257.7574
 10  3 18  3 24  0.0000000  0  9G21G31G 6G18G24G16G 3G22G29
 -22984897.54248 -17891020.03646  20837543.9124   20837537.9364
 -10829205.98247  -8419014.91844  23170201.5414   23170196.1434
 -14994838.45147 -11678105.18444  22225782.1724   22225777.3794
  -9540763.57647  -7426515.53544  23604602.3284   23604596.6064
 -22365166.97847 -17414420.63346  20594954.1094   20594949.7124
 -22610755.88148 -17605652.71646  20702201.2044   20702195.4324
  -9829538.64646  -7642532.59743  23083959.3094   23083953.7194
  -1826449.39346  -1416948.49842  24885761.6724   24885753.6824
  -8823293.68747  -6858495.80744  23357435.3244   23357430.5804
 10  3 18  3 24 30.0000000  0  9G21G31G 6G18G24G16G 3G22G29
 -22976414.37148 -17884409.76946  20839158.5054   20839152.3344
 -10733419.72547  -8344376.28745  23188429.2754   23188423.3014
 -15061746.29847 -11730241.16145  22213049.6474   22213044.9374
  -9616982.21547  -7485906.67544  23590098.5194   23590092.6504
 -22331097.08747 -17387872.65546  20601436.7174   20601432.9274
 -22649492.32648 -17635836.96446  20694829.5224   20694823.6564
  -9918069.43047  -7711517.60143  23067113.2104   23067107.6264
  -1922449.14546  -1491753.34043  24867494.2414   24867486.1304
  -8743487.14747  -6796308.90744  23372621.7024   23372616.8794
 10  3 18  3 25  0.0000000  0  9G21G31G 6G18G24G16G 3G22G29
 -22967474.89548 -17877443.93446  20840859.9204   20840853.3404
 -10637436.88347  -8269584.47645  23206694.0164   23206688.0494
 -15128491.76647 -11782250.60544  22200348.7214   22200343.7814
  -9692992.33447  -7545135.33444  23575634.2064   23575628.2694
 -22296512.10347 -17360923.31646  20608018.4814   20608014.2734
 -22687829.69448 -17665710.23446  20687534.6664   20687528.5804
 -10006473.96547  -7780404.24143  23050289.6214   23050284.9844
  -2018521.23746  -1566614.56442  24849211.2824   24849204.7264
  -8663607.86147  -6734065.30844  23387822.2624   23387817.7144
 10  3 18  3 25 30.0000000  0  9G21G31G 6G18G24G16G 3G22G29
 -22958079.41548 -17870122.78046  20842647.4694   20842641.3064
 -10541260.33147  -8194641.71244  23224995.7494   23224990.5514
 -15195074.11747 -11834132.94544  22187678.6284   22187673.5744
  -9768790.63847  -7604198.93944  23561210.5174   23561204.1724
 -22261413.19747 -17333573.51346  20614697.1064   20614693.3934
 -22725765.88648 -17695270.90046  20680315.4894   20680309.8074
 -10094751.38346  -7849191.83143  23033491.2974   23033486.0614
  -2114662.61846  -1641529.79243  24830916.2484   24830908.8834
  -8583655.69647  -6671764.94444  23403036.9064   23403031.7424
 10  3 18  3 26  0.0000000  0  9G21G31G 6G18G24G16G 3G22G29
 -22948228.70048 -17862446.89146  20844521.7234   20844515.8494
 -10444893.05447  -8119550.34344  23243334.2954   23243328.1124
 -15261493.19847 -11885888.06244  22175039.2814   22175034.2394
  -9844374.62447  -7663095.56744  23546826.5634   23546821.0054
 -22225802.21647 -17305824.70246  20621473.8694   20621469.8984
 -22763299.41748 -17724517.80846  20673173.4374   20673167.0234
 -10182901.05446  -7917879.83943  23016716.3544   23016711.2844
  -2210870.99046  -1716497.20042  24812608.2034   24812600.6184
  -8503631.34747  -6609408.34145  23418264.7814   23418260.4924
 10  3 18  3 26 30.0000000  0  9G21G31G 6G18G24G16G 3G22G29
 -22937923.80748 -17854417.10346  20846482.7244   20846476.8824
 -10348338.01047  -8044312.64144  23261707.3594   23261702.0184
 -15327748.95947 -11937515.91344  22162431.1644   22162426.3354
  -9919741.44347  -7721822.93743  23532485.0994   23532479.1494
 -22189681.03747 -17277678.32046  20628347.5584   20628343.1154
 -22800428.87548 -17753449.85246  20666107.6384   20666101.6244
 -10270922.53446  -7986468.02643  22999966.6584   22999961.7604
  -2307143.88746  -1791514.93243  24794288.6984   24794280.2214
  -8423535.53447  -6546996.02744  23433506.8244   23433501.6604
 10  3 18  3 27  0.0000000  0  9G21G31G 6G18G24G16G 3G22G29
 -22927165.17048 -17846033.74646  20848530.5134   20848524.3244
 -10251598.05046  -7968930.87044  23280116.3804   23280110.9304
 -15393840.74747 -11989015.98445  22149854.6084   22149849.7654
  -9994888.31247  -7780378.95744  23518185.4494   23518178.8324
 -22153051.17447 -17249135.56846  20635318.1894   20635313.9034
 -22837152.43748 -17782065.62146  20659119.3154   20659113.4404
 -10358814.56446  -8054955.28843  22983241.7514   22983236.7084
  -2403478.72846  -1866580.92742  24775956.0364   24775948.9434
  -8343368.81047  -6484528.46444  23448761.3684   23448757.2494
 10  3 18  3 27 30.0000000  0  9G21G31G 6G18G24G16G 3G22G29
 -22915953.34648 -17837297.25746  20850664.0314   20850657.4574
 -10154675.49246  -7893406.81444  23298560.7584   23298555.2824
 -15459767.80447 -12040387.70745  22137308.9064   22137304.2174
 -10069811.97747  -7838761.01944  23503927.6634   23503921.9604
 -22115914.04148 -17220197.53946  20642385.1144   20642381.0564
 -22873467.51548 -17810363.08046  20652208.8354   20652203.1824
 -10446576.40646  -8123341.12143  22966540.4044   22966535.5674
  -2499871.72946  -1941692.26943  24757612.6964   24757605.5154
  -8263130.90947  -6422005.42844  23464030.2014   23464025.7294
 10  3 18  3 28  0.0000000  0  9G21G31G 6G18G24G16G 3G22G29
 -22904290.36048 -17828209.21546  20852883.2214   20852876.9104
 -10057574.41047  -7817743.64744  23317037.8324   23317032.6184
 -15525530.81347 -12091631.61345  22124794.8384   22124789.7954
 -10144510.43847  -7896967.59544  23489712.7874   23489707.1704
 -22078272.37548 -17190866.36446  20649547.9694   20649543.9064
 -22909373.99848 -17838342.15946  20645376.0974   20645370.1544
 -10534208.01746  -8191625.49544  22949865.0134   22949860.2324
  -2596321.74046  -2016848.02443  24739259.2894   24739251.3224
  -8182823.12547  -6359427.94644  23479311.9284   23479307.9254
 10  3 18  3 28 30.0000000  0  9G21G31G 6G18G24G16G 3G22G29
 -22892175.93348 -17818769.40446  20855188.4884   20855182.3254
  -9960296.91447  -7741943.01244  23335549.5844   23335543.9424
 -15591128.47847 -12142746.66344  22112311.8194   22112306.9814
 -10218980.68947  -7954996.35244  23475541.8634   23475536.0114
 -22040127.20648 -17161142.85446  20656806.5014   20656802.8814
 -22944869.11848 -17866000.69546  20638621.8164   20638615.8654
 -10621708.32346  -8259807.54143  22933213.1934   22933209.9194
  -2692825.45146  -2092045.63143  24720895.1574   24720887.4144
  -8102445.47847  -6296796.03844  23494607.4134   23494602.9654
 10  3 18  3 29  0.0000000  0  9G21G31G 6G18G24G16G 3G22G29
 -22879612.15948 -17808979.44246  20857579.0654   20857573.4594
  -9862846.84047  -7666007.90644  23354093.9554   23354088.1664
 -15656561.59347 -12193733.49644  22099860.4004   22099855.1994
 -10293220.83847  -8012845.80944  23461414.7914   23461408.5084
 -22001481.16648 -17131029.04846  20664160.7534   20664156.5844
 -22979952.07848 -17893338.06946  20631945.9804   20631939.6194
 -10709076.70446  -8327886.76543  22916588.2974   22916583.7524
  -2789380.72146  -2167283.41543  24702520.5574   24702513.9424
  -8021999.14047  -6234110.61644  23509916.3824   23509911.7284
 10  3 18  3 29 30.0000000  0  9G21G31G 6G18G24G16G 3G22G29
 -22866599.15248 -17798839.43046  20860055.2784   20860049.1244
  -9765226.36247  -7589940.01544  23372670.6644   23372664.4894
 -15721829.13247 -12244591.30744  22087439.8034   22087435.5904
 -10367227.37647  -8070513.24444  23447331.1424   23447325.7164
 -21962335.53048 -17100525.95546  20671609.7804   20671605.6074
 -23014620.83248 -17920352.68646  20625348.5014   20625341.9074
 -10796312.39146  -8395862.60743  22899988.1714   22899983.5104
  -2885984.99646  -2242559.41543  24684137.4694   24684130.6464
  -7941484.15547  -6171371.67644  23525238.0344   23525233.1854
 10  3 18  3 30  0.0000000  0  9G21G31G 6G18G24G16G 3G22G29
 -22853138.07748 -17788350.27246  20862617.1364   20862610.7984
  -9667439.05747  -7513742.13444  23391278.5754   23391273.1264
 -15786931.21947 -12295320.18945  22075051.0474   22075046.9074
 -10440998.03247  -8127996.85244  23433293.2974   23433287.3334
 -21922692.59148 -17069635.34746  20679153.8634   20679149.4174
 -23048874.18648 -17947043.61346  20618830.1424   20618823.9374
 -10883414.83346  -8463734.63043  22883413.6294   22883408.1704
  -2982635.57446  -2317871.50343  24665746.2634   24665738.3644
  -7860901.53147  -6108580.03844  23540572.4764   23540567.7444
 10  3 18  3 30 30.0000000  0  9G21G31G 6G18G24G16G 3G22G29
 -22839230.08748 -17777512.86846  20865263.5764   20865257.7054
  -9569487.70647  -7437416.41444  23409917.6524   23409912.7644
 -15851867.38547 -12345919.79545  22062694.9024   22062689.9324
 -10514529.79447  -8185294.32444  23419301.2284   23419295.1824
 -21882553.87148 -17038358.42746  20686791.8734   20686788.2664
 -23082710.06348 -17973409.22946  20612391.6394   20612385.2044
 -10970382.92947  -8531501.96344  22866863.4754   22866859.2584
  -3079329.74546  -2393217.53643  24647345.5564   24647338.0194
  -7780251.27447  -6045735.71344  23555919.2194   23555915.3944
 10  3 18  3 31  0.0000000  0  9G21G31G 6G18G24G16G 3G22G29
 -22824874.90248 -17766327.01346  20867995.5914   20867988.8534
  -9471374.21447  -7360964.35244  23428587.8314   23428583.1174
 -15916636.29647 -12396389.06345  22050370.0254   22050364.5974
 -10587819.44247  -8242403.14644  23405354.1064   23405348.8884
 -21841920.74848 -17006696.24446  20694524.0284   20694520.2294
 -23116126.52648 -17999448.03846  20606032.4254   20606026.3724
 -11057215.74647  -8599163.91144  22850340.4264   22850335.3004
  -3176064.29146  -2468595.04843  24628937.9164   24628930.5194
  -7699533.29547  -5982838.60944  23571279.1514   23571275.1074
 10  3 18  3 31 30.0000000  0  9G21G31G 6G18G24G16G 3G22G29
 -22810074.23848 -17754794.02346  20870812.0814   20870805.5784
  -9373102.39047  -7284388.93244  23447289.0304   23447283.5804
 -15981238.50547 -12446728.44245  22038075.6714   22038070.8994
 -10660864.97447  -8299321.73544  23391453.8084   23391448.2094
 -21800795.81848 -16974650.84746  20702349.9444   20702345.6464
 -23149122.45948 -18025159.15646  20599753.7034   20599747.6944
 -11143913.18947  -8666720.31344  22833841.4264   22833836.8814
  -3272837.06146  -2544002.37043  24610521.7964   24610514.5224
  -7618748.55847  -5919889.49144  23586652.4664   23586647.5844
 10  3 18  3 32  0.0000000  0  9G21G31G 6G18G24G16G 3G22G29
 -22794829.32848 -17742914.87046  20873712.9714   20873706.9014
  -9274675.35347  -7207692.54144  23466019.3284   23466013.5564
 -16045673.89047 -12496937.83345  22025814.8874   22025809.7314
 -10733663.30047  -8356047.69644  23377601.6064   23377595.0284
 -21759180.88848 -16942223.62346  20710269.0824   20710264.6864
 -23181696.23648 -18050541.31946  20593554.9764   20593549.1064
 -11230474.43047  -8734170.62644  22817369.9794   22817365.3574
  -3369645.64046  -2619437.60243  24592100.5534   24592092.1694
  -7537897.81447  -5856888.93244  23602037.8084   23602032.9714
 10  3 18  3 32 30.0000000  0  9G21G31G 6G18G24G16G 3G22G29
 -22779141.03048 -17730690.22346  20876698.3504   20876692.0444
  -9176095.79547  -7130877.32044  23484778.4404   23484772.8304
 -16109941.90747 -12547016.80545  22013584.9954   22013579.2814
 -10806211.87847  -8412579.03444  23363795.5104   23363789.4004
 -21717077.78248 -16909416.00846  20718280.6744   20718276.7384
 -23213846.33748 -18075593.34746  20587436.9254   20587431.0324
 -11316898.27947  -8801513.85244  22800923.9004   22800918.9594
  -3466487.32746  -2694898.58043  24573671.3354   24573663.9774
  -7456981.45647  -5793837.23944  23617435.8614   23617430.5614
 10  3 18  3 33  0.0000000  0  9G21G31G 6G18G24G16G 3G22G29
 -22763010.10748 -17718120.66546  20879768.0364   20879761.5254
  -9077366.55647  -7053945.45844  23503565.1364   23503560.2474
 -16174042.02947 -12596964.94145  22001386.7594   22001381.9924
 -10878508.33947  -8468913.93844  23350038.1464   23350031.7774
 -21674488.15948 -16876229.28646  20726385.2924   20726381.5764
 -23245570.87048 -18100313.77046  20581399.8364   20581393.8594
 -11403184.16347  -8868749.59744  22784504.6484   22784498.8424
  -3563359.20946  -2770383.14343  24555236.8414   24555230.0054
  -7375999.77347  -5730734.62344  23632845.9654   23632841.1714
 10  3 18  3 33 30.0000000  0  9G21G31G 6G18G24G16G 3G22G29
 -22746437.20248 -17705206.71146  20882921.6434   20882915.4304
  -8978490.59847  -6976899.27844  23522380.9034   23522375.6944
 -16237973.63847 -12646781.77045  21989220.3584   21989216.0754
 -10950549.47347  -8525049.89944  23336329.1844   23336323.0824
 -21631414.06248 -16842665.05146  20734582.1824   20734577.9834
 -23276868.06548 -18124701.19546  20575444.2314   20575438.5034
 -11489331.29947  -8935877.21143  22768111.2144   22768105.7174
  -3660258.49546  -2845889.04843  24536798.3734   24536790.5564
  -7294952.91347  -5667581.23344  23648269.2424   23648264.2194
 10  3 18  3 34  0.0000000  0  9G21G31G 6G18G24G16G 3G22G29
 -22729424.14948 -17691949.78446  20886159.4474   20886152.8834
  -8879471.12847  -6899741.27244  23541223.9224   23541218.5564
 -16301737.03647 -12696467.52445  21977087.0514   21977082.4794
 -11022332.96847  -8580985.07044  23322669.1794   23322663.3784
 -21587857.82648 -16808725.12346  20742870.5104   20742866.3364
 -23307737.44148 -18148755.25146  20569570.1274   20569564.3084
 -11575339.16647  -9002896.32844  22751744.0744   22751738.8144
  -3757183.16946  -2921414.71043  24518353.5644   24518346.5084
  -7213841.90947  -5604377.86544  23663703.7004   23663699.1384
 10  3 18  3 34 30.0000000  0  9G21G31G 6G18G24G16G 3G22G29
 -22711971.31848 -17678350.17746  20889480.3434   20889474.0484
  -8780310.86247  -6822473.54444  23560093.1864   23560088.0344
 -16365331.52047 -12746021.65745  21964985.5064   21964981.1824
 -11093855.83447  -8636717.16744  23309058.3074   23309053.1324
 -21543820.79648 -16774410.55946  20751250.6774   20751246.9174
 -23338176.41948 -18172473.94446  20563777.5604   20563771.6934
 -11661206.73647  -9069806.11043  22735403.9724   22735399.2364
  -3854129.94046  -2996957.59443  24499905.9164   24499898.0184
  -7132666.81947  -5541124.56744  23679150.9064   23679146.2174
 10  3 18  3 35  0.0000000  0  9G21G31G 6G18G24G16G 3G22G29
 -22694079.62548 -17664408.59246  20892884.7754   20892878.5294
  -8681012.49847  -6745098.21044  23578989.4044   23578983.7344
 -16428756.62247 -12795443.79745  21952916.3824   21952911.6754
 -11165115.49747  -8692244.16544  23295498.4424   23295492.7294
 -21499305.13848 -16739723.03746  20759721.6774   20759717.7864
 -23368183.24148 -18195855.87846  20558067.4684   20558061.4644
 -11746933.03847  -9136605.80044  22719091.0994   22719085.5374
  -3951095.65746  -3072515.30943  24481453.9294   24481446.3184
  -7051428.04247  -5477821.66344  23694609.9064   23694605.8454
 10  3 18  3 35 30.0000000  0  9G21G31G 6G18G24G16G 3G22G29
 -22675750.21248 -17650125.92646  20896372.4424   20896366.5734
  -8581579.09047  -6667617.64644  23597911.1234   23597905.1824
 -16492011.86347 -12844733.59745  21940879.4704   21940874.0604
 -11236109.34247  -8747564.05044  23281988.5094   23281982.8804
 -21454312.69348 -16704663.98046  20768283.3714   20768279.4114
 -23397756.73648 -18218900.16946  20552439.4874   20552433.9214
 -11832517.99747  -9203295.37444  22702805.0904   22702799.7564
  -4048078.24046  -3148086.10343  24462997.6764   24462991.3874
  -6970125.90447  -5414469.38444  23710081.2404   23710076.9804
 10  3 18  3 36  0.0000000  0  9G21G31G 6G18G24G16G 3G22G29
 -22656983.92648 -17635502.85046  20899944.2474   20899938.1504
  -8482013.26647  -6590033.91744  23616857.6664   23616852.1774
 -16555096.82247 -12893890.70645  21928874.2144   21928869.3924
 -11306834.13947  -8802674.27544  23268530.1274   23268524.2374
 -21408845.10348 -16669234.68546  20776935.4174   20776931.5284
 -23426894.98548 -18241605.29546  20546895.3164   20546889.0814
 -11917960.25647  -9269873.74844  22686545.8574   22686541.0594
  -4145075.17346  -3223668.08543  24444539.8394   24444533.1454
  -6888760.63647  -5351067.91444  23725564.3974   23725560.3224
 10  3 18  3 36 30.0000000  0  9G21G31G 6G18G24G16G 3G22G29
 -22637782.38048 -17620540.59446  20903598.1534   20903591.7724
  -8382318.56947  -6512349.75544  23635829.1934   23635823.5234
 -16618011.77447 -12942915.33545  21916902.3174   21916896.9704
 -11377288.00747  -8857573.36744  23255123.4864   23255117.8684
 -21362905.08448 -16633437.26546  20785677.5624   20785673.5124
 -23455597.30148 -18263970.73846  20541433.8304   20541427.5244
 -12003259.57247  -9336340.73644  22670313.9724   22670308.9094
  -4242083.59546  -3299259.08643  24426080.4674   24426072.5204
  -6807333.45547  -5287618.19844  23741058.9844   23741055.4414
 10  3 18  3 37  0.0000000  0  9G21G31G 6G18G24G16G 3G22G29
 -22618146.44248 -17605239.85546  20907334.4044   20907328.7164
  -8282497.69947  -6434567.26344  23654824.2444   23654819.0524
 -16680756.07647 -12991806.98045  21904961.6484   21904957.4064
 -11447468.20747  -8912259.21944  23241768.5574   23241763.0424
 -21316494.66248 -16597273.29646  20794509.2354   20794504.9734
 -23483861.99948 -18285995.17846  20536054.8564   20536048.4944
 -12088414.74547  -9402695.39844  22654109.3634   22654104.6354
  -4339100.65446  -3374856.79243  24407618.3334   24407611.3674
  -6725844.46847  -5224120.29244  23756566.3804   23756562.0764
 10  3 18  3 37 30.0000000  0  9G21G31G 6G18G24G16G 3G22G29
 -22598077.45148 -17589601.68646  20911153.6584   20911147.6544
  -8182553.98747  -6356689.06344  23673842.8644   23673837.6734
 -16743329.70547 -13040565.64145  21893055.2364   21893050.0734
 -11517372.27547  -8966729.90944  23228465.6444   23228460.5664
 -21269616.00348 -16560744.46646  20803430.0414   20803426.1554
 -23511687.56348 -18307677.43046  20530759.5534   20530754.0824
 -12173425.50347  -9468937.54244  22637932.2744   22637927.2324
  -4436124.11646  -3450459.44243  24389155.2534   24389148.4994
  -6644294.26147  -5160574.69444  23772085.4764   23772080.6544
 10  3 18  3 38  0.0000000  0  9G21G31G 6G18G24G16G 3G22G29
 -22577576.30248 -17573626.75346  20915054.7134   20915048.7414
  -8082490.20747  -6278717.32244  23692884.2714   23692878.6134
 -16805731.96847 -13089190.76045  21881180.1304   21881174.9564
 -11586997.34147  -9020983.18444  23215216.6984   23215211.2174
 -21222270.76048 -16523852.07346  20812439.6564   20812435.5234
 -23539072.25248 -18329016.15246  20525548.5784   20525542.4864
 -12258290.88347  -9535066.38844  22621783.0554   22621778.4234
  -4533150.85746  -3526064.68743  24370692.2144   24370684.6564
  -6562683.10946  -5096981.59744  23787615.4014   23787610.5374
 10  3 18  3 38 30.0000000  0  9G21G31G 6G18G24G16G 3G22G29
 -22556644.53648 -17557316.29246  20919037.9994   20919031.7724
  -7982309.39947  -6200654.36144  23711947.9114   23711942.7994
 -16867962.91447 -13137682.40245  21869338.0964   21869332.9864
 -11656341.04847  -9075017.22744  23202020.9574   23202015.5014
 -21174461.31048 -16486597.95646  20821537.5434   20821533.6914
 -23566015.50448 -18350010.89446  20520421.3094   20520415.4384
 -12343010.06047  -9601081.34344  22605661.4254   22605656.1234
  -4630178.49646  -3601670.60843  24352227.9954   24352220.7134
  -6481011.68946  -5033341.54044  23803156.9394   23803152.2424
 10  3 18  3 39  0.0000000  0  9G21G31G 6G18G24G16G 3G22G29
 -22535282.46748 -17540670.51746  20923103.2204   20923096.9054
  -7882013.86747  -6122502.02744  23731033.6054   23731028.3254
 -16930021.53547 -13186039.76945  21857529.1554   21857523.9454
 -11725400.20647  -9128829.55444  23188879.5494   23188873.6774
 -21126189.42548 -16448983.49746  20830723.1514   20830719.3714
 -23592514.53247 -18370659.48546  20515379.1244   20515372.8004
 -12427582.00846  -9666981.55844  22589568.3524   22589562.9134
  -4727203.95946  -3677274.82843  24333764.6154   24333757.4914
  -6399279.75946  -4969654.34344  23818709.9414   23818705.4084
 10  3 18  3 39 30.0000000  0  9G21G31G 6G18G24G16G 3G22G29
 -22513490.98348 -17523690.13546  20927249.6644   20927243.5414
  -7781606.30247  -6044262.38844  23750141.3934   23750135.5384
 -16991907.21747 -13234262.38145  21845752.4534   21845747.2724
 -11794171.71147  -9182417.73944  23175792.8984   23175787.1554
 -21077456.69148 -16411009.94346  20839996.5334   20839992.5554
 -23618567.92647 -18390960.82946  20510421.4804   20510415.2804
 -12512006.03047  -9732766.48244  22573502.8534   22573497.4404
  -4824224.13446  -3752874.95743  24315302.5654   24315295.4564
  -6317487.63946  -4905920.24344  23834274.5254   23834270.1294
 10  3 18  3 40  0.0000000  0 10G21G31G 6G18G24G16G 3G22G19G29
 -22491271.24048 -17506376.04846  20931478.4074   20931472.1094
  -7681090.06947  -5965938.07444  23769268.5284   23769262.8224
 -17053619.87447 -13282350.15045  21834008.7204   21834004.2494
 -11862653.37147  -9235780.06944  23162761.5364   23162755.2324
 -21028265.49148 -16372679.13346  20849357.5234   20849353.3444
 -23644174.10848 -18410913.70646  20505548.5044   20505542.4434
 -12596280.93846  -9798435.23644  22557464.8314   22557460.3734
  -4921236.58346  -3828469.07143  24296842.1254   24296834.7284
   -689135.12846   -523950.71643  25064745.8234   25064738.0724
  -6235636.01246  -4842139.78144  23849849.9674   23849845.6294
 10  3 18  3 40 30.0000000  0 10G21G31G 6G18G24G16G 3G22G19G29
 -22468626.00948 -17488730.41646  20935787.2344   20935781.2584
  -7580469.46447  -5887532.43244  23788415.9794   23788410.5484
 -17115160.43747 -13330303.82945  21822298.3074   21822293.3024
 -11930844.26847  -9288915.82944  23149785.2054   23149779.0884
 -20978619.04148 -16333993.58846  20858805.1314   20858800.8024
 -23669333.37547 -18430518.33246  20500760.5664   20500755.0434
 -12680407.54046  -9863988.43044  22541456.9434   22541451.9734
  -5018239.81546  -3904056.00143  24278382.5884   24278375.5154
   -777192.93846   -592567.17742  25047988.2914   25047981.2864
  -6153726.60246  -4778314.29944  23865437.3654   23865432.9054
 10  3 18  3 41  0.0000000  0 10G21G31G 6G18G24G16G 3G22G19G29
 -22445553.90248 -17470752.14646  20940177.6664   20940171.2364
  -7479744.72247  -5809045.65444  23807582.9614   23807577.5294
 -17176526.07147 -13378121.20545  21810620.2124   21810615.4684
 -11998739.05247  -9341820.85244  23136865.2574   23136859.0814
 -20928517.05948 -16294953.08346  20868339.0334   20868335.1264
 -23694041.63147 -18449771.51846  20496059.0604   20496052.9394
 -12764382.78647  -9929423.67344  22525476.9784   22525472.2044
  -5115228.66946  -3979631.70243  24259926.6694   24259919.2994
   -865189.80346   -661136.11242  25031242.6504   25031235.5334
  -6071757.22046  -4714442.07644  23881035.4104   23881030.7294
 10  3 18  3 41 30.0000000  0 10G21G31G 6G18G24G16G 3G22G19G29
 -22422058.11248 -17452443.73346  20944648.8184   20944642.4964
  -7378920.82447  -5730481.59344  23826769.9964   23826763.8674
 -17237718.22447 -13425803.39145  21798976.2094   21798971.2204
 -12066337.00047  -9394494.57144  23124001.8034   23123995.7584
 -20877963.45348 -16255560.66246  20877959.0234   20877954.8294
 -23718299.49247 -18468673.75246  20491442.7244   20491436.9354
 -12848207.10347  -9994741.31544  22509525.7414   22509520.5314
  -5212202.30346  -4055195.55743  24241473.0524   24241464.9384
   -953126.98846   -729658.55242  25014509.6634   25014501.2524
  -5989730.09646  -4650524.85444  23896645.1914   23896640.0334
 10  3 18  3 42  0.0000000  0 10G21G31G 6G18G24G16G 3G22G19G29
 -22398139.28448 -17433805.68746  20949200.5414   20949194.1644
  -7278000.14747  -5651842.13744  23845973.6054   23845968.3254
 -17298736.37147 -13473349.99145  21787364.2854   21787359.5184
 -12133635.24747  -9446934.74844  23111194.9234   23111189.3854
 -20826960.18448 -16215817.85146  20887664.7064   20887660.3164
 -23742105.35847 -18487223.77946  20486912.6374   20486906.7114
 -12931880.18047 -10059941.12644  22493603.3414   22493597.6014
  -5309157.76446  -4130745.25943  24223022.9734   24223015.5444
  -1041003.76146   -798133.94643  24997786.4994   24997778.9924
  -5907645.50846  -4586562.85644  23912264.5774   23912260.3094
 10  3 18  3 42 30.0000000  0 10G21G31G 6G18G24G16G 3G22G19G29
 -22373798.41748 -17414838.77146  20953832.0994   20953826.1684
  -7176985.19147  -5573129.20244  23865197.0244   23865190.6934
 -17359579.40447 -13520760.14245  21775786.8114   21775781.3544
 -12200630.49747  -9499138.83544  23098446.3264   23098440.6474
 -20775508.55248 -16175725.67746  20897455.6144   20897451.2534
 -23765456.99047 -18505419.85846  20482469.2644   20482463.1324
 -13015400.58047 -10125021.94644  22477709.7144   22477704.6124
  -5406091.26446  -4206277.83043  24204577.1444   24204570.0194
  -1128819.60046   -866561.86043  24981077.5614   24981068.8744
  -5825503.10446  -4522555.83144  23927895.9274   23927891.5604
 10  3 18  3 43  0.0000000  0 10G21G31G 6G18G24G16G 3G22G19G29
 -22349036.32848 -17395543.63446  20958544.1524   20958538.0374
  -7075878.90147  -5494345.09744  23884436.4034   23884430.7154
 -17420247.17647 -13568033.71845  21764242.1944   21764236.9854
 -12267320.69347  -9551105.22244  23085756.0604   23085749.8344
 -20723610.98648 -16135286.01346  20907331.4124   20907327.5494
 -23788352.89248 -18523260.81846  20478111.9544   20478105.8794
 -13098767.50447 -10189983.17744  22461845.8304   22461840.2804
  -5503000.58746  -4281791.58643  24186135.6184   24186128.6064
  -1216574.30746   -934942.16342  24964376.8854   24964369.5704
  -5743303.38846  -4458504.10544  23943538.3574   23943533.5364
 10  3 18  3 43 30.0000000  0 10G21G31G 6G18G24G16G 3G22G19G29
 -22323854.54448 -17375921.46246  20963336.4154   20963330.2614
  -6974684.13847  -5415492.07344  23903693.6154   23903687.8724
 -17480739.40147 -13615170.51145  21752730.4364   21752725.8184
 -12333703.12447  -9602831.79244  23073123.2434   23073117.2764
 -20671269.77348 -16094500.65346  20917291.6194   20917286.9384
 -23810792.15448 -18540745.96546  20473842.1194   20473835.9824
 -13181979.87446 -10254823.96744  22446010.5574   22446005.1514
  -5599883.02946  -4357284.40843  24167699.7644   24167692.1034
  -1304267.69346  -1003274.66443  24947689.6544   24947681.3724
  -5661047.04346  -4394408.26544  23959190.9864   23959186.1224
 10  3 18  3 44  0.0000000  0 10G21G31G 6G18G24G16G 3G22G19G29
 -22298254.67248 -17355973.51346  20968207.9884   20968201.5994
  -6873404.68647  -5336573.04344  23922966.3024   23922960.5504
 -17541056.11347 -13662170.54945  21741252.3754   21741247.9694
 -12399775.55247  -9654316.78544  23060550.3744   23060544.5464
 -20618487.50648 -16053371.61146  20927335.3324   20927331.3834
 -23832774.63648 -18557875.17246  20469658.7604   20469653.1704
 -13265037.63647 -10319544.28944  22430204.8584   22430200.4514
  -5696736.45746  -4432754.60243  24149269.2404   24149261.8694
  -1391899.78546  -1071559.33142  24931013.7064   24931005.7014
  -5578734.61046  -4330268.71944  23974854.9754   23974850.2664
 10  3 18  3 44 30.0000000  0 10G21G31G 6G18G24G16G 3G22G19G29
 -22272237.80148 -17335700.61746  20973158.7784   20973152.6904
  -6772042.88247  -5257589.85144  23942254.4004   23942248.4404
 -17601196.61847 -13709033.25945  21729808.4804   21729803.8374
 -12465535.20047  -9705558.06844  23048036.7044   23048030.9544
 -20565265.82348 -16011900.16446  20937463.1984   20937459.2574
 -23854297.10348 -18574645.93146  20465563.2114   20465557.3064
 -13347939.61047 -10384143.19944  22414429.4094   22414424.5544
  -5793557.65946  -4508199.68943  24130844.2744   24130837.0144
  -1479469.71346  -1139795.69942  24914349.2144   24914342.1424
  -5496366.08846  -4266085.46444  23990529.0934   23990524.3774
 10  3 18  3 45  0.0000000  0 10G21G31G 6G18G24G16G 3G22G19G29
 -22245805.15648 -17315103.74746  20978188.4634   20978182.2874
  -6670601.68847  -5178544.80144  23961558.3854   23961553.2464
 -17661160.43147 -13755758.30045  21718397.7694   21718392.8314
 -12530979.80847  -9756553.85044  23035582.7184   23035577.3354
 -20511607.18948 -15970088.24446  20947674.6304   20947670.0844
 -23875358.65547 -18591057.52846  20461555.5444   20461549.4644
 -13430684.99447 -10448620.12744  22398684.0934   22398678.5084
  -5890343.41846  -4583617.16843  24112426.9464   24112419.1354
  -1566977.33246  -1207983.44842  24897697.9074   24897689.7994
  -5413942.03847  -4201858.95444  24006213.5784   24006209.1094
 10  3 18  3 45 30.0000000  0 10G21G31G 6G18G24G16G 3G22G19G29
 -22218957.56248 -17294183.54546  20983297.9144   20983291.1514
  -6569083.86246  -5099440.03744  23980876.2474   23980870.9174
 -17720947.14447 -13802345.33745  21707019.9714   21707015.5814
 -12596106.30147  -9807301.74944  23023189.6024   23023184.2034
 -20457513.38148 -15927937.22546  20957967.8254   20957963.9404
 -23895958.09648 -18607109.04446  20457635.4634   20457629.8164
 -13513272.66347 -10512974.14844  22382967.4134   22382962.9194
  -5987091.23846  -4659005.08943  24094015.6974   24094008.5594
  -1654422.37446  -1276122.40843  24881057.2584   24881050.2574
  -5331462.92346  -4137589.54544  24021908.7964   24021904.3554
 10  3 18  3 46  0.0000000  0 10G21G31G 6G18G24G16G 3G22G19G29
 -22191696.35048 -17272941.03946  20988485.2974   20988478.4454
  -6467492.10046  -5020277.64544  24000208.5104   24000203.4444
 -17780556.21847 -13848793.96245  21695677.4484   21695672.4524
 -12660912.34247  -9857799.94644  23010857.8694   23010852.2114
 -20402986.54848 -15885448.78646  20968344.2364   20968339.8084
 -23916094.07347 -18622799.42346  20453803.6534   20453797.8904
 -13595701.92947 -10577204.73344  22367282.2344   22367277.5154
  -6083798.25446  -4734361.18343  24075613.9684   24075606.5824
  -1741804.36746  -1344212.28743  24864428.8204   24864421.4454
  -5248928.75147  -4073277.23544  24037614.8084   24037610.4844
 10  3 18  3 46 30.0000000  0 10G21G31G 6G18G24G16G 3G22G19G29
 -22164023.28848 -17251377.60946  20993751.4674   20993744.6524
  -6365829.80546  -4941060.30544  24019554.8344   24019548.8954
 -17839987.88047 -13895104.34145  21684366.6774   21684362.6494
 -12725395.84947  -9908046.82444  22998586.9874   22998580.9044
 -20348029.65448 -15842625.22746  20978802.0934   20978797.3714
 -23935765.80247 -18638128.04346  20450060.0864   20450054.2084
 -13677972.46547 -10641311.62844  22351626.4164   22351621.3264
  -6180461.87046  -4809683.46643  24057219.2254   24057211.7774
  -1829123.25646  -1412253.02643  24847812.8884   24847805.4974
  -5166340.49147  -4008922.77844  24053330.7514   24053326.2074
 10  3 18  3 47  0.0000000  0 10G21G31G 6G18G24G16G 3G22G19G29
 -22135938.97048 -17229493.72346  20999095.5884   20999089.2624
  -6264099.65846  -4861790.10744  24038912.9884   24038907.7374
 -17899240.99847 -13941275.59345  21673092.2834   21673087.6154
 -12789553.65647  -9958039.92244  22986378.3134   22986372.1804
 -20292644.01748 -15799467.58746  20989341.4914   20989337.1334
 -23954971.03447 -18653093.16346  20446405.6554   20446400.0764
 -13760082.92347 -10705293.79844  22336001.1374   22335996.3964
  -6277078.98146  -4884969.53143  24038833.3454   24038826.3434
  -1916378.09746  -1480243.79843  24831209.0544   24831201.2824
  -5083697.90647  -3944525.98244  24069057.2754   24069052.8094
 10  3 18  3 47 30.0000000  0 10G21G31G 6G18G24G16G 3G22G19G29
 -22107445.21348 -17207290.80146  21004517.2414   21004511.1444
  -6162304.62147  -4782469.33044  24058284.1584   24058278.4204
 -17958315.61747 -13987307.75545  21661850.2764   21661846.1574
 -12853383.81747 -10007777.69544  22974231.6564   22974225.4894
 -20236832.12748 -15755977.80746  20999962.1004   20999958.0394
 -23973709.20148 -18667694.33846  20442839.4984   20442834.0874
 -13842032.63947 -10769150.70244  22320407.0644   22320401.4254
  -6373647.10547  -4960217.41643  24020456.9444   24020449.9794
  -2003569.41346  -1548185.05843  24814616.0944   24814609.1444
  -5001001.63947  -3880087.33444  24084793.6994   24084789.2164
 10  3 18  3 48  0.0000000  0 10G21G31G 6G18G24G16G 3G22G19G29
 -22078542.90348 -17184769.50746  21010017.5234   21010011.5484
  -6060447.20346  -4703099.94744  24077667.2524   24077661.5444
 -18017210.96847 -14033200.22045  21650642.9614   21650638.6544
 -12916883.45147 -10057257.91644  22962147.9324   22962142.3954
 -20180596.19648 -15712157.59946  21010663.8244   21010659.6144
 -23991978.69848 -18681930.30546  20439363.3044   20439357.3014
 -13923820.61247 -10832881.59244  22304842.7974   22304837.6484
  -6470163.13347  -5035424.70643  24002090.6424   24002083.1644
  -2090696.26546  -1616076.09043  24798037.1874   24798029.8284
  -4918251.72847  -3815606.91544  24100540.3394   24100535.5334
 10  3 18  3 48 30.0000000  0 10G21G31G 6G18G24G16G 3G22G19G29
 -22049233.46248 -17161930.97846  21015595.1104   21015589.1214
  -5958530.49047  -4623684.37643  24097060.8774   24097055.0464
 -18075926.79047 -14078952.81345  21639469.8864   21639465.4424
 -12980050.03347 -10106478.61744  22950127.5324   22950121.8704
 -20123938.22848 -15668008.53546  21021444.9784   21021440.9854
 -24009778.21648 -18695800.07146  20435975.8704   20435970.1934
 -14005446.12147 -10896485.88144  22289310.1474   22289304.8534
  -6566624.29247  -5110589.24943  23983734.2634   23983727.7804
  -2177758.49046  -1683916.75843  24781469.8924   24781462.3864
  -4835448.62947  -3751085.05544  24116297.2614   24116293.2344
 10  3 18  3 49  0.0000000  0 10G21G31G 6G18G24G16G 3G22G19G29
 -22019518.49448 -17138776.46146  21021249.8424   21021243.6614
  -5856557.61146  -4544225.01944  24116465.8044   24116460.2344
 -18134462.94147 -14124565.39045  21628330.5544   21628326.5904
 -13042881.66247 -10155438.33844  22938170.8094   22938165.6184
 -20066860.89048 -15623532.68246  21032306.7674   21032302.6594
 -24027106.90748 -18709302.94446  20432678.3644   20432672.2864
 -14086908.78347 -10959963.25144  22273808.3884   22273803.4404
  -6663028.18247  -5185709.14343  23965389.7064   23965382.4994
  -2264756.08046  -1751707.04443  24764914.3604   24764907.1334
  -4752593.02647  -3686522.25344  24132064.4204   24132059.8284
 10  3 18  3 49 30.0000000  0 10G21G31G 6G18G24G16G 3G22G19G29
 -21989398.67648 -17115306.46446  21026981.1404   21026975.0284
  -5754530.92746  -4464723.73744  24135880.3914   24135875.2494
 -18192818.34347 -14170037.11345  21617226.1294   21617221.4964
 -13105375.12147 -10204134.52444  22926278.7984   22926273.2104
 -20009365.71748 -15578731.25246  21043247.3934   21043243.8334
 -24043962.62348 -18722437.27346  20429471.0304   20429464.8734
 -14168206.68547 -11023312.22744  22258337.8984   22258333.2384
  -6759371.37047  -5260781.74943  23947056.4764   23947048.5214
  -2351687.92846  -1819446.11543  24748371.1544   24748364.3044
  -4669684.53847  -3621918.27544  24147841.9244   24147836.7854
 10  3 18  3 50  0.0000000  0 10G21G31G 6G18G24G16G 3G22G19G29
 -21958876.17248 -17091522.69846  21032789.0224   21032783.3194
  -5652453.91746  -4385183.26144  24155306.5474   24155300.4264
 -18250993.57447 -14215368.45745  21606156.4354   21606151.1614
 -13167528.80347 -10252565.95244  22914451.5914   22914445.8604
 -19951455.93948 -15533606.74446  21054267.2614   21054263.5944
 -24060345.24648 -18735202.96346  20426353.8854   20426347.6394
 -14249340.29547 -11086533.20844  22242898.3994   22242893.5264
  -6855651.75447  -5335805.41943  23928735.0224   23928727.3304
  -2438554.85546  -1887134.60043  24731841.0804   24731834.1744
  -4586724.40547  -3557274.04544  24163628.4124   24163624.0614
 10  3 18  3 50 30.0000000  0 10G21G31G 6G18G24G16G 3G22G19G29
 -21927951.93148 -17067425.88346  21038674.5284   21038667.4174
  -5550329.39647  -4305605.75144  24174739.5314   24174733.8384
 -18308987.68247 -14260558.66645  21595119.9984   21595114.9984
 -13229339.76447 -10300730.34344  22902689.4884   22902683.6274
 -19893133.33148 -15488160.55845  21065366.0024   21065361.8644
 -24076253.27648 -18747598.83046  20423326.6154   20423320.4414
 -14330308.14547 -11149625.03044  22227490.8834   22227485.6694
  -6951866.31647  -5410777.80844  23910426.0244   23910418.0754
  -2525355.70646  -1954771.65043  24715324.2914   24715316.8974
  -4503712.67447  -3492589.60144  24179424.3594   24179420.0724
 10  3 18  3 51  0.0000000  0 10G21G31G 6G18G24G16G 3G22G19G29
 -21896627.71048 -17043017.39446  21044634.8404   21044628.4804
  -5448160.16246  -4225993.40743  24194180.7884   24194175.9914
 -18366800.55347 -14305607.65145  21584118.8574   21584113.4734
 -13290805.89847 -10348626.01044  22890992.7144   22890986.7984
 -19834400.45148 -15442394.67546  21076542.4054   21076538.6364
 -24091686.05048 -18759624.37546  20420389.6374   20420383.5764
 -14411109.66347 -11212587.24944  22212115.1174   22212109.9244
  -7048012.34347  -5485696.78243  23892129.3204   23892122.6634
  -2612090.73446  -2022357.36243  24698818.5304   24698811.1594
  -4420649.70447  -3427865.24144  24195230.6744   24195226.6924
 10  3 18  3 51 30.0000000  0 10G21G31G 6G18G24G16G 3G22G19G29
 -21864903.89348 -17018297.54446  21050671.7184   21050665.9014
  -5345948.58546  -4146348.07343  24213631.5864   24213626.3084
 -18424430.97947 -14350514.46245  21573151.8314   21573147.5134
 -13351924.36947 -10396250.81944  22879362.2104   22879356.5374
 -19775258.60348 -15396310.12546  21087796.8974   21087792.9364
 -24106640.84548 -18771277.46146  20417544.3264   20417537.8494
 -14491743.48047 -11275418.78644  22196770.9604   22196765.3484
  -7144086.32547  -5560559.64443  23873847.6564   23873840.2044
  -2698758.64246  -2089890.81043  24682326.4094   24682319.1024
  -4337535.40147  -3363100.87544  24211047.0434   24211042.6974
 10  3 18  3 52  0.0000000  0 10G21G31G 6G18G24G16G 3G22G19G29
 -21832782.10348 -16993267.57946  21056784.3484   21056778.1544
  -5243697.88246  -4066672.23043  24233089.3564   24233084.0774
 -18481878.92847 -14395279.09545  21562219.7044   21562215.4994
 -13412692.66747 -10443602.73244  22867798.4914   22867792.4094
 -19715710.24248 -15349908.80246  21099128.1274   21099124.2044
 -24121117.25948 -18782557.78746  20414789.2304   20414783.0784
 -14572208.96047 -11338119.15044  22181458.9434   22181454.2104
  -7240085.59147  -5635364.24743  23855579.4564   23855572.1264
  -2785359.51046  -2157371.98443  24665846.7834   24665839.3704
  -4254370.33847  -3298296.96144  24226872.7704   24226868.1004
 10  3 18  3 52 30.0000000  0 10G21G31G 6G18G24G16G 3G22G19G29
 -21800263.68848 -16967928.54946  21062972.5024   21062966.1914
  -5141410.37946  -3986967.68543  24252553.8814   24252548.3584
 -18539143.87847 -14439901.12145  21551322.1694   21551318.0244
 -13473108.22047 -10490679.79144  22856302.1444   22856296.0314
 -19655757.41848 -15303192.31545  21110536.9434   21110533.1594
 -24135113.30848 -18793463.80746  20412125.8314   20412119.5334
 -14652505.12847 -11400687.56744  22166178.3234   22166173.6944
  -7336006.97147  -5710108.19143  23837326.0154   23837318.5394
  -2871893.06646  -2224800.73743  24649380.1204   24649373.3014
  -4171154.50347  -3233453.49044  24242708.5844   24242703.6714
 10  3 18  3 53  0.0000000  0 10G21G31G 6G18G24G16G 3G22G19G29
 -21767350.32848 -16942281.77646  21069235.6654   21069229.3554
  -5039089.35746  -3907237.05343  24272025.3334   24272019.6504
 -18596225.54247 -14484380.33045  21540460.7384   21540455.3404
 -13533169.15647 -10537480.50645  22844872.3004   22844866.6834
 -19595403.13248 -15256163.00446  21122022.2684   21122017.7174
 -24148629.16848 -18803995.64646  20409553.4074   20409547.9524
 -14732631.48747 -11463123.67744  22150931.6114   22150926.0564
  -7431848.39747  -5784789.81843  23819087.7304   23819080.2464
  -2958359.32446  -2292177.02443  24632926.7374   24632918.4404
  -4087888.97647  -3168571.28844  24258553.7394   24258549.0934
 10  3 18  3 53 30.0000000  0 10G21G31G 6G18G24G16G 3G22G19G29
 -21734043.35448 -16916328.28546  21075573.8654   21075567.5794
  -4936737.42446  -3827482.32043  24291501.9424   24291496.6294
 -18653123.36647 -14528716.29645  21529633.0254   21529628.3224
 -13592872.99347 -10584002.97044  22833511.7694   22833505.7364
 -19534649.29648 -15208822.34846  21133583.0494   21133579.7324
 -24161662.75548 -18814151.69646  20407073.8114   20407067.8304
 -14812586.89747 -11525426.58144  22135716.1004   22135710.9874
  -7527606.79247  -5859406.75344  23800865.9014   23800858.8584
  -3044757.49346  -2359500.26043  24616485.4644   24616477.3584
  -4004573.43747  -3103650.11744  24274408.0304   24274403.4754
 10  3 18  3 54  0.0000000  0 10G21G31G 6G18G24G16G 3G22G19G29
 -21700344.45148 -16890069.39846  21081986.4254   21081980.5154
  -4834358.09746  -3747706.26543  24310983.7114   24310978.3514
 -18709837.26447 -14572908.94145  21518840.7924   21518836.1174
 -13652217.46747 -10630245.41445  22822218.3704   22822212.9394
 -19473498.75248 -15161172.57146  21145219.8804   21145215.1594
 -24174213.91248 -18823931.82346  20404685.3124   20404679.2754
 -14892370.55747 -11587595.65544  22120534.0084   22120528.8044
  -7623279.72347  -5933957.08243  23782660.1904   23782652.4594
  -3131087.62346  -2426770.46943  24600056.7334   24600049.4334
  -3921208.51546  -3038690.48444  24290271.7684   24290267.2234
 10  3 18  3 54 30.0000000  0 10G21G31G 6G18G24G16G 3G22G19G29
 -21666254.65648 -16863505.91646  21088473.5894   21088467.3594
  -4731953.87046  -3667910.78943  24330471.2434   24330465.6944
 -18766366.72547 -14616957.86745  21508083.4584   21508078.5974
 -13711199.91447 -10676205.76044  22810994.2824   22810988.1394
 -19411953.28647 -15113215.06645  21156931.2844   21156927.6294
 -24186280.86248 -18833334.64546  20402388.6954   20402383.2674
 -14971981.52947 -11649630.17844  22105384.6914   22105379.8034
  -7718863.99647  -6008438.32443  23764471.1004   23764463.3034
  -3217349.01446  -2493987.14943  24583642.0554   24583634.7144
  -3837794.39746  -2973692.49943  24306144.9794   24306140.2024
 10  3 18  3 55  0.0000000  0 10G21G31G 6G18G24G16G 3G22G19G29
 -21631775.16848 -16836638.78246  21095034.6324   21095028.7074
  -4629527.59846  -3588098.15543  24349962.0894   24349956.8924
 -18822710.96047 -14660862.45645  21497361.6174   21497356.4844
 -13769818.02647 -10721882.20045  22799839.7494   22799833.9884
 -19350015.34147 -15064951.73845  21168717.8394   21168713.9074
 -24197862.44948 -18842359.26346  20400185.0234   20400178.9514
 -15051418.52147 -11711529.12744  22090268.3014   22090262.7864
  -7814356.63847  -6082848.18444  23746298.9754   23746291.7404
  -3303541.69546  -2561150.26743  24567239.1034   24567232.6754
  -3754331.47346  -2908656.49043  24322027.9064   24322022.9924
 10  3 18  3 55 30.0000000  0 10G21G31G 6G18G24G16G 3G22G19G29
 -21596907.64148 -16809469.27546  21101669.6214   21101663.8104
  -4527081.92146  -3508270.40643  24369456.7194   24369451.4004
 -18878869.62547 -14704622.45745  21486675.1324   21486669.7924
 -13828069.58347 -10767273.01144  22788755.2684   22788748.9154
 -19287687.01847 -15016384.21146  21180578.3694   21180574.3474
 -24208957.72148 -18851004.92946  20398073.3704   20398067.6704
 -15130681.30047 -11773292.33044  22075185.2924   22075179.7904
  -7909755.15547  -6157184.68144  23728145.0164   23728138.0694
  -3389665.13946  -2628259.43643  24550851.3824   24550844.5354
  -3670819.98246  -2843582.63843  24337918.6514   24337914.8674
 10  3 18  3 56  0.0000000  0 10G21G31G 6G18G24G16G 3G22G19G29
 -21561653.01848 -16781998.13846  21108378.2484   21108372.5154
  -4424619.60146  -3428429.66843  24388954.7894   24388950.0614
 -18934842.27747 -14748237.50445  21476023.9984   21476019.0374
 -13885952.15047 -10812376.31444  22777740.4484   22777734.1614
 -19224970.47747 -14967514.18345  21192513.0584   21192508.7634
 -24219565.47148 -18859270.71746  20396054.7384   20396049.1124
 -15209768.98247 -11834919.09244  22060135.2224   22060130.1694
  -8005056.01847  -6231445.09944  23710010.2194   23710002.6134
  -3475718.91246  -2695314.31643  24534475.7734   24534468.4364
  -3587259.97046  -2778470.95443  24353820.0424   24353815.5944
 10  3 18  3 56 30.0000000  0 10G21G31G 6G18G24G16G 3G22G19G29
 -21526012.88948 -16754226.60746  21115160.6834   21115154.3594
  -4322143.38046  -3348578.13743  24408455.4034   24408449.7414
 -18990628.35247 -14791707.16545  21465407.9494   21465403.0254
 -13943463.01247 -10857189.96245  22766796.2074   22766790.4534
 -19161868.01747 -14918343.43446  21204521.2024   21204517.0364
 -24229684.48548 -18867155.66546  20394129.1344   20394123.2644
 -15288680.32747 -11896408.43744  22045118.0244   22045113.6384
  -8100256.71447  -6305627.45644  23691893.9464   23691886.7414
  -3561702.81645  -2762314.77843  24518112.6984   24518106.0624
  -3503651.84646  -2713321.81443  24369730.2584   24369725.7154
 10  3 18  3 57  0.0000000  0 10G21G31G 6G18G24G16G 3G22G19G29
 -21489989.57448 -16726156.48746  21122015.6664   21122009.3524
  -4219656.89546  -3268718.59643  24427958.1084   24427952.7964
 -19046227.90547 -14835031.48745  21454827.6994   21454822.8474
 -14000600.98547 -10901713.05244  22755923.1014   22755917.1654
 -19098382.47647 -14868874.17845  21216602.0064   21216597.7074
 -24239314.70348 -18874659.73446  20392297.1014   20392291.3444
 -15367414.82547 -11957759.98144  22030135.7574   22030131.1414
  -8195354.79947  -6379729.85744  23673797.7874   23673790.5834
  -3647616.93746  -2829260.82043  24501765.1434   24501757.1564
  -3419996.62646  -2648135.93643  24385649.6584   24385644.6844
 10  3 18  3 57 30.0000000  0 10G21G31G 6G18G24G16G 3G22G19G29
 -21453583.65648 -16697788.23846  21128942.8924   21128937.1344
  -4117162.19446  -3188852.59543  24447461.6634   24447457.7434
 -19101640.07347 -14878209.79445  21444283.0304   21444278.3324
 -14057363.02247 -10945943.19745  22745121.5734   22745115.5684
 -19034515.66447 -14819107.84045  21228755.5694   21228751.3734
 -24248454.27948 -18881781.48846  20390557.8734   20390551.4424
 -15445971.22347 -12018972.75344  22015187.0564   22015182.5614
  -8290347.15947  -6453749.86744  23655721.5494   23655714.2564
  -3733460.14546  -2896151.60043  24485429.4234   24485421.7364
  -3336294.06447  -2582913.18444  24401577.4004   24401572.7264
