     2.11           OBSERVATION DATA    G (GPS)             RINEX VERSION / TYPE
teqc  2008Oct2                          20100319 00:17:08UTCPGM / RUN BY / DATE
MSXP|IAx86-PII|bcc32 5.0|MSWin95->XP|486/DX+                COMMENT
teqc  2008Oct2      ICC                 20100319 00:15:41UTCCOMMENT
BIT 2 OF LLI FLAGS DATA COLLECTED UNDER A/S CONDITION       COMMENT
EBRE                                                        MARKER NAME
13410M001                                                   MARKER NUMBER
ICC                 ICC                                     OBSERVER / AGENCY
4536257134          TRIMBLE NETRS       1.15                REC # / TYPE / VERS
0220071796          TRM29659.00     NONE                    ANT # / TYPE
  4833520.1197    41537.2015  4147461.6263                  APPROX POSITION XYZ
        0.0000        0.0000        0.0000                  ANTENNA: DELTA H/E/N
     1     1                                                WAVELENGTH FACT L1/2
     4    L1    L2    C1    P2                              # / TYPES OF OBSERV
    30.0000                                                 INTERVAL
coordenades ajust ICC 2006.0                                COMMENT
 SNR is mapped to RINEX snr flag value [0-9]                COMMENT
  L1 & L2: min(max(int(snr_dBHz/6), 0), 9)                  COMMENT
teqc windowed: start @ 2010 Mar 18 00:00:00.000             COMMENT
teqc windowed: delta = 86399.999 sec                        COMMENT
Forced Modulo Decimation to 30 seconds                      COMMENT
  2010     3    18     0     0    0.0000000     GPS         TIME OF FIRST OBS
                                                            END OF HEADER
 10  3 18  0  0  0.0000000  0  9G12G 2G30G27G31G14G26G 9G29
 -16412120.24048 -12759781.84247  21961459.2234   21961454.9044
 -10862848.30947  -8443304.19744  23131101.0584   23131095.7414
 -27384560.56849 -21328626.35547  20117647.5454   20117644.1414
  -2269633.90546  -1751217.28943  24661053.0364   24661051.0234
 -13848892.24048 -10773722.51246  22635284.8074   22635280.8114
 -16793565.76047 -13058266.46446  22077212.5144   22077209.1174
   1206762.32046    955509.47843  24901160.3204   24901158.8524
  -2633210.24646  -2036947.98543  24857433.3794   24857429.9104
 -25191291.49748 -19609672.51048  20451558.6824   20451555.5094
 10  3 18  0  0 30.0000000  0  9G12G 2G30G27G31G14G26G 9G29
 -16351999.36348 -12712934.40947  21972900.1984   21972895.9444
 -10854132.40147  -8436512.57744  23132759.2904   23132753.9164
 -27369622.50148 -21316986.30347  20120490.4154   20120486.2834
  -2172439.81646  -1675481.79443  24679548.2464   24679547.6514
 -13932059.46748 -10838528.13746  22619458.4664   22619454.1564
 -16736315.27247 -13013655.70746  22088107.5764   22088103.1894
   1321252.02046   1044722.02344  24922947.2964   24922946.5054
  -2516366.30246  -1945900.84143  24879668.0764   24879664.9114
 -25226775.34548 -19637322.25348  20444806.4674   20444802.8484
 10  3 18  0  1  0.0000000  0  9G12G 2G30G27G31G14G26G 9G29
 -16291725.42848 -12665967.72347  21984369.9784   21984366.4994
 -10844872.66847  -8429297.19244  23134521.7894   23134515.6864
 -27354365.64049 -21305097.84747  20123393.8084   20123389.8644
  -2075097.08046  -1599630.46843  24698072.7014   24698070.9274
 -14015013.59048 -10903167.70846  22603672.8784   22603668.6784
 -16678585.93147 -12968671.82646  22099093.0374   22099088.7794
   1435674.66846   1133882.36343  24944721.6104   24944719.4944
  -2399447.85646  -1854795.64743  24901916.7774   24901913.8754
 -25261758.44048 -19664581.80348  20438149.5274   20438145.7114
 10  3 18  0  1 30.0000000  0  9G12G 2G30G27G31G14G26G 9G29
 -16231297.68548 -12618881.17447  21995868.8734   21995864.7794
 -10835067.80347  -8421657.02044  23136387.4824   23136381.7314
 -27338788.92349 -21292960.14547  20126357.4194   20126353.9164
  -1977606.05446  -1523663.61143  24716624.8474   24716622.8604
 -14097751.23348 -10967638.59146  22587928.6874   22587923.9484
 -16620378.80947 -12923315.62646  22110169.3194   22110165.4354
   1550028.59146   1222989.21543  24966481.3154   24966480.9724
  -2282455.29546  -1763632.68743  24924179.3774   24924176.7224
 -25296239.14948 -19691449.88148  20431588.1024   20431583.9714
 10  3 18  0  2  0.0000000  0  9G12G 2G30G27G31G14G26G 9G29
 -16170718.08848 -12571676.30146  22007396.6894   22007392.4654
 -10824718.92547  -8413592.94244  23138356.5744   23138350.8704
 -27322893.45449 -21280574.06947  20129382.2764   20129378.7744
  -1879969.19446  -1447583.11743  24735204.1684   24735202.7964
 -14180270.68648 -11031939.46046  22572225.9224   22572220.7064
 -16561697.60147 -12877590.00946  22121336.5624   22121332.2864
   1664310.18046   1312039.65743  24988229.7574   24988228.6034
  -2165391.50346  -1672414.27143  24946456.5994   24946452.9144
 -25330218.30348 -19717927.14048  20425121.9704   20425118.1864
 10  3 18  0  2 30.0000000  0  9G12G 2G30G27G31G14G26G 9G29
 -16109986.19348 -12524352.76847  22018953.2464   22018949.6214
 -10813825.60547  -8405104.60344  23140429.8514   23140423.6754
 -27306679.55548 -21267939.86147  20132467.8584   20132464.0634
  -1782188.31746  -1371390.42043  24753811.8784   24753809.8304
 -14262569.89248 -11096068.70046  22556564.3584   22556560.0844
 -16502545.05547 -12831497.13046  22132592.2934   22132588.3874
   1778516.61146   1401031.44843  25009962.6344   25009961.4154
  -2048258.26346  -1581141.70643  24968746.4014   24968742.6594
 -25363695.83849 -19744013.52448  20418751.2764   20418747.5944
 10  3 18  0  3  0.0000000  0  9G12G 2G30G27G31G14G26G 9G29
 -16049102.20648 -12476910.70446  22030539.6174   22030535.4254
 -10802387.83947  -8396192.06644  23142606.2404   23142600.2994
 -27290146.54949 -21255057.00047  20135613.8354   20135610.6274
  -1684264.22746  -1295086.15043  24772445.8824   24772444.2994
 -14344645.84648 -11160023.98746  22540945.9114   22540941.1004
 -16442922.93047 -12785038.33546  22143937.9574   22143934.4014
   1892645.98246   1489963.20743  25031680.4314   25031679.3734
  -1931056.82146  -1489816.02043  24991047.9684   24991046.2124
 -25396670.83448 -19769708.32348  20412476.4174   20412472.8244
 10  3 18  0  3 30.0000000  0  9G12G 2G30G27G31G14G26G 9G29
 -15988066.61148 -12429350.50447  22042153.8904   22042149.7994
 -10790405.34547  -8386855.04344  23144886.2984   23144881.0524
 -27273294.89248 -21241925.84847  20138820.6114   20138817.5424
  -1586198.61646  -1218671.55543  24791107.3674   24791106.0124
 -14426496.66148 -11223803.84546  22525370.3114   22525365.9114
 -16382833.45247 -12738215.38146  22155372.4394   22155368.8824
   2006695.55946   1578832.69743  25053383.7174   25053381.4684
  -1813788.95646  -1398438.60843  25013364.4344   25013362.1074
 -25429142.81248 -19795011.15948  20406297.1084   20406293.5514
 10  3 18  0  4  0.0000000  0  9G12G 2G30G27G31G14G26G 9G29
 -15926879.92748 -12381672.56747  22053797.8694   22053793.2854
 -10777878.60347  -8377093.94444  23147269.8354   23147264.4954
 -27256125.33448 -21228546.97547  20142088.1584   20142084.5284
  -1487993.86846  -1142148.61643  24809795.4584   24809793.1714
 -14508120.74748 -11287407.01446  22509837.9644   22509833.3894
 -16322279.90247 -12691030.80846  22166895.4744   22166891.9334
   2120662.22546   1667637.59943  25075071.2924   25075069.7714
  -1696457.10646  -1307011.31243  25035691.8564   25035689.4324
 -25461112.50348 -19819922.60348  20400213.4674   20400209.7544
 10  3 18  0  4 30.0000000  0  9G12G 2G30G27G31G14G26G 9G29
 -15865542.54148 -12333877.21147  22065470.0404   22065465.7884
 -10764807.56246  -8366908.69544  23149757.7354   23149752.0464
 -27238637.53249 -21214920.12147  20145415.8524   20145412.0984
  -1389650.96146  -1065518.00643  24828510.0224   24828508.2134
 -14589515.39748 -11350831.41646  22494349.0814   22494344.4544
 -16261264.62647 -12643486.44546  22178506.5354   22178502.3744
   2234543.59946   1756375.99943  25096742.1914   25096741.1104
  -1579062.28946  -1215534.98643  25058032.0904   25058028.7094
 -25492579.51348 -19844442.34348  20394225.5644   20394221.8584
 10  3 18  0  5  0.0000000  0  9G12G 2G30G27G31G14G26G 9G29
 -15804054.92248 -12285964.80146  22077170.6914   22077166.1134
 -10751192.26447  -8356299.35844  23152348.4994   23152342.8804
 -27220831.58249 -21201045.35647  20148804.2074   20148800.6214
  -1291171.37946   -988780.95943  24847249.7584   24847248.3404
 -14670678.33248 -11414075.24346  22478903.9894   22478899.6814
 -16199790.12247 -12595584.23546  22190204.8754   22190201.0484
   2348337.27446   1845046.12343  25118396.8454   25118394.8534
  -1461606.62845  -1124011.25343  25080382.2344   25080380.0864
 -25523543.26648 -19868569.94348  20388333.2954   20388329.7644
 10  3 18  0  5 30.0000000  0  9G12G 2G30G27G31G14G26G 9G29
 -15742417.53948 -12237935.68146  22088899.6774   22088895.4444
 -10737033.11547  -8345266.25844  23155042.5214   23155036.8154
 -27202708.21349 -21186923.24347  20152252.9394   20152249.4324
  -1192557.05446   -911938.85943  24866015.9044   24866014.1764
 -14751607.69248 -11477137.07446  22463503.7614   22463499.3214
 -16137859.23447 -12547326.39946  22201989.0614   22201985.8494
   2462040.60146   1933645.89243  25140034.4924   25140032.3254
  -1344092.47846  -1032441.95743  25102745.4014   25102742.2164
 -25554004.28048 -19892305.78848  20382536.9074   20382533.4314
 10  3 18  0  6  0.0000000  0  9G12G 2G30G27G31G14G26G 9G29
 -15680630.83448 -12189790.21946  22100657.4294   22100653.6284
 -10722329.94247  -8333809.22644  23157840.3754   23157834.1524
 -27184267.32048 -21172553.72147  20155762.1834   20155758.8244
  -1093809.34046   -834992.89443  24884806.6974   24884805.4954
 -14832300.84048 -11540014.84746  22448148.4534   22448143.7574
 -16075474.44747 -12498714.88545  22213861.2654   22213857.1164
   2575650.74046   2022172.99843  25161654.6944   25161652.7114
  -1226521.19746   -940828.14243  25125117.9734   25125115.7074
 -25583962.20848 -19915649.62448  20376835.8944   20376832.6774
 10  3 18  0  6 30.0000000  0  9G12G 2G30G27G31G14G26G 9G29
 -15618695.22447 -12141528.71746  22112443.3174   22112438.9314
 -10707083.12547  -8321928.58044  23160742.0254   23160736.0374
 -27165509.18949 -21157937.00347  20159331.6944   20159328.0244
   -994930.00546   -757944.35643  24903623.3294   24903621.6994
 -14912755.86748 -11602707.06746  22432838.4164   22432833.4304
 -16012638.41147 -12449751.74546  22225818.3934   22225814.0804
   2689164.88746   2110625.26543  25183255.2084   25183253.6744
  -1108894.45146   -849171.14543  25147502.3114   25147499.4684
 -25613417.19148 -19938601.55148  20371230.8134   20371227.6424
 10  3 18  0  7  0.0000000  0  9G12G 2G30G27G31G14G26G 9G29
 -15556610.36448 -12093150.92146  22124257.7794   22124253.4794
 -10691292.50747  -8309624.19344  23163746.8774   23163741.0544
 -27146433.73249 -21143073.01547  20162961.6094   20162958.3234
   -895920.35146   -680794.31943  24922465.3854   24922462.9064
 -14992970.35348 -11665211.85946  22417573.9174   22417569.4514
 -15949353.70847 -12400439.00045  22237861.1744   22237856.9794
   2802581.15146   2199001.19743  25204837.5934   25204836.2924
   -991213.95246   -757472.25743  25169896.4044   25169892.8884
 -25642368.70848 -19961161.16848  20365721.7714   20365718.5024
 10  3 18  0  7 30.0000000  0  9G12G 2G30G27G31G14G26G 9G29
 -15494377.10448 -12044657.49046  22136100.4164   22136096.2254
 -10674958.49247  -8296896.38144  23166855.0844   23166848.5184
 -27127041.67949 -21127962.32247  20166651.7404   20166648.1044
   -796782.29645   -603544.28642  24941330.4414   24941328.6764
 -15072942.20548 -11727527.57746  22402355.9284   22402351.2884
 -15885623.06747 -12350778.76945  22249988.8794   22249984.4994
   2915896.26546   2287298.28543  25226401.4334   25226399.5394
   -873481.54846   -665732.89043  25192300.2494   25192297.6544
 -25670817.05548 -19983328.70048  20360307.8964   20360304.8554
 10  3 18  0  8  0.0000000  0  9G12G 2G30G27G31G14G26G 9G29
 -15431995.86548 -11996048.73146  22147970.8814   22147966.7174
 -10658081.01047  -8283745.10244  23170066.8924   23170061.2274
 -27107332.65548 -21112604.65247  20170402.3924   20170398.7304
   -697517.09845   -526195.13642  24960220.1844   24960218.5634
 -15152668.98648 -11789652.34246  22387184.6564   22387179.3914
 -15821449.23247 -12300773.19045  22262200.9504   22262196.6634
   3029108.41046   2375515.22543  25247945.1634   25247943.4624
   -755699.01646   -573954.52643  25214713.1384   25214710.8574
 -25698762.01848 -20005103.99448  20354990.0174   20354986.7454
 10  3 18  0  8 30.0000000  0 10G12G 2G30G27G31G24G14G26G 9G29
 -15369466.88747 -11947324.86446  22159869.8364   22159865.7464
 -10640660.56446  -8270170.73544  23173382.1084   23173376.4084
 -27087306.93949 -21097000.19547  20174213.2394   20174209.6824
   -598126.68045   -448748.43342  24979133.2024   24979131.8674
 -15232148.88648 -11851584.72746  22372059.7684   22372055.0044
    679943.46746                  24965501.3464
 -15756834.70647 -12250424.22345  22274496.6394   22274492.0464
   3142214.62346   2463649.62043  25269468.6224   25269467.0454
   -637868.32346   -482138.61443  25237136.1614   25237133.8284
 -25726203.79748 -20026487.19348  20349768.3164   20349764.7284
 10  3 18  0  9  0.0000000  0 10G12G 2G30G27G31G24G14G26G 9G29
 -15306793.35248 -11898488.36446  22171796.4724   22171792.5394
 -10622700.09847  -8256175.54244  23176799.5834   23176793.8684
 -27066967.78748 -21081151.50147  20178083.5594   20178079.5884
   -498615.40445   -371207.52342  24998069.9504   24998069.5124
 -15311382.15648 -11913324.92946  22356982.3054   22356977.7674
    574432.28746    474878.68443  24945422.6274   24945421.2594
 -15691785.01747 -12199736.16745  22286874.8874   22286870.9944
   3255209.69946   2551697.48843  25290971.6414   25290970.7484
   -519994.04846   -390288.76843  25259567.0344   25259564.6304
 -25753144.88148 -20047480.24448  20344641.4104   20344637.8414
 10  3 18  0  9 30.0000000  0  9G12G 2G30G31G24G14G26G 9G29
 -15243968.34848 -11849533.82346  22183751.7944   22183747.0484
 -10604192.89647  -8241754.34044  23180321.3354   23180315.8664
 -27046307.93949 -21065052.91747  20182014.8154   20182011.1564
 -15390359.19448 -11974865.47046  22341953.2114   22341949.0384
    468827.08446    392588.98143  24925326.8854   24925326.3974
 -15626295.62547 -12148705.48545  22299337.1064   22299332.8334
   3368098.04746   2639662.15743  25312453.4964   25312453.3304
   -402070.63346   -298400.63343  25282006.9034   25282005.0684
 -25779578.40248 -20068077.78948  20339611.3094   20339607.9914
 10  3 18  0 10  0.0000000  0  9G12G 2G30G31G24G14G26G 9G29
 -15180997.62347 -11800465.73046  22195734.5384   22195730.5224
 -10585144.55347  -8226911.46944  23183945.9814   23183940.1534
 -27025333.04748 -21048708.84447  20186006.4574   20186003.0554
 -15469083.36448 -12036208.96946  22326972.6324   22326967.9234
    363125.63046    310224.39442  24905213.2264   24905212.3574
 -15560374.67747 -12097338.52045  22311881.1784   22311877.5784
   3480872.14446   2727537.84843  25333913.6994   25333913.2544
   -284104.95845   -206479.61043  25304455.3844   25304453.7534
 -25805509.50848 -20088283.84448  20334677.0024   20334673.2794
 10  3 18  0 10 30.0000000  0  9G12G 2G30G31G24G14G26G 9G29
 -15117880.38447 -11751283.48546  22207745.2484   22207740.7914
 -10565553.96147  -8211646.08144  23187673.5714   23187668.3024
 -27004042.06649 -21032118.47147  20190057.8274   20190054.1174
 -15547551.10948 -12097352.66146  22312040.7104   22312036.2704
    257331.56346    227787.65443  24885080.4044   24885079.6664
 -15494023.60247 -12045636.40045  22324507.4454   22324503.8054
   3593530.90945   2815323.77843  25355351.7654   25355351.1264
   -166098.17845   -114526.57942  25326911.9774   25326910.0724
 -25830937.28048 -20108097.68248  20329838.2204   20329834.9734
 10  3 18  0 11  0.0000000  0  9G12G 2G30G31G24G14G26G 9G29
 -15054617.72248 -11701987.91446  22219783.5144   22219779.2154
 -10545421.95347  -8195958.80145  23191505.0484   23191498.8294
 -26982435.54348 -21015282.22247  20194169.5694   20194165.8024
 -15625760.37748 -12158294.94246  22297157.7914   22297153.4484
    151447.46546    145281.00643  24864929.6084   24864931.2294
 -15427245.72347 -11993601.69445  22337214.7234   22337211.1734
   3706070.90546   2903017.15442  25376767.6394   25376766.5874
    -48051.91045    -22542.79243  25349375.1204   25349373.7264
 -25855862.13148 -20127519.63748  20325095.3184   20325091.7184
 10  3 18  0 11 30.0000000  0  9G12G 2G30G31G24G14G26G 9G29
 -14991208.88547 -11652578.42746  22231850.1334   22231845.6834
 -10524748.87247  -8179849.90244  23195439.0634   23195433.0974
 -26960513.60648 -20998200.19847  20198340.9924   20198337.7624
 -15703709.08748 -12219034.19046  22282324.6144   22282320.2634
     45475.16446     62705.29843  24844764.3694   24844765.7984
 -15360043.71247 -11941236.49745  22350003.2614   22349999.3844
   3818490.09646   2990616.59143  25398160.1824   25398159.3914
     70032.02345     69470.23542  25371845.3044   25371844.5024
 -25880283.88148 -20146549.56648  20320447.9434   20320444.1274
 10  3 18  0 12  0.0000000  0  9G12G 2G30G31G24G14G26G 9G29
 -14927654.83548 -11603055.80846  22243943.9124   22243939.7714
 -10503535.17647  -8163319.75244  23199475.9414   23199469.8544
 -26938276.59748 -20980872.66747  20202572.5144   20202568.9614
 -15781394.93648 -12279568.61446  22267541.5104   22267537.2174
    -60582.25946    -19936.59743  24824582.0934   24824583.4324
 -15292420.30947 -11888542.94245  22362871.7634   22362866.9994
   3930785.53646   3078119.52943  25419528.8874   25419528.8474
 -48649868.31245 -37894088.83642  25394324.2224   25394321.5424
 -25904202.85648 -20165187.72448  20315896.1334   20315892.7464
 10  3 18  0 12 30.0000000  0  9G12G 2G30G31G24G14G26G 9G29
 -14863955.93148 -11553420.30746  22256065.4774   22256061.3504
 -10481781.21247  -8146368.60644  23203615.2264   23203609.7914
 -26915724.59349 -20963299.67247  20206863.9154   20206860.5884
 -15858815.74348 -12339896.50846  22252808.5794   22252804.3494
   -166722.07246   -102642.61843  24804384.8774   24804384.8794
 -15224378.23147 -11835523.15545  22375819.4784   22375815.6294
   4042955.02446   3165524.51243  25440874.6304   25440874.2614
 -48531714.95245 -37802021.59542  25416809.0434   25416806.3194
 -25927619.23248 -20183434.24248  20311440.0264   20311436.4444
 10  3 18  0 13  0.0000000  0  9G12G 2G30G21G31G24G14G26G29
 -14800113.48048 -11503672.95446  22268214.4224   22268210.1884
 -10459488.62547  -8128997.73944  23207857.2944   23207852.0044
 -26892858.91948 -20945482.27547  20211215.1394   20211211.9264
   -351780.89445                  25332754.5034
 -15935970.21948 -12400016.87046  22238126.6584   22238122.5784
   -272943.26546   -185412.10843  24784171.2754   24784170.9964
 -15155921.44047 -11782180.19945  22388846.2554   22388842.8294
   4154995.19846   3252828.78243  25462194.9874   25462194.3034
 -25950534.22248 -20201290.07048  20307079.2864   20307076.0824
 10  3 18  0 13 30.0000000  0  9G12G 2G30G21G31G24G14G26G29
 -14736127.06648 -11453813.42246  22280390.5624   22280386.3384
 -10436656.84647  -8111206.73944  23212202.2464   23212196.5944
 -26869678.79448 -20927419.84347  20215625.9184   20215622.8004
   -445706.35346                  25314883.2014
 -16012855.15948 -12459927.22146  22223495.9334   22223491.6894
   -379241.76046   -268241.65443  24763943.0914   24763942.9394
 -15087051.86347 -11728515.61545  22401951.6684   22401947.9424
   4266903.75146   3340030.42043  25483489.4934   25483489.4724
 -25972946.89548 -20218754.48848  20302814.4494   20302810.9134
 10  3 18  0 14  0.0000000  0  9G12G 2G30G21G31G24G14G26G29
 -14671994.36548 -11403839.88946  22292594.6174   22292590.0844
 -10413283.93247  -8092994.02844  23216650.5544   23216644.3424
 -26846181.99148 -20909110.65447  20220097.7964   20220093.9244
   -539736.86145   -406133.22042  25296989.6834   25296988.5774
 -16089466.07648 -12519624.03046  22208917.7914   22208912.9504
   -485612.98646   -351127.94043  24743700.7134   24743700.9384
 -15017769.94847 -11674529.71646  22415135.9744   22415132.0814
   4378680.92746   3427129.63243  25504760.6214   25504759.0134
 -25994855.64548 -20235826.23548  20298645.4524   20298641.7964
 10  3 18  0 14 30.0000000  0  9G12G 2G30G21G31G24G14G26G29
 -14607718.09548 -11353754.47146  22304826.1454   22304821.7284
 -10389372.53347  -8074361.79444  23221200.7044   23221194.2714
 -26822370.88548 -20890556.54847  20224628.6684   20224625.6774
   -633872.63145   -479486.02542  25279076.6274   25279075.2734
 -16165802.86748 -12579107.23446  22194391.3354   22194386.8594
   -592055.87445   -434069.94443  24723444.5854   24723444.9804
 -14948080.88747 -11620226.56445  22428397.8394   22428393.6684
   4490322.29046   3514123.19243  25526004.7774   25526004.0474
 -26016261.98348 -20252506.49148  20294571.9994   20294568.2734
 10  3 18  0 15  0.0000000  0  9G12G 2G30G21G31G24G14G26G29
 -14543298.33448 -11303557.26546  22317084.8894   22317080.4684
 -10364923.46447  -8055310.56444  23225853.2704   23225846.7644
 -26798245.59748 -20871757.63147  20229219.8464   20229216.1324
   -728111.46845   -552919.20342  25261142.7354   25261142.1394
 -16241863.00348 -12638374.87446  22179917.7464   22179912.7624
   -698567.78946   -517065.59042  24703175.6054   24703176.4674
 -14877987.28147 -11565608.17646  22441735.6414   22441732.2464
   4601825.20746   3601008.79342  25547223.0684   25547222.0364
 -26037166.61948 -20268795.81248  20290594.0124   20290590.3074
 10  3 18  0 15 30.0000000  0  9G12G 2G30G21G31G24G14G26G29
 -14478736.09448 -11253249.04946  22329370.2324   22329366.8224
 -10339937.21147  -8035840.74344  23230608.0944   23230601.9404
 -26773806.73448 -20852714.35647  20233870.1734   20233866.4574
   -822451.34145   -626430.92442  25243190.7074   25243190.1954
 -16317644.53948 -12697425.41746  22165496.4274   22165492.2854
   -805146.61746   -600113.45943  24682893.9724   24682895.2934
 -14807492.38447 -11510677.10945  22455150.3204   22455146.5024
   4713187.88546   3687785.46943  25568413.9594   25568412.8264
 -26057570.06848 -20284694.59948  20286711.2614   20286707.9354
 10  3 18  0 16  0.0000000  0  9G12G 2G30G21G31G24G14G26G29
 -14414030.39348 -11202829.03246  22341683.6974   22341678.9944
 -10314413.84447  -8015952.36844  23235464.2174   23235458.2624
 -26749053.67948 -20833426.26647  20238580.6474   20238576.8344
   -916889.66745   -700019.34842  25225220.0234   25225218.5094
 -16393144.84148 -12756256.82446  22151129.2484   22151124.9704
   -911789.02146   -683210.70043  24662599.8714   24662600.7324
 -14736598.18347 -11455434.89945  22468640.8774   22468636.9604
   4824407.44746   3774450.58942  25589578.2454   25589575.8534
 -26077471.90348 -20300202.50948  20282924.0364   20282920.8344
 10  3 18  0 16 30.0000000  0  9G12G 2G30G21G31G24G14G26G29
 -14349182.21348 -11152297.99446  22354023.4524   22354019.2534
 -10288354.36747  -7995646.27444  23240422.9224   23240417.2194
 -26723987.31048 -20813894.03447  20243350.5134   20243347.2324
  -1011424.27446   -773682.68043  25207231.2604   25207230.0324
 -16468361.93448 -12814867.53846  22136816.1274   22136811.4674
  -1018492.78946   -766355.88043  24642294.1614   24642295.0484
 -14665308.16047 -11399884.23145  22482207.1794   22482203.1904
   4935480.48446   3861001.18542  25610714.4304   25610712.1524
 -26096872.85448 -20315320.12948  20279232.0524   20279228.5914
 10  3 18  0 17  0.0000000  0  9G12G 2G30G21G31G24G14G26G29
 -14284192.51848 -11101656.69346  22366390.6984   22366386.7024
 -10261759.80947  -7974923.26944  23245484.0724   23245477.9064
 -26698607.96549 -20794117.92647  20248180.3064   20248176.5514
  -1106053.53846   -847419.74542  25189223.1474   25189222.9624
 -16543293.45448 -12873255.74047  22122557.2914   22122552.5974
  -1125255.42946   -849546.81243  24621977.6354   24621978.0474
 -14593625.80247 -11344027.85545  22495847.7794   22495843.1994
   5046405.28846   3947436.39943  25631822.8964   25631821.0634
 -26115773.59648 -20330047.97548  20275635.3824   20275632.0184
 10  3 18  0 17 30.0000000  0  9G12G 2G30G21G31G24G14G26G29
 -14219060.16348 -11050904.22246  22378785.5624   22378781.2134
 -10234629.83147  -7953783.01344  23250646.2584   23250640.3764
 -26672914.84348 -20774097.31647  20253069.4644   20253065.7544
  -1200773.74745   -921227.40142  25171199.0774   25171197.5754
 -16617936.57248 -12931419.19847  22108352.8204   22108348.7504
  -1232073.07646   -932780.41043  24601650.8364   24601650.7084
 -14521552.44147 -11287866.79445  22509563.3394   22509558.3324
   5157180.20446   4033754.77243  25652901.6944   25652899.9444
 -26134172.98748 -20344385.15548  20272134.2184   20272130.5014
 10  3 18  0 18  0.0000000  0  9G12G 2G30G21G31G24G14G26G29
 -14153786.26248 -11000041.45846  22391206.3134   22391202.4884
 -10206965.35047  -7932226.27744  23255911.5634   23255904.7924
 -26646908.69548 -20753832.78847  20258018.1254   20258014.4534
  -1295583.68645   -995104.96342  25153154.8504   25153155.2274
 -16692289.69848 -12989356.69946  22094203.9674   22094199.7364
  -1338945.06346  -1016056.90243  24581314.5014   24581312.3724
 -14449091.92447 -11231404.05345  22523351.6394   22523347.2814
   5267802.95446   4119954.96343  25673952.6224   25673951.0544
 -26152072.38348 -20358332.73948  20268728.1214   20268724.4464
 10  3 18  0 18 30.0000000  0  8G12G 2G30G21G31G24G14G29
 -14088369.77348 -10949067.59046  22403654.6894   22403651.1504
 -10178766.08346  -7910252.80944  23261277.1894   23261271.1184
 -26620588.67548 -20733323.67747  20263026.4734   20263022.8294
  -1390480.01045  -1069049.74543  25135098.8944   25135097.8304
 -16766349.06648 -13047065.28446  22080110.8454   22080106.6744
  -1445866.32646  -1099371.85243  24560966.7354   24560965.3744
 -14376246.04447 -11174641.04945  22537213.8074   22537209.8454
 -26169470.77148 -20371889.91448  20265417.2244   20265413.8194
 10  3 18  0 19  0.0000000  0  8G12G 2G30G21G31G24G14G29
 -14022813.44148 -10897984.74646  22416129.5584   22416125.7824
 -10150035.11946  -7887865.03744  23266744.7034   23266738.9834
 -26593957.27348 -20712571.94547  20268094.5814   20268090.5884
  -1485462.53046  -1143061.73343  25117024.6804   25117022.0784
 -16840114.53248 -13104544.86946  22066074.0434   22066069.2664
  -1552836.57346  -1182724.98143  24540610.9564   24540609.3404
 -14303019.87647 -11117581.70245  22551148.6954   22551145.0204
 -26186370.87648 -20385058.82148  20262201.0754   20262197.4384
 10  3 18  0 19 30.0000000  0  8G12G 2G30G21G31G24G14G29
 -13957116.41548 -10846792.26346  22428631.5784   22428627.3504
 -10120772.33246  -7865062.85744  23272312.9864   23272307.1024
 -26567013.79448 -20691577.02747  20273221.7274   20273217.9534
  -1580528.10046  -1217138.22342  25098933.6364   25098931.5214
 -16913583.38348 -13161793.32046  22052093.2234   22052088.4684
  -1659852.06646  -1266113.43343  24520245.7034   24520244.9604
 -14229415.53347 -11060227.68945  22565155.2494   22565151.3894
 -26202772.20048 -20397839.06648  20259080.2134   20259076.6604
 10  3 18  0 20  0.0000000  0  8G12G 2G30G21G31G24G14G29
 -13891278.71148 -10795490.16546  22441159.8904   22441155.7524
 -10090977.73646  -7841846.29444  23277982.7694   23277977.1444
 -26539757.99748 -20670338.75347  20278408.2144   20278404.4654
  -1675674.31246  -1291277.53943  25080827.1544   25080824.8894
 -16986752.88448 -13218808.51246  22038169.7534   22038165.1674
  -1766909.89346  -1349534.78943  24499873.1794   24499872.6134
 -14155435.82647 -11002581.17945  22579232.6984   22579229.1844
 -26218674.94248 -20410230.81148  20256054.2204   20256050.4204
 10  3 18  0 20 30.0000000  0  8G12G 2G30G21G31G24G14G29
 -13825301.01748 -10744078.99346  22453714.7374   22453710.8214
 -10060652.61647  -7818216.35644  23283753.6964   23283747.7004
 -26512190.53248 -20648857.61947  20283654.0464   20283650.4524
  -1770899.83646  -1365478.69043  25062705.1344   25062703.8914
 -17059620.94748 -13275588.82446  22024303.2434   22024298.8524
  -1874007.48446  -1432987.18643  24479493.0394   24479492.4124
 -14081083.83247 -10944644.56745  22593381.3894   22593377.4784
 -26234079.60248 -20422234.43448  20253122.6174   20253119.1354
 10  3 18  0 21  0.0000000  0  8G12G 2G30G21G31G24G14G29
 -13759183.15648 -10692558.58946  22466297.1134   22466292.9364
 -10029797.19446  -7794173.14644  23289624.9074   23289620.2944
 -26484310.61048 -20627133.00147  20288959.2974   20288955.7094
  -1866202.03146  -1439739.63442  25044569.7394   25044567.5234
 -17132184.67548 -13332131.97746  22010494.9944   22010490.5214
  -1981141.49846  -1516467.97544  24459106.0744   24459104.6284
 -14006361.83747 -10886419.64745  22607600.1784   22607596.8734
 -26248986.07148 -20433849.85948  20250285.6984   20250282.5774
 10  3 18  0 21 30.0000000  0  8G12G 2G30G21G31G24G14G29
 -13692925.67048 -10640929.40246  22478905.0654   22478901.1784
  -9998412.57246  -7769717.59344  23295597.1594   23295591.3884
 -26456119.05248 -20605165.56147  20294324.3084   20294320.4184
  -1961577.26946  -1514057.26643  25026419.5684   25026416.5384
 -17204442.09148 -13388436.46046  21996744.4964   21996740.4404
  -2088309.35446  -1599975.15843  24438711.7114   24438711.7244
 -13931273.31447 -10827909.11145  22621889.5494   22621885.6704
 -26263394.78348 -20445077.42248  20247543.9574   20247540.4874
 10  3 18  0 22  0.0000000  0  8G12G 2G30G21G31G24G14G29
 -13626528.29447 -10589191.20346  22491540.2244   22491536.1244
  -9966499.20646  -7744850.04144  23301670.5744   23301664.8644
 -26427615.67848 -20582955.13947  20299748.1104   20299744.8024
  -2057024.51046  -1588431.34643  25008256.8544   25008253.2614
 -17276390.82448 -13444500.41147  21983053.2274   21983048.7404
  -2195508.41846  -1683506.67743  24418313.1084   24418312.2384
 -13855821.34247 -10769115.37245  22636247.6574   22636243.4194
 -26277306.36448 -20455917.61148  20244896.8104   20244893.2764
 10  3 18  0 22 30.0000000  0  8G12G 2G30G21G31G24G14G29
 -13559992.00948 -10537344.75746  22504201.8084   22504196.9774
  -9934058.80546  -7719571.80344  23307843.7124   23307838.3334
 -26398801.45648 -20560502.51247  20305231.3034   20305227.6274
  -2152541.35046  -1662859.55243  24990081.1664   24990077.1194
 -17348029.15148 -13500322.47247  21969421.0174   21969416.1074
  -2302736.59846  -1767061.04643  24397907.2904   24397906.5004
 -13780008.86547 -10710040.72945  22650674.1594   22650670.3044
 -26290722.03748 -20466371.37648  20242343.9434   20242340.3744
 10  3 18  0 23  0.0000000  0  8G12G 2G30G21G31G24G14G29
 -13493317.46947 -10485390.57046  22516889.5504   22516885.8424
  -9901092.23346  -7693883.56344  23314116.9194   23314111.0464
 -26369676.38348 -20537807.65747  20310773.7494   20310770.3904
  -2248125.76546  -1737340.45343  24971891.4324   24971888.1714
 -17419354.52848 -13555900.68547  21955848.4534   21955843.8214
  -2409990.86646  -1850635.80343  24377497.6144   24377495.3254
 -13703839.00647 -10650687.59245  22665168.3454   22665164.5224
 -26303642.20948 -20476439.03748  20239885.2784   20239881.6654
 10  3 18  0 23 30.0000000  0  8G12G 2G30G21G31G24G14G29
 -13426504.18947 -10433328.29146  22529603.5534   22529599.6934
  -9867599.98747  -7667785.70244  23320489.7434   23320484.8004
 -26340240.54648 -20514870.64647  20316375.2354   20316371.7894
  -2343775.45246  -1811872.13543  24953688.5914   24953686.0714
 -17490364.52048 -13611233.13647  21942335.6844   21942331.2064
  -2517267.77946  -1934228.02043  24357083.8124   24357081.7954
 -13627315.18747 -10591058.65245  22679730.1184   22679726.3294
 -26316066.99448 -20486120.67948  20237520.8564   20237517.1964
 10  3 18  0 24  0.0000000  0  8G12G 2G30G21G31G24G14G29
 -13359552.49248 -10381158.15246  22542343.9644   22542340.0514
  -9833583.04646  -7641279.00744  23326963.5434   23326957.0894
 -26310494.25048 -20491691.72347  20322035.7834   20322032.1044
  -2439487.95246  -1886452.77843  24935475.3834   24935471.5474
 -17561056.90548 -13666318.11647  21928882.8934   21928878.6234
  -2624564.68246  -2017835.82843  24336665.7624   24336664.8804
 -13550439.87147 -10531155.82545  22694359.4094   22694355.8474
 -26327996.62148 -20495416.49148  20235250.6814   20235247.1214
 10  3 18  0 24 30.0000000  0  8G12G 2G30G21G31G24G14G29
 -13292462.41048 -10328880.19546  22555110.9174   22555107.1794
  -9799042.11146  -7614363.98444  23333535.8994   23333531.0504
 -26280437.37948 -20468270.78747  20327755.1304   20327751.9474
  -2535261.12146  -1961080.77343  24917249.6794   24917246.0404
 -17631429.48048 -13721153.88147  21915491.7734   21915487.5584
  -2731879.00946  -2101457.16243  24316244.7184   24316243.9694
 -13473216.03447 -10470981.42645  22709054.4084   22709050.6624
 -26339431.90748 -20504327.10048  20233074.7454   20233071.0524
 10  3 18  0 25  0.0000000  0  8G12G 2G30G21G31G24G14G29
 -13225234.58948 -10276494.87546  22567903.8574   22567899.7654
  -9763978.28146  -7587041.52844  23340208.7114   23340203.2654
 -26250070.85448 -20444608.57147  20333533.9194   20333530.3724
  -2631092.46946  -2035754.02043  24899012.6534   24899008.8714
 -17701480.10548 -13775738.78747  21902161.7024   21902157.6014
  -2839208.02146  -2185089.91443  24295820.8784   24295819.3094
 -13395646.98147 -10410538.02545  22723815.7404   22723811.6714
 -26350373.43948 -20512852.96048  20230992.6864   20230988.9854
 10  3 18  0 25 30.0000000  0  8G12G 2G30G21G31G24G14G29
 -13157869.55148 -10224002.65446  22580723.1804   22580719.3864
  -9728392.65646  -7559312.46944  23346980.9334   23346974.8634
 -26219394.32048 -20420704.79047  20339371.5534   20339367.3334
  -2726979.41446  -2110470.49243  24880764.7864   24880761.9624
 -17771206.31448 -13830070.89347  21888893.6054   21888888.7284
  -2946548.97646  -2268732.04243  24275394.1734   24275392.4584
 -13317735.75047 -10349827.97645  22738641.7644   22738637.8284
 -26360821.88748 -20520994.59948  20229004.5524   20229000.6084
 10  3 18  0 26  0.0000000  0  8G12G 2G30G21G31G24G14G29
 -13090367.06948 -10171403.34046  22593568.1294   22593564.4004
  -9692285.84446  -7531177.30244  23353851.5534   23353846.2804
 -26188407.80748 -20396559.45947  20345268.0044   20345264.2094
  -2822919.98346  -2185228.83543  24862509.3714   24862505.4544
 -17840605.51348 -13884148.18947  21875686.9174   21875682.4204
  -3053898.48747  -2352380.78043  24254965.9124   24254964.0024
 -13239485.01047 -10288853.39845  22753533.0784   22753527.8994
 -26370777.53048 -20528752.23548  20227109.6094   20227105.9304
 10  3 18  0 26 30.0000000  0  8G12G 2G30G21G31G24G14G29
 -13022727.85447 -10118697.47046  22606439.6914   22606435.5884
  -9655659.52147  -7502637.29844  23360821.1104   23360815.9784
 -26157111.94548 -20372173.08547  20351223.2934   20351219.7394
  -2918912.29846  -2260027.63743  24844241.1514   24844239.1114
 -17909676.05448 -13937969.38247  21862543.3534   21862538.8494
  -3161254.44147  -2436034.52043  24234536.6324   24234534.4154
 -13160898.55447 -10227617.20145  22768486.9654   22768482.8904
 -26380241.51848 -20536126.76648  20225308.9594   20225305.5044
 10  3 18  0 27  0.0000000  0  8G12G 2G30G21G31G24G14G29
 -12954952.00048 -10065885.13446  22619336.7724   22619332.7414
  -9618514.22147  -7473692.90044  23367889.5184   23367883.3004
 -26125506.90048 -20347545.78047  20357237.8674   20357234.3674
  -3014954.14246  -2334865.04343  24825964.4614   24825961.5034
 -17978415.51148 -13991532.59747  21849462.5254   21849457.9774
  -3268613.99747  -2519691.02843  24214105.8964   24214104.2884
 -13081979.19347 -10166121.60545  22783504.8174   22783500.3494
 -26389214.35248 -20543118.58148  20223601.2914   20223597.7214
 10  3 18  0 27 30.0000000  0  8G12G 2G30G21G31G24G14G29
 -12887038.64548 -10012965.65046  22632260.7154   22632256.0294
  -9580850.35847  -7444344.43244  23375056.8944   23375050.9994
 -26093591.70748 -20322676.80747  20363311.0594   20363307.7264
  -3111041.96946  -2409738.41843  24807679.4314   24807676.1294
 -18046820.60848 -14044835.26747  21836445.4374   21836440.9224
  -3375973.08347  -2603347.18943  24193675.9194   24193674.4974
 -13002728.94847 -10104368.17545  22798585.4114   22798581.4374
 -26397695.19849 -20549727.02648  20221987.3524   20221983.7004
 10  3 18  0 28  0.0000000  0  8G12G 2G30G21G31G24G14G29
 -12818989.29447  -9959940.18746  22645209.7604   22645205.8094
  -9542670.23947  -7414593.69844  23382321.9814   23382316.2214
 -26061368.04648 -20297567.46247  20369442.8844   20369439.1934
  -3207174.45946  -2484646.59843  24789385.4244   24789382.4534
 -18114890.35548 -14097876.62647  21823492.2684   21823487.5244
  -3483330.18446  -2687001.82043  24173246.1704   24173244.4814
 -12923152.45147 -10042360.52345  22813728.5834   22813724.8704
 -26405686.50349 -20555954.00948  20220466.7954   20220463.1344
 10  3 18  0 28 30.0000000  0  8G12G 2G30G21G31G24G14G29
 -12750803.98147  -9906808.78046  22658185.2594   22658180.6514
  -9503974.47447  -7384441.14944  23389685.8114   23389679.5434
 -26028835.82948 -20272217.68547  20375633.5014   20375629.9904
  -3303349.04946  -2559587.61643  24771084.3094   24771080.9394
 -18182622.10448 -14150654.61247  21810603.3234   21810598.9614
  -3590682.18646  -2770652.48343  24152817.3964   24152815.7434
 -12843252.06647  -9980100.50645  22828933.1854   22828929.7604
 -26413188.74448 -20561799.90848  20219039.0504   20219035.5644
 10  3 18  0 29  0.0000000  0  8G12G 2G30G21G31G24G14G29
 -12682482.93547  -9853571.60846  22671186.0284   22671182.2034
  -9464764.18147  -7353887.67844  23397147.0964   23397141.8404
 -25995995.13848 -20246627.54447  20381883.1004   20381879.6254
  -3399563.92246  -2634560.00943  24752775.1574   24752771.4014
 -18250013.71948 -14203167.55147  21797779.0234   21797774.6614
  -3698026.36946  -2854297.09943  24132390.1554   24132388.6124
 -12763031.45247  -9917590.95045  22844198.3644   22844194.8914
 -26420202.27648 -20567264.99948  20217704.5624   20217700.9454
 10  3 18  0 29 30.0000000  0  8G12G 2G30G21G31G24G14G29
 -12614026.72747  -9800229.11646  22684213.1704   22684209.0034
  -9425040.56647  -7322934.22144  23404706.5414   23404700.6634
 -25962846.32748 -20220797.31247  20388190.7354   20388187.5394
  -3495816.14346  -2709561.51143  24734458.5524   24734455.5974
 -18317062.94548 -14255413.69547  21785020.1134   21785015.7264
  -3805359.90146  -2937933.44243  24111965.5144   24111963.8604
 -12682493.47747  -9854834.08345  22859524.2434   22859521.5694
 -26426727.94848 -20572349.92748  20216462.8954   20216459.1354
 10  3 18  0 30  0.0000000  0  8G12G 2G30G21G31G24G14G29
 -12545434.75247  -9746780.82846  22697265.6914   22697261.9064
  -9384804.70647  -7291581.59144  23412363.2454   23412357.2284
 -25929389.27948 -20194726.88947  20394557.5844   20394553.8524
  -3592103.32146  -2784590.22143  24716136.2934   24716132.4644
 -18383767.14448 -14307390.99247  21772326.7754   21772322.4074
  -3912679.58146  -3021559.00144  24091542.8894   24091541.4884
 -12601641.01447  -9791832.19045  22874909.8504   22874906.4664
 -26432766.00748 -20577054.90048  20215313.6814   20215309.8564
 10  3 18  0 30 30.0000000  0  8G12G 2G30G21G31G24G14G29
 -12476707.88347  -9693227.44146  22710344.2324   22710340.2634
  -9344057.64647  -7259830.64344  23420117.2354   23420111.2234
 -25895624.37048 -20168416.57847  20400982.8704   20400979.3454
  -3688423.35146  -2859644.50043  24697806.0634   24697802.8554
 -18450124.30848 -14359097.86347  21759699.2364   21759694.9974
  -4019982.55746  -3105171.54743  24071124.4104   24071122.9324
 -12520477.15647  -9728587.62545  22890354.9474   22890352.1544
 -26438317.74649 -20581380.92348  20214257.1394   20214253.5974
 10  3 18  0 31  0.0000000  0  8G12G 2G30G21G31G24G14G29
 -12407846.21647  -9639569.02646  22723448.3484   22723444.1684
  -9302800.93247  -7227682.53744  23427967.7534   23427962.4994
 -25861552.24348 -20141866.86847  20407466.4314   20407462.9844
  -3784774.02946  -2934722.78043  24679472.1444   24679467.6074
 -18516132.40548 -14410532.74047  21747138.0564   21747133.9824
  -4127266.22347  -3188769.11043  24050709.1434   24050706.5214
 -12439005.55347  -9665103.27645  22905858.2824   22905855.4444
 -26443383.88048 -20585328.55448  20213293.3114   20213289.2594
 10  3 18  0 31 30.0000000  0  8G12G 2G30G21G31G24G14G29
 -12338849.79947  -9585805.58346  22736577.4904   22736573.3694
  -9261035.55747  -7195138.10144  23435915.4914   23435909.5794
 -25827172.88248 -20115077.75547  20414008.6934   20414005.3514
  -3881152.93546  -3009823.00243  24661131.5164   24661126.7804
 -18581788.80448 -14461693.57147  21734644.1944   21734639.7114
  -4234527.65546  -3272349.33343  24030297.6184   24030295.3424
 -12357228.96547  -9601381.28045  22921419.7194   22921416.3674
 -26447965.35948 -20588898.53848  20212421.3594   20212417.5704
 10  3 18  0 32  0.0000000  0  8G12G 2G30G21G31G24G14G29
 -12269719.21147  -9531937.62046  22749732.8424   22749729.0144
  -9218762.82147  -7162198.30244  23443959.3914   23443953.3754
 -25792486.33948 -20088049.28447  20420609.2644   20420605.7774
  -3977557.95546  -3084943.61843  24642786.3024   24642781.3714
 -18647091.72448 -14512578.96547  21722217.4774   21722212.9794
  -4341764.18146  -3355910.12343  24009891.4734   24009888.5594
 -12275150.74247  -9537424.23245  22937039.5884   22937034.9974
 -26452062.62848 -20592091.21448  20211641.9904   20211638.3034
 10  3 18  0 32 30.0000000  0  8G12G 2G30G21G31G24G14G29
 -12200454.47847  -9477965.11846  22762913.4474   22762909.5294
  -9175983.87947  -7128864.05044  23452100.0504   23452094.6844
 -25757492.70648 -20060781.52347  20427268.3494   20427265.0514
  -4073986.44646  -3160082.51443  24624436.3664   24624431.5064
 -18712038.46048 -14563186.80447  21709858.6124   21709853.9004
  -4448972.50746  -3439448.94343  23989489.4594   23989487.8254
 -12192773.96847  -9473234.53745  22952715.6354   22952711.2664
 -26455676.26948 -20594907.03548  20210953.9314   20210950.5404
 10  3 18  0 33  0.0000000  0  8G12G 2G30G21G31G24G14G29
 -12131056.08147  -9423888.46046  22776119.3234   22776115.2494
  -9132700.17247  -7095136.49844  23460337.1524   23460331.5714
 -25722192.55348 -20033274.91247  20433985.7724   20433982.5394
  -4170436.02346  -3235237.86043  24606082.0974   24606077.8004
 -18776626.89248 -14613515.45747  21697568.1904   21697563.2754
  -4556150.02546  -3522963.76744  23969094.5474   23969092.3784
 -12110101.76847  -9408814.65145  22968447.3584   22968443.3144
 -26458807.14548 -20597346.67748  20210358.1394   20210354.7214
 10  3 18  0 33 30.0000000  0  8G12G 2G30G21G31G24G14G29
 -12061523.61647  -9369707.33346  22789350.7314   22789347.7464
  -9088912.59647  -7061016.28744  23468669.5924   23468663.9834
 -25686585.27548 -20005528.99247  20440761.4334   20440758.4984
  -4266903.77746  -3310407.40143  24587725.3024   24587720.8714
 -18840854.46448 -14663562.90647  21685345.7774   21685341.2544
  -4663293.41946  -3606452.02844  23948705.8854   23948703.9514
 -12027136.60347  -9344166.47945  22984234.6714   22984231.3244
 -26461456.05548 -20599410.76448  20209854.1104   20209850.6534
 10  3 18  0 34  0.0000000  0  8G12G 2G30G21G31G24G14G29
 -11991857.16247  -9315421.79946  22802608.1544   22802604.0514
  -9044621.98247  -7026504.13044  23477097.8254   23477091.4004
 -25650671.43348 -19977544.18547  20447595.8764   20447592.7294
  -4363387.45346  -3385589.29243  24569363.7694   24569360.9654
 -18904718.71848 -14713327.26947  21673192.7664   21673187.9854
  -4770399.59746  -3689911.28044  23928324.2914   23928322.5354
 -11943881.90947  -9279292.72945  23000077.9504   23000074.2304
 -26463623.65348 -20601099.79748  20209441.5614   20209437.9824
 10  3 18  0 34 30.0000000  0  8G12G 2G30G21G31G24G14G29
 -11922057.33747  -9261032.34346  22815890.8094   22815887.0344
  -8999830.17847  -6991601.44745  23485621.7904   23485615.0684
 -25614451.68248 -19949321.01547  20454488.3054   20454485.1014
  -4459885.22646  -3460782.16743  24551001.6174   24550997.5724
 -18968218.15848 -14762807.34747  21661109.5654   21661104.9094
  -4877466.18646  -3773339.64243  23907949.8134   23907948.1964
 -11860341.39647  -9214196.22545  23015974.6164   23015971.4024
 -26465311.13548 -20602414.71348  20209120.4314   20209116.7974
 10  3 18  0 35  0.0000000  0  8G12G 2G30G21G31G24G14G29
 -11852124.81847  -9206539.48746  22829198.6154   22829193.9554
  -8954539.12647  -6956309.72045  23494239.7314   23494234.6584
 -25577926.53148 -19920859.86447  20461439.0144   20461435.4394
  -4556395.15647  -3535984.54943  24532635.9824   24532632.9414
 -19031350.58848 -14812001.45347  21649095.6594   21649091.1534
  -4984490.41747  -3856735.04143  23887583.4644   23887581.3424
 -11776518.42347  -9148879.64644  23031925.9374   23031922.1224
 -26466520.04548 -20603356.71948  20208890.6554   20208887.1734
 10  3 18  0 35 30.0000000  0  8G12G 2G30G21G31G24G14G29
 -11782059.44547  -9151943.10146  22842531.2604   22842527.4094
  -8908749.55747  -6920629.52544  23502953.1004   23502947.8944
 -25541095.74548 -19892160.56047  20468447.6434   20468443.7204
  -4652914.24047  -3611194.05144  24514269.0294   24514265.2304
 -19094113.56348 -14860907.65647  21637152.3374   21637147.6694
  -5091469.27447  -3940095.08543  23867226.6464   23867223.3414
 -11692415.82047  -9083345.16544  23047930.2204   23047926.3464
 -26467250.28648 -20603925.73348  20208751.6234   20208747.7264
 10  3 18  0 36  0.0000000  0  8G12G 2G30G21G31G24G14G29
 -11711861.45947  -9097243.39946  22855889.6264   22855885.8384
  -8862462.97047  -6884562.05044  23511761.4454   23511755.6064
 -25503959.33148 -19863223.09147  20475514.3704   20475511.1944
  -4749439.97346  -3686408.75743  24495900.0874   24495896.3044
 -19156504.76248 -14909524.17647  21625279.5894   21625275.0164
  -5198399.62247  -4023417.35344  23846878.2364   23846875.3184
 -11608036.62447  -9017595.15144  23063986.4234   23063982.6954
 -26467502.97048 -20604122.62948  20208703.6394   20208699.8734
 10  3 18  0 36 30.0000000  0  8G12G 2G30G21G31G24G14G29
 -11641530.82747  -9042440.32345  22869272.9704   22869268.7954
  -8815680.56647  -6848108.23645  23520663.7934   23520658.6684
 -25466517.42248 -19834047.59547  20482639.2144   20482635.8474
  -4845970.47446  -3761627.22743  24477530.9584   24477526.2204
 -19218521.78848 -14957849.13547  21613477.9454   21613473.5024
  -5305278.65247  -4106699.62044  23826539.7664   23826536.8784
 -11523384.01647  -8951632.09645  23080095.8704   23080091.2114
 -26467278.84549 -20603947.97848  20208746.2314   20208742.2724
 10  3 18  0 37  0.0000000  0  8G12G 2G30G21G31G24G14G29
 -11571067.47147  -8987533.82246  22882681.5374   22882677.9854
  -8768403.47247  -6811268.95144  23529660.3194   23529655.3244
 -25428770.15948 -19804634.15947  20489822.3684   20489818.8434
  -4942502.54646  -3836846.93443  24459160.8594   24459156.3364
 -19280162.22248 -15005880.64147  21601748.2774   21601743.6574
  -5412103.00047  -4189939.29044  23806211.8764   23806209.7844
 -11438461.01247  -8885458.31144  23096256.1174   23096251.9224
 -26466578.64448 -20603402.36348  20208879.3674   20208875.9494
 10  3 18  0 37 30.0000000  0  8G12G 2G30G21G31G24G14G29
 -11500472.34647  -8932524.65846  22896115.9814   22896110.9394
  -8720633.86547  -6774045.87844  23538751.1124   23538745.0344
 -25390718.39848 -19774983.43847  20497063.1564   20497059.5024
  -5039034.71746  -3912066.67343  24440791.9174   24440787.5204
 -19341424.70048 -15053617.63647  21590090.5064   21590085.8784
  -5518870.23647  -4273134.44444  23785894.7894   23785892.5944
 -11353271.19647  -8819076.64344  23112467.2034   23112462.3494
 -26465404.01848 -20602487.06248  20209102.9634   20209099.3074
 10  3 18  0 38  0.0000000  0  8G12G 2G30G21G31G24G14G29
 -11429745.91347  -8877413.15646  22909574.3844   22909570.5544
  -8672373.19347  -6736440.17544  23547934.0374   23547928.5424
 -25352362.59548 -19745095.80647  20504362.1424   20504358.6414
  -5135564.52946  -3987284.53943  24422422.8764   24422419.4274
 -19402306.70048 -15101058.16247  21578505.1594   21578500.1954
  -5625577.56947  -4356282.92944  23765588.8274   23765585.7044
 -11267817.93247  -8752489.68244  23128728.3244   23128725.2354
 -26463756.05848 -20601202.93248  20209416.4444   20209413.0794
 10  3 18  0 38 30.0000000  0  8G12G 2G30G21G31G24G14G29
 -11358888.13947  -8822199.32146  22923058.4234   22923053.9074
  -8623622.71247  -6698452.80144  23557211.0614   23557205.5174
 -25313702.63148 -19714971.16147  20511718.9604   20511715.2624
  -5232088.94447  -4062498.24444  24404054.9984   24404051.4984
 -19462805.94148 -15148200.42247  21566992.5464   21566987.6464
  -5732221.67547  -4439382.14744  23745294.7554   23745292.0204
 -11182104.06547  -8685699.68444  23145038.9134   23145035.4544
 -26461635.25448 -20599550.35248  20209820.0204   20209816.5004
 10  3 18  0 39  0.0000000  0  8G12G 2G30G21G31G24G14G29
 -11287898.77947  -8766882.95946  22936567.1864   22936563.1264
  -8574384.07247  -6660085.02844  23566581.1114   23566575.5524
 -25274738.53948 -19684609.54047  20519133.4264   20519130.2034
  -5328606.18047  -4137706.37444  24385687.8674   24385684.4044
 -19522920.28848 -15195042.77247  21555553.0014   21555548.6534
  -5838799.55446  -4522429.75544  23725013.7304   23725011.0624
 -11096133.27347  -8618709.47644  23161398.9044   23161394.8274
 -26459042.98748 -20597530.40748  20210313.3294   20210309.5674
 10  3 18  0 39 30.0000000  0  8G12G 2G30G21G31G24G14G29
 -11216777.79747  -8711464.01246  22950100.6014   22950097.0114
  -8524658.13147  -6621337.52444  23576044.1034   23576038.2394
 -25235470.15348 -19654010.80447  20526606.1694   20526602.1234
  -5425113.43446  -4212906.71743  24367323.3244   24367319.6104
 -19582647.00248 -15241583.06947  21544187.4124   21544182.8974
  -5945308.13946  -4605423.35744  23704745.4454   23704743.0034
 -11009908.06747  -8551521.03944  23177807.2534   23177803.5284
 -26455979.42248 -20595143.20548  20210896.3464   20210893.0224
 10  3 18  0 40  0.0000000  0  8G12G 2G30G21G31G24G14G29
 -11145525.70047  -8655942.92046  22963659.6504   22963656.1624
  -8474446.57947  -6582211.63944  23585598.2734   23585592.3934
 -25195898.37448 -19623175.65747  20534136.3384   20534133.0114
  -5521608.45146  -4288097.50343  24348959.6524   24348955.9914
 -19641984.60948 -15287820.16647  21532895.7544   21532891.5684
  -6051744.95246  -4688361.05544  23684490.9804   23684488.8524
 -10923431.94047  -8484137.05444  23194262.8204   23194258.3504
 -26452445.73148 -20592389.67848  20211568.9514   20211565.2244
 10  3 18  0 40 30.0000000  0  8G12G 2G30G21G31G24G14G29
 -11074142.90447  -8600319.97746  22977243.6294   22977239.9654
  -8423750.90047  -6542708.49544  23595245.9324   23595240.1954
 -25156023.15148 -19592104.06147  20541724.3864   20541720.7804
  -5618088.78146  -4363276.87643  24330600.9514   24330596.0984
 -19700930.82248 -15333752.28747  21521678.8654   21521674.5524
  -6158106.95346  -4771240.46544  23664251.2314   23664248.1064
 -10836708.11947  -8416560.04744  23210765.8254   23210760.6644
 -26448443.04949 -20589270.70448  20212330.2874   20212326.7134
 10  3 18  0 41  0.0000000  0  8G12G 2G30G21G31G24G14G29
 -11002630.08347  -8544595.70145  22990851.7894   22990847.9594
  -8372573.26747  -6502829.84344  23604983.8924   23604978.7054
 -25115844.94748 -19560796.37647  20549369.7784   20549366.2544
  -5714552.25047  -4438443.16243  24312245.1304   24312239.6514
 -19759483.24248 -15379377.55047  21510536.7154   21510532.8444
  -6264391.19846  -4854059.29644  23644025.8734   23644023.7164
 -10749740.20747  -8348792.85644  23227315.2144   23227311.0644
 -26443973.23349 -20585787.73048  20213181.1974   20213177.3344
 10  3 18  0 41 30.0000000  0  8G12G 2G30G21G31G24G14G29
 -10930986.66247  -8488769.67245  23004484.9514   23004481.9494
  -8320914.87547  -6462576.54844  23614814.7024   23614808.6484
 -25075363.81648 -19529252.64547  20557073.5364   20557069.8354
  -5810996.22047  -4513594.21043  24293891.8444   24293887.1164
 -19817639.70748 -15424694.27947  21499469.9374   21499465.9164
  -6370594.31646  -4936814.90244  23623816.5484   23623814.1184
 -10662531.13447  -8280837.75644  23243911.1804   23243906.6064
 -26439036.45249 -20581940.88648  20214120.6854   20214116.8664
 10  3 18  0 42  0.0000000  0  9G12G 2G30G21G31G24G14G16G29
 -10859212.39947  -8432841.67745  23018143.6124   23018139.1354
  -8268776.74046  -6421949.42844  23624736.0904   23624730.2274
 -25034579.44848 -19497472.62447  20564834.2744   20564830.9474
  -5907417.78547  -4588727.81644  24275543.8464   24275539.1054
 -19875397.42148 -15469700.28847  21488478.9044   21488474.6074
  -6476713.19046  -5019504.85744  23603622.7984   23603619.8914
 -10575083.23047  -8212696.54644  23260551.7564   23260547.3854
                                  25116415.7594   25116410.8924
 -26433633.49349 -20577730.78048  20215148.7024   20215144.7414
 10  3 18  0 42 30.0000000  0  9G12G 2G30G21G31G24G14G16G29
 -10787308.65347  -8376812.78646  23031826.4674   23031822.1304
  -8216161.19247  -6380950.28744  23634748.8184   23634742.7484
 -24993492.91448 -19465457.15147  20572652.9374   20572649.2494
  -6003815.43047  -4663842.75144  24257199.2574   24257195.2534
 -19932755.47248 -15514394.87747  21477563.9404   21477559.7174
  -6582745.38846  -5102127.28644  23583445.2464   23583443.3034
 -10487400.73047  -8144372.53644  23277237.0334   23277233.1604
                                  25100169.2864   25100164.8314
 -26427766.25149 -20573158.89848  20216265.2364   20216261.5484
 10  3 18  0 43  0.0000000  0  9G12G 2G30G21G31G24G14G16G29
 -10715278.40747  -8320685.32446  23045533.2934   23045529.4874
  -8163072.99347  -6339582.85444  23644851.1694   23644845.1524
 -24952107.59548 -19433208.86847  20580528.1354   20580525.2124
  -6100189.76147  -4738939.53843  24238858.9734   24238855.5464
 -19989714.72048 -15558778.71047  21466725.1524   21466720.4864
  -6688691.25546  -5184682.43244  23563284.4234   23563282.6374
 -10399490.29247  -8075870.91844  23293965.8874   23293961.6874
   -345928.53045   -260316.62542  25083925.9564   25083921.4074
 -26421439.01849 -20568228.58948  20217469.2574   20217465.7084
 10  3 18  0 43 30.0000000  0  9G12G 2G30G21G31G24G14G16G29
 -10643114.60447  -8264453.82445  23059265.2774   23059261.7174
  -8109506.42946  -6297842.68044  23655043.7854   23655038.0084
 -24910416.30948 -19400722.15947  20588462.0564   20588458.4544
  -6196531.29847  -4814010.74744  24220526.7844   24220523.1584
 -20046265.40748 -15602844.18447  21455963.8774   21455958.8974
  -6794540.47946  -5267162.29244  23543142.0234   23543140.4414
 -10311347.79447  -8007188.44544  23310738.7504   23310734.6944
   -431274.69345   -326820.07542  25067683.9684   25067679.8654
 -26414645.42848 -20562934.87448  20218761.8094   20218758.3354
 10  3 18  0 44  0.0000000  0  9G12G 2G30G21G31G24G14G16G29
 -10570819.61847  -8208120.06645  23073023.2614   23073018.8804
  -8055464.92947  -6255732.40944  23665327.9304   23665322.0724
 -24868421.34948 -19367998.82547  20596453.0344   20596449.6404
  -6292839.57247  -4889056.10843  24202199.6574   24202195.8744
 -20102407.35048 -15646591.14747  21445280.1534   21445275.5234
  -6900292.10546  -5349566.10144  23523017.3324   23523015.6504
 -10222978.21547  -7938329.03444  23327554.8354   23327550.7344
                                  25051446.1544   25051440.2354
 -26407388.32749 -20557279.98748  20220142.9584   20220139.5064
 10  3 18  0 44 30.0000000  0  9G12G 2G30G21G31G24G14G16G29
 -10498400.18647  -8151689.36945  23086803.4484   23086800.3394
  -8000957.30146  -6213258.93044  23675700.3934   23675695.4974
 -24826130.13048 -19335044.63847  20604501.1714   20604497.4064
  -6389118.56547  -4964078.61943  24183878.3374   24183874.5564
 -20158145.42148 -15690023.41347  21434673.6554   21434669.3834
  -7005950.11846  -5431896.96744  23502911.3674   23502909.6594
 -10134391.53847  -7869300.48244  23344412.2154   23344408.0024
   -601934.49545   -459801.73442  25035211.4624   25035205.1724
 -26399675.93449 -20551270.33048  20221610.6134   20221607.2944
 10  3 18  0 45  0.0000000  0  9G12G 2G30G21G31G24G14G16G29
 -10425850.09247  -8095156.84345  23100609.3084   23100605.5664
  -7945978.56246  -6170418.35744  23686163.4334   23686157.3254
 -24783536.03548 -19301854.44747  20612606.3444   20612602.8084
  -6485359.46547  -5039071.45444  24165564.1964   24165560.1574
 -20213470.94848 -15733134.21547  21424145.6534   21424141.4134
  -7111504.62846  -5514147.17244  23482825.6424   23482823.2644
 -10045584.52347  -7800100.23044  23361311.1894   23361306.8214
   -687247.75645   -526279.59142  25018977.2044   25018971.2294
 -26391502.99649 -20544901.81448  20223165.9014   20223162.1554
 10  3 18  0 45 30.0000000  0  9G12G 2G30G21G31G24G14G16G29
 -10353170.81047  -8038523.65945  23114439.6204   23114435.8304
  -7890531.79546  -6127213.06944  23696713.7074   23696707.8014
 -24740640.81148 -19268429.59647  20620768.9404   20620765.8174
  -6581561.24347  -5114033.79944  24147257.7454   24147253.7204
 -20268383.25248 -15775923.03147  21413696.1964   21413691.7894
  -7216953.97846  -5596315.46644  23462759.2684   23462756.2294
  -9956562.18747  -7730732.19544  23378251.5654   23378247.8804
   -772549.14946   -592748.21342  25002744.6104   25002739.2944
 -26382871.55148 -20538176.00848  20224808.3424   20224804.6404
 10  3 18  0 46  0.0000000  0  9G12G 2G30G21G31G24G14G16G29
 -10280362.89647  -7981790.22645  23128294.9034   23128291.1224
  -7834618.98846  -6083644.63344  23707353.7844   23707347.7994
 -24697444.63948 -19234770.25247  20628989.0784   20628985.5524
  -6677721.89447  -5188964.09444  24128958.9584   24128954.3784
 -20322880.18848 -15818388.17347  21403325.8534   21403321.1944
  -7322295.39146  -5678399.63944  23442713.3854   23442710.6254
  -9867327.35347  -7661198.57144  23395232.8524   23395227.4104
   -857838.21245   -659207.19742  24986514.4014   24986509.6474
 -26373783.18749 -20531094.16048  20226537.8794   20226533.8674
 10  3 18  0 46 30.0000000  0  9G12G 2G30G21G31G24G14G16G29
 -10207426.89547  -7924956.99145  23142173.7614   23142170.5474
  -7778241.63846  -6039714.24444  23718082.3934   23718076.2904
 -24653948.13148 -19200876.87347  20637266.0564   20637262.3824
  -6773838.78647  -5263860.29844  24110668.7184   24110663.8414
 -20376959.78748 -15860528.11847  21393034.8914   21393030.4634
  -7427526.01946  -5760397.48644  23422687.8704   23422685.9644
  -9777883.44347  -7591502.01744  23412253.2644   23412249.0974
   -943114.85446   -725656.51343  24970287.9964   24970282.2734
 -26364239.17748 -20523657.26948  20228354.0894   20228350.2734
 10  3 18  0 47  0.0000000  0  9G12G 2G30G21G31G24G14G16G29
 -10134362.14447  -7868023.42445  23156077.5574   23156074.1064
  -7721401.67546  -5995423.34444  23728897.5704   23728892.1574
 -24610151.32648 -19166749.51047  20645600.4934   20645597.2134
  -6869909.82547  -5338720.77144  24092386.7034   24092382.2824
 -20430620.27248 -15902341.48347  21382823.4334   21382818.7454
  -7532642.89146  -5842306.69344  23402685.2664   23402682.6114
  -9688233.74047  -7521645.12344  23429313.4864   23429309.8584
  -1028378.64246   -792095.82843  24954061.2674   24954057.2234
 -26354240.78848 -20515866.31648  20230256.8034   20230252.8344
 10  3 18  0 47 30.0000000  0  9G12G 2G30G21G31G24G14G16G29
 -10061169.14147  -7810989.93745  23170005.8694   23170002.1504
  -7664100.56646  -5950773.13044  23739801.7054   23739796.3974
 -24566054.10948 -19132388.05547  20653991.7774   20653988.2414
  -6965931.95347  -5413543.14844  24074113.2254   24074109.5244
 -20483858.87548 -15943826.10447  21372692.3304   21372687.9574
  -7637642.77046  -5924124.74644  23382704.4224   23382701.8594
  -9598381.53647  -7451630.46544  23446411.8824   23446408.0374
  -1113629.30946   -858524.89143  24937839.2494   24937835.2564
 -26343788.85649 -20507721.95548  20232245.4474   20232241.7344
 10  3 18  0 48  0.0000000  0  9G12G 2G30G21G31G24G14G16G29
  -9987848.10947  -7753856.67645  23183958.5784   23183954.1934
  -7606340.19446  -5905765.02844  23750793.7574   23750787.7824
 -24521657.25448 -19097793.10747  20662440.4044   20662436.8594
  -7061903.19947  -5488325.85343  24055851.7934   24055846.4214
 -20536674.02748 -15984980.76347  21362642.0504   21362638.0624
  -7742522.73346  -6005849.37244  23362746.4104   23362743.9054
  -9508329.87347  -7381460.34544  23463547.7154   23463544.0314
  -1198866.92446   -924943.83243  24921618.5684   24921614.8574
 -26332884.77849 -20499225.26248  20234320.6624   20234317.0054
 10  3 18  0 48 30.0000000  0  9G12G 2G30G21G31G24G14G16G29
  -9914400.05047  -7696624.44145  23197935.2634   23197931.2424
  -7548122.91146  -5860400.91944  23761872.1724   23761865.6034
 -24476961.32748 -19062965.12847  20670945.7484   20670941.8994
  -7157821.50147  -5563067.31044  24037599.0804   24037594.1224
 -20589063.98148 -16025804.09847  21352672.6424   21352668.1244
  -7847280.29147  -6087478.61144  23342812.0394   23342809.5324
  -9418082.87547  -7311138.02944  23480721.2414   23480717.5834
  -1284091.29046   -991352.43543  24905401.5124   24905396.8554
 -26321530.34748 -20490377.65448  20236481.2114   20236477.7754
 10  3 18  0 49  0.0000000  0  9G12G 2G30G21G31G24G14G16G29
  -9840824.26347  -7639292.66745  23211936.1454   23211932.1944
  -7489449.98046  -5814681.74444  23773037.5304   23773031.2214
 -24431966.12148 -19027903.93847  20679507.7654   20679504.4844
  -7253683.62247  -5637765.00544  24019356.9464   24019352.2424
 -20641025.90748 -16066293.91847  21342784.5804   21342779.7634
  -7951911.75747  -6169009.58045  23322901.0064   23322899.1294
  -9327642.73146  -7240665.21044  23497931.5354   23497927.5324
  -1369301.11446  -1057749.65743  24889186.5854   24889181.1344
 -26309725.96948 -20481179.43548  20238727.5514   20238724.0834
 10  3 18  0 49 30.0000000  0  9G12G 2G30G21G31G24G14G16G29
  -9767121.03847  -7581861.54245  23225961.6394   23225957.2034
  -7430323.02046  -5768608.81944  23784289.0374   23784282.9774
 -24386672.17948 -18992609.97147  20688126.9034   20688123.5134
  -7349487.54247  -5712417.33744  24001126.0974   24001121.2944
 -20692558.29048 -16106449.01647  21332978.5454   21332973.4644
  -8056414.46047  -6250440.22144  23303014.9284   23303012.2834
  -9237013.12147  -7170044.74644  23515177.7574   23515173.5434
  -1454497.19146  -1124136.18143  24872974.6254   24872968.8034
 -26297473.29848 -20471631.89048  20241058.8964   20241055.2684
 10  3 18  0 50  0.0000000  0  9G12G 2G30G21G31G24G14G16G29
  -9693290.93747  -7524331.63845  23240011.1954   23240006.9934
  -7370744.23646  -5722183.79244  23795626.4554   23795620.0464
 -24341079.80148 -18957083.44547  20696803.2054   20696799.2884
  -7445231.14247  -5787022.67544  23982906.6434   23982901.3384
 -20743659.22748 -16146267.92947  21323254.3174   21323249.1524
  -8160785.65747  -6331768.40044  23283154.3384   23283150.7804
  -9146197.51047  -7099279.36344  23532459.9004   23532456.0144
  -1539679.10846  -1190511.64643  24856765.3144   24856759.2404
 -26284773.69548 -20461736.10248  20243475.7154   20243471.9684
 10  3 18  0 50 30.0000000  0  9G12G 2G30G21G31G24G14G16G29
  -9619334.12147  -7466702.97645  23254084.7434   23254080.7514
  -7310715.27346  -5675408.00844  23807049.8974   23807043.4324
 -24295188.77648 -18921324.22047  20705535.7624   20705532.1364
  -7540911.68447  -5861578.89044  23964698.2924   23964694.0184
 -20794326.03448 -16185748.55447  21313612.6654   21313608.1764
  -8265021.93047  -6412991.42245  23263318.4854   23263315.9764
  -9055198.64046  -7028371.16644  23549776.1004   23549771.7624
  -1624846.02346  -1256875.45843  24840557.7294   24840553.1694
 -26271628.06548 -20451492.75348  20245977.2394   20245973.8754
 10  3 18  0 51  0.0000000  0  9G12G 2G30G21G31G24G14G16G29
  -9545250.20147  -7408975.26045  23268181.7874   23268178.1144
  -7250237.80146  -5628282.70144  23818558.2954   23818552.5004
 -24248999.14448 -18885332.30747  20714325.5914   20714322.0914
  -7636526.20147  -5936083.65744  23946504.2244   23946498.8714
 -20844556.75848 -16224889.37947  21304053.7854   21304049.1274
  -8369120.17746  -6494106.89445  23243508.6534   23243506.3444
  -8964019.70946  -6957322.67343  23567127.1164   23567122.8424
  -1709997.53446  -1323227.27043  24824354.3594   24824349.4684
 -26258037.44148 -20440902.65248  20248563.6794   20248560.1204
 10  3 18  0 51 30.0000000  0  9G12G 2G30G21G31G24G14G16G29
  -9471039.57747  -7351148.79045  23282304.7804   23282299.7064
  -7189314.21646  -5580809.78144  23830150.8344   23830145.5674
 -24202512.03448 -18849108.58647  20723171.5324   20723167.7734
  -7732072.94647  -6010535.58644  23928322.0994   23928316.7994
 -20894349.77048 -16263689.12247  21294578.6174   21294574.1114
  -8473077.59547  -6575112.63145  23223726.2834   23223723.5124
  -8872664.48146  -6886136.80443  23584510.8624   23584507.3404
  -1795133.89946  -1389567.20643  24808153.1874   24808148.1174
 -26244003.61848 -20429967.19548  20251233.8254   20251230.2704
 10  3 18  0 52  0.0000000  0  9G12G 2G30G21G31G24G14G16G29
  -9396703.12547  -7293224.29045  23296449.9464   23296445.7344
  -7127946.45947  -5532990.74743  23841828.8804   23841823.3214
 -24155727.88648 -18812653.41047  20732074.1464   20732070.7404
  -7827549.43047  -6084932.79944  23910153.1934   23910149.5064
 -20943703.38148 -16302146.48247  21285186.8544   21285182.6044
  -8576891.37346  -6656006.44944  23203970.9944   23203968.7274
  -8781136.31546  -6814816.17744  23601929.1174   23601924.0104
  -1880254.77446  -1455895.15643  24791955.5754   24791950.6754
 -26229528.17448 -20418687.63148  20253988.6264   20253984.9664
 10  3 18  0 52 30.0000000  0  9G12G 2G30G21G31G24G14G16G29
  -9322240.21247  -7235201.25945  23310619.5654   23310615.4624
  -7066135.44546  -5484826.33443  23853591.5934   23853585.6034
 -24108645.82848 -18775966.10547  20741033.7594   20741029.9544
  -7922952.62847  -6159272.87444  23891998.6654   23891994.3474
 -20992614.83948 -16340259.29947  21275879.2184   21275874.8604
  -8680557.66246  -6736785.34444  23184244.0334   23184241.4434
  -8689437.57147  -6743362.61544  23619378.2284   23619374.1754
  -1965359.16646  -1522210.18343  24775759.7054   24775755.9674
 -26214611.33748 -20407064.11848  20256827.0034   20256823.5664
 10  3 18  0 53  0.0000000  0  9G12G 2G30G21G31G24G14G16G29
  -9247651.38747  -7177080.11345  23324813.3344   23324809.1924
  -7003883.75946  -5436318.54143  23865437.0974   23865431.2014
 -24061266.73448 -18739047.34647  20750049.6064   20750046.5154
  -8018280.54847  -6233554.33544  23873858.7774   23873853.4994
 -21041082.59948 -16378026.38047  21266656.0444   21266651.6354
  -8784074.06347  -6817447.43745  23164545.6914   23164543.6014
  -8597572.30747  -6671779.30944  23636859.9584   23636855.9034
  -2050447.31046  -1588512.66243  24759568.8854   24759564.0534
 -26199255.33148 -20395098.40148  20259749.1844   20259745.5524
 10  3 18  0 53 30.0000000  0  9G12G 2G30G21G31G24G14G16G29
  -9172936.44847  -7118860.67845  23339031.3254   23339026.8214
  -6941192.93247  -5387468.54544  23877367.2844   23877361.0684
 -24013590.53048 -18701897.06747  20759122.3094   20759118.6504
  -8113530.34547  -6307774.92444  23855732.6764   23855727.9084
 -21089104.13948 -16415445.75447  21257517.8694   21257513.5794
  -8887437.09647  -6897990.03745  23144876.2774   23144873.9704
  -8505543.12347  -6600068.31644  23654371.9604   23654369.1234
  -2135518.51446  -1654801.88643  24743379.5514   24743375.2734
 -26183460.81048 -20382790.98648  20262754.6704   20262751.1634
 10  3 18  0 54  0.0000000  0  9G12G 2G30G21G31G24G14G16G29
  -9098096.14847  -7060543.57945  23353272.7834   23353269.3404
  -6878065.33746  -5338278.22343  23889379.2734   23889373.4634
 -23965618.20748 -18664516.04747  20768251.2674   20768247.8484
  -8208700.29247  -6381933.27144  23837622.8084   23837617.3414
 -21136677.85848 -16452516.19647  21248464.8204   21248460.2734
  -8990644.28247  -6978411.20545  23125236.6114   23125234.5964
  -8413353.71546  -6528232.43344  23671915.5284   23671912.0604
  -2220572.89246  -1721077.96643  24727194.0544   24727190.1204
 -26167229.77948 -20370143.42748  20265843.5044   20265839.7694
 10  3 18  0 54 30.0000000  0  9G12G 2G30G21G31G24G14G16G29
  -9023130.25547  -7002128.60645  23367538.7264   23367534.2444
  -6814502.85146  -5288749.02343  23901475.0724   23901469.5544
 -23917349.65248 -18626904.19347  20777436.3324   20777433.4774
  -8303787.44447  -6456027.11744  23819528.0234   23819523.2264
 -21183801.63748 -16489236.02047  21239497.6004   21239493.3264
  -9093692.16646  -7058708.22944  23105626.6504   23105625.0404
  -8321006.90247  -6456273.89944  23689488.1694   23689484.7184
  -2305609.60846  -1787340.32543  24711012.6084   24711008.0254
 -26150563.01648 -20357156.33948  20269015.2524   20269011.4234
 10  3 18  0 55  0.0000000  0  9G12G 2G30G21G31G24G14G16G29
  -8948039.02547  -6943615.96245  23381827.7944   23381823.9294
  -6750507.11046  -5238882.21943  23913653.3414   23913647.9884
 -23868784.99448 -18589061.61247  20786677.8654   20786674.2644
  -8398789.70047  -6530054.79344  23801449.2544   23801444.6354
 -21230473.91248 -16525604.02747  21230616.0674   21230611.6904
  -9196577.94747  -7138878.95345  23086048.6114   23086046.0594
  -8228506.39246  -6384195.60743  23707090.2764   23707086.4194
  -2390628.34846  -1853588.63643  24694833.6304   24694829.2164
 -26133462.08448 -20343830.93848  20272269.1924   20272265.6804
 10  3 18  0 55 30.0000000  0  9G12G 2G30G21G31G24G14G16G29
  -8872823.26347  -6885006.30145  23396141.1214   23396137.3114
  -6686080.61646  -5188679.76243  23925913.4384   23925906.9474
 -23819925.09848 -18550988.96847  20795975.6824   20795972.2974
  -8493704.58047  -6604014.40244  23783388.0684   23783383.3504
 -21276692.99648 -16561618.89747  21221821.0614   21221816.8694
  -9299299.05247  -7218921.35945  23066501.0994   23066499.1794
  -8135855.63746  -6312000.24843  23724721.3724   23724717.1644
  -2475629.56646  -1919823.32943  24678659.1794   24678654.4374
 -26115929.07148 -20330168.84648  20275605.6324   20275602.2884
 10  3 18  0 56  0.0000000  0  9G12G 2G30G21G31G24G14G16G29
  -8797482.61647  -6826299.33245  23410477.9154   23410474.0494
  -6621224.82246  -5138142.78343  23938255.2514   23938248.8964
 -23770769.77748 -18512686.13547  20805329.7754   20805326.1074
  -8588529.51647  -6677903.91144  23765343.2664   23765339.0074
 -21322456.39048 -16597278.68747  21213112.6664   21213108.1314
  -9401851.77147  -7298832.55645  23046986.2834   23046983.8104
  -8043057.42146  -6239689.98443  23742380.1214   23742376.5554
  -2560612.32646  -1986043.61743  24662487.0604   24662482.2464
 -26097964.32548 -20316170.33848  20279024.3234   20279020.7424
 10  3 18  0 56 30.0000000  0  9G12G 2G30G21G31G24G14G16G29
  -8722017.65047  -6767495.46645  23424838.1124   23424834.8114
  -6555942.44546  -5087273.39543  23950677.5504   23950672.2544
 -23721319.98348 -18474153.83347  20814739.5544   20814736.0784
  -8683262.31047  -6751721.64344  23747316.0984   23747311.4734
 -21367762.71748 -16632582.32647  21204491.0884   21204486.3604
  -9504233.86847  -7378610.78445  23027503.8434   23027501.2504
  -7950115.46547  -6167267.68943  23760066.7124   23760062.9074
  -2645576.68746  -2052249.56943  24646319.1354   24646314.5164
 -26079570.05148 -20301837.13248  20282524.7004   20282521.0454
 10  3 18  0 57  0.0000000  0  9G12G 2G30G21G31G24G14G16G29
  -8646427.91347  -6708594.39345  23439222.9544   23439219.2334
  -6490234.57946  -5036072.45343  23963181.2944   23963175.1164
 -23671575.04248 -18435391.56047  20824205.4494   20824202.0674
  -8777899.73847  -6825465.05944  23729306.8974   23729302.5684
 -21412609.15648 -16667527.60247  21195957.2554   21195952.7824
  -9606441.21247  -7458252.83745  23008053.6934   23008051.5904
  -7857031.87846  -6094735.06643  23777779.6464   23777776.1244
  -2730521.63846  -2118440.38143  24630154.3144   24630149.4844
 -26060746.79548 -20287169.66448  20286106.5754   20286103.0544
 10  3 18  0 57 30.0000000  0  9G12G 2G30G21G31G24G14G16G29
  -8570713.67447  -6649596.28845  23453630.2574   23453627.0894
  -6424103.35646  -4984541.65643  23975765.4984   23975759.6514
 -23621535.40948 -18396399.64147  20833728.0574   20833724.2204
  -8872439.62547  -6899132.45444  23711317.0994   23711312.5964
 -21456994.17248 -16702113.33147  21187511.0874   21187506.6084
  -9708471.09447  -7537756.63645  22988638.4004   22988635.6944
  -7763810.53647  -6022095.07943  23795519.3114   23795515.5264
  -2815446.85746  -2184615.84443  24613993.5144   24613988.3304
 -26041496.09248 -20272169.11148  20289769.8074   20289766.4734
 10  3 18  0 58  0.0000000  0  9G12G 2G30G21G31G24G14G16G29
  -8494875.82047  -6590501.87245  23468061.8354   23468058.1284
  -6357551.36346  -4932682.93543  23988429.7114   23988423.2184
 -23571201.87248 -18357178.70947  20843306.4164   20843302.7224
  -8966880.14347  -6972722.43344  23693345.0454   23693340.2964
 -21500916.15348 -16736338.25147  21179152.8684   21179148.3204
  -9810321.13147  -7617120.27645  22969257.4174   22969254.6424
  -7670454.75146  -5949350.34444  23813284.0094   23813280.6724
  -2900352.41446  -2250776.00443  24597837.0954   24597831.4924
 -26021819.86648 -20256836.98248  20293513.9324   20293510.4434
 10  3 18  0 58 30.0000000  0  9G12G 2G30G21G31G24G14G16G29
  -8418914.20747  -6531311.03145  23482516.9894   23482513.0914
  -6290580.43646  -4880497.78743  24001174.5334   24001167.4274
 -23520574.57248 -18317728.88047  20852940.0004   20852936.9234
  -9061218.50347  -7046232.78544  23675392.9384   23675388.4954
 -21544373.48448 -16770201.10647  21170883.2184   21170878.7824
  -9911987.86547  -7696341.09745  22949910.6434   22949908.1024
  -7576967.85846  -5876503.46244  23831075.0424   23831071.3314
  -2985237.79746  -2316920.41943  24581684.4414   24581679.0264
 -26001719.26748 -20241174.17948  20297339.1014   20297335.0454
 10  3 18  0 59  0.0000000  0  9G12G 2G30G21G31G24G14G16G29
  -8342829.09347  -6472023.93245  23496995.7124   23496991.3644
  -6223192.97246  -4827988.09843  24013997.6564   24013990.9644
 -23469653.85348 -18278050.40647  20862630.2714   20862626.7114
  -9155452.31247  -7119661.69744  23657461.0704   23657456.3104
 -21587364.22148 -16803700.38947  21162702.2834   21162698.0414
 -10013468.48247  -7775416.87045  22930598.8114   22930597.0514
  -7483353.44947  -5803557.20844  23848889.5984   23848885.5334
  -3070102.78546  -2383048.94943  24565534.2764   24565529.2124
 -25981196.03948 -20225182.05148  20301244.4024   20301240.5954
 10  3 18  0 59 30.0000000  0  9G12G 2G30G21G31G24G14G16G29
  -8266620.19947  -6412640.38545  23511498.3544   23511493.8474
  -6155390.13746  -4775154.72443  24026900.3304   24026893.6884
 -23418439.79748 -18238143.36747  20872375.5054   20872372.7044
  -9249578.84147  -7193006.99944  23639549.5424   23639545.4044
 -21629885.73448 -16836834.03947  21154610.7514   21154606.2364
 -10114759.37047  -7854344.79845  22911323.4954   22911321.9174
  -7389613.99146  -5730513.51044  23866727.1224   23866723.5764
  -3154946.59446  -2449160.99743  24549389.0084   24549384.0554
 -25960251.04548 -20208861.27348  20305230.3414   20305226.6534
 10  3 18  1  0  0.0000000  0  9G12G 2G30G21G31G24G14G16G29
  -8190288.08747  -6353160.82245  23526023.1454   23526018.8514
  -6087174.41946  -4721999.60843  24039881.8514   24039875.4304
 -23366932.83148 -18198008.07847  20882177.2864   20882173.7464
  -9343595.73347  -7266266.88544  23621658.9384   23621654.7574
 -21671936.75648 -16869601.06747  21146608.7814   21146604.0674
 -10215857.68447  -7933122.67845  22892085.1634   22892083.5004
  -7295752.83846  -5657374.99043  23884588.0244   23884584.1594
  -3239768.98146  -2515256.34143  24533247.4074   24533243.3434
 -25938886.01948 -20192213.19448  20309295.7374   20309292.0284
 10  3 18  1  0 30.0000000  0  9G12G 2G30G21G31G24G14G16G29
  -8113832.64847  -6293585.17545  23540572.5114   23540568.0454
  -6018547.59546  -4668524.14443  24052940.1254   24052934.8034
 -23315132.42348 -18157644.12447  20892034.4294   20892031.3054
  -9437499.85047  -7339438.89944  23603789.4414   23603785.3404
 -21713514.98048 -16901999.68947  21138696.5694   21138692.6254
 -10316760.03947  -8011747.88945  22872884.4184   22872881.8434
  -7201772.72546  -5584143.77143  23902472.2134   23902467.9514
  -3324569.02746  -2581334.26943  24517111.0564   24517105.5904
 -25917101.82148 -20175238.50148  20313441.1244   20313437.3474
 10  3 18  1  1  0.0000000  0  9G12G 2G30G21G31G24G14G16G29
  -8037254.34247  -6233913.77945  23555144.6244   23555140.6724
  -5949512.06846  -4614730.21643  24066077.2074   24066071.4214
 -23263039.86148 -18117052.52247  20901947.4664   20901944.0584
  -9531289.40447  -7412521.64045  23585941.5754   23585937.2574
 -21754618.58348 -16934028.46947  21130874.8684   21130870.6374
 -10417463.94147  -8090218.44145  22853721.5394   22853719.2384
  -7107677.47646  -5510822.86043  23920377.4174   23920373.9764
  -3409346.84146  -2647394.88243  24500977.8464   24500973.2164
 -25894900.56048 -20157938.81348  20317666.0374   20317662.2354
 10  3 18  1  1 30.0000000  0  9G12G 2G30G21G31G24G14G16G29
  -7960553.07447  -6174146.56845  23569740.5384   23569736.5404
  -5880069.78746  -4560619.35243  24079292.4574   24079286.6484
 -23210655.04348 -18076233.20347  20911915.8084   20911912.8024
  -9624962.05947  -7485513.28544  23568116.6624   23568112.2154
 -21795246.20348 -16965686.35547  21123143.7344   21123139.2484
 -10517966.10847  -8168531.81045  22834596.5194   22834594.5344
  -7013470.10146  -5437414.55643  23938304.5064   23938300.7484
  -3494101.88546  -2713437.69843  24484849.7874   24484845.6734
 -25872283.44848 -20140315.09648  20321969.9994   20321966.2714
 10  3 18  1  2  0.0000000  0  9G12G 2G30G21G31G24G14G16G29
  -7883729.81547  -6114284.29345  23584359.2774   23584355.1304
  -5810223.57446  -4506193.71043  24092583.3174   24092577.7774
 -23157979.03048 -18035186.97347  20921939.8814   20921937.1944
  -9718515.70047  -7558412.19745  23550313.8674   23550309.2924
 -21835396.59048 -16996972.37747  21115503.4804   21115499.1024
 -10618264.32047  -8246686.23745  22815510.2024   22815508.3624
  -6919154.30546  -5363921.78643  23956252.2134   23956248.5484
  -3578834.03946  -2779462.73943  24468726.0844   24468720.5014
 -25849252.31948 -20122368.75348  20326352.7544   20326349.1624
 10  3 18  1  2 30.0000000  0  9G12G 2G30G21G31G24G14G16G29
  -7806783.88647  -6054326.43145  23599001.7914   23598997.6934
  -5739974.82446  -4451454.43043  24105950.9494   24105945.1654
 -23105011.68748 -17993913.73847  20932019.2784   20932016.1844
  -9811947.40047  -7631216.08644  23532534.7724   23532529.1464
 -21875067.26148 -17027884.58747  21107954.1304   21107949.8604
 -10718354.55347  -8324678.61245  22796463.9314   22796461.1964
  -6824733.06846  -5290346.80843  23974220.9014   23974215.3494
  -3663543.21746  -2845469.84644  24452605.5894   24452601.3714
 -25825808.23848 -20104100.64348  20330813.9454   20330810.4854
 10  3 18  1  3  0.0000000  0  9G12G 2G30G21G31G24G14G16G29
  -7729715.74447  -5994273.34845  23613667.1444   23613663.9314
  -5669325.37846  -4396402.90443  24119394.6774   24119389.2814
 -23051753.28348 -17952413.69447  20942154.0544   20942150.6344
  -9905254.69347  -7703923.05444  23514778.6854   23514773.7234
 -21914256.26648 -17058421.47647  21100496.7954   21100492.2654
 -10818233.80347  -8402506.57945  22777457.4714   22777455.1464
  -6730209.19346  -5216691.90643  23992208.4394   23992203.7514
  -3748228.46446  -2911458.36143  24436490.9034   24436486.5914
 -25801953.00348 -20085512.14248  20335353.7924   20335349.7414
 10  3 18  1  3 30.0000000  0  9G12G 2G30G21G31G24G14G16G29
  -7652525.47647  -5934125.10145  23628356.6494   23628352.2734
  -5598277.71346  -4341041.08043  24132914.9594   24132909.0614
 -22998203.95448 -17910686.94447  20952343.8464   20952340.8614
  -9998434.94147  -7776531.02245  23497047.0824   23497042.0744
 -21952961.91448 -17088581.72547  21093131.3904   21093126.7614
 -10917899.15847  -8480167.88545  22758491.5544   22758489.5834
  -6635585.83846  -5142959.46943  24010214.0054   24010209.7714
  -3832888.95446  -2977427.56443  24420380.1074   24420375.7514
 -25777687.52848 -20066603.97348  20339970.9944   20339967.6174
 10  3 18  1  4  0.0000000  0  9G12G 2G30G21G31G24G14G16G29
  -7575214.07447  -5873882.46345  23643068.3244   23643064.2044
  -5526834.75746  -4285371.22243  24146510.1624   24146504.5264
 -22944364.83748 -17868734.41047  20962589.4334   20962586.0274
 -10091486.34447  -7849038.59145  23479340.1764   23479335.0504
 -21991183.22348 -17118364.56547  21085858.1774   21085853.2714
 -11017348.50147  -8557660.86545  22739567.3034   22739564.9124
  -6540867.00146  -5069152.61743  24028238.5334   24028233.6314
  -3917525.07246  -3043377.75243  24404274.5344   24404270.0794
 -25753014.17848 -20047377.98448  20344666.0944   20344662.6354
 10  3 18  1  4 30.0000000  0  9G12G 2G30G21G31G24G14G16G29
  -7497780.85747  -5813544.90445  23657803.1074   23657798.8424
  -5454997.31846  -4229394.00743  24160179.9754   24160174.5864
 -22890234.78848 -17826555.16447  20972889.9554   20972886.5364
 -10184405.66347  -7921443.22845  23461658.3094   23461653.3794
 -22028917.39548 -17147767.82247  21078677.7864   21078673.2054
 -11116577.29647  -8634982.00345  22720684.8634   22720682.4924
  -6446054.86946  -4995273.08043  24046280.7914   24046276.2524
  -4002135.70046  -3109308.07043  24388173.8744   24388169.0494
 -25727933.62348 -20027834.69648  20349438.8704   20349435.3584
 10  3 18  1  5  0.0000000  0  9G12G 2G30G21G31G24G14G16G29
  -7420226.21947  -5753112.72745  23672561.3894   23672557.5004
  -5382768.31246  -4173111.68943  24173925.5714   24173918.8534
 -22835815.14848 -17784150.26747  20983245.3934   20983242.1454
 -10277191.34747  -7993743.74345  23444001.5844   23443997.3574
 -22066163.33048 -17176790.62547  21071589.8294   21071585.4614
 -11215583.36547  -8712129.57745  22701844.6104   22701841.9574
  -6351153.15547  -4921323.71643  24064339.7614   24064335.5724
  -4086721.07546  -3175218.75443  24372076.8874   24372071.5684
 -25702447.61748 -20007975.47448  20354288.5364   20354284.9544
 10  3 18  1  5 30.0000000  0  9G12G 2G30G21G31G24G14G16G29
  -7342550.72147  -5692586.36945  23687342.1784   23687338.4574
  -5310150.13246  -4116526.05443  24187743.6364   24187737.9634
 -22781106.15448 -17741519.89047  20993656.5384   20993652.9774
 -10369840.37647  -8065937.76445  23426370.9244   23426366.7834
 -22102919.65948 -17205431.92047  21064595.4744   21064591.1084
 -11314363.71047  -8789101.25245  22683046.5484   22683044.4994
  -6256165.14746  -4847307.14143  24082415.9784   24082412.0114
  -4171280.38146  -3241109.07743  24355986.7194   24355981.6604
 -25676558.35248 -19987802.01748  20359215.0294   20359211.5104
 10  3 18  1  6  0.0000000  0  9G12G 2G30G21G31G24G14G16G29
  -7264754.08247  -5631965.62645  23702146.7234   23702142.8124
  -5237144.70446  -4059638.68743  24201637.2524   24201630.9204
 -22726107.94748 -17698664.15847  21004122.3104   21004119.0144
 -10462350.36847  -8138023.44745  23408767.0834   23408762.4554
 -22139184.25148 -17233690.04847  21057694.2854   21057689.9824
 -11412915.15047  -8865894.55745  22664293.5424   22664290.5274
  -6161093.71046  -4773225.56243  24100506.6324   24100503.4234
  -4255813.43846  -3306978.94843  24339900.5544   24339895.2844
 -25650266.75048 -19967315.05448  20364218.4054   20364214.7914
 10  3 18  1  6 30.0000000  0  9G12G 2G30G21G31G24G14G16G29
  -7186837.00147  -5571251.02645  23716974.1614   23716969.8414
  -5163754.19746  -4002451.29643  24215602.8154   24215597.0454
 -22670821.34848 -17655583.69247  21014643.2724   21014639.5024
 -10554719.46347  -8209999.35145  23391189.3654   23391185.3314
 -22174955.74648 -17261563.93847  21050887.4384   21050882.7164
 -11511235.00747  -8942507.42445  22645583.5944   22645581.0644
  -6065942.37846  -4699081.74943  24118613.3274   24118609.7394
  -4340319.82646  -3372828.07643  24323819.4504   24323813.6804
 -25623574.68548 -19946516.04048  20369297.7034   20369293.7324
 10  3 18  1  7  0.0000000  0  9G12G 2G30G21G31G24G14G16G29
  -7108799.28847  -5510442.42445  23731823.8964   23731820.3374
  -5089980.84046  -3944965.56343  24229641.2834   24229634.9754
 -22615246.04748 -17612278.27847  21025218.4524   21025215.4224
 -10646944.22047  -8281862.80545  23373639.7264   23373635.7514
 -22210231.85048 -17289051.81947  21044174.5714   21044169.8214
 -11609319.88847  -9018937.19145  22626918.7404   22626915.6874
  -5970714.08446  -4624877.92243  24136735.0964   24136731.8004
  -4424798.54946  -3438655.61943  24307744.0744   24307738.2994
 -25596483.08648 -19925405.70848  20374453.0214   20374449.4134
 10  3 18  1  7 30.0000000  0  9G12G 2G30G21G31G24G14G16G29
  -7030641.32647  -5449540.11245  23746697.0334   23746692.5174
  -5015827.01246  -3887183.37943  24243751.8984   24243744.7424
 -22559382.87448 -17568748.53847  21035849.1744   21035845.5044
 -10739022.70147  -8353612.20845  23356117.8314   23356113.6744
 -22245011.56048 -17316152.88947  21037556.0514   21037551.3404
 -11707166.96747  -9095181.66345  22608298.6294   22608296.0504
  -5875412.10146  -4550616.69743  24154869.9564   24154866.9844
  -4509249.41246  -3504461.46443  24291673.4454   24291667.7584
 -25568994.08448 -19903985.69748  20379684.1404   20379680.5844
 10  3 18  1  8  0.0000000  0  9G12G 2G30G21G31G24G14G16G29
  -6952363.18047  -5388544.16245  23761592.8714   23761588.8244
  -4941294.38046  -3829106.01843  24257935.2794   24257927.7734
 -22503231.59448 -17524994.30447  21046534.2114   21046530.9104
 -10830952.17747  -8425245.58245  23338623.2724   23338619.1344
 -22279292.74248 -17342865.50147  21031032.9024   21031028.2434
 -11804772.70547  -9171238.05145  22589725.3394   22589722.6084
  -5780039.25046  -4476300.21643  24173018.6794   24173016.0174
  -4593671.96846  -3570245.24043  24275608.0104   24275602.8244
 -25541108.71448 -19882256.83448  20384990.1934   20384986.9164
 10  3 18  1  8 30.0000000  0  9G12G 2G30G21G31G24G14G16G29
  -6873965.02747  -5327454.70744  23776511.4674   23776507.5014
  -4866385.58146  -3770735.50543  24272189.9524   24272183.5574
 -22446793.40948 -17481016.50847  21057273.9674   21057270.7194
 -10922730.41947  -8496761.05045  23321158.8044   23321154.1854
 -22313073.97248 -17369188.53547  21024604.5694   21024599.6684
 -11902134.40547  -9247104.29445  22571198.0254   22571195.3274
  -5684598.92646  -4401931.19743  24191181.3044   24191177.7464
  -4678066.05246  -3636006.84143  24259548.3534   24259543.8554
 -25512828.95548 -19860220.65948  20390371.6304   20390367.6064
 10  3 18  1  9  0.0000000  0  9G12G 2G30G21G31G24G14G16G29
  -6795447.42747  -5266272.17845  23791452.7464   23791448.3764
  -4791103.02346  -3712073.75743  24286515.4344   24286509.3674
 -22390068.25848 -17436815.10547  21068068.5294   21068065.8284
 -11014355.22247  -8568156.97445  23303723.5814   23303719.5594
 -22346354.06248 -17395121.08147  21018271.1614   21018266.5384
 -11999249.19447  -9322778.15045  22552717.3214   22552714.2424
  -5589094.15646  -4327511.96443  24209354.4184   24209351.6424
  -4762430.95447  -3701745.70943  24243494.5804   24243489.5234
 -25484156.29348 -19837878.32348  20395827.8254   20395823.8464
 10  3 18  1  9 30.0000000  0  9G12G 2G30G21G31G24G14G16G29
  -6716810.49547  -5204996.68045  23806416.5654   23806412.9964
  -4715448.83746  -3653122.47043  24300912.5294   24300906.0714
 -22333056.36648 -17392390.26647  21078917.6004   21078914.3234
 -11105824.15547  -8639431.44645  23286317.7894   23286313.0534
 -22379131.22648 -17420661.73047  21012034.2454   21012029.3334
 -12096114.09247  -9398257.28145  22534284.9984   22534282.2934
  -5493528.55746  -4253045.33543  24227540.6134   24227537.6384
  -4846765.97846  -3767461.31744  24227446.3884   24227441.3394
 -25455092.69048 -19815231.35648  20401358.4114   20401354.9364
 10  3 18  1 10  0.0000000  0  9G12G 2G30G21G31G24G14G16G29
  -6638054.01047  -5143627.99445  23821404.2474   23821399.6634
  -4639425.22746  -3593883.27143  24315379.0974   24315372.6684
 -22275758.08548 -17347742.25147  21089821.0004   21089817.9214
 -11197134.30047  -8710582.19845  23268941.9574   23268937.6854
 -22411403.33148 -17445808.83247  21005893.0744   21005888.1024
 -12192725.66047  -9473539.00545  22515900.0564   22515897.3904
  -5397904.73746  -4178533.31043  24245736.1724   24245733.7534
  -4931070.74547  -3833153.28744  24211403.5234   24211398.7274
 -25425638.94148 -19792280.38448  20406963.6314   20406959.8274
 10  3 18  1 10 30.0000000  0  9G12G 2G30G21G31G24G14G16G29
  -6559178.12547  -5082166.27045  23836413.1964   23836409.5734
  -4563033.99646  -3534357.65742  24329915.8834   24329909.8134
 -22218173.54548 -17302871.19446  21100778.8854   21100775.7414
 -11288283.45247  -8781607.48345  23251596.8594   23251592.5504
 -22443169.11148 -17470561.38147  20999848.2394   20999843.4494
 -12289080.98247  -9548621.05845  22497564.3664   22497561.8124
  -5302225.58846  -4103978.20743  24263944.9794   24263941.1064
  -5015344.44047  -3898821.07444  24195366.0744   24195361.9664
 -25395796.55148 -19769026.56648  20412642.2994   20412638.6524
 10  3 18  1 11  0.0000000  0  9G12G 2G30G21G31G24G14G16G29
  -6480183.56947  -5020612.07545  23851445.1594   23851441.7584
  -4486277.75446  -3474547.61742  24344521.8364   24344516.3674
 -22160303.40048 -17257777.59347  21111791.4194   21111787.5014
 -11379268.94447  -8852505.24245  23234283.0714   23234277.8774
 -22474427.10748 -17494918.26047  20993899.8714   20993895.3114
 -12385177.28047  -9623501.27745  22479277.9324   22479275.3774
  -5206495.05646  -4029383.04043  24282161.2004   24282158.3054
  -5099587.03046  -3964464.62544  24179335.4734   24179331.1654
 -25365567.74048 -19745471.65348  20418394.6424   20418391.0574
 10  3 18  1 11 30.0000000  0  9G12G 2G30G21G31G24G14G16G29
  -6401070.27547  -4958965.36345  23866500.9004   23866496.8024
  -4409158.66546  -3414454.79842  24359196.2564   24359191.0234
 -22102147.63648 -17212461.42347  21122857.9594   21122854.5184
 -11470088.24547  -8923273.51545  23217001.0634   23216995.7984
 -22505175.76948 -17518878.26047  20988048.4164   20988043.9714
 -12481011.13847  -9698177.00345  22461041.4094   22461039.4794
  -5110715.53246  -3954749.67943  24300387.5764   24300384.0904
  -5183797.71846  -4030083.29144  24163311.0004   24163306.4354
 -25334953.35248 -19721616.28248  20424220.3894   20424216.5874
 10  3 18  1 12  0.0000000  0  9G12G 2G30G21G31G24G14G16G29
  -6321838.67147  -4897226.47245  23881577.3484   23881573.9174
  -4331679.38046  -3354081.29342  24373940.3404   24373935.5454
 -22043707.00748 -17166923.27547  21133979.0194   21133975.2294
 -11560739.69447  -8993910.98545  23199750.2324   23199745.4694
 -22535413.66148 -17542440.25447  20982294.6204   20982289.9424
 -12576580.14447  -9772646.33545  22442855.4304   22442852.7624
  -5014890.67546  -3880081.01943  24318622.4594   24318619.1674
  -5267976.35446  -4095677.03544  24147292.1184   24147286.9614
 -25303955.78748 -19697462.33848  20430119.0894   20430115.4054
 10  3 18  1 12 30.0000000  0  9G12G 2G30G21G31G24G14G16G29
  -6242488.80647  -4835395.39745  23896677.0444   23896673.9604
  -4253842.04346  -3293428.83143  24388752.8744   24388746.5964
 -21984981.87648 -17121163.44246  21145154.0434   21145150.6214
 -11651220.18347  -9064415.25445  23182532.0694   23182526.6034
 -22565139.16148 -17565602.98247  20976638.0634   20976633.3004
 -12671880.97547  -9846906.71445  22424720.0174   22424717.9304
  -4919023.35446  -3805379.29943  24336865.4564   24336862.0834
  -5352122.26047  -4161245.25244  24131280.5024   24131275.6424
 -25272576.30348 -19673010.79248  20436090.2984   20436086.6744
 10  3 18  1 13  0.0000000  0  9G12G 2G30G21G31G24G14G16G29
  -6163020.91647  -4773472.38344  23911798.9574   23911795.7614
  -4175648.91946  -3232499.13042  24403633.0954   24403625.6264
 -21925972.68048 -17075182.25447  21156382.7004   21156379.6494
 -11741527.60747  -9134784.66045  23165346.9404   23165342.3104
 -22594351.24548 -17588365.64747  20971079.2074   20971074.3784
 -12766910.87947  -9920955.97945  22406636.4294   22406633.9414
  -4823116.78446  -3730646.98043  24355115.9044   24355113.3154
  -5436235.10546  -4226787.67843  24115273.1994   24115268.8454
 -25240816.99648 -19648263.27348  20442134.1094   20442130.3174
 10  3 18  1 13 30.0000000  0  9G12G 2G30G21G31G24G14G16G29
  -6083435.36247  -4711457.68844  23926944.1064   23926939.7984
  -4097102.49846  -3171294.17842  24418579.3184   24418572.2894
 -21866679.98248 -17028980.16947  21167666.0114   21167662.8764
 -11831659.97447  -9205017.66245  23148195.5754   23148190.8344
 -22623048.44848 -17610727.11347  20965618.4324   20965613.9064
 -12861667.03747  -9994791.93845  22388604.9364   22388602.4874
  -4727174.06246  -3655886.49643  24373373.4814   24373370.4644
  -5520314.32146  -4292303.95543  24099274.3674   24099268.5424
 -25208679.32448 -19623220.93348  20448249.3984   20448246.2144
 10  3 18  1 14  0.0000000  0  9G12G 2G30G21G31G24G14G16G29
  -6003732.58447  -4649351.63544  23942111.0004   23942107.2174
  -4018205.04946  -3109815.64142  24433593.5224   24433586.4824
 -21807104.01648 -16982557.34847  21179003.0394   21178999.5334
 -11921614.34647  -9275111.97445  23131077.4514   23131073.4594
 -22651229.12648 -17632686.08047  20960255.7214   20960251.1334
 -12956146.42547 -10068412.22745  22370625.5634   22370624.0544
  -4631198.35446  -3581100.32143  24391637.0314   24391633.6574
  -5604359.53246  -4357793.72043  24083280.7144   24083275.8024
 -25176164.74048 -19597884.89148  20454436.9884   20454433.4984
 10  3 18  1 14 30.0000000  0  9G12G 2G30G21G31G24G14G16G29
  -5923912.30547  -4587154.01545  23957300.2544   23957296.2694
  -3938958.43646  -3048065.04242  24448673.6664   24448666.2434
 -21747244.57048 -16935913.64046  21190393.8154   21190390.5154
 -12011387.85147  -9345065.33245  23113994.2764   23113989.8884
 -22678891.32548 -17654241.04047  20954991.5964   20954987.0534
 -13050345.22247 -10141813.87845  22352700.8134   22352697.9154
  -4535192.08646  -3506290.29843  24409906.1514   24409902.9554
  -5688369.28147  -4423255.80944  24067293.8084   24067289.6764
 -25143273.97248 -19572255.72448  20460695.9294   20460692.3844
 10  3 18  1 15  0.0000000  0  9G12G 2G30G21G31G24G14G16G29
  -5843975.52747  -4524865.62345  23972512.3954   23972508.0424
  -3859365.82546  -2986044.89442  24463819.2834   24463812.1894
 -21687102.99648 -16889050.08646  21201838.5524   21201834.9654
 -12100979.02947  -9414876.63745  23096945.6294   23096940.6794
 -22706034.54548 -17675391.60447  20949826.7204   20949822.3164
 -13144261.55647 -10214995.42345  22334828.7554   22334825.8874
  -4439159.80346  -3431459.97543  24428180.6474   24428177.1124
  -5772344.19047  -4488690.81044  24051314.0104   24051309.2044
 -25110009.82748 -19546335.61048  20467025.8424   20467022.1874
 10  3 18  1 15 30.0000000  0  9G12G 2G30G21G31G24G14G16G29
  -5763921.14047  -4462485.59945  23987745.8774   23987742.3804
  -3779428.61246  -2923756.05942  24479030.3234   24479024.0054
 -21626678.63048 -16841966.16946  21213336.6354   21213333.4594
 -12190385.04047  -9484543.63845  23079932.0924   23079928.0884
 -22732656.37548 -17696135.88747  20944760.4234   20944755.9604
 -13237891.56747 -10287953.86245  22317011.7884   22317009.3534
  -4343103.38046  -3356610.89943  24446459.5434   24446456.3694
  -5856282.83846  -4554097.53344  24035341.3204   24035336.0884
 -25076373.28148 -19520125.31348  20473426.5234   20473423.1244
 10  3 18  1 16  0.0000000  0  9G12G 2G30G21G31G24G14G16G29
  -5683750.28947  -4400014.81645  24003001.8074   24002997.7104
  -3699149.58946  -2861201.02542  24494307.5234   24494300.2814
 -21565972.53548 -16794662.72546  21224888.7344   21224885.1454
 -12279603.30547  -9554064.35045  23062954.6394   23062950.1414
 -22758755.93848 -17716473.21447  20939794.2874   20939789.6014
 -13331232.61447 -10360687.12946  22299249.7504   22299247.0254
  -4247026.09046  -3281745.52443  24464742.7954   24464739.3994
  -5940185.14746  -4619475.94444  24019375.1164   24019370.6084
 -25042366.29148 -19493626.35648  20479897.6424   20479894.4764
 10  3 18  1 16 30.0000000  0  9G12G 2G30G21G31G24G14G16G29
  -5603463.15747  -4337453.42245  24018280.3194   24018275.7194
  -3618531.31346  -2798381.63842  24509648.4254   24509641.7024
 -21504985.33948 -16747140.25646  21236494.3654   21236491.0134
 -12368631.54047  -9623436.98245  23046012.7224   23046008.2374
 -22784332.44448 -17736402.95447  20934926.8884   20934922.6544
 -13424282.24048 -10433193.31746  22281542.6334   22281539.7784
  -4150931.17646  -3206866.43043  24483028.7214   24483025.7704
  -6024050.62846  -4684825.67644  24003416.4454   24003410.6004
 -25007990.76748 -19466840.23048  20486439.2034   20486435.8764
 10  3 18  1 17  0.0000000  0  9G12G 2G30G21G31G24G14G16G29
  -5523060.27147  -4274801.83344  24033580.6344   24033576.5404
  -3537576.14446  -2735299.69642  24525054.0644   24525047.5084
 -21443717.36848 -16699398.99046  21248153.2524   21248149.7874
 -12457468.20847  -9692660.34145  23029108.0404   23029103.3994
 -22809384.37748 -17755923.95347  20930159.7014   20930155.2754
 -13517037.53448 -10505470.15446  22263891.9374   22263889.0594
  -4054822.05946  -3131976.28043  24501318.6884   24501314.5524
  -6107878.80746  -4750146.29744  23987463.8264   23987458.7374
 -24973248.33948 -19439768.20948  20493050.5444   20493047.1614
 10  3 18  1 17 30.0000000  0  9G12G 2G30G21G31G24G14G16G29
  -5442541.13747  -4212059.66244  24048902.1974   24048898.2744
  -3456285.86246  -2671956.57843  24540523.3234   24540517.2394
 -21382168.32548 -16651438.69746  21259865.5424   21259862.3984
 -12546109.25447  -9761731.26945  23012240.5004   23012235.9404
 -22833909.65848 -17775034.55947  20925492.7384   20925487.8014
 -13609494.65248 -10577514.66246  22246298.3104   22246295.2014
  -3958700.95746  -3057076.79743  24519609.1614   24519605.7104
  -6191668.51046  -4815436.96643  23971519.3194   23971514.1704
 -24938139.93048 -19412411.00448  20499731.4324   20499727.8994
 10  3 18  1 18  0.0000000  0  9G12G 2G30G21G31G24G14G16G29
  -5361906.09047  -4149227.16244  24064246.1144   24064242.8944
  -3374662.97846  -2608354.32642  24556055.2794   24556049.5784
 -21320339.01148 -16603260.02447  21271631.6354   21271628.1974
 -12634552.96447  -9830648.43345  22995409.8224   22995405.2394
 -22857907.32548 -17793734.03947  20920926.1404   20920921.9074
 -13701650.85148 -10649324.67046  22228761.1514   22228758.0074
  -3862571.33346  -2982170.70743  24537901.1914   24537897.7434
  -6275419.29446  -4880697.27743  23955579.7864   23955575.3124
 -24902667.50848 -19384770.15648  20506481.6664   20506478.1884
 10  3 18  1 18 30.0000000  0  9G12G 2G30G21G31G24G14G16G29
  -5281155.36747  -4086304.53644  24079613.1094   24079608.9864
  -3292709.79546  -2544494.67742  24571651.1664   24571644.8044
 -21258229.73248 -16554863.18846  21283450.4174   21283447.0764
 -12722796.81247  -9899409.86045  22978617.6004   22978613.2034
 -22881376.01948 -17812021.33847  20916459.8484   20916455.5614
 -13793503.06948 -10720897.81446  22211282.1874   22211279.8184
  -3766435.90046  -2907260.03543  24556196.1944   24556192.7174
  -6359130.63846  -4945926.90844  23939652.1754   23939646.9894
 -24866832.64848 -19356846.88448  20513300.9264   20513297.5704
 10  3 18  1 19  0.0000000  0  9G12G 2G30G21G31G24G14G16G29
  -5200289.33747  -4023292.03744  24095000.5324   24094997.2614
  -3210429.04345  -2480379.83042  24587307.6134   24587301.6684
 -21195840.78248 -16506248.43246  21295322.5694   21295319.4134
 -12810838.85847  -9968014.03445  22961864.0164   22961859.7064
 -22904314.66148 -17829895.60247  20912094.8874   20912090.5294
 -13885048.56348 -10792231.95746  22193861.7584   22193858.8454
  -3670298.13646  -2832347.57643  24574489.8064   24574486.2254
  -6442802.11346  -5011125.42844  23923730.1024   23923725.7544
 -24830637.01448 -19328642.50048  20520188.7664   20520185.1134
 10  3 18  1 19 30.0000000  0  9G12G 2G30G21G31G24G14G16G29
  -5119308.36747  -3960189.98544  24110411.4914   24110407.5834
  -3127822.99146  -2416011.49242  24603026.5304   24603021.8464
 -21133172.78048 -16457416.22846  21307247.8384   21307244.7554
 -12898676.47247 -10036458.92045  22945149.2864   22945144.4554
 -22926721.68048 -17847355.61947  20907831.1404   20907826.7604
 -13976284.53948 -10863324.91346  22176500.0804   22176497.7254
  -3574160.87046  -2757435.48843  24592783.7284   24592779.7684
  -6526432.97246  -5076292.30444  23907815.5974   23907811.3744
 -24794082.64348 -19300158.56748  20527144.9444   20527141.3164
 10  3 18  1 20  0.0000000  0  9G12G 2G30G21G31G24G14G16G29
  -5038212.56147  -3896998.44744  24125843.3654   24125839.6904
  -3044893.66645  -2351391.19342  24618807.9064   24618802.0034
 -21070225.88048 -16408366.70746  21319225.9854   21319223.1954
 -12986307.10247 -10104742.51245  22928473.9754   22928469.5714
 -22948595.98248 -17864400.53047  20903668.4554   20903664.4084
 -14067207.71847 -10934174.12746  22159198.0104   22159195.3534
  -3478027.20046  -2682526.25843  24611077.1364   24611073.9284
  -6610022.55846  -5141427.03844  23891908.5374   23891903.7374
 -24757170.66748 -19271395.99748  20534169.0274   20534165.0994
 10  3 18  1 20 30.0000000  0  9G12G 2G30G21G31G24G14G16G29
  -4957002.89147  -3833718.19144  24141297.1834   24141292.7364
  -2961644.29145  -2286521.55842  24634650.5164   24634643.7244
 -21007001.02348 -16359100.59646  21331257.8344   21331254.3444
 -13073728.74347 -10172863.27745  22911837.6554   22911833.1944
 -22969937.01848 -17881029.90847  20899607.5284   20899603.2994
 -14157815.93748 -11004777.93546  22141955.9404   22141953.3394
  -3381900.61646  -2607622.50543  24629370.8514   24629368.7854
  -6693570.94046  -5206529.67144  23876009.8394   23876005.1464
 -24719903.49648 -19242356.64248  20541260.4654   20541256.6784
 10  3 18  1 21  0.0000000  0  9G12G 2G30G21G31G24G14G16G29
  -4875679.23047  -3770349.12944  24156772.1934   24156768.3934
  -2878077.30646  -2221404.42442  24650552.6564   24650545.6034
 -20943498.84748 -16309618.38846  21343341.7404   21343338.0064
 -13160939.49847 -10240819.70145  22895241.8064   22895237.5184
 -22990743.64648 -17897242.86347  20895648.1244   20895643.4304
 -14248106.43748 -11075134.15246  22124773.9734   22124771.1564
  -3285784.31446  -2532726.79043  24647662.6784   24647658.0974
  -6777077.34546  -5271599.58044  23860119.6984   23860114.7574
 -24682282.63848 -19213041.69048  20548419.4304   20548415.6484
 10  3 18  1 21 30.0000000  0  9G12G 2G30G21G31G24G14G16G29
  -4794241.07547  -3706890.85244  24172269.3164   24172265.1384
  -2794194.35346  -2156041.07442  24666514.4024   24666508.0264
 -20879718.77848 -16259919.64046  21355478.6484   21355475.4604
 -13247936.03447 -10308609.20045  22878687.1894   22878682.5364
 -23011013.70848 -17913037.71747  20891790.7954   20891786.1304
 -14338075.60947 -11145239.99546  22107653.5084   22107650.8544
  -3189680.33846  -2457840.66843  24665949.8874   24665946.2834
  -6860540.64046  -5336635.89544  23844237.9484   23844232.6664
 -24644309.30448 -19183452.08148  20555645.6534   20555641.7104
 10  3 18  1 22  0.0000000  0  9G12G 2G30G21G31G24G14G16G29
  -4712689.33647  -3643344.04244  24187788.5684   24187785.1024
  -2709998.26145  -2090433.73542  24682536.8714   24682531.0524
 -20815662.01048 -16210005.28546  21367668.2854   21367664.9874
 -13334716.61847 -10376230.42345  22862173.0544   22862168.4344
 -23030746.59648 -17928414.00447  20888035.9644   20888031.4794
 -14427720.74548 -11215093.33346  22090594.4374   22090592.0424
  -3093592.29745  -2382966.95543  24684234.3714   24684231.1424
  -6943960.44046  -5401638.31344  23828363.3254   23828358.5624
 -24605985.52648 -19153589.40148  20562938.4304   20562934.7144
 10  3 18  1 22 30.0000000  0  9G12G 2G30G21G31G24G14G16G29
  -4631024.27647  -3579708.96044  24203328.9964   24203324.2674
  -2625491.08245  -2024583.96742  24698617.1674   24698612.3654
 -20751328.68948 -16159875.42846  21379910.5994   21379907.5324
 -13421278.47947 -10443681.20245  22845700.8304   22845696.1734
 -23049941.04348 -17943370.71448  20884383.3104   20884378.7064
 -14517038.86348 -11284691.87146  22073597.8404   22073595.0284
  -2997522.98145  -2308107.93443  24702516.9444   24702512.6194
  -7027336.23146  -5466606.42844  23812496.9384   23812492.1214
 -24567312.77548 -19123454.78848  20570297.4474   20570293.9984
 10  3 18  1 23  0.0000000  0  9G12G 2G30G21G31G24G14G16G29
  -4549246.61447  -3515986.14144  24218890.0384   24218887.0604
  -2540675.24446  -1958493.73342  24714758.7824   24714752.0674
 -20686719.42448 -16109530.56246  21392205.2904   21392201.7874
 -13507619.61847 -10510960.01145  22829271.1804   22829266.1494
 -23068596.18348 -17957907.18948  20880833.2024   20880828.5864
 -14606027.32348 -11354033.51346  22056664.4644   22056661.7764
  -2901475.70146  -2233266.08243  24720793.0984   24720790.0334
  -7110667.36646  -5531539.77144  23796639.9364   23796634.5574
 -24528293.35848 -19093050.04248  20577722.7124   20577719.0394
 10  3 18  1 23 30.0000000  0  9G12G 2G30G21G31G24G14G16G29
  -4467356.09447  -3452175.35744  24234474.0784   24234470.0244
  -2455553.84546  -1892165.35042  24730956.0354   24730949.6834
 -20621834.80948 -16058971.12446  21404552.2254   21404549.0224
 -13593737.60247 -10578064.92145  22812883.5164   22812878.4444
 -23086710.77848 -17972022.45747  20877386.2004   20877381.6414
 -14694683.39748 -11423116.16246  22039793.3214   22039790.5264
  -2805453.42846  -2158443.73343  24739065.9364   24739062.9774
  -7193953.34946  -5596437.90644  23780791.0414   23780785.9364
 -24488928.72648 -19062376.30248  20585213.5954   20585209.6954
 10  3 18  1 24  0.0000000  0  9G12G 2G30G21G31G24G14G16G29
  -4385351.98847  -3388276.05044  24250078.9334   24250074.6844
  -2370128.44346  -1825600.07842  24747212.3174   24747205.7874
 -20556674.61648 -16008196.96546  21416951.9274   21416948.7674
 -13679629.25447 -10644993.47645  22796538.5904   22796533.7434
 -23104283.38648 -17985715.40348  20874042.1374   20874037.8094
 -14783003.59048 -11491937.07546  22022986.3204   22022983.8264
  -2709458.45745  -2083642.82243  24757331.9934   24757328.7774
  -7277193.09446  -5661300.01944  23764950.4454   23764945.7294
 -24449219.28448 -19031433.88148  20592769.9514   20592766.0494
 10  3 18  1 24 30.0000000  0  9G12G 2G30G21G31G24G14G16G29
  -4303235.02547  -3324288.81744  24265704.9694   24265701.5804
  -2284401.17245  -1758799.66142  24763525.0864   24763518.5444
 -20491239.04648 -15957208.22446  21429403.8824   21429400.7774
 -13765292.26447 -10711743.86345  22780237.1344   22780232.3344
 -23121312.35648 -17998984.73147  20870801.5414   20870797.0344
 -14870984.66347 -11560493.74546  22006243.9604   22006241.6664
  -2613493.42145  -2008865.28242  24775595.4994   24775592.8034
  -7360385.43146  -5726125.19744  23749119.6574   23749115.0234
 -24409166.91048 -19000224.23248  20600391.5224   20600387.7614
 10  3 18  1 25  0.0000000  0  9G12G 2G30G21G31G24G14G16G29
  -4221005.50447  -3260213.86244  24281352.8424   24281348.5864
  -2198374.56745  -1691765.94442  24779896.0454   24779889.5284
 -20425528.80648 -15906005.44546  21441908.1234   21441904.6584
 -13850724.52947 -10778314.44745  22763980.7224   22763975.1694
 -23137796.97348 -18011829.89047  20867664.9034   20867660.0454
 -14958623.84848 -11628784.01846  21989567.1424   21989564.1774
  -2517561.86945  -1934113.92942  24793850.2874   24793847.7194
  -7443529.93246  -5790913.11044  23733297.6584   23733293.2924
 -24368773.64248 -18968748.95748  20608078.2894   20608074.5264
 10  3 18  1 25 30.0000000  0  9G12G 2G30G21G31G24G14G16G29
  -4138664.72747  -3196052.21744  24297021.6314   24297017.6644
  -2112052.35046  -1624501.87542  24796322.5794   24796314.9494
 -20359545.28748 -15854589.72346  21454464.3124   21454461.0114
 -13935924.55447 -10844704.06845  22747766.8654   22747761.8814
 -23153737.58548 -18024251.15647  20864631.5494   20864626.6444
 -15045919.30148 -11696806.44646  21972955.4454   21972952.6434
  -2421667.69445  -1859391.57042  24812098.7974   24812096.6794
  -7526627.01446  -5855664.07644  23717484.6324   23717479.8644
 -24328042.16348 -18937010.14448  20615829.0864   20615825.6164
 10  3 18  1 26  0.0000000  0  9G12G 2G30G21G31G24G14G16G29
  -4056212.35347  -3131803.61544  24312712.0464   24312708.3454
  -2025435.97945  -1557008.52842  24812803.6044   24812797.2854
 -20293288.21548 -15802960.84846  21467073.0024   21467069.3864
 -14020889.30347 -10910910.34945  22731599.1684   22731593.4124
 -23169132.34748 -18036247.07648  20861701.8994   20861697.4174
 -15132867.50548 -11764558.28446  21956409.6944   21956406.6554
  -2325812.66446  -1784699.74243  24830340.8964   24830337.5994
  -7609675.15546  -5920376.88544  23701680.2394   23701676.8924
 -24286973.60348 -18905008.68348  20623644.2404   20623640.8504
 10  3 18  1 26 30.0000000  0  9G12G 2G30G21G31G24G14G16G29
  -3973648.51547  -3067468.15544  24328422.7054   24328419.5604
  -1938528.03445  -1489288.11642  24829340.2654   24829333.5714
 -20226758.09748 -15751119.20546  21479733.0764   21479729.1414
 -14105616.71647 -10976931.70945  22715475.9164   22715470.8824
 -23183980.15848 -18047816.80248  20858876.3824   20858871.7164
 -15219465.53047 -11832037.25646  21939930.4874   21939927.8874
  -2229999.93546  -1710040.89243  24848573.4094   24848570.6544
  -7692674.06946  -5985051.33244  23685886.9194   23685882.8184
 -24245569.64248 -18872745.85348  20631523.0674   20631519.3704
 10  3 18  1 27  0.0000000  0  9G12G 2G30G21G31G24G14G16G29
  -3890974.03347  -3003046.48344  24344155.6554   24344151.7674
  -1851331.44345  -1421342.69142  24845935.6294   24845928.7984
 -20159956.00748 -15699065.63746  21492444.9944   21492441.7054
 -14190104.85047 -11042766.60045  22699397.9354   22699393.2714
 -23198280.41548 -18058959.86448  20856155.1234   20856151.0834
 -15305711.21448 -11899241.68246  21923518.7184   21923516.2354
  -2134232.84746  -1635417.61043  24866797.2574   24866794.9384
  -7775623.37146  -6049687.14544  23670102.5184   23670098.0784
 -24203832.31148 -18840223.25648  20639465.5084   20639461.7624
 10  3 18  1 27 30.0000000  0  9G12G 2G30G21G31G24G14G16G29
  -3808188.91347  -2938538.61344  24359909.3604   24359905.9634
  -1763848.16546  -1353173.86242  24862584.0454   24862576.6844
 -20092882.29448 -15646800.41346  21505208.3974   21505205.7084
 -14274351.17347 -11108413.08246  22683366.3854   22683361.7514
 -23212032.02848 -18069675.40448  20853538.4394   20853533.9384
 -15391601.55148 -11966169.20646  21907174.1704   21907171.4094
  -2038514.62446  -1560832.40043  24885011.9454   24885009.9924
  -7858522.19846  -6114283.60444  23654327.9474   23654322.5424
 -24161763.24048 -18807442.16948  20647470.8834   20647467.4044
 10  3 18  1 28  0.0000000  0  9G12G 2G30G21G31G24G14G16G29
  -3725293.67847  -2873944.92244  24375684.0974   24375680.4764
  -1676080.80146  -1284783.69742  24879285.3764   24879276.8764
 -20025537.06548 -15594323.63146  21518023.7954   21518021.1794
 -14358353.03547 -11173869.06845  22667381.2234   22667376.7524
 -23225234.07048 -18079962.71947  20851026.0584   20851021.3524
 -15477133.47148 -12032817.44646  21890897.9354   21890895.4424
  -1942847.33245  -1486286.88843  24903216.7514   24903216.2854
  -7941369.36046  -6178839.84044  23638562.3024   23638557.1914
 -24119363.69248 -18774403.55948  20655539.4184   20655535.9494
 10  3 18  1 28 30.0000000  0  9G12G 2G30G21G31G24G14G16G29
  -3642288.33347  -2809265.45244  24391479.4554   24391475.4754
  -1588032.00846  -1216174.28042  24896039.7554   24896032.3644
 -19957921.07547 -15541635.85046  21530890.7404   21530887.6014
 -14442108.57747 -11239133.11546  22651443.4834   22651439.0094
 -23237885.81248 -18089821.22748  20848618.5854   20848613.9274
 -15562304.68048 -12099184.60946  21874690.5344   21874687.7044
  -1847234.39646  -1411783.70943  24921411.9064   24921410.5924
  -8024164.77946  -6243355.71744  23622806.8594   23622801.5934
 -24076635.81648 -18741109.11448  20663670.3114   20663666.6004
 10  3 18  1 29  0.0000000  0  9G12G 2G30G21G31G24G14G16G29
  -3559173.01047  -2744500.25844  24407295.9674   24407291.4144
  -1499703.67446  -1147347.06642  24912847.3834   24912840.7684
 -19890034.29448 -15488737.07046  21543809.5654   21543805.9644
 -14525614.97247 -11304203.02545  22635552.6874   22635548.2424
 -23249985.94448 -18099249.89648  20846316.0644   20846311.4774
 -15647111.78348 -12165268.06246  21858552.1634   21858549.3684
  -1751678.40645  -1337324.86643  24939595.2044   24939594.7894
  -8106907.21246  -6307830.32544  23607061.3204   23607056.5864
 -24033580.76648 -18707559.71748  20671862.9474   20671859.6424
 10  3 18  1 29 30.0000000  0  9G12G 2G30G21G31G24G14G16G29
  -3475947.62847  -2679649.32644  24423132.7444   24423128.9884
  -1411098.21646  -1078303.82942  24929708.5404   24929700.7934
 -19821877.19748 -15435627.65646  21556779.1714   21556775.4714
 -14608870.02047 -11369077.08746  22619709.5644   22619704.9484
 -23261533.51848 -18108248.01148  20844118.5184   20844113.7814
 -15731551.86248 -12231065.51146  21842483.8034   21842481.2224
  -1656181.72845  -1262912.19442  24957768.7454   24957767.5794
  -8189596.19146  -6372263.27244  23591325.9694   23591321.9774
 -23990199.99948 -18673756.51448  20680118.3794   20680114.6914
 10  3 18  1 30  0.0000000  0  9G12G 2G30G21G31G24G14G16G29
  -3392612.86747  -2614713.17144  24438990.4584   24438987.0444
  -1322218.51946  -1009046.91942  24946622.7774   24946614.9594
 -19753450.34947 -15382308.03146  21569800.5444   21569797.0884
 -14691871.60347 -11433753.64546  22603915.3314   22603911.0334
 -23272528.13248 -18116815.25148  20842026.2184   20842022.1024
 -15815622.57847 -12296575.15546  21826485.6444   21826483.1364
  -1560748.03445  -1188548.53642  24975928.6144   24975927.7344
  -8272230.51747  -6436653.63644  23575601.5804   23575596.6694
 -23946496.03248 -18639701.48048  20688434.9884   20688431.3964
 10  3 18  1 30 30.0000000  0  9G12G 2G30G21G31G24G14G16G29
  -3309169.07747  -2549692.05444  24454869.7574   24454865.9314
  -1233066.76846   -939578.02642  24963587.6974   24963580.7034
 -19684754.38047 -15328778.71746  21582872.4934   21582869.3934
 -14774617.39747 -11498230.87246  22588169.1064   22588164.8474
 -23282968.68448 -18124950.74848  20840039.6624   20840035.2994
 -15899320.75147 -12361794.50846  21810558.3964   21810555.4634
  -1465379.76345  -1114235.83642  24994078.3964   24994075.9754
  -8354809.90847  -6501001.19544  23559886.5584   23559881.7714
 -23902470.18348 -18605395.62648  20696812.6844   20696809.2594
 10  3 18  1 31  0.0000000  0  9G12G 2G30G21G31G24G14G16G29
  -3225616.64247  -2484586.28144  24470769.4084   24470765.2164
  -1143645.53346   -869899.14842  24980603.5504   24980596.5554
 -19615789.68747 -15275040.00246  21595996.0844   21595993.5704
 -14857104.99848 -11562506.91546  22572472.3544   22572467.4674
 -23292854.45648 -18132653.94748  20838158.2674   20838153.8624
 -15982643.74748 -12426721.51346  21794702.5354   21794699.7534
  -1370080.01045  -1039976.53342  25012212.0994   25012210.9084
  -8437333.49247  -6565305.27244  23544183.4554   23544178.1144
 -23858124.08748 -18570840.22747  20705251.5954   20705248.2914
 10  3 18  1 31 30.0000000  0  9G12G 2G30G21G31G24G14G16G29
  -3141955.64447  -2419395.90544  24486689.1874   24486685.1004
  -1053957.22746   -800012.08542  24997670.6294   24997663.0844
 -19546556.66047 -15221092.20846  21609171.1654   21609168.0454
 -14939331.94548 -11626579.85846  22556824.9514   22556820.4334
 -23302184.46549 -18139924.09448  20836382.8174   20836378.7464
 -16065589.08348 -12491354.23646  21778918.6654   21778916.1514
  -1274851.57545   -965772.73342  25030334.0584   25030333.1754
  -8519800.78647  -6629565.50244  23528489.9024   23528485.8264
 -23813459.84348 -18536036.92147  20713750.7564   20713747.5154
 10  3 18  1 32  0.0000000  0  9G12G 2G30G21G31G24G14G16G29
  -3058186.19146  -2354121.03044  24502630.1744   24502626.6094
   -964003.94145   -729918.72542  25014788.4344   25014780.2764
 -19477055.80947 -15166935.71246  21622396.4244   21622393.1274
 -15021295.72047 -11690447.72446  22541227.7774   22541223.1994
 -23310957.50248 -18146760.22748  20834713.3384   20834709.0504
 -16148153.49648 -12555690.13646  21763207.2114   21763204.5724
  -1179696.80645   -891626.37842  25048441.9734   25048439.5284
  -8602210.42647  -6693780.80744  23512808.2154   23512803.5244
 -23768478.27748 -18500986.36247  20722310.6294   20722306.9494
 10  3 18  1 32 30.0000000  0  9G12G 2G30G21G31G24G14G16G29
  -2974309.28846  -2288762.43444  24518591.0424   24518587.5714
   -873788.91845   -659621.28342  25031954.5294   25031948.6774
 -19407288.06648 -15112571.25046  21635673.0004   21635669.6624
 -15102994.92747 -11754109.43346  22525680.8214   22525676.5154
 -23319174.02748 -18153162.72648  20833150.2824   20833145.6444
 -16230335.07648 -12619727.72246  21747568.4414   21747565.5074
  -1084619.27146   -817539.99443  25066534.2514   25066533.0004
  -8684562.51346  -6757951.25244  23497136.6244   23497132.2044
 -23723181.71448 -18465690.33648  20730930.4904   20730926.7724
 10  3 18  1 33  0.0000000  0  9G12G 2G30G21G31G24G14G16G29
  -2890324.42246  -2223319.69244  24534572.9844   24534569.4884
   -783313.58645   -589121.08542  25049172.7194   25049165.6264
 -19337253.06847 -15057998.54046  21649000.5164   21648997.3494
 -15184426.43447 -11817562.54746  22510184.7734   22510180.8894
 -23326832.19248 -18159130.12748  20831693.0574   20831688.4624
 -16312130.01148 -12683464.02946  21732003.2544   21732000.6134
   -989621.26446   -743515.64343  25084612.0894   25084611.2214
  -8766855.27146  -6822075.45244  23481477.3514   23481472.8734
 -23677571.32648 -18430149.77948  20739609.6804   20739606.6944
 10  3 18  1 33 30.0000000  0  9G12G 2G30G21G31G24G14G16G29
  -2806232.75846  -2157793.70744  24550575.1684   24550571.5394
   -692581.63745   -518420.77342  25066439.0074   25066431.2994
 -19266952.46947 -15003218.86146  21662378.1954   21662375.0804
 -15265589.05847 -11880806.12846  22494740.3644   22494735.7164
 -23333932.74148 -18164663.02448  20830341.4924   20830337.0544
 -16393536.90748 -12746897.96246  21716512.0864   21716509.5884
   -894706.55346   -669556.14243  25102674.2754   25102673.1944
  -8849089.16946  -6886153.81244  23465828.9554   23465824.3514
 -23631650.09548 -18394367.00248  20748348.2714   20748344.6054
 10  3 18  1 34  0.0000000  0  8G12G 2G30G21G31G24G16G29
  -2722024.76846  -2092177.09244  24566599.8794   24566595.7264
   -601585.60345   -447514.78142  25083754.2484   25083747.1614
 -19196376.82448 -14948224.86546  21675808.1014   21675805.0324
 -15346470.65647 -11943830.75246  22479348.6174   22479344.5624
 -23340464.63948 -18169752.81548  20829098.5854   20829094.2724
 -16474542.89148 -12810019.50246  21701097.3044   21701094.7224
  -8931253.32647  -6950177.81044  23450193.3484   23450188.4084
 -23585409.50248 -18358335.37648  20757147.6834   20757144.1434
 10  3 18  1 34 30.0000000  0  8G12G 2G30G21G31G24G16G29
  -2637719.18146  -2026484.43544  24582642.6934   24582638.7664
   -510346.62145   -376419.45042  25101115.4134   25101109.1184
 -19125545.20347 -14893031.39746  21689286.7914   21689284.2584
 -15427087.09547 -12006648.75646  22464008.5594   22464003.5924
 -23346445.65648 -18174413.35148  20827960.3434   20827955.9274
 -16555163.76648 -12872840.94446  21685755.4264   21685753.0434
  -9013365.49547  -7014161.31844  23434567.7254   23434563.4814
 -23538869.74248 -18322070.63148  20766003.7394   20766000.1004
 10  3 18  1 35  0.0000000  0  7G12G30G21G31G24G16G29
  -2553306.61546  -1960708.42944  24598705.7644   24598701.5434
 -19054448.32347 -14837631.23746  21702816.1864   21702813.3994
 -15507426.61447 -12069250.97046  22448719.9944   22448715.3134
 -23351865.25148 -18178636.41748  20826929.1334   20826924.5094
 -16635386.95348 -12935352.52446  21670489.5534   21670486.6004
  -9095415.11847  -7078096.07845  23418954.0484   23418950.1604
 -23492022.47648 -18285566.26848  20774918.3684   20774914.8604
 10  3 18  1 35 30.0000000  0  7G12G30G21G31G24G16G29
  -2468788.83846  -1894850.43644  24614788.5144   24614785.6284
 -18983088.14747 -14782025.91946  21716395.5824   21716392.7364
 -15587488.84447 -12131637.12046  22433485.2024   22433479.9564
 -23356724.72948 -18182423.02448  20826004.5394   20826000.1354
 -16715211.33548 -12997553.33846  21655299.4044   21655296.9574
  -9177403.01947  -7141982.73045  23403353.1184   23403347.2644
 -23444871.25348 -18248825.05548  20783890.9954   20783887.6844
 10  3 18  1 36  0.0000000  0  7G12G30G21G31G24G16G29
  -2384165.07346  -1828909.84644  24630892.6604   24630888.4574
 -18911464.03347 -14726214.92546  21730025.1714   21730022.0654
 -15667269.56048 -12193803.89946  22418302.9744   22418298.0694
 -23361022.13148 -18185771.65648  20825186.7194   20825182.1654
 -16794633.01248 -13059440.34746  21640185.7594   21640183.4064
  -9259326.94347  -7205819.53944  23387762.7114   23387757.0674
 -23397416.21248 -18211847.10948  20792921.3854   20792917.9564
 10  3 18  1 36 30.0000000  0  7G12G30G21G31G24G16G29
  -2299436.43746  -1762887.54443  24647015.4574   24647012.1764
 -18839577.34647 -14670199.31846  21743704.8534   21743701.9884
 -15746767.96048 -12255750.69746  22403174.9524   22403170.0364
 -23364757.58848 -18188682.40248  20824475.7184   20824471.0734
 -16873650.37048 -13121012.31446  21625149.4734   21625146.5374
  -9341186.99347  -7269606.57844  23372185.6644   23372179.7424
 -23349660.21848 -18174634.65048  20802009.1724   20802005.7294
 10  3 18  1 37  0.0000000  0  7G12G30G21G31G24G16G29
  -2214602.18646  -1696782.96643  24663158.6794   24663155.7604
 -18767427.54847 -14613978.69646  21757434.6954   21757431.4254
 -15825980.60847 -12317474.82546  22388101.3384   22388096.3974
 -23367929.81148 -18191154.26648  20823872.2324   20823867.5974
 -16952259.81548 -13182266.41846  21610190.4574   21610187.4504
  -9422981.38447  -7333342.44944  23356619.8104   23356615.1674
 -23301604.24148 -18137188.43547  20811153.8354   20811150.4344
 10  3 18  1 37 30.0000000  0  7G12G30G21G31G24G16G29
  -2129663.55546  -1630597.03343  24679321.9724   24679317.7294
 -18695015.76147 -14557553.93546  21771214.0154   21771210.9434
 -15904906.37748 -12378975.41446  22373082.3824   22373077.6034
 -23370538.79548 -18193187.25348  20823375.7684   20823371.1634
 -17030459.29248 -13243201.06746  21595309.7494   21595307.0334
  -9504710.15047  -7397027.18044  23341067.2234   23341062.6334
 -23253250.01148 -18099509.81847  20820355.4824   20820352.0124
 10  3 18  1 38  0.0000000  0  7G12G30G21G31G24G16G29
  -2044619.75246  -1564329.13343  24695506.0114   24695501.1184
 -18622341.91247 -14500924.96546  21785043.0944   21785040.1694
 -15983541.88147 -12440249.83446  22358118.3324   22358113.7224
 -23372583.27748 -18194780.35748  20822986.6674   20822982.0034
 -17108245.32548 -13303813.55546  21580507.5884   21580505.0884
  -9586371.79447  -7460659.63244  23325528.0344   23325523.0794
 -23204598.71548 -18061599.72447  20829613.5804   20829609.7934
 10  3 18  1 38 30.0000000  0  7G12G30G21G31G24G16G29
  -1959473.23846  -1497981.20442  24711708.0764   24711704.5514
 -18549408.21247 -14444093.50546  21798922.2084   21798919.0994
 -16061886.95948 -12501297.93646  22343209.9354   22343205.4634
 -23374064.63048 -18195934.66748  20822704.9104   20822700.3174
 -17185617.34248 -13364103.42446  21565784.0094   21565781.6954
  -9667967.03947  -7524240.33244  23310001.2174   23309996.0024
 -23155653.93048 -18023460.93347  20838927.4014   20838923.8284
 10  3 18  1 39  0.0000000  0  7G12G30G21G31G24G16G29
  -1874222.62345  -1431552.13242  24727930.6844   24727927.0454
 -18476213.89547 -14387058.98546  21812850.5444   21812847.1684
 -16139937.26048 -12562116.35746  22328357.6564   22328352.3544
 -23374980.70048 -18196648.48648  20822530.3224   20822526.2594
 -17262571.00948 -13424067.31146  21551140.5104   21551137.8024
  -9749493.41347  -7587767.36145  23294486.9814   23294482.2994
 -23106415.84948 -17985093.58847  20848297.0254   20848292.9104
 10  3 18  1 39 30.0000000  0  7G12G30G21G31G24G16G29
  -1788868.82845  -1365042.65442  24744173.1624   24744168.8594
 -18402760.05948 -14329822.24546  21826828.3884   21826825.1774
 -16217691.66948 -12622704.21146  22313561.0394   22313556.5534
 -23375331.84248 -18196922.10748  20822463.7144   20822459.0934
 -17339104.26348 -13483703.60846  21536576.7664   21536574.0864
  -9830950.58147  -7651240.47645  23278986.3374   23278981.5464
 -23056886.46548 -17946499.26847  20857722.4094   20857718.5694
 10  3 18  1 40  0.0000000  0  7G12G30G21G31G24G16G29
  -1703411.63245  -1298452.62642  24760434.7844   24760430.1104
 -18329046.69047 -14272383.26646  21840855.7774   21840852.0624
 -16295147.64448 -12683059.52046  22298821.8784   22298817.5334
 -23375116.73148 -18196754.49348  20822504.6374   20822500.0824
 -17415213.84748 -13543009.77546  21522093.3874   21522091.1084
  -9912337.46047  -7714658.80845  23263498.8034   23263494.5744
 -23007066.85948 -17907678.80147  20867202.6734   20867198.8854
 10  3 18  1 40 30.0000000  0  8G12G 5G30G21G31G24G16G29
  -1617852.38645  -1231783.07242  24776716.1114   24776711.8784
    281867.18345                  25158462.8324
 -18255075.21647 -14214743.15546  21854932.0534   21854928.2984
 -16372303.75848 -12743181.15546  22284139.5764   22284135.0464
 -23374336.15848 -18196146.26748  20822653.3824   20822648.8254
 -17490898.49848 -13601984.83046  21507691.2024   21507688.8354
  -9993653.70447  -7778022.10545  23248025.0574   23248020.5604
 -22956959.89948 -17868634.40947  20876737.5604   20876733.7294
 10  3 18  1 41  0.0000000  0  8G12G 5G30G21G31G24G16G29
  -1532192.41445  -1165035.07042  24793017.8074   24793012.8574
    245811.35644                  25151601.6214
 -18180847.29047 -14156903.21446  21869056.8544   21869053.8084
 -16449159.27248 -12803068.57246  22269514.4804   22269509.4814
 -23372991.04448 -18195098.12448  20822908.9634   20822904.5104
 -17566156.64448 -13660627.52746  21493369.8844   21493367.8784
 -10074899.77247  -7841330.71645  23232564.6924   23232559.9924
 -22906568.41348 -17829368.32047  20886326.7404   20886323.2154
 10  3 18  1 41 30.0000000  0  8G12G 5G30G21G31G24G16G29
  -1446430.36946  -1098207.50043  24809337.1954   24809332.8234
    210172.60244                  25144820.7874
 -18106361.56147 -14098862.38446  21883231.0634   21883227.8824
 -16525709.32948 -12862717.96546  22254947.0274   22254942.8044
 -23371078.89748 -18193608.13848  20823272.7414   20823268.5634
 -17640983.78048 -13718934.38446  21479130.9764   21479128.2144
 -10156072.90447  -7904582.49345  23217117.8424   23217113.4714
 -22855892.01848 -17789880.21447  20895970.0784   20895966.6184
 10  3 18  1 42  0.0000000  0  8G12G 5G30G21G31G24G16G29
  -1360566.81246  -1031300.83442  24825676.5674   24825672.1664
    174953.27745                  25138118.7054
 -18031618.82847 -14040621.30746  21897454.5384   21897451.1514
 -16601952.50148 -12922128.21646  22240438.5884   22240434.1284
 -23368599.69649 -18191676.30348  20823744.8204   20823740.3944
 -17715377.53348 -13776903.53646  21464974.1334   21464971.3944
 -10237172.54347  -7967777.00345  23201684.9584   23201680.2594
 -22804932.68248 -17750171.64147  20905667.2534   20905663.8714
 10  3 18  1 42 30.0000000  0  8G12G 5G30G21G31G24G16G29
  -1274601.83646   -964315.17443  24842035.5574   24842031.4104
    140155.48045                  25131496.4714
 -17956619.02847 -13982179.91546  21911726.5634   21911723.4234
 -16677886.48448 -12981297.54346  22225989.2784   22225984.3374
 -23365552.36249 -18189301.75148  20824324.6834   20824320.2554
 -17789334.96648 -13834532.69846  21450900.6064   21450897.4984
 -10318197.16547  -8030913.05345  23186266.3084   23186261.5384
 -22753691.59948 -17710243.53547  20915418.2784   20915414.5964
 10  3 18  1 43  0.0000000  0  8G12G 5G30G21G31G24G16G29
  -1188536.02146   -897250.87743  24858414.0404   24858409.8244
    105780.28345                  25124955.9504
 -17881363.76447 -13923539.45346  21926046.6874   21926043.3864
 -16753509.60248 -13040224.64046  22211598.6524   22211593.7824
 -23361937.88548 -18186485.27948  20825012.4624   20825007.9834
 -17862854.54148 -13891820.67047  21436910.2064   21436907.4074
 -10399146.67947  -8093990.60344  23170862.0584   23170857.0244
 -22702171.40048 -17670097.92647  20925222.2624   20925218.4174
 10  3 18  1 43 30.0000000  0  8G12G 5G30G21G31G24G16G29
  -1102369.09246   -830107.79443  24874810.8624   24874806.6254
     71830.80745                  25118491.7994
 -17805852.63047 -13864699.62346  21940416.2124   21940412.4974
 -16828818.92748 -13098907.22146  22197267.5954   22197262.7234
 -23357754.71948 -18183225.67748  20825808.5884   20825803.8934
 -17935932.71148 -13948764.69646  21423003.8544   21423001.3104
 -10480019.26347  -8157008.20745  23155472.8674   23155467.8404
 -22650372.45548 -17629735.10947  20935078.9474   20935075.1974
 10  3 18  1 44  0.0000000  0  8G12G 5G30G21G31G24G16G29
  -1016101.91145   -762886.62142  24891226.0454   24891221.4944
     38308.73745                  25112113.8554
 -17730086.77847 -13805661.29546  21954833.9034   21954830.3674
 -16903813.40347 -13157344.46546  22182996.1464   22182992.0654
 -23353003.53748 -18179523.46248  20826712.5554   20826708.3814
 -18008567.79448 -14005363.45146  21409181.5644   21409179.1934
 -10560814.69947  -8219965.69445  23140097.5254   23140093.4814
 -22598297.21148 -17589157.00347  20944988.8934   20944985.6464
 10  3 18  1 44 30.0000000  0  8G12G 5G30G21G31G24G16G29
   -929734.36746   -695587.28943  24907661.2474   24907656.9434
      5216.67945                  25105816.2974
 -17654066.21147 -13746424.50246  21969300.3874   21969296.9644
 -16978489.04448 -13215533.26146  22168786.1414   22168781.3454
 -23347683.01948 -18175377.61748  20827724.9374   20827720.7264
 -18080756.35948 -14061614.27946  21395444.9644   21395442.4464
 -10641531.18047  -8282861.63945  23124737.6244   23124733.3994
 -22545946.95548 -17548364.59347  20954950.8544   20954946.9564
 10  3 18  1 45  0.0000000  0  8G12G 5G30G21G31G24G16G29
   -843269.45845   -628212.01242  24924116.2084   24924110.1574
    -27446.04645                  25099603.3614
 -17577794.04948 -13686991.64046  21983814.7174   21983811.0794
 -17052846.85948 -13273474.40946  22154635.8574   22154631.7594
 -23341795.81348 -18170790.19148  20828845.3574   20828840.6794
 -18152498.95348 -14117517.59646  21381792.5994   21381790.2414
 -10722170.44047  -8345697.41745  23109392.2844   23109387.9214
 -22493325.49848 -17507360.86347  20964964.4194   20964960.4114
 10  3 18  1 45 30.0000000  0  8G12G 5G30G21G31G24G16G29
   -756705.07245   -560759.28542  24940587.6764   24940583.0284
    -59675.29845                  25093468.6074
 -17501268.56347 -13627361.40146  21998376.4974   21998373.3904
 -17126882.73048 -13331164.69046  22140548.0694   22140543.3424
 -23335339.41248 -18165759.23048  20830073.8594   20830069.5054
 -18223790.61848 -14173069.53846  21368226.1734   21368223.8484
 -10802729.50547  -8408470.70545  23094062.2764   23094058.0664
 -22440432.27548 -17466145.36047  20975029.4364   20975025.9414
 10  3 18  1 46  0.0000000  0  8G12G 5G30G21G31G24G16G29
   -670041.68044   -493229.40442  24957075.5354   24957072.7804
    -91468.94445                  25087420.5154
 -17424490.58647 -13567534.43146  22012987.2414   22012983.4214
 -17200594.48548 -13388602.43046  22126520.5514   22126516.4154
 -23328313.49148 -18160284.49948  20831410.9684   20831406.5194
 -18294628.54348 -14228267.92147  21354745.9724   21354743.6874
 -10883206.82147  -8471180.31645  23078748.3534   23078743.7904
 -22387268.72748 -17424719.22747  20985146.0394   20985142.3984
 10  3 18  1 46 30.0000000  0  8G12G 5G30G21G31G24G16G29
   -583280.74745   -425623.48442  24973588.7584   24973584.8724
   -122826.21845                  25081452.3964
 -17347461.90148 -13507512.07946  22027645.0824   22027641.6574
 -17273981.31048 -13445786.95246  22112555.4594   22112551.5504
 -23320719.35448 -18154366.98747  20832856.1054   20832851.2464
 -18365012.09348 -14283112.24647  21341352.6414   21341350.4064
 -10963603.23747  -8533826.86145  23063449.7524   23063445.2294
 -22333838.28648 -17383085.11347  20995313.7374   20995310.1404
 10  3 18  1 47  0.0000000  0  9G12G 5G30G21G31G24G 6G16G29
   -496422.97145   -357942.12242  24990117.5604   24990113.2334
   -153745.61845                  25075569.3944
 -17270182.73048 -13447294.55846  22042350.6154   22042347.6024
 -17347041.08548 -13502716.65046  22098652.9164   22098648.3944
 -23312557.04048 -18148006.75848  20834409.3074   20834404.7094
 -18434938.84748 -14337600.61447  21328045.8804   21328043.6484
                                  24926675.9474
 -11043917.81047  -8596409.64345  23048166.6274   23048161.7994
 -22280142.59748 -17341244.32447  21005531.6094   21005528.2244
 10  3 18  1 47 30.0000000  0  9G12G 5G30G21G31G24G 6G16G29
   -409475.09245   -290190.46842  25006663.3234   25006658.3124
   -184231.53345                  25069767.7234
 -17192660.42847 -13386887.58646  22057102.8604   22057099.6164
 -17419778.14048 -13559394.86546  22084811.5254   22084806.7534
 -23303832.82248 -18141208.67847  20836069.5134   20836064.8564
 -18504412.53848 -14391735.95247  21314825.7744   21314822.9954
   -511284.17146   -369521.76343  24909365.7384   24909363.9254
 -11124155.76847  -8658932.71245  23032897.7684   23032892.6144
 -22226189.44148 -17299202.90747  21015798.7264   21015795.3464
 10  3 18  1 48  0.0000000  0  9G12G 5G30G21G31G24G 6G16G29
   -322422.20645   -222357.02642  25023228.5404   25023224.2794
   -214266.89945                  25064052.3894
 -17114880.57648 -13326279.91246  22071903.9624   22071900.6414
 -17492175.50148 -13615808.38646  22071034.6304   22071030.0104
 -23294531.50948 -18133960.90147  20837839.6324   20837834.7134
 -18573415.94648 -14445504.83547  21301694.8864   21301692.4204
   -602129.79346   -440310.56043  24892078.6004   24892076.1004
 -11204301.30547  -8721383.76945  23017646.0584   23017640.9074
 -22171965.49448 -17256950.48747  21026116.9174   21026113.4464
 10  3 18  1 48 30.0000000  0  9G12G 5G30G21G31G24G 6G16G29
   -235273.26245   -154448.68142  25039813.4664   25039808.6384
   -243858.04345                  25058420.4984
 -17036851.89348 -13265478.35046  22086752.0974   22086748.8004
 -17564239.49648 -13671962.14546  22057321.9294   22057316.9564
 -23284661.39348 -18126269.91047  20839717.5884   20839712.9554
 -18641955.37048 -14498912.17547  21288652.3674   21288649.4544
   -692867.78646   -511015.45843  24874812.0674   24874808.8754
 -11284361.44047  -8783768.27545  23002411.4984   23002406.5734
 -22117480.96248 -17214495.00847  21036485.1224   21036481.8094
 10  3 18  1 49  0.0000000  0  9G12G 5G30G21G31G24G 6G16G29
   -148029.37945    -86466.40642  25056414.9564   25056410.3454
   -273003.64445                  25052876.3814
 -16958575.86248 -13204484.04346  22101647.3514   22101644.5144
 -17635968.67848 -13727855.00546  22043672.1124   22043666.8624
 -23274223.09348 -18118136.17348  20841703.8904   20841699.3624
 -18710028.72448 -14551956.33947  21275698.5144   21275695.6734
   -783498.21445   -581636.54342  24857564.8924   24857561.3814
 -11364335.96047  -8846086.07845  22987192.4274   22987188.5834
 -22062737.83948 -17171838.03847  21046902.4754   21046898.5954
 10  3 18  1 49 30.0000000  0  9G12G 5G30G21G31G24G 6G16G29
    -60689.58845                  25073037.3244
                                  25047410.9774
 -16880052.04048 -13143296.65246  22116590.2634   22116586.9164
 -17707360.03048 -13783484.62646  22030086.5154   22030081.3164
 -23263215.48048 -18109558.81847  20843798.9344   20843794.0234
 -18777632.68248 -14604634.74547  21262833.8114   21262830.9414
   -874019.30545   -652172.53342  24840339.6494   24840335.0664
 -11444222.77547  -8908335.52745  22971991.1294   22971986.2194
 -22007736.50448 -17128979.85547  21057368.9444   21057365.5214
 10  3 18  1 50  0.0000000  0  8G12G30G21G31G24G 6G16G29
     26745.38345                  25089673.0484
 -16801281.01647 -13081916.64346  22131579.7344   22131576.6274
 -17778411.71248 -13838849.57646  22016565.8894   22016560.8944
 -23251638.96248 -18100538.15547  20846001.7074   20845997.1444
 -18844765.22048 -14656945.81147  21250059.1584   21250056.2664
   -964430.72545   -722622.96442  24823135.2084   24823129.5754
 -11524021.26747  -8970516.16845  22956805.4404   22956800.8784
 -21952478.82648 -17085921.92547  21067884.0504   21067880.2894
 10  3 18  1 50 30.0000000  0  7G30G21G31G24G 6G16G29
 -16722269.61847 -13020349.32046  22146614.7744   22146612.1144
 -17849127.60248 -13893952.86246  22003108.9364   22003104.0944
 -23239499.30248 -18091078.68947  20848311.6214   20848307.2934
 -18911430.06948 -14708892.43847  21237373.0394   21237370.1124
  -1054737.77546   -792992.04143  24805950.8704   24805946.1134
 -11603736.29147  -9032631.76245  22941636.0914   22941631.3954
 -21896972.60248 -17042670.33347  21078446.5124   21078442.8544
 10  3 18  1 51  0.0000000  0  7G30G21G31G24G 6G16G29
 -16643005.43447 -12958585.02546  22161698.4204   22161696.1864
 -17919493.13248 -13948783.14246  21989718.6414   21989714.2224
 -23226783.67748 -18081170.41247  20850731.3904   20850727.0934
 -18977611.88548 -14760462.67947  21224778.9774   21224776.6124
  -1144926.76946   -863269.16143  24788788.1964   24788784.4724
 -11683353.63747  -9094671.24845  22926485.4484   22926480.3394
 -21841206.52648 -16999216.24647  21089058.2314   21089055.0834
 10  3 18  1 51 30.0000000  0  7G30G21G31G24G 6G16G29
 -16563496.44547 -12896629.98546  22176828.7734   22176825.8884
 -17989512.68148 -14003343.83446  21976394.6354   21976389.8094
 -23213499.45848 -18070819.07948  20853259.3014   20853254.8914
 -19043315.46748 -14811660.26647  21212275.6014   21212273.6834
  -1235004.07046   -933459.22043  24771646.8824   24771643.7514
 -11762879.51447  -9156639.46245  22911352.3644   22911348.0544
 -21785189.38648 -16955566.53247  21099717.8394   21099714.6084
 10  3 18  1 52  0.0000000  0  7G30G21G31G24G 6G16G29
 -16483742.81447 -12834484.29946  22192005.5654   22192002.4464
 -18059184.81648 -14057633.79746  21963136.3074   21963131.8354
 -23199646.58448 -18060024.64647  20855895.3184   20855891.0184
 -19108538.60848 -14862483.49147  21199864.1044   21199861.8284
  -1324969.14446  -1003561.87843  24754526.8064   24754524.1434
 -11842313.11647  -9218535.77845  22896236.4454   22896232.3504
 -21728922.93048 -16911722.54147  21110425.4204   21110421.8894
 10  3 18  1 52 30.0000000  0  7G30G21G31G24G 6G16G29
 -16403745.42847 -12772148.67146  22207228.2624   22207225.2534
 -18128507.85648 -14111651.74946  21949944.7544   21949940.1014
 -23185225.13848 -18048787.15647  20858639.6984   20858635.3044
 -19173279.06048 -14912930.59247  21187544.3844   21187542.2244
  -1414821.33745  -1073576.59043  24737428.3904   24737426.1364
 -11921653.24047  -9280359.23545  22881138.6344   22881134.1034
 -21672408.40648 -16867685.25847  21121179.4444   21121176.1794
 10  3 18  1 53  0.0000000  0  7G30G21G31G24G 6G16G29
 -16323504.94447 -12709623.62345  22222497.6584   22222494.1144
 -18197478.54848 -14165395.14946  21936819.7554   21936815.3344
 -23170235.71648 -18037107.09047  20861492.3404   20861487.6524
 -19237534.50148 -14962999.77147  21175317.1064   21175314.5334
  -1504559.99445  -1143502.79742  24720351.1174   24720348.4864
 -12000898.50747  -9342108.79545  22866058.7704   22866054.7574
 -21615647.30348 -16823455.82947  21131980.6484   21131977.0334
 10  3 18  1 53 30.0000000  0  7G30G21G31G24G 6G16G29
 -16243020.61247 -12646908.55546  22237813.4264   22237809.7354
 -18266094.10848 -14218861.80546  21923762.7104   21923758.1714
 -23154676.84248 -18024983.29847  20864452.8434   20864448.4374
 -19301301.44748 -15012688.28447  21163182.6584   21163179.8894
  -1594183.04245  -1213338.82242  24703296.1604   24703294.3064
 -12080046.72147  -9403782.73345  22850997.0954   22850993.2084
 -21558639.97048 -16779034.52747  21142829.0844   21142825.3644
 10  3 18  1 54  0.0000000  0  7G30G21G31G24G 6G16G29
 -16162296.42747 -12584006.60246  22253174.5734   22253171.0814
 -18334356.88048 -14272053.58146  21910772.6664   21910768.5404
 -23138551.93148 -18012418.43347  20867521.3804   20867516.7964
 -19364581.14848 -15061997.14047  21151140.9164   21151138.5214
  -1683693.21645  -1283087.06942  24686264.7344   24686261.1664
 -12159100.38847  -9465382.95045  22835954.1724   22835949.4994
 -21501391.46248 -16734425.30647  21153723.2974   21153719.6454
 10  3 18  1 54 30.0000000  0  7G30G21G31G24G 6G16G29
 -16081331.74047 -12520917.25046  22268581.6154   22268578.6384
 -18402263.08948 -14324967.51246  21897850.7204   21897846.7494
 -23121859.98148 -17999411.73647  20870697.8304   20870693.4094
 -19427370.21748 -15110923.67847  21139192.8234   21139190.0334
  -1773088.66246  -1352745.89143  24669251.9444   24669249.5884
 -12238056.90947  -9526907.51745  22820928.7464   22820924.1674
 -21443901.96648 -16689628.30547  21164662.9124   21164659.4954
 10  3 18  1 55  0.0000000  0  7G30G21G31G24G 6G16G29
 -16000126.46047 -12457640.42246  22284034.5594   22284031.7544
 -18469809.77648 -14377601.27346  21884996.6704   21884992.4494
 -23104600.52048 -17985962.81147  20873982.2814   20873977.9564
 -19489665.59448 -15159465.52447  21127338.2004   21127335.6854
  -1862367.83846  -1422314.10243  24652263.2604   24652260.1544
 -12316914.57847  -9588355.05045  22805922.8894   22805918.5544
 -21386172.41848 -16644644.24847  21175648.6914   21175645.2524
 10  3 18  1 55 30.0000000  0  7G30G21G31G24G 6G16G29
 -15918681.47447 -12394176.79545  22299533.0614   22299530.1444
 -18536995.36648 -14429953.67746  21872212.0124   21872207.3004
 -23086773.75348 -17972071.82947  20877374.3884   20877370.5494
 -19551465.17348 -15207621.03947  21115578.1984   21115575.6414
  -1951530.39146  -1491791.38443  24635296.2134   24635292.4554
 -12395672.39348  -9649724.76445  22790935.7514   22790930.7414
 -21328204.35348 -16599474.32947  21186679.8244   21186675.9804
 10  3 18  1 56  0.0000000  0  7G30G21G31G24G 6G16G29
 -15836997.26347 -12330526.76945  22315077.1234   22315073.8274
 -18603817.84048 -14482023.13046  21859496.2314   21859491.7444
 -23068380.10448 -17957739.12447  20880874.5764   20880870.3574
 -19612766.91848 -15255388.61247  21103913.0524   21103910.3894
  -2040575.58045  -1561177.23943  24618349.2294   24618345.9444
 -12474328.82248  -9711015.48145  22775967.7234   22775962.8084
 -21269999.51848 -16554119.92147  21197755.3414   21197751.7114
 10  3 18  1 56 30.0000000  0  7G30G21G31G24G 6G16G29
 -15755074.24547 -12266690.65145  22330666.2544   22330662.9234
 -18670275.06348 -14533807.97246  21846849.6144   21846845.3774
 -23049419.84148 -17942964.89847  20884482.6754   20884478.3404
 -19673568.70448 -15302766.62947  21092342.5164   21092340.4704
  -2129502.70545  -1630471.05343  24601429.3074   24601425.1244
 -12552882.95247  -9772226.49645  22761019.4944   22761015.1764
 -21211558.89748 -16508581.78047  21208876.4934   21208872.4864
 10  3 18  1 57  0.0000000  0  7G30G21G31G24G 6G16G29
 -15672914.04347 -12202669.72745  22346301.0994   22346298.3524
 -18736366.43548 -14585307.72847  21834273.1404   21834268.5564
 -23029894.24048 -17927750.14247  20888198.4054   20888193.8084
 -19733869.32448 -15349754.11647  21080867.7514   21080865.6354
  -2218312.22146  -1699673.24243  24584529.8514   24584525.3074
 -12631334.50447  -9833357.55745  22746090.6794   22746086.1904
 -21152885.47948 -16462862.24047  21220041.4884   21220037.9034
 10  3 18  1 57 30.0000000  0  7G30G21G31G24G 6G16G29
 -15590517.16047 -12138464.38145  22361980.3614   22361977.6214
 -18802089.52948 -14636520.52147  21821766.5364   21821761.8214
 -23009803.10348 -17912094.71847  20892021.4264   20892017.0214
 -19793666.60348 -15396349.38947  21069488.9054   21069486.1714
  -2307002.94746  -1768782.88643  24567652.4954   24567648.6754
 -12709682.12547  -9894407.65845  22731181.7464   22731177.1204
 -21093980.29648 -16416962.09947  21231251.1004   21231247.0774
 10  3 18  1 58  0.0000000  0  7G30G21G31G24G 6G16G29
 -15507883.72147 -12074074.69645  22377705.5014   22377702.3384
 -18867442.02748 -14687444.53547  21809330.1084   21809325.3874
 -22989145.92748 -17895998.23047  20895952.4414   20895948.4254
 -19852957.81748 -15442550.32547  21058206.0884   21058203.2444
  -2395573.72946  -1837799.10043  24550797.5684   24550794.3604
 -12787924.32147  -9955375.58545  22716292.9424   22716288.6574
 -21034844.25848 -16370882.07847  21242504.3234   21242500.8434
 10  3 18  1 58 30.0000000  0  7G30G21G31G24G 6G16G29
 -15425014.78347 -12009501.49945  22393474.9114   22393471.9484
 -18932422.29148 -14738078.51247  21796964.9284   21796960.4074
 -22967924.44748 -17879462.01447  20899990.7174   20899986.4654
 -19911741.04048 -15488355.42747  21047020.0144   21047017.1414
  -2484024.27246  -1906721.61543  24533965.7544   24533963.1874
 -12866059.67548 -10016260.26645  22701423.8464   22701419.7864
 -20975479.31048 -16324623.68447  21253800.7204   21253797.2994
 10  3 18  1 59  0.0000000  0  7G30G21G31G24G 6G16G29
 -15341910.93947 -11944745.26445  22409289.2124   22409286.4164
 -18997028.25648 -14788420.81747  21784670.7244   21784666.3924
 -22946138.48048 -17862485.94347  20904136.7514   20904132.3004
 -19970014.09748 -15533762.99147  21035930.8314   21035928.1924
  -2572353.89145  -1975549.90843  24517156.1684   24517153.4824
 -12944087.19348 -10077060.93245  22686575.7474   22686571.2694
 -20915887.10948 -16278188.19647  21265140.8564   21265137.2424
 10  3 18  1 59 30.0000000  0  7G30G21G31G24G 6G16G29
 -15258573.19647 -11879806.75845  22425147.5984   22425144.1164
 -19061258.78648 -14838470.57847  21772448.2124   21772443.4394
 -22923788.86148 -17845070.66147  20908389.6564   20908385.0034
 -20027775.76348 -15578772.07447  21024939.2244   21024936.4754
  -2660562.75045  -2044284.08243  24500371.0934   24500367.0294
 -13022006.44748 -10137777.23445  22671748.1744   22671743.7644
 -20856069.36148 -16231576.97247  21276523.8724   21276520.5274
 10  3 18  2  0  0.0000000  0  7G30G21G31G24G 6G16G29
 -15175001.62747 -11814686.06445  22441050.6034   22441047.5154
 -19125111.16748 -14888225.67147  21760297.7144   21760293.0714
 -22900875.32348 -17827215.96547  20912750.0704   20912745.5514
 -20085023.18548 -15623380.45047  21014045.5044   21014042.8404
                                  24483608.7904   24483605.7124
 -13099815.52448 -10198407.67545  22656941.2624   22656937.3344
 -20796026.96948 -16184790.69747  21287949.5674   21287946.1004
 10  3 18  2  0 30.0000000  0  7G30G21G31G24G 6G16G29
 -15091197.54547 -11749384.20445  22456998.2344   22456995.2694
 -19188584.27748 -14937685.23947  21748219.0444   21748214.6094
 -22877399.12548 -17808922.82547  20917217.4554   20917212.5424
 -20141754.99048 -15667587.03847  21003249.7924   21003247.3184
  -4412033.22145  -3409066.16043  24466869.3114   24466864.6784
 -13177513.65548 -10258951.66445  22642156.3584   22642152.0994
 -20735762.03548 -16137831.00547  21299417.8194   21299413.9204
 10  3 18  2  1  0.0000000  0  7G30G21G31G24G 6G16G29
 -15007162.89147 -11683902.65145  22472989.4564   22472985.5694
 -19251677.43748 -14986848.73547  21736212.9794   21736208.1484
 -22853361.88348 -17790192.51447  20921791.2664   20921787.0684
 -20197970.24348 -15711391.13047  20992552.4024   20992549.6274
  -4499875.71946  -3477514.82643  24450155.4734   24450150.2944
 -13255100.58448 -10319409.00445  22627391.8664   22627387.5144
 -20675277.37948 -16090700.10647  21310927.4584   21310923.9974
 10  3 18  2  1 30.0000000  0  7G30G21G31G24G 6G16G29
 -14922897.95947 -11618241.67245  22489024.3104   22489021.2614
 -19314388.99148 -15035714.88047  21724279.0754   21724274.5174
 -22828763.56348 -17771024.98747  20926472.2854   20926467.9584
 -20253666.91848 -15754791.12547  20981953.5704   20981950.8554
  -4587595.49446  -3545867.85443  24433462.3464   24433458.3154
 -13332575.17648 -10379778.81145  22612649.2954   22612644.0704
 -20614574.03948 -16043398.80747  21322478.9254   21322475.4304
 10  3 18  2  2  0.0000000  0  7G30G21G31G24G 6G16G29
 -14838402.40647 -11552401.00245  22505103.2474   22505100.3924
 -19376715.93648 -15084281.31847  21712418.0774   21712413.7294
 -22803603.99348 -17751420.14247  20931259.8484   20931255.2194
 -20308842.21548 -15797784.86647  20971453.9854   20971451.3774
  -4675191.08146  -3614124.16843  24416793.2554   24416790.0214
 -13409935.19848 -10440059.35345  22597927.8194   22597922.8954
 -20553652.47748 -15995927.46247  21334071.8784   21334068.1724
 10  3 18  2  2 30.0000000  0  7G30G21G31G24G 6G16G29
 -14753677.53647 -11486381.61945  22521226.1124   22521223.2064
 -19438656.68948 -15132546.83447  21700631.6344   21700626.3134
 -22777884.38948 -17731378.89347  20936153.9784   20936149.8824
 -20363494.58548 -15840371.12347  20961053.9934   20961051.5904
  -4762662.23745  -3682283.54343  24400147.5774   24400144.4604
 -13487179.85948 -10500249.97645  22583228.8164   22583223.6024
 -20492514.82748 -15948287.73747  21345706.2384   21345702.0814
 10  3 18  2  3  0.0000000  0  7G30G21G31G24G 6G16G29
 -14668722.26747 -11420182.72445  22537392.6804   22537389.6434
 -19500207.89248 -15180508.80547  21688918.7834   21688914.5184
 -22751603.18848 -17710900.03847  20941155.4624   20941151.0224
 -20417620.17248 -15882546.90247  20950754.1754   20950751.6094
  -4850006.67145  -3750344.13842  24383525.8944   24383522.3624
 -13564305.93048 -10560348.20345  22568552.1834   22568547.2864
 -20431160.49948 -15900479.17447  21357381.2224   21357377.8454
 10  3 18  2  3 30.0000000  0  7G30G21G31G24G 6G16G29
 -14583539.05247 -11353806.20045  22553602.7664   22553599.3424
 -19561369.39048 -15228167.11347  21677280.2414   21677275.2504
 -22724762.87748 -17689985.51647  20946262.9924   20946259.0384
 -20471219.38348 -15924312.51747  20940554.6604   20940551.8204
  -4937225.77845  -3818307.06643  24366927.7194   24366925.3784
 -13641314.27248 -10620354.69945  22553897.6654   22553892.6854
 -20369593.19548 -15852504.65947  21369097.1954   21369093.4054
 10  3 18  2  4  0.0000000  0  7G30G21G31G24G 6G16G29
 -14498129.35547 -11287253.19845  22569855.3874   22569852.2144
 -19622140.43948 -15275521.17447  21665715.9194   21665711.3174
 -22697365.11648 -17668636.61147  20951476.3494   20951472.3654
 -20524291.19148 -15965667.16847  20930455.3384   20930452.7954
  -5024319.60345  -3886172.35243  24350355.9984   24350353.6054
 -13718204.82947 -10680269.40545  22539265.8804   22539261.1984
 -20307814.98948 -15804365.80347  21380853.0594   21380849.8034
 10  3 18  2  4 30.0000000  0  7G30G21G31G24G 6G16G29
 -14412493.81947 -11220524.21745  22586150.9794   22586148.5204
 -19682519.14548 -15322569.52247  21654226.0294   21654221.5514
 -22669410.47848 -17646853.78247  20956795.9934   20956791.9594
 -20576833.21648 -16006608.99647  20920456.6124   20920454.3704
  -5111287.64846  -3953939.62744  24333806.8504   24333803.7834
 -13794975.49148 -10740090.69445  22524656.8894   22524652.7094
 -20245827.13948 -15756063.58847  21392649.1094   21392645.5544
 10  3 18  2  5  0.0000000  0  7G30G21G31G24G 6G16G29
 -14326633.41647 -11153620.02445  22602489.5864   22602486.2474
 -19742504.12648 -15369311.06347  21642811.3404   21642806.8094
 -22640899.84248 -17624637.71047  20962221.4774   20962217.1164
 -20628844.23848 -16047137.06147  20910559.6544   20910556.6284
  -5198129.43446  -4021608.52944  24317282.0244   24317279.0024
 -13871625.43148 -10799817.91045  22510071.0824   22510066.6234
 -20183631.55948 -15707599.51247  21404484.7404   21404480.9304
 10  3 18  2  5 30.0000000  0  7G30G21G31G24G 6G16G29
 -14240548.21547 -11086540.64645  22618871.1524   22618868.2824
 -19802093.43748 -15415744.28447  21631472.0094   21631467.3614
 -22611833.12548 -17601988.32547  20967752.6694   20967748.2244
 -20680321.75048 -16087249.40347  20900763.9824   20900760.9114
  -5284843.68846  -4089178.09444  24300780.9704   24300777.1564
 -13948152.97048 -10859449.74746  22495508.4324   22495503.4434
 -20121229.06248 -15658974.18947  21416359.3104   21416355.6324
 10  3 18  2  6  0.0000000  0  7G30G21G31G24G 6G16G29
 -14154238.29947 -11019286.12345  22635295.3934   22635291.7734
 -19861284.19048 -15461866.89846  21620208.3184   21620203.5234
 -22582210.51748 -17578905.74047  20973389.6004   20973385.2264
 -20731263.58148 -16126944.27747  20891069.7164   20891067.1364
  -5371429.45746  -4156647.52044  24284304.3754   24284300.3474
 -14024556.16248 -10918984.63845  22480969.3264   22480964.8054
 -20058620.54748 -15610188.30347  21428273.6424   21428269.9974
 10  3 18  2  6 30.0000000  0  7G30G21G31G24G 6G16G29
 -14067704.64147 -10951857.35745  22651762.4064   22651759.1874
 -19920074.99448 -15507677.94447  21609020.6514   21609015.4934
 -22552032.95948 -17555390.80647  20979132.1274   20979127.9184
 -20781667.81848 -16166220.34647  20881478.1494   20881475.2244
  -5457886.23346  -4224016.40644  24267851.6864   24267849.6534
 -14100833.74848 -10978421.77046  22466454.2884   22466449.8774
 -19995807.47648 -15561243.10947  21440226.5774   21440222.2214
 10  3 18  2  7  0.0000000  0  8G 5G30G21G31G24G 6G16G29
    342270.06445                  24912424.3954
 -13980945.17347 -10884252.57345  22668272.2644   22668269.0724
 -19978462.18548 -15553174.45247  21597910.0444   21597904.8794
 -22521298.38148 -17531441.79047  20984980.9644   20984976.3074
 -20831529.92648 -16205073.93347  20871989.8154   20871987.2874
  -5544210.62946  -4291282.12343  24251424.6294   24251420.6894
 -14176981.70048 -11037757.82545  22451963.5654   22451958.7044
 -19932788.38948 -15512137.32547  21452218.3804   21452215.1304
 10  3 18  2  7 30.0000000  0  8G 5G30G21G31G24G 6G16G29
    330756.15545                  24910234.6404
 -13893966.72147 -10816477.16945  22684823.3644   22684820.2824
 -20036448.65348 -15598358.69847  21586875.6174   21586870.5194
 -22490013.51948 -17507063.97947  20990934.3344   20990929.4604
 -20880854.25849 -16243508.47047  20862603.6294   20862600.6994
  -5630408.00646  -4358448.90043  24235020.8984   24235017.2534
 -14253004.96848 -11096996.72946  22437496.9544   22437492.6024
 -19869570.74048 -15462876.82447  21464248.2584   21464244.9834
 10  3 18  2  8  0.0000000  0  8G 5G30G21G31G24G 6G16G29
    319744.19346                  24908139.0854
 -13806767.71947 -10748529.88845  22701416.9154   22701413.4184
 -20094030.72948 -15643227.83947  21575917.6494   21575913.1124
 -22458176.92948 -17482256.26147  20996992.8884   20996988.3804
 -20929636.81948 -16281520.85147  20853320.7204   20853318.0144
  -5716475.41946  -4425514.39443  24218643.0824   24218639.0454
 -14328899.50347 -11156135.31846  22423054.6494   22423050.2834
 -19806153.59948 -15413460.88047  21476316.2584   21476312.5014
 10  3 18  2  8 30.0000000  0  8G 5G30G21G31G24G 6G16G29
    309235.71045                  24906140.0834
 -13719348.32047 -10680410.89345  22718052.3404   22718048.8294
 -20151206.95448 -15687780.73447  21565037.5374   21565032.9374
 -22425788.91148 -17457018.84447  21003155.6894   21003151.5974
 -20977875.59248 -16319109.49347  20844141.0264   20844138.4254
  -5802411.97746  -4492477.94643  24202289.8504   24202286.4944
 -14404663.61647 -11215172.27946  22408636.9674   22408632.4804
 -19742538.09648 -15363890.36247  21488421.6184   21488418.3544
 10  3 18  2  9  0.0000000  0  8G 5G30G21G31G24G 6G16G29
    299231.88945                  24904231.5154
 -13631708.85647 -10612120.39545  22734729.6204   22734726.2984
 -20207975.17048 -15732015.69747  21554235.0654   21554230.2154
 -22392850.05948 -17431352.21547  21009423.8154   21009419.5934
 -21025568.66048 -16356272.92347  20835065.2854   20835062.6844
  -5888216.64246  -4559338.70744  24185960.0634   24185957.7464
 -14480295.78547 -11274106.42446  22394244.8734   22394240.0254
 -19678724.96948 -15314165.86047  21500565.0104   21500561.9724
 10  3 18  2  9 30.0000000  0  8G 5G30G21G31G24G 6G16G29
    289732.78445                  24902426.6594
 -13543851.12847 -10543659.84345  22751448.2424   22751445.4614
 -20264334.78248 -15775932.26647  21543509.8894   21543505.7654
 -22359362.22248 -17405257.80247  21015796.2514   21015791.9464
 -21072715.47748 -16393010.68647  20826093.5854   20826090.8544
  -5973890.32046  -4626097.36644  24169659.2444   24169656.3804
 -14555795.75447 -11332937.56246  22379877.8624   22379872.9894
 -19614716.97448 -15264289.50847  21512745.3464   21512741.8274
 10  3 18  2 10  0.0000000  0  8G 5G30G21G31G24G 6G16G29
    280738.67146                  24900717.2744
 -13455776.79347 -10475030.51045  22768208.3604   22768205.5824
 -20320284.86248 -15819529.73047  21532862.5774   21532858.9924
 -22325327.37248 -17378737.14647  21022273.0014   21022268.0504
 -21119315.44648 -16429322.35247  20817226.4274   20817223.6004
  -6059433.04046  -4692753.99843  24153380.4184   24153376.9954
 -14631162.76747 -11391665.10546  22365535.5294   22365530.9434
 -19550516.49248 -15214263.17047  21524963.0624   21524958.5024
 10  3 18  2 10 30.0000000  0  8G 5G30G21G31G24G 6G16G29
    272251.69345                  24899100.6654
 -13367485.54747 -10406232.14745  22785009.7114   22785006.7154
 -20375823.18848 -15862806.35347  21522294.4484   21522290.4594
 -22290745.25648 -17351790.04947  21028853.8054   21028849.5924
 -21165365.61748 -16465205.59947  20808462.8204   20808460.4074
  -6144843.25346  -4759307.37043  24137128.4524   24137124.1814
 -14706394.70147 -11450287.38246  22351219.2224   22351214.5054
 -19486123.82548 -15164087.06647  21537216.0734   21537211.9414
 10  3 18  2 11  0.0000000  0  8G 5G30G21G31G24G 6G16G29
    264272.78445                  24897582.1864
 -13278977.88647 -10337265.13745  22801852.2464   22801849.0414
 -20430947.82148 -15905760.61147  21511805.1754   21511800.5194
 -22255616.58248 -17324417.06647  21035538.3844   21035534.3394
 -21210864.26248 -16500659.07447  20799804.6864   20799802.5004
  -6230120.42146  -4825757.12943  24120899.3954   24120895.9934
 -14781490.21348 -11508803.36746  22336929.3344   22336925.1514
 -19421539.86148 -15113761.90547  21549506.2014   21549502.1384
 10  3 18  2 11 30.0000000  0  8G 5G30G21G31G24G 6G16G29
    256802.57845                  24896161.6394
 -13190255.62447 -10268130.90045  22818735.5034   22818732.3384
 -20485658.21648 -15948392.08247  21501393.7754   21501389.2454
 -22219943.08248 -17296619.53647  21042326.9464   21042322.4764
 -21255810.68648 -16535682.25647  20791252.0344   20791249.8554
  -6315264.44646  -4892103.12443  24104696.7264   24104694.0664
 -14856448.43147 -11567212.36046  22322665.1894   22322660.9654
 -19356766.78648 -15063289.38347  21561831.9724   21561827.9924
 10  3 18  2 12  0.0000000  0  8G 5G30G21G31G24G 6G16G29
    249842.73446                  24894837.6454
 -13101318.45047 -10198829.21345  22835659.3094   22835656.4364
 -20539951.08948 -15990698.20847  21491062.2954   21491057.5634
 -22183724.63948 -17268397.37647  21049219.2984   21049214.8094
 -21300202.37848 -16570273.17447  20782804.3044   20782801.7054
  -6400273.94946  -4958344.25943  24088520.2204   24088515.6044
 -14931266.92347 -11625512.46946  22308427.9534   22308423.4864
 -19291804.93848 -15012669.76747  21574194.0054   21574189.8334
 10  3 18  2 12 30.0000000  0  8G 5G30G21G31G24G 6G16G29
    243392.40345                  24893609.4034
 -13012168.91147 -10129362.05145  22852624.2474   22852621.1384
 -20593827.69948 -16032679.98147  21480809.7564   21480805.3864
 -22146964.47348 -17239753.09147  21056214.2614   21056210.2234
 -21344039.97948 -16604432.34347  20774462.3084   20774459.9514
  -6485150.43546  -5024481.80643  24072369.1094   24072364.0854
 -15005946.82447 -11683704.59646  22294216.7944   22294212.2734
 -19226657.99548 -14961905.91847  21586590.7544   21586586.8804
 10  3 18  2 13  0.0000000  0  8G 5G30G21G31G24G 6G16G29
    237454.93245                  24892480.9494
 -12922805.92847 -10059728.57245  22869629.8604   22869626.3284
 -20647283.83548 -16074334.10547  21470637.3884   21470632.8654
 -22109661.26648 -17210685.66847  21063313.1594   21063308.6524
 -21387319.55648 -16638156.68347  20766226.6954   20766223.9274
  -6569891.26346  -5090513.60643  24056242.8634   24056240.3364
 -15080483.69547 -11741785.27346  22280032.7234   22280028.0264
 -19161324.82348 -14910996.96047  21599023.0944   21599019.3724
 10  3 18  2 13 30.0000000  0  8G 5G30G21G31G24G 6G16G29
    232030.07344                  24891444.2904
 -12833230.91147  -9989929.86845  22886675.2074   22886671.6954
 -20700318.60148 -16115659.89947  21460545.4854   21460540.9984
 -22071816.86548 -17181196.52547  21070514.5254   21070510.1804
 -21430040.59148 -16671445.79847  20758097.1054   20758094.5394
  -6654496.45746  -5156439.69244  24040143.3564   24040140.5054
 -15154877.36748 -11799754.35446  22265876.3564   22265871.9304
 -19095807.66348 -14859944.64347  21611490.8084   21611486.8514
 10  3 18  2 14  0.0000000  0  8G 5G30G21G31G24G 6G16G29
    227119.13545                  24890510.8964
 -12743444.48047  -9919966.42645  22903761.0304   22903757.9624
 -20752930.80148 -16156656.41347  21450533.4144   21450529.0144
 -22033432.00148 -17151286.24647  21077818.7284   21077814.6354
 -21472201.50648 -16704298.45347  20750073.9074   20750071.0874
  -6738965.48446  -5222259.68944  24024069.3944   24024066.8334
 -15229126.13748 -11857610.53246  22251747.2154   22251742.8694
 -19030107.86248 -14808749.99847  21623993.3674   21623989.3554
 10  3 18  2 14 30.0000000  0  8G 5G30G21G31G24G 6G16G29
  -1352698.72444                  24889674.8694
 -12653449.13047  -9849840.18245  22920886.5704   22920883.4114
 -20805120.58648 -16197323.77647  21440601.8384   21440597.6314
 -21994510.03448 -17120957.45047  21085225.4754   21085221.0134
 -21513802.72549 -16736714.98647  20742157.4934   20742154.8334
  -6823299.57646  -5287974.56644  24008021.0424   24008018.1994
 -15303230.70247 -11915354.34546  22237645.6684   22237640.7914
 -18964228.39348 -14757415.35547  21636529.2914   21636525.9204
 10  3 18  2 15  0.0000000  0  8G 5G30G21G31G24G 6G16G29
  -1356583.01744                  24888937.3104
 -12563245.67847  -9779551.77845  22938051.6614   22938048.4074
 -20856886.53248 -16237660.86947  21430751.2414   21430747.2454
 -21955051.65448 -17090210.66547  21092734.2354   21092729.8014
 -21554842.67548 -16768694.15547  20734347.8564   20734345.2824
  -6907498.21846  -5353583.87544  23991998.5254   23991995.8784
 -15377189.53648 -11972984.60946  22223571.7154   22223566.5444
 -18898170.32148 -14705941.54747  21649099.7274   21649096.3434
 10  3 18  2 15 30.0000000  0  8G 5G30G21G31G24G 6G16G29
  -1359955.14444                  24888294.8224
 -12472837.75047  -9709104.04945  22955255.5364   22955252.7034
 -20908229.93348 -16277668.70147  21420980.8654   21420976.4134
 -21915060.74548 -17059048.92547  21100344.5064   21100339.6114
 -21595322.73348 -16800237.05247  20726644.9654   20726641.9664
  -6991563.40046  -5419089.20543  23976002.1554   23975998.3404
 -15451003.88748 -12030502.26946  22209525.4824   22209520.4934
 -18831938.04448 -14654331.98547  21661703.3964   21661699.6584
 10  3 18  2 16  0.0000000  0  7G30G21G31G24G 6G16G29
 -12382218.19747  -9638491.43045  22972500.0714   22972496.8574
 -20959141.40048 -16317339.97347  21411292.9394   21411288.5454
 -21874530.41048 -17027466.85047  21108057.1584   21108052.3714
 -21635233.77148 -16831336.55647  20719049.8884   20719047.1204
  -7075487.00746  -5484484.19543  23960032.0184   23960027.7494
 -15524664.06948 -12087899.79646  22195508.4024   22195503.3424
 -18765524.80148 -14602581.41747  21674341.4614   21674337.6654
 10  3 18  2 16 30.0000000  0  7G30G21G31G24G 6G16G29
 -12291391.84847  -9567717.65745  22989783.8334   22989780.3284
 -21009623.74748 -16356676.86447  21401686.2974   21401681.8664
 -21833466.47148 -16995468.99047  21115871.0604   21115866.5824
 -21674578.79648 -16861995.01747  20711563.1394   20711560.1664
  -7159272.90046  -5549771.87243  23944088.2994   23944084.7384
 -15598173.21748 -12145179.65546  22181519.9344   22181514.5714
 -18698936.14948 -14550694.15647  21687012.8664   21687009.1984
 10  3 18  2 17  0.0000000  0  7G30G21G31G24G 6G16G29
 -12200360.35847  -9496784.03245  23007106.5374   23007103.0794
 -21059676.11748 -16395678.70547  21392161.9564   21392157.1694
 -21791870.14248 -16963056.26647  21123786.7174   21123782.2774
 -21713356.95048 -16892211.75547  20704183.5894   20704180.7374
  -7242920.74546  -5614952.02944  23928169.7634   23928167.1134
 -15671530.55148 -12202341.21646  22167560.2924   22167555.6664
 -18632174.17148 -14498671.84847  21699717.2984   21699713.5444
 10  3 18  2 17 30.0000000  0  7G30G21G31G24G 6G16G29
 -12109123.72047  -9425690.56745  23024467.8414   23024464.6124
 -21109296.32648 -16434343.79747  21382719.4914   21382714.4224
 -21749742.45948 -16930229.51247  21131803.1034   21131799.3244
 -21751566.17648 -16921985.16647  20696912.6474   20696909.9124
  -7326429.64646  -5680023.87744  23912278.9034   23912276.3274
 -15744733.61748 -12259382.55846  22153630.3974   22153625.5164
 -18565239.07448 -14446514.64147  21712454.5964   21712450.6364
 10  3 18  2 18  0.0000000  0  7G30G21G31G24G 6G16G29
 -12017683.55547  -9354438.50045  23041868.5544   23041865.5014
 -21158484.15148 -16472671.96147  21373359.1594   21373354.7014
 -21707085.50748 -16896990.33547  21139920.7784   21139915.9934
 -21789206.13748 -16951314.99847  20689750.0174   20689747.4994
  -7409799.73446  -5744987.56744  23896415.1844   23896411.2464
 -15817782.26148 -12316303.57946  22139729.4794   22139725.0504
 -18498133.19948 -14394224.35547  21725224.2794   21725220.8694
 10  3 18  2 18 30.0000000  0  7G30G21G31G24G 6G16G29
 -11926040.25847  -9283028.15445  23059308.1584   23059304.4654
 -21207237.65848 -16510661.70047  21364081.9064   21364076.8144
 -21663899.86648 -16863339.18247  21148138.4414   21148134.1574
 -21826275.03048 -16980199.84647  20682695.9654   20682693.3334
  -7493030.30746  -5809842.56143  23880576.5174   23880572.0324
 -15890674.14448 -12373102.44646  22125858.9924   22125854.1384
 -18430857.38748 -14341801.64647  21738026.4894   21738022.9434
 10  3 18  2 19  0.0000000  0  7G30G21G31G24G 6G16G29
 -11834194.37147  -9211459.92945  23076785.4174   23076781.9674
 -21255555.01848 -16548311.58747  21354887.3364   21354882.3354
 -21620186.56248 -16829276.87247  21156456.9764   21156452.6004
 -21862771.56048 -17008638.69847  20675750.7914   20675748.1024
  -7576120.54546  -5874588.18444  23864763.9854   23864761.1854
 -15963407.65647 -12429777.90746  22112017.7524   22112013.2404
 -18363412.60848 -14289247.29247  21750860.6164   21750857.0784
 10  3 18  2 19 30.0000000  0  7G30G21G31G24G 6G16G29
 -11742146.95347  -9139734.67545  23094301.4634   23094298.7224
 -21303435.22148 -16585620.83647  21345776.0674   21345771.7284
 -21575947.13048 -16794804.59747  21164875.4134   21164871.2324
 -21898694.88548 -17036630.89347  20668914.9974   20668912.1504
  -7659070.22846  -5939224.29344  23848979.4704   23848976.9954
 -16035981.61747 -12486329.03846  22098207.9524   22098203.3694
 -18295800.65648 -14236562.66747  21763726.9804   21763723.7384
 10  3 18  2 20  0.0000000  0  7G30G21G31G24G 6G16G29
 -11649899.45047  -9067853.53045  23111855.3264   23111852.6044
 -21350877.70348 -16622589.00347  21336747.7804   21336743.0374
 -21531183.52748 -16759923.87647  21173394.0404   21173389.7144
 -21934044.34049 -17064175.91547  20662188.1564   20662185.5834
  -7741879.36746  -6003750.85844  23833221.4334   23833219.3034
 -16108395.10647 -12542755.12846  22084428.1164   22084423.3694
 -18228022.97348 -14183748.90447  21776624.6534   21776621.3154
 10  3 18  2 20 30.0000000  0  7G30G21G31G24G 6G16G29
 -11557452.88847  -8995817.25345  23129447.5934   23129444.3984
 -21397881.34648 -16659215.20747  21327803.0114   21327798.7434
 -21485897.40548 -16724635.99047  21182011.4614   21182007.2834
 -21968819.07348 -17091273.10147  20655570.5934   20655567.8484
  -7824547.78046  -6068167.81544  23817490.1454   23817487.4664
 -16180647.23547 -12599055.49046  22070678.8694   22070674.4234
 -18160081.19348 -14130807.26047  21789553.4984   21789549.6844
 10  3 18  2 21  0.0000000  0  7G30G21G31G24G 6G16G29
 -11464808.06047  -8923626.48945  23147076.5224   23147074.3944
 -21444444.60748 -16695498.26447  21318942.6304   21318938.4224
 -21440089.58848 -16688941.59347  21190728.6144   21190724.1354
 -22003017.51048 -17117921.22547  20649062.9094   20649060.1534
  -7907074.78746  -6132474.55044  23801785.6354   23801782.7994
 -16252735.55947 -12655228.20046  22056960.5924   22056956.1054
 -18091976.47248 -14077738.66347  21802513.7104   21802510.1394
 10  3 18  2 21 30.0000000  0  8G 5G30G21G31G24G 6G16G29
    206595.19045                  24888305.3514
 -11371965.07147  -8851281.30945  23164745.0734   23164741.6974
 -21490565.53548 -16731436.65247  21310166.2074   21310161.4524
 -21393760.77948 -16652841.22647  21199544.4034   21199540.1344
 -22036638.20848 -17144119.16547  20642664.8794   20642662.3784
  -7989459.20346  -6196670.19444  23786108.3344   23786104.7524
 -16324658.32847 -12711271.91346  22043273.9144   22043269.7074
 -18023709.49148 -14024543.62447  21815504.3944   21815500.9504
 10  3 18  2 22  0.0000000  0  8G 5G30G21G31G24G 6G16G29
    209991.15245                  24888950.3664
 -11278924.64547  -8778782.28745  23182449.9264   23182447.4114
 -21536242.70648 -16767029.24947  21301473.9794   21301469.2364
 -21346912.72648 -16616336.25747  21208459.4314   21208454.6434
 -22069680.10049 -17169866.08847  20636377.6874   20636374.9984
  -8071700.71646  -6260754.48044  23770457.9914   23770455.4494
 -16396414.03447 -12767185.44846  22029619.3354   22029614.8904
 -17955280.98048 -13971222.71147  21828525.8624   21828522.1894
 10  3 18  2 22 30.0000000  0  8G 5G30G21G31G24G 6G16G29
    213909.86145                  24889695.5984
 -11185689.72247  -8706131.69145  23200191.9624   23200188.4064
 -21581477.31848 -16802276.99547  21292866.3014   21292861.9274
 -21299548.68448 -16579429.21747  21217472.4534   21217467.6594
 -22102143.98348 -17195162.62447  20630199.8824   20630197.3204
  -8153800.53046  -6324728.37944  23754835.2044   23754831.7834
 -16468003.09947 -12822969.12346  22015996.5444   22015992.1634
 -17886694.43248 -13917778.65747  21841577.3324   21841573.7094
 10  3 18  2 23  0.0000000  0  8G 5G30G21G31G24G 6G16G29
    218352.17745                  24890540.3004
 -11092261.11447  -8633330.17845  23217971.2184   23217968.1374
 -21626267.54748 -16837178.46547  21284342.8254   21284338.3624
 -21251669.87548 -16542121.06247  21226583.8484   21226578.7174
 -22134028.55048 -17220007.73347  20624132.5004   20624130.0724
  -8235758.18946  -6388591.48643  23739238.1504   23739235.5964
 -16539423.81547 -12878621.62346  22002405.4044   22002401.0284
 -17817950.80848 -13864212.20247  21854658.8004   21854655.1144
 10  3 18  2 23 30.0000000  0  8G 5G30G21G31G24G 6G16G29
    223319.06345                  24891488.1844
 -10998639.31647  -8560378.12545  23235786.6824   23235783.6734
 -21670611.88048 -16871732.49347  21275904.6254   21275899.7404
 -21203277.53048 -16504412.74647  21235792.0404   21235787.7044
 -22165332.76448 -17244400.62347  20618175.4874   20618172.9614
  -8317572.93246  -6452343.19344  23723670.2654   23723666.8334
 -16610674.14948 -12934141.36046  21988847.3514   21988842.3574
 -17749051.30848 -13810524.27347  21867770.1524   21867765.7754
 10  3 18  2 24  0.0000000  0  8G 5G30G21G31G24G 6G16G29
    228811.39044                  24892532.0294
 -10904823.94447  -8487275.25245  23253638.6014   23253635.7994
 -21714508.18948 -16905937.40947  21267551.2514   21267546.5714
 -21154371.99848 -16466304.54147  21245098.3804   21245094.0404
 -22196054.45148 -17268339.59747  20612329.1574   20612326.8364
  -8399243.31646  -6515982.45744  23708129.3014   23708125.3314
 -16681751.84348 -12989526.57146  21975321.7054   21975316.7634
 -17679995.85048 -13756714.83347  21880910.9024   21880907.3024
 10  3 18  2 24 30.0000000  0  8G 5G30G21G31G24G 6G16G29
                                  24893676.4754
 -10810820.76647  -8414026.05045  23271527.1504   23271523.7794
 -21757959.72848 -16939795.74747  21259282.8264   21259277.9144
 -21104959.25948 -16427801.11547  21254501.1574   21254497.0584
 -22226197.49348 -17291827.67147  20606593.3334   20606590.6814
  -8480773.33546  -6579512.34444  23692614.3584   23692610.6724
 -16752659.85748 -13044779.56046  21961828.2474   21961823.4224
 -17610790.21848 -13702788.37247  21894080.1834   21894076.4744
 10  3 18  2 25  0.0000000  0  8G 5G30G21G31G24G 6G16G29
                                  24894921.2584
 -10716623.23947  -8340625.38944  23289452.3614   23289448.8974
 -21800958.41548 -16973301.21347  21251100.3924   21251095.6934
 -21055033.59948 -16388898.00947  21264002.2594   21263997.7224
 -22255753.47948 -17314858.31347  20600968.8084   20600966.2074
  -8562155.54946  -6642927.04744  23677127.9964   23677124.5374
 -16823389.31947 -13099893.41746  21948368.7104   21948363.9284
 -17541428.29048 -13648740.10646  21907279.2704   21907275.8294
 10  3 18  2 25 30.0000000  0  8G 5G30G21G31G24G 6G16G29
                                  24896267.0864
 -10622235.91947  -8267076.85744  23307414.0034   23307409.8594
 -21843506.80948 -17006455.79647  21243003.5054   21242998.8674
 -21004600.61548 -16349599.57647  21273599.2084   21273594.7584
 -22284725.49848 -17337433.90447  20595455.7094   20595452.9594
  -8643393.24046  -6706229.13544  23661669.0974   23661665.8774
 -16893942.71048 -13154870.08646  21934943.0094   21934938.7694
 -17471915.21748 -13594574.08246  21920507.1544   21920503.5804
 10  3 18  2 26  0.0000000  0  7G30G21G31G24G 6G16G29
 -10527660.28247  -8193381.59144  23325410.7674   23325407.1314
 -21885604.18148 -17039258.93547  21234992.5554   21234988.0954
 -20953662.14348 -16309907.27647  21283292.3694   21283288.1124
 -22313113.03348 -17359554.05147  20590053.6394   20590050.8704
  -8724486.29046  -6769418.52144  23646237.2094   23646234.9314
 -16964318.45248 -13209708.32546  21921550.8124   21921546.2504
 -17402252.83948 -13540291.71746  21933763.3604   21933760.3574
 10  3 18  2 26 30.0000000  0  7G30G21G31G24G 6G16G29
 -10432896.45947  -8119539.65745  23343443.4864   23343440.3214
 -21927248.62848 -17071709.15047  21227068.0534   21227063.4854
 -20902218.91948 -16269821.64247  21293081.5694   21293077.1854
 -22340914.45648 -17381217.49647  20584763.4184   20584760.5214
  -8805433.53646  -6832494.29044  23630833.6734   23630830.4264
 -17034514.38347 -13264406.44546  21908193.2094   21908188.3764
 -17332441.24048 -13485893.07346  21947048.4424   21947044.6314
 10  3 18  2 27  0.0000000  0  7G30G21G31G24G 6G16G29
 -10337945.50847  -8045551.91445  23361512.5414   23361509.5904
 -21968439.17148 -17103805.67247  21219229.7584   21219225.0474
 -20850272.61948 -16229344.01947  21302966.6504   21302962.1864
 -22368129.14849 -17402423.73847  20579584.5264   20579581.7924
  -8886234.73246  -6895456.25044  23615457.8174   23615455.2254
 -17104529.35448 -13318963.56346  21894869.7574   21894865.1304
 -17262482.01648 -13431379.39646  21960361.0084   21960357.4364
 10  3 18  2 27 30.0000000  0  7G30G21G31G24G 6G16G29
 -10242808.34746  -7971419.08344  23379616.1444   23379613.4664
 -22009174.26148 -17135547.29847  21211478.3994   21211473.3094
 -20797824.85248 -16188475.63647  21312947.5084   21312942.6884
 -22394756.19248 -17423172.06447  20574517.6074   20574515.0354
  -8966889.30446  -6958303.95744  23600109.6394   23600107.2894
 -17174361.51748 -13373378.23346  21881581.0714   21881576.6254
 -17192375.68048 -13376751.08846  21973702.0654   21973697.9944
 10  3 18  2 28  0.0000000  0  7G30G21G31G24G 6G16G29
 -10147486.44647  -7897142.28945  23397755.2794   23397752.1634
 -22049453.96448 -17166934.07647  21203813.2974   21203808.6004
 -20744877.87648 -16147218.26147  21323022.9224   21323018.5674
 -22420795.49848 -17443462.42547  20569562.4024   20569559.5574
  -9047397.45646  -7021037.58144  23584788.9334   23584787.1244
 -17244009.82648 -13427649.64046  21868327.4904   21868322.7824
 -17122124.30348 -13322009.75946  21987070.0344   21987066.5754
 10  3 18  2 28 30.0000000  0  7G30G21G31G24G 6G16G29
 -10051980.45347  -7822722.05245  23415929.6524   23415927.4974
 -22089277.03448 -17197965.03947  21196235.2334   21196230.3024
 -20691433.45848 -16105573.26747  21333193.2174   21333188.1304
 -22446246.15048 -17463294.10447  20564719.2114   20564716.7934
  -9127758.77446  -7083656.77644  23569497.3494   23569495.1534
 -17313472.77948 -13481776.61646  21855109.0474   21855104.7244
 -17051729.24548 -13267156.47846  22000466.3604   22000462.4704
 10  3 18  2 29  0.0000000  0  7G30G21G31G24G 6G16G29
  -9956291.70247  -7748159.39544  23434138.8054   23434135.5454
 -22128643.02148 -17228639.82247  21188744.1804   21188739.4744
 -20637493.44348 -16063542.08947  21343457.6154   21343452.6354
 -22471108.06448 -17482667.02247  20559988.1804   20559985.8884
  -9207973.20846  -7146161.54144  23554233.2574   23554230.5924
 -17382749.41448 -13535758.40246  21841926.2724   21841922.1904
 -16981191.89648 -13212192.31746  22013888.8864   22013885.4614
 10  3 18  2 29 30.0000000  0  7G30G21G31G24G 6G16G29
  -9860421.11247  -7673455.05244  23452381.8044   23452379.0824
 -22167550.67848 -17258957.47047  21181340.2424   21181335.7064
 -20583059.62948 -16021126.14347  21353816.0494   21353811.7644
 -22495380.37248 -17501580.50447  20555369.4704   20555366.4584
  -9288040.24246  -7208551.43144  23538996.6464   23538993.1774
 -17451837.47248 -13589593.24946  21828779.2434   21828774.1564
 -16910512.90148 -13157117.77446  22027338.4824   22027335.0594
 10  3 18  2 30  0.0000000  0  7G30G21G31G24G 6G16G29
  -9764369.50247  -7598609.64944  23470660.5974   23470656.8854
 -22205998.33848 -17288916.67447  21174024.0734   21174019.0124
 -20528133.20948 -15978326.33547  21364268.0204   21364263.7074
 -22519062.05048 -17520033.75747  20550862.8884   20550860.0364
  -9367959.22746  -7270825.96044  23523788.3554   23523785.1494
 -17520735.14748 -13643279.75346  21815668.1804   21815663.4494
 -16839693.54048 -13101933.86246  22040814.9324   22040811.6274
 10  3 18  2 30 30.0000000  0  9G 3G30G21G31G24G 6G16G18G29
   -278336.65446   -128149.60553  24741828.7094   24741827.4654
  -9668137.84747  -7523623.93344  23488972.4794   23488969.1774
 -22243985.62748 -17318517.15847  21166794.9994   21166790.4094
 -20472716.24948 -15935144.28747  21374813.2124   21374809.1974
 -22542152.71248 -17538026.47347  20546468.8204   20546466.3174
  -9447730.02747  -7332985.00544  23508608.9224   23508605.7864
 -17589441.42548 -13696817.10146  21802594.2034   21802589.1784
   -148971.90145                  25286019.2794
 -16768735.22948 -13046641.68046  22054317.6914   22054314.4574
 10  3 18  2 31  0.0000000  0  9G 3G30G21G31G24G 6G16G18G29
   -374646.10846   -203195.93343  24723502.2724   24723498.4074
  -9571730.26147  -7448501.15444  23507318.2394   23507314.9524
 -22281514.95048 -17347760.78947  21159653.4934   21159649.2094
 -20416813.69248 -15891583.86347  21385451.3164   21385447.1354
 -22564654.90948 -17555560.64247  20542186.8094   20542184.0104
  -9527355.51346  -7395030.81844  23493456.6064   23493453.5244
 -17657957.91348 -13750206.57446  21789555.3384   21789551.0164
   -228126.66645                  25270957.6864
 -16697642.30848 -12991244.61546  22067846.4564   22067842.8124
 10  3 18  2 31 30.0000000  0  9G 3G30G21G31G24G 6G16G18G29
   -470874.57346   -278179.12943  24705190.0294   24705186.6514
  -9475141.48447  -7373237.17144  23525698.5864   23525695.3424
 -22318579.21548 -17376642.02947  21152600.2184   21152595.2104
 -20360420.81448 -15847641.36947  21396182.2854   21396178.7084
 -22586561.39648 -17572630.63247  20538018.0874   20538015.4254
  -9606828.72246  -7456957.99945  23478333.6474   23478330.4984
 -17726276.46848 -13803441.81246  21776554.9514   21776550.0674
   -307360.02345                  25255879.3784
 -16626409.10048 -12935738.22146  22081401.6404   22081397.8854
 10  3 18  2 32  0.0000000  0  9G 3G30G21G31G24G 6G16G18G29
   -567024.77846   -353101.38943  24686893.1164   24686889.8404
  -9378376.01747  -7297835.50744  23544112.3814   23544108.6584
 -22355180.73648 -17405162.69147  21145635.2964   21145630.1404
 -20303543.11548 -15803321.09047  21407005.6964   21407001.5854
 -22607875.53148 -17589239.04747  20533962.2994   20533959.5474
  -9686152.86647  -7518769.00944  23463238.6924   23463235.7084
 -17794398.80248 -13856524.15046  21763591.6354   21763587.3824
   -386673.09245                  25240786.7664
 -16555040.65747 -12880126.45146  22094982.4824   22094979.1814
 10  3 18  2 32 30.0000000  0 10G 3G 5G30G21G31G24G 6G16G18G29
   -663095.23046   -427961.44543  24668611.6664   24668606.1184
    155299.24845                  24925630.3414
  -9281433.61747  -7222295.97245  23562559.7234   23562556.9204
 -22391317.31848 -17433321.05247  21138758.7164   21138753.9394
 -20246181.30848 -15758623.58047  21417921.7794   21417917.3464
 -22628595.96048 -17605384.82947  20530019.4944   20530016.6754
  -9765326.72146  -7580462.91045  23448172.4744   23448169.3794
 -17862322.62848 -13909451.80046  21750666.3904   21750662.0284
   -466062.52545                  25225678.9474
 -16483537.03047 -12824409.34846  22108589.4194   22108586.3254
 10  3 18  2 33  0.0000000  0 10G 3G 5G30G21G31G24G 6G16G18G29
   -759086.47846   -502759.75543  24650343.4894   24650339.6584
    170278.90045                  24928480.5634
  -9184316.83047  -7146620.58145  23581040.8004   23581037.5024
 -22426989.83748 -17461117.81247  21131970.4904   21131965.3874
 -20188338.74048 -15713551.46147  21428929.0404   21428924.1704
 -22648723.44048 -17621068.57347  20526189.0314   20526186.3624
  -9844351.29946  -7642040.48744  23433134.4624   23433132.0124
 -17930047.91648 -13962224.74746  21737778.5984   21737774.1554
   -545527.07046                  25210558.1394
 -16411900.82547 -12768588.93346  22122221.5704   22122218.2364
 10  3 18  2 33 30.0000000  0 10G 3G 5G30G21G31G24G 6G16G18G29
   -854998.00846   -577496.02243  24632094.3204   24632089.1494
    185786.05545                  24931431.6804
  -9087026.61447  -7070810.03844  23599554.5834   23599551.1084
 -22462197.60548 -17488552.42847  21125270.4094   21125266.0764
 -20130017.19748 -15668106.10847  21440027.2264   21440022.4854
 -22668257.35348 -17636289.79947  20522471.9134   20522469.4304
  -9923226.18346  -7703501.41144  23418125.1724   23418121.4024
 -17997572.67748 -14014841.45246  21724929.1344   21724924.7364
   -625063.98245                  25195421.8454
 -16340133.02748 -12712665.98246  22135878.4544   22135874.6344
 10  3 18  2 34  0.0000000  0 10G 3G 5G30G21G31G24G 6G16G18G29
   -950828.70746   -652169.27043  24613857.9274   24613852.7644
    201820.91046                  24934483.2884
  -8989563.79847  -6994864.98044  23618101.0934   23618097.6964
 -22496938.57348 -17515623.30747  21118659.5574   21118655.2264
 -20071218.30448 -15622288.78847  21451216.0584   21451211.4944
 -22687196.90848 -17651047.87747  20518868.0104   20518865.2484
 -10001950.46646  -7764845.00044  23403143.8064   23403140.6464
 -18064894.94348 -14067300.35746  21712118.2004   21712113.8394
   -704670.24345                  25180273.4194
 -16268234.40248 -12656641.09146  22149559.9354   22149556.4144
 10  3 18  2 34 30.0000000  0 10G 3G 5G30G21G31G24G 6G16G18G29
  -1046578.52546   -726779.53943  24595638.1514   24595633.5094
    218382.93845                  24937633.9424
  -8891929.66447  -6918786.45944  23636680.0714   23636677.1444
 -22531212.78248 -17542330.48247  21112137.3484   21112132.5754
 -20011944.16448 -15576101.15047  21462495.6234   21462490.9304
 -22705542.38048 -17665343.04847  20515376.6774   20515374.2324
 -10080524.39946  -7826071.41544  23388192.1264   23388188.6064
 -18132013.78548 -14119600.76347  21699345.8494   21699341.2214
   -784343.91645   -591650.65343  25165113.1754   25165107.0954
 -16196206.51348 -12600515.46346  22163266.7564   22163263.0494
 10  3 18  2 35  0.0000000  0 10G 3G 5G30G21G31G24G 6G16G18G29
  -1142246.47946   -801325.97643  24577432.4644   24577427.8274
    235472.56046                  24940885.8334
  -8794124.57647  -6842574.71144  23655291.9484   23655288.2204
 -22565019.11348 -17568673.06647  21105704.2174   21105699.9054
 -19952196.36048 -15529544.41947  21473865.1004   21473860.4874
 -22723292.78248 -17679174.52147  20511999.2904   20511996.1124
 -10158947.14046  -7887180.04544  23373267.9904   23373264.4034
 -18198926.81548 -14171740.78346  21686612.9644   21686607.9784
   -864082.08746   -653784.11243  25149938.9404   25149933.4594
 -16124049.75248 -12544289.42846  22176997.8434   22176994.0374
 10  3 18  2 35 30.0000000  0 10G 3G 5G30G21G31G24G 6G16G18G29
  -1237831.68746   -875807.92443  24559243.1764   24559237.5294
    253089.28245                  24944238.5744
  -8696149.66447  -6766230.64644  23673935.8034   23673932.1304
 -22598356.80448 -17594650.49147  21099360.1064   21099355.7444
 -19891976.94848 -15482620.21547  21485324.4354   21485320.3164
 -22740447.77248 -17692542.04447  20508734.3884   20508731.8124
 -10237218.38646  -7948170.62344  23358373.6914   23358370.1704
 -18265632.48948 -14223719.24446  21673919.2034   21673914.4374
   -943881.93046   -715965.67543  25134752.6264   25134748.5114
 -16051765.49247 -12487964.02646  22190752.9814   22190749.0914
 10  3 18  2 36  0.0000000  0 10G 3G 5G30G21G31G24G 6G16G18G29
  -1333334.49446   -950225.67643  24541068.8234   24541065.6724
    271232.50946                  24947691.6114
  -8598006.64547  -6689755.57344  23692612.0264   23692608.4614
 -22631225.81448 -17620262.70247  21093105.4594   21093101.3744
 -19831288.44448 -15435330.47247  21496873.1374   21496868.6004
 -22757007.72248 -17705445.90047  20505583.0854   20505580.4454
 -10315338.58746  -8009043.49044  23343507.6874   23343504.5544
 -18332130.12748 -14275535.57646  21661265.1984   21661260.4454
  -1023741.56746   -778193.86643  25119555.8144   25119550.9304
 -15979355.37447 -12431540.56546  22204531.9484   22204528.6904
 10  3 18  2 36 30.0000000  0 10G 3G 5G30G21G31G24G 6G16G18G29
  -1428753.14546  -1024577.84443  24522911.1814   24522907.8554
    289903.08346                  24951244.2194
  -8499695.36847  -6613149.39744  23711319.9114   23711316.4524
 -22663624.25148 -17645508.24647  21086940.0814   21086935.8664
 -19770131.71148 -15387675.87647  21508510.5184   21508506.4334
 -22772971.24348 -17717885.00147  20502545.6024   20502543.0434
 -10393306.30747  -8069797.52344  23328671.6244   23328667.4834
 -18398416.55848 -14327187.33247  21648651.1704   21648646.3074
  -1103657.45146   -840465.84543  25104347.9054   25104343.3614
 -15906819.39247 -12375019.03146  22218335.1924   22218331.6444
 10  3 18  2 37  0.0000000  0 10G 3G 5G30G21G31G24G 6G16G18G29
  -1524087.95146  -1098864.72343  24504769.9094   24504766.1654
    309100.04045                  24954897.8334
  -8401218.26547  -6536414.00344  23730058.9884   23730055.9424
 -22695552.48448 -17670387.37547  21080864.8164   21080859.6164
 -19708509.98148 -15339658.95447  21520236.9274   21520232.7164
 -22788339.01848 -17729859.88147  20499620.9494   20499618.4144
 -10471122.28047  -8130433.34244  23313863.2704   23313859.3404
 -18464491.63248 -14378674.40946  21636077.6464   21636072.6404
  -1183627.95346   -902780.42543  25089130.4014   25089125.1414
 -15834159.92948 -12318401.28346  22232161.9244   22232158.4404
 10  3 18  2 37 30.0000000  0 10G 3G 5G30G21G31G24G 6G16G18G29
  -1619337.37746  -1173085.01943  24486644.4654   24486641.2004
    328823.39045                  24958650.7204
  -8302575.56347  -6459549.53344  23748830.5504   23748827.3144
 -22727009.29248 -17694899.17847  21074878.5934   21074873.5494
 -19646424.50648 -15291280.67147  21532051.8044   21532047.5994
 -22803110.25948 -17741369.93247  20496810.2614   20496807.3144
 -10548785.58547  -8190950.19544  23299084.5664   23299081.3954
 -18530352.92948 -14429994.89547  21623544.3584   21623539.6024
  -1263650.13146   -965135.26943  25073902.6064   25073897.4264
 -15761377.32148 -12261687.58146  22246011.9534   22246008.2824
 10  3 18  2 38  0.0000000  0 10G 3G 5G30G21G31G24G 6G16G18G29
  -1714501.76846  -1247239.09843  24468536.2004   24468531.8824
    349072.64645                  24962502.6884
  -8203768.86147  -6382557.33044  23767632.9794   23767629.7424
 -22757994.74448 -17719043.67947  21068982.2004   21068977.6184
 -19583878.09248 -15242543.20747  21543953.6364   21543948.8374
 -22817285.60048 -17752415.65047  20494112.6894   20494110.2084
 -10626296.49847  -8251348.28144  23284334.9724   23284331.3504
 -18595999.78248 -14481148.27847  21611052.2734   21611047.8604
  -1343721.91546  -1027528.75243  25058665.5984   25058660.7644
 -15688473.15348 -12204879.14046  22259884.7564   22259881.2644
 10  3 18  2 38 30.0000000  0 10G 3G 5G30G21G31G24G 6G16G18G29
  -1809580.56046  -1321326.45443  24450443.2514   24450439.4694
    369847.41745                  24966456.0074
  -8104798.85747  -6305437.84044  23786465.9784   23786463.0284
 -22788507.71548 -17742820.01847  21063176.1304   21063171.5084
 -19520872.44948 -15193447.89847  21555943.2504   21555938.9854
 -22830864.61448 -17762996.68747  20491528.8124   20491525.9624
 -10703654.60847  -8311627.31044  23269614.3654   23269610.9404
 -18661429.92948 -14532132.80247  21598601.3264   21598596.5694
  -1423840.36146  -1089958.62443  25043419.0754   25043414.5854
 -15615448.38247 -12147976.73946  22273780.9594   22273777.6654
 10  3 18  2 39  0.0000000  0 10G 3G 5G30G21G31G24G 6G16G18G29
  -1904572.91146  -1395346.44043  24432367.4234   24432363.3454
    391147.67945                  24970509.7274
  -8005666.30847  -6228191.72244  23805330.6954   23805327.5894
 -22818547.35548 -17766227.51947  21057459.6324   21057454.5404
 -19457409.19248 -15143996.01247  21568020.1174   21568015.3934
 -22843846.80948 -17773112.68047  20489058.2024   20489055.4634
 -10780859.09747  -8371786.62444  23254921.9974   23254919.0354
 -18726641.32648 -14582946.88147  21586191.8524   21586187.4314
  -1504002.56446  -1152422.60543  25028165.1964   25028159.8404
 -15542303.82648 -12090981.00346  22287700.1754   22287696.7684
 10  3 18  2 39 30.0000000  0 10G 3G 5G30G21G31G24G 6G16G18G29
  -1999478.32646  -1469298.64643  24414306.4484   24414303.0944
    412972.81045                  24974664.2924
  -7906373.01247  -6150820.32544  23824225.3464   23824222.2644
 -22848113.67348 -17789266.20247  21051833.1864   21051828.3204
 -19393490.95848 -15094189.59847  21580183.1984   21580178.8964
 -22856232.37349 -17782763.76547  20486701.1504   20486698.7284
 -10857910.28647  -8431826.51944  23240260.4794   23240256.8744
 -18791633.12348 -14633589.84547  21573824.0394   21573819.8084
  -1584206.18546  -1214918.84643  25012902.4024   25012897.4294
 -15469041.09248 -12033893.16346  22301641.4324   22301638.1184
 10  3 18  2 40  0.0000000  0 10G 3G 5G30G21G31G24G 6G16G18G29
  -2094295.63046  -1543182.30743  24396263.4234   24396259.6394
    435322.68245                  24978917.2634
  -7806919.67047  -6073324.20444  23843150.4844   23843147.8904
 -22877205.41548 -17811935.08347  21046297.2484   21046292.6744
 -19329119.57648 -15044030.08147  21592432.6304   21592428.4154
 -22868020.82249 -17791949.57147  20484458.2144   20484455.5234
 -10934807.64047  -8491746.52844  23225626.8874   23225624.1694
 -18856403.14848 -14684059.99547  21561499.1414   21561494.1824
  -1664448.51046  -1277445.26543  24997632.2784   24997628.5004
 -15395660.57748 -11976713.55246  22315605.5034   22315601.9774
 10  3 18  2 40 30.0000000  0 10G 3G 5G30G21G31G24G 6G16G18G29
  -2189024.42946  -1616996.95143  24378236.7694   24378233.2734
    458196.69245                  24983268.2154
  -7707307.49647  -5995704.34644  23862106.3164   23862103.8764
 -22905822.23648 -17834233.89647  21040851.7494   21040846.8984
 -19264297.30248 -14993519.22647  21604767.6974   21604763.5114
 -22879212.51549 -17800670.36547  20482328.7034   20482325.7384
 -11011550.79647  -8551546.38045  23211023.4194   23211020.0384
 -18920950.01748 -14734356.26447  21549215.8024   21549212.1254
  -1744727.05046  -1339999.90443  24982356.0254   24982351.4784
 -15322163.52448 -11919443.12246  22329591.8414   22329587.9574
 10  3 18  2 41  0.0000000  0 10G 3G 5G30G21G31G24G 6G16G18G29
  -2283664.22346  -1690742.20343  24360227.6204   24360224.6554
    481595.03744                  24987720.2624
  -7607537.01747  -5917961.12844  23881091.8174   23881089.7044
 -22933963.20248 -17856161.92047  21035496.4874   21035491.9444
 -19199026.16148 -14942658.61047  21617188.7474   21617184.6154
 -22889807.04149 -17808925.83147  20480312.4104   20480309.5504
 -11088139.26047  -8611225.68845  23196449.2704   23196445.8344
 -18985271.80448 -14784477.14247  21536976.0594   21536972.1084
  -1825039.03146  -1402580.58843  24967073.7094   24967068.2214
 -15248550.99048 -11862082.71246  22343599.6384   22343595.8324
 10  3 18  2 41 30.0000000  0 10G 3G 5G30G21G31G24G 6G16G18G29
  -2378214.35246  -1764417.61043  24342235.2204   24342231.6754
  -1069902.96845                  24992273.6334
  -7507609.76847  -5840095.76144  23900107.2814   23900104.8154
 -22961628.03248 -17877718.92547  21030232.1994   21030227.8664
 -19133308.21948 -14891449.82947  21629694.5434   21629690.1754
 -22899804.47749 -17816716.03647  20478410.2134   20478407.2784
 -11164572.98947  -8670784.41445  23181904.3644   23181900.5554
 -19049366.84848 -14834421.33247  21524779.1504   21524774.7394
  -1905381.87846  -1465185.35143  24951784.1654   24951780.6144
 -15174823.95548 -11804633.08646  22357629.2844   22357625.8014
 10  3 18  2 42  0.0000000  0 10G 3G 5G30G21G31G24G 6G16G18G29
  -2472677.51546  -1838025.25243  24324259.2974   24324256.1514
                                  24996922.9534
  -7407530.13647  -5762111.63244  23919152.2674   23919148.7344
 -22988819.04948 -17898906.73547  21025058.0504   21025052.9904
 -19067148.62548 -14839896.91247  21642284.3864   21642279.9044
 -22909207.67148 -17824043.19047  20476620.5494   20476617.7564
 -11240854.57747  -8730224.58844  23167388.0924   23167384.9014
 -19113237.36948 -14884190.56447  21512625.0164   21512620.6134
  -1985756.26346  -1527814.68643  24936489.4774   24936484.7194
 -15100986.45148 -11747097.36546  22371679.8704   22371676.9874
 10  3 18  2 42 30.0000000  0  9G 3G30G21G31G24G 6G16G18G29
  -2567047.74446  -1911560.48343  24306300.7914   24306297.7104
  -7307293.53847  -5684005.18744  23938226.1864   23938223.5274
 -23015530.82848 -17919721.10347  21019974.8174   21019969.8384
 -19000544.64148 -14787997.71147  21654958.3524   21654953.7794
 -22918011.47649 -17830903.28247  20474945.2834   20474942.5224
 -11316978.78947  -8789542.12544  23152901.4974   23152898.4334
 -19176875.39748 -14933778.63347  21500515.1584   21500510.7174
  -2066153.74446  -1590462.02043  24921190.1544   24921185.4134
 -15027034.34848 -11689472.36746  22385752.8674   22385749.4634
 10  3 18  2 43  0.0000000  0  9G 3G30G21G31G24G 6G16G18G29
  -2661327.25646  -1985025.02343  24288360.4524   24288356.6534
  -7206903.64547  -5605779.31644  23957329.8374   23957327.1934
 -23041765.50448 -17940163.71147  21014982.6874   21014977.7634
 -18933500.88848 -14735755.83047  21667716.3664   21667712.2054
 -22926218.68549 -17837298.51647  20473383.5214   20473380.8924
 -11392947.76847  -8848738.71844  23138445.9144   23138442.3654
 -19240282.08248 -14983186.44447  21488449.7824   21488444.7414
  -2146574.61646  -1653127.56243  24905887.4174   24905882.1584
 -14952971.34048 -11631760.94846  22399846.5844   22399843.0154
 10  3 18  2 43 30.0000000  0 10G 3G 5G30G21G31G24G 6G16G18G29
  -2755515.08346  -2058418.11443  24270437.4514   24270432.7704
                                  25011477.3434
  -7106361.57547  -5527434.84844  23976462.3934   23976459.2024
 -23067522.14548 -17960233.82147  21010081.1034   21010076.5264
 -18866019.39148 -14683172.84947  21680557.7894   21680553.5124
 -22933829.01649 -17843228.63547  20471935.5784   20471932.6454
 -11468760.84947  -8907813.85444  23124018.2144   23124015.1424
 -19303455.39748 -15032412.39747  21476427.7764   21476423.2364
  -2227015.75846  -1715808.91343  24890579.3164   24890574.5094
 -14878798.13348 -11573963.65846  22413961.2184   22413957.5614
 10  3 18  2 44  0.0000000  0 10G 3G 5G30G21G31G24G 6G16G18G29
  -2849610.69646  -2131739.36243  24252531.2624   24252527.0324
                                  25016524.5674
  -7005668.49947  -5448972.72044  23995623.4084   23995620.0644
 -23092800.32648 -17979931.09947  21005270.9234   21005265.8834
 -18798102.34048 -14630250.47147  21693481.9504   21693477.8454
 -22940842.74749 -17848693.87647  20470600.7704   20470597.9284
 -11544418.23847  -8966767.65145  23109622.1964   23109617.7924
 -19366393.99748 -15081455.46047  21464451.1814   21464446.6344
  -2307475.10746  -1778504.49543  24875268.2754   24875263.2764
 -14804515.95448 -11516081.45446  22428096.7634   22428093.1414
 10  3 18  2 44 30.0000000  0 10G 3G 5G30G21G31G24G 6G16G18G29
  -2943613.44646  -2204988.25543  24234643.3734   24234639.2004
                                  25021673.5044
  -6904825.73847  -5370393.92944  24014813.5264   24014810.2324
 -23117600.13848 -17999255.61747  21000551.6904   21000546.8504
 -18729752.32448 -14576990.72347  21706488.4844   21706484.0994
 -22947260.14048 -17853694.44347  20469379.3474   20469376.8344
 -11619919.69047  -9025599.95244  23095254.2674   23095250.6714
 -19429096.57848 -15130314.61347  21452519.0734   21452514.8414
  -2387950.12746  -1841212.26843  24859954.6914   24859948.7174
 -14730125.72748 -11458115.04846  22442252.6424   22442249.1124
 10  3 18  2 45  0.0000000  0  9G 3G30G21G31G24G 6G16G18G29
  -3037522.85446  -2278164.41243  24216772.8324   24216769.4264
  -6803834.01646  -5291699.11344  24034031.6084   24034028.1294
 -23141920.28449 -18018206.37647  20995923.8974   20995919.0074
 -18660970.98848 -14523394.88847  21719577.0224   21719573.0454
 -22953081.10649 -17858230.25147  20468271.7964   20468269.1104
 -11695264.57847  -9084310.25244  23080917.1994   23080913.1634
 -19491560.80748 -15178988.02747  21440632.5344   21440627.9194
  -2468437.36446  -1903929.55543  24844638.4164   24844633.1064
 -14655628.03148 -11400064.91446  22456429.3204   22456425.7394
 10  3 18  2 45 30.0000000  0  9G 3G30G21G31G24G 6G16G18G29
  -3131338.35346  -2351267.35643  24198921.1204   24198916.5204
  -6702694.70447  -5212889.26044  24053277.1524   24053274.6344
 -23165760.81548 -18036783.41147  20991386.9044   20991382.1484
 -18591761.14648 -14469465.14147  21732747.4904   21732743.2544
 -22958306.01248 -17862301.59747  20467277.5024   20467274.4874
 -11770452.74147  -9142898.42145  23066608.9614   23066606.2674
 -19553785.44348 -15227474.75947  21428791.3654   21428787.1994
  -2548934.70446  -1966654.71143  24829320.6834   24829315.2504
 -14581024.18348 -11341932.05446  22470625.8254   22470622.1964
 10  3 18  2 46  0.0000000  0  9G 3G30G21G31G24G 6G16G18G29
  -3225059.18846  -2424296.53143  24181085.5714   24181081.8994
  -6601408.64847  -5133965.06844  24072551.9684   24072548.1444
 -23189121.49748 -18054986.53447  20986941.5384   20986937.0814
 -18522124.89148 -14415203.13447  21745998.3084   21745994.2094
 -22962934.85448 -17865908.48447  20466396.4514   20466393.9214
 -11845484.19047  -9201364.45845  23052331.5204   23052328.5984
 -19615768.78648 -15275773.46147  21416996.4354   21416992.3694
  -2629439.39146  -2029385.58943  24814001.4064   24813996.2984
 -14506315.44148 -11283717.46146  22484842.0004   22484838.9124
 10  3 18  2 46 30.0000000  0  9G 3G30G21G31G24G 6G16G18G29
  -3318684.12846  -2497251.02243  24163269.8964   24163266.4504
  -6499976.60246  -5054927.10244  24091854.0654   24091850.6424
 -23212000.89348 -18072814.62547  20982587.5444   20982583.2324
 -18452063.92048 -14360610.17847  21759330.9404   21759326.6584
 -22966967.39448 -17869050.73147  20465629.1324   20465626.5734
 -11920357.80947  -9259707.52145  23038083.2804   23038080.2594
 -19677508.39148 -15323882.24547  21405248.0644   21405243.4254
  -2709948.36246  -2092119.85143  24798680.8634   24798675.6084
 -14431501.88148 -11225421.20846  22499078.6644   22499075.6814
 10  3 18  2 47  0.0000000  0  9G 3G30G21G31G24G 6G16G18G29
  -3412213.92246  -2570131.37843  24145470.7754   24145468.4954
  -6398400.72347  -4975777.06044  24111183.6354   24111180.2964
 -23234400.05448 -18090268.52447  20978325.3324   20978320.6824
 -18381581.67348 -14305688.95647  21772743.2224   21772739.2104
 -22970405.12748 -17871729.48147  20464974.9024   20464971.8804
 -11995074.51747  -9317928.27945  23023864.6474   23023862.7534
 -19739003.82748 -15371800.76647  21393545.8524   21393541.6674
  -2790459.51246  -2154855.77843  24783360.6484   24783355.3444
 -14356585.30948 -11167044.68046  22513334.9094   22513331.0444
 10  3 18  2 47 30.0000000  0 10G 3G 5G30G21G31G24G 6G16G18G29
  -3505647.16446  -2642936.47843  24127691.1364   24127688.3414
                                  25054629.7334
  -6296681.31946  -4896515.19944  24130539.8954   24130536.4374
 -23256318.49648 -18107347.82447  20974154.6124   20974150.0364
 -18310679.74848 -14250440.70747  21786235.7674   21786230.9004
 -22973247.57748 -17873944.37747  20464434.3424   20464431.3194
 -12069633.34147  -9376026.05745  23009676.6694   23009673.7394
 -19800252.40348 -15419526.92947  21381890.2714   21381886.2564
  -2870969.71046  -2217590.96743  24768038.9614   24768033.8224
 -14281566.32548 -11108588.33246  22527610.6764   22527606.8774
 10  3 18  2 48  0.0000000  0 10G 3G 5G30G21G31G24G 6G16G18G29
  -3598983.42946  -2715666.03043  24109929.9074   24109927.0184
                                  25060468.0384
  -6194820.03946  -4817142.77144  24149922.6344   24149920.0564
 -23277755.74748 -18124052.17447  20970075.1744   20970070.0884
 -18239360.68748 -14194867.41947  21799806.8444   21799802.8474
 -22975495.15448 -17875695.72347  20464006.6124   20464003.8104
 -12144034.33347  -9434000.83944  22995519.0834   22995515.0334
 -19861252.84548 -15467059.72347  21370282.5124   21370278.7244
  -2951476.83046  -2280323.76543  24752719.1704   24752714.8344
 -14206446.03648 -11050053.05346  22541905.4964   22541902.4514
 10  3 18  2 48 30.0000000  0 10G 3G 5G30G21G31G24G 6G16G18G29
  -3692219.41846  -2788317.44143  24092187.5694   24092184.3284
    390337.56444                  25066404.1634
  -6092814.48846  -4737657.92444  24169333.9074   24169330.6774
 -23298707.70048 -18140378.36847  20966087.7524   20966082.8164
 -18167623.61348 -14138968.40547  21813458.1904   21813453.7114
 -22977144.80748 -17876981.15947  20463692.5894   20463690.3684
 -12218273.80747  -9491849.78044  22981391.2194   22981388.3624
 -19921999.90748 -15514395.10047  21358722.6844   21358718.8484
  -3031974.53746  -2343049.20743  24737400.2284   24737394.9794
 -14131222.29548 -10991437.15746  22556220.4034   22556216.6954
 10  3 18  2 49  0.0000000  0 10G 3G 5G30G21G31G24G 6G16G18G29
  -3785363.58246  -2860897.29643  24074462.2754   24074459.3464
                                  25072436.5934
  -5990675.81546  -4658069.37444  24188770.3484   24188767.7234
 -23319184.52848 -18156334.33147  20962191.5134   20962186.3364
 -18095480.45748 -14082752.96847  21827186.4734   21827182.4184
 -22978206.77848 -17877808.66947  20463490.3864   20463487.6204
 -12292361.46847  -9549580.40445  22967292.8244   22967288.8714
 -19982501.93048 -15561539.53547  21347209.6464   21347205.0544
  -3112469.81846  -2405772.83643  24722082.9074   24722077.1874
 -14055905.60848 -10932748.84246  22570552.7064   22570548.6814
 10  3 18  2 49 30.0000000  0  9G 3G30G21G31G24G 6G16G18G29
  -3878406.28646  -2933398.13443  24056757.4144   24056753.9264
  -5888395.51046  -4578370.46644  24208233.6954   24208229.9844
 -23339175.93948 -18171912.04347  20958387.1954   20958382.3374
 -18022924.38048 -14026215.77247  21840993.3864   21840989.1714
 -22978671.85148 -17878171.05747  20463401.8404   20463399.2894
 -12366287.41147  -9607185.03445  22953225.5764   22953221.9154
 -20042747.52348 -15608484.15647  21335745.2294   21335740.9694
  -3192950.77346  -2468485.24343  24706768.1324   24706762.8644
 -13980487.16448 -10873981.23646  22584904.2344   22584900.3624
 10  3 18  2 50  0.0000000  0  9G 3G30G21G31G24G 6G16G18G29
  -3971350.26446  -3005822.00143  24039071.4294   24039066.7744
  -5785978.43646  -4498564.95543  24227722.6864   24227719.1484
 -23358685.21648 -18187114.07547  20954674.4644   20954669.8454
 -17949961.04748 -13969361.23647  21854877.8984   21854873.7194
 -22978543.85348 -17878071.30547  20463426.3314   20463423.7574
 -12440055.12847  -9664666.36245  22939187.8594   22939183.8264
 -20102738.74748 -15655230.56047  21324329.4684   21324325.0434
  -3273418.11446  -2531187.07543  24691455.4694   24691450.4294
 -13904971.75248 -10815138.06346  22599274.5714   22599270.6974
 10  3 18  2 50 30.0000000  0  9G 3G30G21G31G24G 6G16G18G29
  -4064194.63046  -3078168.28243  24021403.4344   24021399.2014
  -5683425.06346  -4418653.27144  24247238.7424   24247235.1274
 -23377711.99948 -18201940.14247  20951053.7434   20951048.8404
 -17876592.38448 -13912190.86747  21868839.6864   21868835.0054
 -22977822.89648 -17877509.52047  20463563.5134   20463560.8424
 -12513663.78047  -9722023.71745  22925180.7474   22925177.5194
 -20162473.36348 -15701777.01547  21312962.0324   21312957.8134
  -3353868.63846  -2593875.74243  24676146.5324   24676141.4004
 -13829359.64247 -10756219.53246  22613662.6574   22613659.1134
 10  3 18  2 51  0.0000000  0 10G 3G 5G30G21G31G24G 6G16G18G29
  -4156937.83846  -3150435.66843  24003756.7014   24003751.8054
    757049.35144                  25097546.6704
  -5580735.84846  -4338635.71744  24266779.1034   24266775.9904
 -23396255.35948 -18216389.50747  20947525.3494   20947520.3704
 -17802820.35648 -13854706.17147  21882877.8064   21882873.3454
 -22976508.80548 -17876485.55447  20463813.6834   20463810.8574
 -12587112.46647  -9779256.42745  22911203.6824   22911200.4944
 -20221949.08348 -15748121.72947  21301644.4094   21301639.6054
  -3434299.07546  -2656548.82343  24660840.7204   24660835.6554
 -13753651.47147 -10697226.16346  22628069.3284   22628065.8094
 10  3 18  2 51 30.0000000  0 10G 3G 5G30G21G31G24G 6G16G18G29
  -4249580.19546  -3222624.47144  23986126.9694   23986122.2664
    791314.47445                  25104067.9404
  -5477912.81446  -4258513.88044  24286345.6914   24286342.1684
 -23414315.60748 -18230462.42447  20944088.4664   20944083.6984
 -17728647.82348 -13796909.39947  21896992.3194   21896988.3374
 -22974602.72948 -17875000.29247  20464176.2684   20464173.2064
 -12660401.70647  -9836364.91345  22897257.5264   22897253.8404
 -20281164.36748 -15794263.50347  21290375.9174   21290371.3794
  -3514706.98846  -2719204.33143  24645539.7024   24645535.3014
 -13677848.36647 -10638158.81846  22642494.3224   22642491.3694
 10  3 18  2 52  0.0000000  0 10G 3G 5G30G21G31G24G 6G16G18G29
  -4342121.59446  -3294734.62443  23968515.7354   23968512.7454
    826088.45545                  25110684.0274
  -5374957.78246  -4178289.16244  24305937.6944   24305933.6774
 -23431893.34748 -18244159.36747  20940743.4914   20940738.9034
 -17654077.78848 -13738802.88947  21911182.4904   21911178.1864
 -22972105.57448 -17873054.44547  20464651.5794   20464648.6784
 -12733531.51947  -9893349.16745  22883341.2454   22883338.3214
 -20340117.95448 -15840201.36347  21279157.5814   21279153.0444
  -3595090.74846  -2781841.03243  24630243.4334   24630238.3814
 -13601951.50147 -10579018.40746  22656937.2964   22656933.4934
 10  3 18  2 52 30.0000000  0 10G 3G 5G30G21G31G24G 6G16G18G29
  -4434561.21846  -3366765.47343  23950925.2664   23950922.1104
    861370.53145                  25117398.7944
  -5271871.82346  -4097962.43344  24325554.5794   24325551.6344
 -23448987.67648 -18257479.61647  20937490.7674   20937485.8144
 -17579112.76348 -13680388.58246  21925448.2184   21925443.7134
 -22969017.91548 -17870648.47047  20465239.0774   20465236.2864
 -12806501.72547  -9950209.05745  22869454.7904   22869451.6604
 -20398808.53948 -15885934.29347  21267989.2574   21267984.5344
  -3675447.34946  -2844456.56144  24614951.7634   24614947.2964
 -13525961.83747 -10519805.68646  22671397.5474   22671393.7304
 10  3 18  2 53  0.0000000  0 10G 3G 5G30G21G31G24G 6G16G18G29
  -4526898.30246  -3438716.44743  23933352.3844   23933350.4824
    897160.07645                  25124209.9404
  -5168655.47146  -4017534.12543  24345195.2924   24345193.0194
 -23465599.00848 -18270423.50747  20934329.4014   20934325.0204
 -17503754.90148 -13621668.17247  21939788.3224   21939783.8204
 -22965339.83348 -17867782.42947  20465939.0064   20465936.0574
 -12879311.81247 -10006944.19345  22855599.8644   22855596.3084
 -20457233.74448 -15931460.41947  21256870.9114   21256866.7384
  -3755773.37346  -2907048.25844  24599666.2994   24599661.8924
 -13449880.00347 -10460521.14346  22685875.4424   22685871.4864
 10  3 18  2 53 30.0000000  0 10G 3G 5G30G21G31G24G 6G16G18G29
  -4619132.54646  -3510587.30443  23915802.0444   23915798.8814
    933455.92845                  25131117.1524
  -5065310.06946  -3937005.22543  24364861.4904   24364858.6714
 -23481726.82548 -18282990.63747  20931260.5744   20931256.1644
 -17428006.74748 -13562643.64947  21954202.3994   21954198.5424
 -22961072.35448 -17864457.12547  20466751.0784   20466748.4734
 -12951961.72447 -10063554.50745  22841775.4734   22841771.5954
 -20515392.26748 -15976778.75347  21245803.6164   21245799.8134
  -3836066.54746  -2969614.39344  24584387.0254   24584382.3324
 -13373707.28347 -10401165.79146  22700370.6344   22700367.5254
 10  3 18  2 54  0.0000000  0 10G 3G 5G30G21G31G24G 6G16G18G29
  -4711263.03246  -3582377.28743  23898270.6664   23898267.5674
    970257.21745                  25138118.8624
  -4961836.85146  -3856376.73243  24384552.1994   24384548.7134
 -23497370.76248 -18295180.70647  20928283.5844   20928279.2154
 -17351870.34448 -13503316.59247  21968690.8464   21968686.5284
 -22956215.33448 -17860672.43247  20467675.2804   20467672.4474
 -13024451.02347 -10120039.65345  22827980.4944   22827977.9824
 -20573282.01648 -16021887.65447  21234788.0544   21234783.3664
  -3916323.95146  -3032152.65043  24569114.3214   24569109.9164
 -13297444.46547 -10341740.24046  22714882.3984   22714879.4694
 10  3 18  2 54 30.0000000  0 10G 3G 5G30G21G31G24G 6G16G18G29
  -4803289.51146  -3654086.24643  23880758.3944   23880755.0864
   1007562.60245                  25145218.7364
  -4858237.33346  -3775649.83943  24404266.1304   24404263.5504
 -23512531.35548 -18306994.15447  20925398.6554   20925394.1834
 -17275348.72748 -13443689.36347  21983252.5744   21983248.3524
 -22950769.93248 -17856429.25047  20468711.2954   20468708.6274
 -13096779.81547 -10176399.74745  22814217.0824   22814213.6874
 -20630901.53648 -16066785.97747  21223823.1014   21223818.7864
  -3996543.28546  -3094661.20243  24553849.1374   24553844.2454
 -13221092.23847 -10282244.99846  22729412.5454   22729408.9644
 10  3 18  2 55  0.0000000  0 10G 3G 5G30G21G31G24G 6G16G18G29
  -4895211.17446  -3725713.50543  23863265.8834   23863262.9794
   1045371.70445  -2624490.40842  25152412.7984   25152406.5974
  -4754512.15846  -3694825.04843  24424004.1194   24424002.1234
 -23527207.54448 -18318430.14147  20922605.7534   20922601.2654
 -17198443.97148 -13383763.58447  21997886.9164   21997883.0494
 -22944736.36548 -17851727.77347  20469859.5854   20469856.7094
 -13168947.43547 -10232634.24045  22800484.0814   22800481.0884
 -20688248.66248 -16111472.05047  21212910.3874   21212905.5424
  -4076721.28746  -3157137.56343  24538592.3874   24538587.4604
 -13144651.22947 -10222680.56445  22743958.7024   22743954.8554
 10  3 18  2 55 30.0000000  0 10G 3G 5G30G21G31G24G 6G16G18G29
  -4987026.81046  -3797258.13743  23845794.5484   23845791.3374
   -491735.98845  -3822236.71342  25159701.0444   25159697.2344
  -4650662.31346  -3613903.07143  24443766.7354   24443763.1524
 -23541399.52748 -18329488.83047  20919905.2294   20919900.4884
 -17121158.25148 -13323540.95447  22012593.8304   22012589.6804
 -22938114.76748 -17846568.08247  20471119.7494   20471116.7934
 -13240953.30647 -10288742.69945  22786781.7874   22786778.1834
 -20745321.41448 -16155944.32747  21202050.1224   21202044.9604
  -4156855.05146  -3219579.42543  24523343.0784   24523338.0574
 -13068122.08547 -10163047.48246  22758521.5594   22758518.0834
 10  3 18  2 56  0.0000000  0 10G 3G 5G30G21G31G24G 6G16G18G29
  -5078737.98347  -3868721.40343  23828342.6804   23828338.4444
   -452923.80945  -3791993.44742  25167089.5344   25167085.5934
  -4546690.70046  -3532886.20943  24463552.0504   24463548.4954
 -23555109.35048 -18340171.81047  20917296.3644   20917291.7184
 -17043496.07848 -13263024.98446  22027372.3804   22027367.7504
 -22930908.06448 -17840952.46947  20472491.0954   20472488.3254
 -13312798.93047 -10344726.28945  22773110.3344   22773106.7794
 -20802119.73548 -16200202.76647  21191241.4794   21191236.7714
  -4236943.25546  -3281985.82844  24508103.0954   24508098.3884
 -12991507.29847 -10103347.66045  22773101.1304   22773097.2024
 10  3 18  2 56 30.0000000  0 10G 3G 5G30G21G31G24G 6G16G18G29
  -5170342.45347  -3940101.49044  23810910.2754   23810907.1654
   -413611.02845  -3761360.06542  25174570.6944   25174566.3504
  -4442596.89946  -3451774.17243  24483359.6004   24483357.3384
 -23568334.76548 -18350477.33147  20914779.6344   20914774.9744
 -16965458.29848 -13202216.33146  22042222.6844   22042218.2774
 -22923115.15448 -17834880.06047  20473973.9254   20473971.3104
 -13384482.71247 -10400583.77045  22759469.1384   22759466.1644
 -20858640.26348 -16244244.73547  21180485.9874   21180481.8094
  -4316981.71246  -3344353.44243  24492871.6844   24492867.2534
 -12914806.10047 -10043580.49545  22787696.6884   22787692.3304
 10  3 18  2 57  0.0000000  0 10G 3G 5G30G21G31G24G 6G16G18G29
  -5261839.26446  -4011397.66944  23793499.7054   23793496.4724
   -373798.31645  -3730337.14242  25182145.4354   25182141.0984
  -4338381.85746  -3370567.67143  24503191.3024   24503188.5804
 -23581075.40748 -18360405.09647  20912355.1744   20912350.4644
 -16887046.89648 -13141116.54346  22057144.2304   22057139.2664
 -22914736.25148 -17828351.04547  20475568.4344   20475565.7924
 -13456004.09547 -10456314.69045  22745858.3994   22745856.0484
 -20914881.03148 -16288068.70547  21169783.6344   21169779.4924
  -4396967.66246  -3406680.12043  24477650.7134   24477645.6404
 -12838018.80247  -9983746.24245  22802309.0914   22802305.1794
 10  3 18  2 57 30.0000000  0 10G 3G 5G30G21G31G24G 6G16G18G29
  -5353228.74247  -4082610.20144  23776109.1224   23776105.6364
   -333488.05845  -3698926.57042  25189816.5474   25189811.8844
  -4234047.90246  -3289268.47343  24523045.6314   24523042.0784
 -23593332.64248 -18369956.19147  20910022.7154   20910018.0414
 -16808265.77948 -13079728.66846  22072135.2184   22072131.2034
 -22905773.45048 -17821367.04347  20477274.1904   20477271.3714
 -13527363.85247 -10511919.68345  22732279.4404   22732276.4254
 -20970841.46348 -16331674.24347  21159134.8824   21159129.9994
  -4476898.96046  -3468964.26543  24462440.2774   24462434.9874
 -12761147.73147  -9923846.71645  22816936.7884   22816933.2054
 10  3 18  2 58  0.0000000  0 10G 3G 5G30G21G31G24G 6G16G18G29
  -5444510.27046  -4153738.65344  23758738.8054   23758734.9974
   -292681.25945  -3667128.96142  25197583.7684   25197577.6764
  -4129596.03746  -3207877.41443  24542922.3654   24542918.7894
 -23605106.58448 -18379130.68547  20907782.1334   20907777.3374
 -16729117.40748 -13018054.61646  22087196.7634   22087192.8664
 -22896227.62848 -17813928.74147  20479090.4834   20479087.7074
 -13598561.81447 -10567398.58845  22718731.0684   22718727.7504
 -21026519.65548 -16375059.84747  21148539.7124   21148535.2444
  -4556773.18746  -3531203.99843  24447240.6414   24447235.9654
 -12684193.57847  -9863882.45245  22831580.3994   22831577.4564
 10  3 18  2 58 30.0000000  0 10G 3G 5G30G21G31G24G 6G16G18G29
  -5535684.24447  -4224783.30744  23741388.4834   23741384.7514
                                  25205442.1734   25205436.1154
  -4025028.63546  -3126396.35743  24562820.9024   24562817.3534
 -23616398.14548 -18387929.29947  20905633.3514   20905628.6624
 -16649605.27948 -12956097.12946  22102327.7544   22102323.2484
 -22886100.22748 -17806037.25047  20481017.5704   20481014.8954
 -13669598.61747 -10622751.91745  22705213.0424   22705210.1934
 -21081914.82248 -16418224.91847  21137998.4834   21137994.0404
  -4636588.45846  -3593397.65543  24432052.4044   24432047.7164
 -12607157.93947  -9803854.68945  22846239.9454   22846236.4714
 10  3 18  2 59  0.0000000  0 10G 3G 5G30G21G31G24G 6G16G18G29
  -5626745.61347  -4295740.20644  23724059.9774   23724055.6164
   -209580.95545  -3602375.53942  25213396.6564   25213390.5984
  -3920342.26246  -3044822.54943  24582741.9954   24582739.2864
 -23627202.31748 -18396348.12247  20903577.5514   20903572.5194
 -16569726.99748 -12893854.32146  22117527.8444   22117523.4934
 -22875387.44648 -17797689.63047  20483056.3764   20483053.3764
 -13740469.32147 -10677975.83145  22691726.4124   22691724.0994
 -21137020.31448 -16461164.25747  21127512.0674   21127507.4254
  -4716337.28346  -3655539.60743  24416876.9094   24416872.3454
 -12530036.90747  -9743760.38945  22860915.3134   22860911.8724
 10  3 18  2 59 30.0000000  0  9G 3G30G21G31G24G 6G16G18G29
  -5717700.18247  -4366613.89043  23706751.3554   23706748.0994
  -3815544.35046  -2963161.86743  24602683.9674   24602681.2324
 -23637525.81948 -18404392.40447  20901613.1814   20901607.9384
 -16489492.11348 -12831333.64746  22132795.9524   22132791.3474
 -22864096.46348 -17788891.46047  20485204.6684   20485201.7094
 -13811180.21247 -10733075.21145  22678270.9464   22678268.2624
 -21191841.16748 -16503881.80147  21117080.0384   21117075.4894
  -4796023.35846  -3717632.65743  24401713.1844   24401708.2994
 -12452837.67247  -9683605.14145  22875606.1464   22875603.2764
 10  3 18  3  0  0.0000000  0  9G 3G30G21G31G24G 6G16G18G29
  -5808543.41846  -4437400.81344  23689464.6194   23689460.6494
  -3710632.15546  -2881412.08043  24622648.1824   24622645.8274
 -23647364.93848 -18412059.23847  20899740.9094   20899736.0894
 -16408898.84348 -12768533.69246  22148132.4354   22148128.1794
 -22852224.27748 -17779640.40547  20487464.1794   20487461.3464
 -13881726.76647 -10788046.53245  22664846.5854   22664843.9564
 -21246371.19048 -16546372.73247  21106703.3884   21106698.7124
  -4875639.66646  -3779671.36843  24386563.0814   24386557.2774
 -12375556.99447  -9623386.44845  22890312.2814   22890308.9044
 10  3 18  3  0 30.0000000  0  9G 3G30G21G31G24G 6G16G18G29
  -5899275.49546  -4508101.14843  23672199.5694   23672194.7794
  -3605608.20846  -2799575.25143  24642633.8294   24642630.0044
 -23656720.45348 -18419349.25147  20897960.4584   20897955.4094
 -16327950.82147 -12705457.31946  22163536.2344   22163531.6944
 -22839772.83948 -17769937.98247  20489833.3674   20489830.6794
 -13952110.13047 -10842890.72045  22651452.7404   22651450.1024
 -21300609.52448 -16588636.36547  21096382.2354   21096377.6444
  -4955184.87446  -3841654.62844  24371425.9064   24371422.0384
 -12298196.77447  -9563105.77345  22905033.5714   22905030.0254
 10  3 18  3  1  0.0000000  0  9G 3G30G21G31G24G 6G16G18G29
  -5989896.53246  -4578714.92743  23654953.7924   23654950.1524
  -3500473.83346  -2717652.37544  24662640.0944   24662637.0034
 -23665593.23348 -18426263.09947  20896272.1334   20896266.9594
 -16246651.42648 -12642107.15546  22179007.0914   22179002.9624
 -22826743.37848 -17759785.14947  20492312.5904   20492310.1174
 -14022330.61047 -10897607.96045  22638090.4254   22638086.9364
 -21354555.34948 -16630672.07547  21086116.6424   21086111.6554
  -5034655.99447  -3903580.14044  24356303.4534   24356299.0024
 -12220758.18147  -9502764.02645  22919769.6094   22919766.3804
 10  3 18  3  1 30.0000000  0  9G 3G30G21G31G24G 6G16G18G29
  -6080405.15047  -4649241.10444  23637731.3624   23637727.7234
  -3395229.99746  -2635644.17744  24682667.0964   24682664.5414
 -23673982.40548 -18432800.11147  20894675.0544   20894670.5624
 -16165002.23848 -12578484.40946  22194544.6284   22194539.5854
 -22813135.92548 -17749181.92947  20494902.1484   20494899.6594
 -14092387.05847 -10952197.40345  22624759.0284   22624755.2004
 -21408206.02248 -16672477.79247  21075907.2024   21075902.7384
  -5114050.06747  -3965445.65644  24341194.1824   24341190.4964
 -12143241.40847  -9442361.35245  22934520.6914   22934517.1644
 10  3 18  3  2  0.0000000  0  9G 3G30G21G31G24G 6G16G18G29
  -6170801.32346  -4719679.65343  23620528.8344   23620526.0874
  -3289877.97846  -2553551.71843  24702715.3024   24702711.7964
 -23681888.83948 -18438960.97647  20893170.9694   20893166.1304
 -16083006.66548 -12514591.74646  22210147.4164   22210143.0544
 -22798952.25148 -17738129.71447  20497601.3014   20497598.4754
 -14162279.83147 -11006659.28045  22611459.2284   22611455.4554
 -21461560.23148 -16714052.49947  21065754.3624   21065749.5394
  -5193364.74547  -4027249.29744  24326101.8014   24326097.1984
 -12065647.42547  -9381898.51945  22949286.5354   22949282.8784
 10  3 18  3  2 30.0000000  0  9G 3G30G21G31G24G 6G16G18G29
  -6261084.52747  -4790030.16944  23603348.9354   23603346.2174
  -3184419.16246  -2471376.02043  24722783.4914   24722779.7434
 -23689313.16148 -18444746.15747  20891758.2544   20891753.5594
 -16000667.50648 -12450431.37446  22225815.9714   22225811.8924
 -22784193.56248 -17726629.42847  20500409.6634   20500406.9164
 -14232009.20247 -11060993.84845  22598190.0324   22598186.1574
 -21514616.58448 -16755395.11447  21055657.8104   21055653.1424
  -5272597.63147  -4088989.22644  24311024.0654   24311020.1604
 -11987977.44147  -9321376.47745  22964066.7144   22964062.9854
 10  3 18  3  3  0.0000000  0  9G 3G30G21G31G24G 6G16G18G29
  -6351253.79247  -4860291.89044  23586190.7374   23586187.1094
  -3078854.57046  -2389117.89843  24742872.3264   24742868.0254
 -23696254.70948 -18450155.14547  20890437.1824   20890432.4514
 -15917986.51447 -12386004.63546  22241549.7014   22241545.3614
 -22768860.00148 -17714681.20147  20503327.6764   20503324.7804
 -14301574.05947 -11115200.21145  22584952.6694   22584948.3014
 -21567372.32748 -16796503.48347  21045618.7614   21045614.1874
  -5351745.02647  -4150662.52844  24295963.3674   24295958.7304
 -11910231.34647  -9260795.11845  22978861.0914   22978856.8074
 10  3 18  3  3 30.0000000  0  9G 3G30G21G31G24G 6G16G18G29
  -6441308.59347  -4930464.44844  23569053.8874   23569050.0694
  -2973185.69046  -2306778.56243  24762978.8994   24762975.7244
 -23702714.03948 -18455188.38947  20889208.1454   20889203.6414
 -15834967.23547 -12321314.30346  22257347.7694   22257344.1924
 -22752953.25948 -17702286.33447  20506354.8864   20506352.0604
 -14370974.72247 -11169278.62545  22571745.5344   22571742.3714
 -21619826.48948 -16837376.84847  21035636.8654   21035632.3304
  -5430804.84047  -4212267.58843  24280918.1314   24280913.4014
 -11832410.76747  -9200155.71545  22993669.8374   22993666.3474
 10  3 18  3  4  0.0000000  0  9G 3G30G21G31G24G 6G16G18G29
  -6531248.80247  -5000547.74544  23551938.7014   23551934.7074
  -2867413.67946  -2224358.83943  24783107.7524   24783103.7554
 -23708691.44748 -18459846.11047  20888070.5304   20888066.0774
 -15751611.84447 -12256362.05446  22273209.7804   22273206.2214
 -22736474.18448 -17689445.49547  20509490.4104   20509487.6374
 -14440210.76347 -11223228.78245  22558570.8804   22558566.9454
 -21671977.10748 -16878013.69147  21025713.1284   21025708.4044
  -5509774.06747  -4273802.06744  24265891.1304   24265886.2614
 -11754515.96447  -9139458.47345  23008492.4274   23008489.0324
 10  3 18  3  4 30.0000000  0  9G 3G30G21G31G24G 6G16G18G29
  -6621073.19647  -5070540.77544  23534845.5824   23534840.8634
  -2761539.61146  -2141859.57643  24803254.9694   24803251.2984
 -23714186.74848 -18464128.15547  20887024.9344   20887020.0444
 -15667922.74447 -12191149.78046  22289135.6514   22289131.3514
 -22719423.32648 -17676159.10647  20512735.2924   20512732.2784
 -14509281.61647 -11277050.20745  22545426.9014   22545423.4044
 -21723821.65248 -16918412.03747  21015847.8304   21015842.7654
  -5588649.42747  -4335263.38844  24250881.4134   24250877.0404
 -11676547.10347  -9078703.51945  23023329.4604   23023326.2074
 10  3 18  3  5  0.0000000  0  9G 3G30G21G31G24G 6G16G18G29
  -6710781.33047  -5140443.21544  23517774.2864   23517770.4354
  -2655565.00346  -2059281.94343  24823420.9354   24823417.3654
 -23719200.40548 -18468034.89147  20886070.6404   20886065.7774
 -15583903.05247 -12125679.89946  22305124.3104   22305119.7524
 -22701802.07448 -17662428.25347  20516088.4564   20516085.7054
 -14578187.55247 -11330743.13145  22532314.2034   22532311.2094
 -21775359.56248 -16958571.44547  21006040.1194   21006035.4124
  -5667428.72246  -4396649.83743  24235890.2214   24235885.3604
 -11598505.48247  -9017891.87745  23038180.3344   23038177.2124
 10  3 18  3  5 30.0000000  0  9G 3G30G21G31G24G 6G16G18G29
  -6800372.71446  -5210254.64644  23500725.6344   23500722.1084
  -2549491.01146  -1976626.85843  24843605.9324   24843602.6604
 -23723732.92448 -18471566.71547  20885208.1864   20885203.5254
 -15499555.59647 -12059954.61946  22321174.7084   22321170.2284
 -22683611.55648 -17648253.82447  20519549.8904   20519547.1914
 -14646928.27347 -11384307.32445  22519233.4404   22519229.9174
 -21826587.99048 -16998489.70347  20996291.5544   20996287.3204
  -5746109.12847  -4457959.25144  24220918.0824   24220913.3824
 -11520391.69847  -8957024.01245  23053044.8344   23053041.9074
 10  3 18  3  6  0.0000000  0  9G 3G30G21G31G24G 6G16G18G29
  -6889847.21646  -5279975.02844  23483698.8494   23483695.6624
  -2443319.25046  -1893895.62443  24863809.8344   24863805.9524
 -23727784.50648 -18474723.79747  20884437.2394   20884432.5304
 -15414883.13847 -11993976.08846  22337287.4184   22337283.0274
 -22664853.25548 -17633636.95447  20523119.6374   20523116.6474
 -14715503.83547 -11437742.81945  22506183.8604   22506181.0334
 -21877505.77948 -17038165.89047  20986602.3824   20986597.8054
  -5824687.71747  -4519189.30844  24205965.4174   24205961.0204
 -11442206.95047  -8896100.84545  23067923.2364   23067919.6914
 10  3 18  3  6 30.0000000  0  9G 3G30G21G31G24G 6G16G18G29
  -6979204.21847  -5349603.83044  23466694.9934   23466691.7764
  -2337051.06446  -1811089.25543  24884032.0084   24884028.8234
 -23731355.73848 -18477506.56447  20883757.8514   20883752.6924
 -15329888.45447 -11927746.46546  22353461.1444   22353456.8744
 -22645528.35848 -17618578.59047  20526796.7954   20526793.9934
 -14783914.15147 -11491049.54745  22493166.1314   22493162.3574
 -21928111.63148 -17077599.02847  20976972.3224   20976967.6014
  -5903162.06547  -4580338.13244  24191031.4324   24191027.2254
 -11363951.81147  -8835122.84045  23082814.3664   23082811.2624
 10  3 18  3  7  0.0000000  0  9G 3G30G21G31G24G 6G16G18G29
  -7068442.98047  -5419140.51744  23449714.2834   23449709.6284
  -2230687.62246  -1728208.64943  24904272.8794   24904269.9014
 -23734447.12148 -18479915.42947  20883169.4014   20883164.5984
 -15244574.24848 -11861267.87346  22369695.9064   22369691.5424
 -22625638.24148 -17603079.78847  20530581.8034   20530578.8164
 -14852158.93147 -11544227.28145  22480179.3134   22480175.6694
 -21978403.40348 -17116787.41947  20967402.1504   20967397.4374
  -5981529.42647  -4641403.60744  24176119.2474   24176114.4444
 -11285626.97947  -8774090.51345  23097719.6814   23097715.6054
 10  3 18  3  7 30.0000000  0  9G 3G30G21G31G24G 6G16G18G29
  -7157562.70647  -5488584.45044  23432755.2744   23432751.4024
  -2124230.23446  -1645254.86043  24924531.3694   24924527.3884
 -23737058.59948 -18481950.34047  20882672.5524   20882667.6134
 -15158943.09847 -11794542.31246  22385991.1674   22385986.3604
 -22605183.56348 -17587141.07747  20534474.2104   20534471.8194
 -14920237.93347 -11597275.82445  22467224.1394   22467221.1104
 -22028379.30048 -17155729.66947  20957891.9594   20957887.3404
  -6059786.75647  -4702383.35544  24161227.0804   24161222.4784
 -11207233.05747  -8713004.33745  23112637.1384   23112633.5484
 10  3 18  3  8  0.0000000  0  9G 3G30G21G31G24G 6G16G18G29
  -7246562.87747  -5557935.23544  23415819.2154   23415815.5644
  -2017679.57245  -1562228.43943  24944806.4064   24944803.3904
 -23739190.19448 -18483611.32347  20882266.7114   20882262.0814
 -15072997.51847 -11727571.72846  22402346.0224   22402341.9264
 -22584165.31448 -17570763.21847  20538473.9894   20538471.0024
 -14988150.54747 -11650194.73445  22454301.1554   22454297.3154
 -22078037.54948 -17194424.41247  20948442.3474   20948438.2184
  -6137930.82646  -4763274.83044  24146357.1224   24146352.3664
 -11128770.30647  -8651864.56145  23127567.8854   23127565.0614
 10  3 18  3  8 30.0000000  0  9G 3G30G21G31G24G 6G16G18G29
  -7335443.04947  -5627192.47244  23398905.5884   23398901.6014
  -1911037.15746  -1479130.50843  24965100.4804   24965096.8834
 -23740842.53748 -18484898.85247  20881952.4664   20881947.3694
 -14986740.50247 -11660358.47646  22418760.2004   22418755.7194
 -22562584.98248 -17553947.37147  20542580.5324   20542577.8114
 -15055896.93247 -11702984.11245  22441409.2714   22441405.5114
 -22127376.26848 -17232870.16247  20939053.7004   20939049.0054
  -6215959.16846  -4824076.14044  24131508.8594   24131503.7364
 -11050239.76347  -8590671.93245  23142512.0644   23142508.4754
 10  3 18  3  9  0.0000000  0  9G 3G30G21G31G24G 6G16G18G29
  -7424202.96847  -5696356.02844  23382015.4134   23382011.1554
  -1804304.70846  -1395962.37743  24985410.5144   24985406.7944
 -23742016.37048 -18485813.52247  20881729.1274   20881724.4094
 -14900174.92548 -11592904.78946  22435233.1524   22435229.0824
 -22540444.12548 -17536694.75047  20546793.7714   20546790.9494
 -15123476.97847 -11755643.87645  22428549.0684   22428545.8054
 -22176393.63348 -17271065.50947  20929725.6834   20929721.2994
  -6293869.58946  -4884785.57044  24116682.5054   24116678.1604
 -10971642.34547  -8529427.20345  23157468.4294   23157464.8424
 10  3 18  3  9 30.0000000  0  9G 3G30G21G31G24G 6G16G18G29
  -7512841.28447  -5765424.85144  23365148.5274   23365143.6544
  -1697483.27246  -1312724.87643  25005737.7794   25005734.2694
 -23742711.71048 -18486355.33847  20881596.7174   20881592.1924
 -14813303.34647 -11525212.65146  22451764.0704   22451760.2304
 -22517743.65748 -17519006.06447  20551113.3544   20551110.8254
 -15190890.20347 -11808173.64845  22415720.5104   22415717.3934
 -22225087.77848 -17309008.99847  20920459.4934   20920455.4284
  -6371658.69946  -4945400.46544  24101879.6714   24101875.2904
 -10892978.35647  -8468130.61645  23172438.0874   23172434.4344
 10  3 18  3 10  0.0000000  0  9G 3G30G21G31G24G 6G16G18G29
  -7601358.21446  -5834399.06844  23348303.3674   23348299.8334
  -1590574.64346  -1229419.42943  25026082.5784   25026078.6354
 -23742929.83348 -18486525.30647  20881555.4674   20881550.3874
 -14726128.99648 -11457284.59946  22468352.8634   22468348.4484
 -22494485.46548 -17500882.80147  20555539.3024   20555536.8384
 -15258137.19447 -11860573.88245  22402924.0084   22402921.0754
 -22273457.62848 -17346699.79647  20911255.0974   20911251.0344
  -6449324.11946  -5005918.96244  24087100.0454   24087095.9514
 -10814248.82547  -8406782.94445  23187419.7044   23187416.5474
 10  3 18  3 10 30.0000000  0  9G 3G30G21G31G24G 6G16G18G29
  -7689753.06346  -5903278.15244  23331482.3284   23331479.0974
  -1483579.62346  -1146046.66643  25046442.8384   25046439.5504
 -23742670.65848 -18486323.35447  20881604.4264   20881599.3974
 -14638654.13248 -11389122.36746  22484998.8534   22484995.1774
 -22470670.66248 -17482325.80947  20560070.9594   20560068.5104
 -15325217.14347 -11912843.95945  22390159.2064   22390156.0114
 -22321501.02248 -17384136.20847  20902112.7834   20902108.4484
  -6526862.75146  -5066338.68244  24072345.6224   24072341.3744
 -10735454.29047  -8345384.61045  23202414.1474   23202410.6214
 10  3 18  3 11  0.0000000  0  9G 3G30G21G31G24G 6G16G18G29
  -7778024.95746  -5972061.41444  23314684.6854   23314681.4354
  -1376499.91946  -1062607.94043  25066819.6534   25066816.5734
 -23741934.82548 -18485749.97047  20881744.6154   20881739.5424
 -14550881.92347 -11320728.45446  22501701.1634   22501697.1114
 -22446300.73448 -17463336.25347  20564708.4914   20564705.9784
 -15392130.34547 -11964984.10945  22377425.9554   22377422.2264
 -22369216.54448 -17421317.13447  20893032.9164   20893028.2124
  -6604272.39746  -5126657.88544  24057615.3224   24057610.7174
 -10656595.48847  -8283936.20945  23217419.9104   23217415.9964
 10  3 18  3 11 30.0000000  0  9G 3G30G21G31G24G 6G16G18G29
  -7866173.32146  -6040748.42544  23297910.8334   23297907.5734
  -1269336.30946   -979103.86543  25087212.7804   25087208.2514
 -23740722.41248 -18484805.22347  20881975.4104   20881970.1854
 -14462814.95748 -11252104.84946  22518460.2304   22518455.9514
 -22421376.53448 -17443914.79047  20569451.3714   20569448.7354
 -15458875.86847 -12016993.59445  22364725.1454   22364721.3534
 -22416601.83048 -17458240.73447  20884015.4334   20884011.0394
  -6681549.46646  -5186873.78544  24042910.4674   24042904.8364
 -10577672.67147  -8222437.91645  23232438.6294   23232435.0094
 10  3 18  3 12  0.0000000  0  9G 3G30G21G31G24G 6G16G18G29
  -7954197.42846  -6109338.61644  23281160.3974   23281156.8514
  -1162089.61746   -895535.04043  25107619.9244   25107617.2394
 -23739033.39648 -18483489.09847  20882296.7804   20882291.6714
 -14374455.46148 -11183253.30346  22535274.5524   22535270.7114
 -22395899.05148 -17424062.21147  20574299.8474   20574297.1054
 -15525453.45947 -12068872.23046  22352055.7984   22352052.0964
 -22463654.88648 -17494905.44947  20875062.1884   20875057.6944
  -6758691.05146  -5246984.09944  24028230.1304   24028225.3734
 -10498686.25047  -8160890.07945  23247469.1044   23247465.0844
 10  3 18  3 12 30.0000000  0  9G 3G30G21G31G24G 6G16G18G29
  -8042096.94746  -6177831.73944  23264433.3004   23264430.5124
  -1054762.26046   -811903.34743  25128043.6154   25128040.6624
 -23736868.97648 -18481802.53047  20882708.4654   20882703.2874
 -14285806.94448 -11114176.54546  22552143.9184   22552140.0554
 -22369870.35948 -17403780.10047  20579252.9564   20579249.9624
 -15591863.37647 -12120620.20245  22339418.1704   22339415.1284
 -22510374.85448 -17531310.61947  20866171.3384   20866166.8174
  -6835694.93146  -5306987.10844  24013576.6834   24013572.4214
 -10419637.51447  -8099293.65545  23262511.9854   23262507.7114
 10  3 18  3 13  0.0000000  0  9G 3G30G21G31G24G 6G16G18G29
  -8129871.75446  -6246227.67144  23247730.2914   23247728.0244
   -947355.54946   -728209.83843  25148482.6124   25148479.2924
 -23734230.55548 -18479746.61347  20883210.4984   20883205.8004
 -14196872.66448 -11044877.12046  22569067.1224   22569063.4854
 -22343292.14848 -17383069.81247  20584310.3144   20584307.6764
 -15658106.14747 -12172237.93345  22326812.5474   22326809.3724
 -22556759.94748 -17567454.84647  20857344.6114   20857339.9654
  -6912558.79946  -5366881.00444  23998949.9624   23998946.0374
 -10340527.46747  -8037649.49845  23277566.1604   23277562.4334
 10  3 18  3 13 30.0000000  0  9G 3G30G21G31G24G 6G16G18G29
  -8217520.40446  -6314525.27544  23231051.7754   23231048.5924
   -839869.96746   -644454.82843  25168936.4474   25168932.9954
 -23731117.21748 -18477320.63347  20883803.0004   20883798.3054
 -14107654.35747 -10975356.37146  22586044.9784   22586040.3344
 -22316164.91048 -17361931.69947  20589472.7784   20589470.0854
 -15724180.38647 -12223724.35545  22314239.2334   22314235.8084
 -22602807.64248 -17603336.16647  20848581.9134   20848577.4474
  -6989278.75146  -5426662.79044  23984350.8574   23984346.4454
 -10261355.66747  -7975957.21145  23292631.8364   23292628.4044
 10  3 18  3 14  0.0000000  0  9G 3G30G21G31G24G 6G16G18G29
  -8305043.06847  -6382724.72944  23214396.9054   23214393.8304
   -732307.59346   -560640.00842  25189404.7164   25189400.6484
 -23727530.49948 -18474525.78647  20884485.8004   20884480.4324
 -14018155.65447 -10905617.13346  22603075.8114   22603071.8794
 -22288490.85948 -17340367.50047  20594738.7254   20594735.8734
 -15790086.67847 -12275079.88846  22301697.6144   22301694.1184
 -22648516.96748 -17638953.82247  20839883.8114   20839879.3154
  -7065852.85846  -5486330.91944  23969778.3164   23969774.6734
 -10182123.63347  -7914218.00145  23307709.4414   23307705.6934
 10  3 18  3 14 30.0000000  0  9G 3G30G21G31G24G 6G16G18G29
  -8392438.80247  -6450825.31444  23197766.1994   23197762.1354
   -624669.29046   -476766.06142  25209887.6204   25209884.3864
 -23723470.35648 -18471362.03547  20885258.0704   20885253.5374
 -13928378.92447 -10835661.26046  22620160.1494   22620155.6774
 -22260271.17248 -17318378.13147  20600109.0004   20600106.2114
 -15855824.30648 -12326303.99846  22289187.9394   22289184.8214
 -22693885.43848 -17674305.87847  20831250.6994   20831245.8474
  -7142277.98146  -5545882.95244  23955235.4364   23955231.6654
 -10102831.36947  -7852431.83545  23322797.7054   23322794.2404
 10  3 18  3 15  0.0000000  0  9G 3G30G21G31G24G 6G16G18G29
  -8479707.18346  -6518826.64544  23181158.6754   23181156.1144
   -516956.75446   -392834.14642  25230385.4494   25230381.3904
 -23718937.80248 -18467830.16747  20886120.6454   20886115.8884
 -13838327.23947 -10765491.12546  22637295.7034   22637291.8014
 -22231507.44148 -17295964.83047  20605582.2054   20605579.3044
 -15921393.44947 -12377396.83846  22276710.5304   22276706.9784
 -22738911.97848 -17709391.49347  20822682.2564   20822677.7694
  -7218551.34846  -5605316.74744  23940722.0054   23940716.1014
 -10023479.72847  -7790599.40845  23337898.1394   23337895.0654
 10  3 18  3 15 30.0000000  0  9G 3G30G21G31G24G 6G16G18G29
  -8566847.05747  -6586727.80544  23164576.3514   23164573.6304
   -409171.05646   -308845.34042  25250896.0504   25250892.2604
 -23713933.07848 -18463930.38347  20887073.1754   20887068.1864
 -13748003.22947 -10695108.78546  22654484.7854   22654479.4144
 -22202201.29548 -17273128.85947  20611159.1664   20611156.3654
 -15986793.64347 -12428358.01245  22264265.0924   22264261.9334
 -22783594.38448 -17744208.95347  20814179.6104   20814175.0684
  -7294670.03347  -5664630.00344  23926236.4534   23926231.7784
  -9944069.14747  -7728721.06745  23353009.5554   23353006.3244
 10  3 18  3 16  0.0000000  0 10G 3G22G30G21G31G24G 6G16G18G29
  -8653858.41447  -6654528.82845  23148018.9244   23148016.1654
    400141.47246    321122.16142  25094466.4264   25094461.5814
   -301313.54445   -224800.57343  25271420.8264   25271417.0034
 -23708457.19848 -18459663.45447  20888115.1614   20888110.4814
 -13657409.72047 -10624516.43646  22671723.7834   22671718.8324
 -22172354.03148 -17249871.24747  20616838.8784   20616836.2854
 -16052025.02447 -12479187.65346  22251851.9704   22251848.7624
 -22827931.06648 -17778757.01147  20805742.6154   20805738.0124
  -7370631.45147  -5723820.70944  23911781.3324   23911776.7114
  -9864600.31447  -7666797.31945  23368132.0964   23368128.1224
 10  3 18  3 16 30.0000000  0 10G 3G22G30G21G31G24G 6G16G18G29
  -8740740.73047  -6722229.31744  23131485.5694   23131482.9544
    308546.36445    249749.37842  25077036.8924   25077031.4764
   -193386.11546   -140701.32343  25291958.6624   25291955.4424
 -23702511.07848 -18455030.10247  20889246.4674   20889241.5914
 -13566550.19847 -10553716.81646  22689013.6014   22689009.2794
 -22141967.65348 -17226193.54947  20622621.1854   20622618.0724
 -16117087.77747 -12529885.88746  22239470.9244   22239467.8804
 -22871921.05848 -17813034.92647  20797371.5624   20797367.1124
  -7446433.43047  -5782887.16644  23897357.3004   23897351.8314
  -9785074.24147  -7604828.97245  23383264.8374   23383261.7894
 10  3 18  3 17  0.0000000  0  9G 3G22G21G31G24G 6G16G18G29
  -8827490.52246  -6789826.54744  23114977.5704   23114974.2324
    216843.51246    178292.63942  25059586.0624   25059580.2474
 -23696091.77348 -18450028.04247  20890468.1894   20890463.3274
 -13475424.05547 -10482709.44546  22706354.7484   22706350.4634
 -22111040.29448 -17202094.30647  20628506.5324   20628503.6624
 -16181978.07347 -12580449.73946  22227122.8854   22227119.1914
 -22915558.82048 -17847038.38347  20789067.4464   20789062.4714
  -7522069.63447  -5841824.47744  23882963.5584   23882958.9004
  -9705488.26847  -7542813.93945  23398410.4124   23398406.5524
 10  3 18  3 17 30.0000000  0  9G 3G22G21G31G24G 6G16G18G29
  -8914112.31646  -6857324.02844  23098493.6924   23098491.1874
    125029.87246    106749.59642  25042114.1654   25042108.8614
 -23689205.75048 -18444662.30847  20891778.2284   20891773.6694
 -13384039.49547 -10411500.71146  22723743.8354   22723739.8424
 -22079579.22748 -17177579.18147  20634493.2654   20634490.3544
 -16246701.44547 -12630883.54246  22214806.4914   22214802.9054
 -22958848.18648 -17880770.35747  20780829.9234   20780825.2444
  -7597542.52047  -5900634.52044  23868601.7574   23868597.7134
  -9625848.39047  -7480756.91045  23413564.7794   23413561.7574
 10  3 18  3 18  0.0000000  0  9G 3G22G21G31G24G 6G16G18G29
  -9000603.20446  -6924719.51744  23082035.4944   23082032.0334
     33110.57646     35124.25242  25024623.0184   25024617.7544
 -23681851.10348 -18438931.41047  20893177.9864   20893173.0944
 -13292397.02447 -10340091.02146  22741183.2534   22741179.1724
 -22047583.28448 -17152647.28147  20640581.9874   20640579.3734
 -16311255.23647 -12681185.18645  22202522.4034   22202518.6974
 -23001784.95248 -17914227.56647  20772659.0794   20772654.4444
  -7672846.91947  -5959313.27844  23854272.3814   23854266.8814
  -9546152.60047  -7418656.30845  23428730.5774   23428727.0274
 10  3 18  3 18 30.0000000  0  9G 3G22G21G31G24G 6G16G18G29
  -9086962.80246  -6992012.68544  23065602.2704   23065598.8834
    -58912.21946    -36581.71143  25007111.9194   25007106.7644
 -23674028.85748 -18432836.14947  20894666.4224   20894661.9894
 -13200499.72347 -10268482.73546  22758670.9934   22758665.9374
 -22015054.41348 -17127300.10547  20646772.1694   20646769.2924
 -16375639.41347 -12731354.66446  22190270.6064   22190267.0194
 -23044367.53849 -17947408.80847  20764555.7804   20764551.3794
  -7747980.66447  -6017859.04844  23839974.7074   23839970.4684
  -9466401.67847  -7356512.75945  23443906.5374   23443903.1774
 10  3 18  3 19  0.0000000  0  9G 3G22G21G31G24G 6G16G18G29
  -9173189.93046  -7059202.62444  23049193.5964   23049190.5054
   -151035.21846   -108365.70143  24989580.2544   24989576.3434
 -23665738.63148 -18426376.22947  20896243.8624   20896238.9944
 -13108349.68647 -10196677.53146  22776206.2824   22776201.7954
 -21981993.24848 -17101538.15447  20653063.1374   20653060.5794
 -16439852.99048 -12781391.20546  22178051.1394   22178047.6364
 -23086593.37448 -17980312.06047  20756520.6914   20756515.8544
  -7822939.89247  -6076268.82644  23825710.1084   23825705.5974
  -9386595.46146  -7294326.12045  23459092.8374   23459090.2724
 10  3 18  3 19 30.0000000  0  9G 3G22G21G31G24G 6G16G18G29
  -9259284.38046  -7126289.18645  23032810.4964   23032806.8324
   -243256.44546   -180226.19843  24972030.9674   24972027.4274
 -23656981.87348 -18419552.77747  20897910.4494   20897905.7284
 -13015950.40647 -10124678.10746  22793789.0194   22793784.8514
 -21948402.47748 -17075363.52247  20659455.3204   20659452.3934
 -16503896.54547 -12831295.26946  22165863.7354   22165859.9884
 -23128461.68348 -18012936.71647  20748553.2654   20748548.6634
  -7897722.37047  -6134540.87944  23811479.3874   23811475.1224
  -9306735.58146  -7232097.66745  23474290.5354   23474286.8674
 10  3 18  3 20  0.0000000  0  9G 3G22G21G31G24G 6G16G18G29
  -9345245.13446  -7193271.55844  23016452.4184   23016449.1964
   -335573.60146   -252161.55043  24954463.4024   24954459.8534
 -23647759.15148 -18412366.24147  20899665.4984   20899660.7554
 -12923304.44547 -10052486.45846  22811419.2684   22811414.8424
 -21914283.14348 -17048777.02147  20665948.2324   20665945.4944
 -16567769.42747 -12881066.33346  22153708.9394   22153705.7514
 -23169970.22048 -18045281.03147  20740654.7964   20740649.9534
  -7972325.25947  -6192672.98044  23797282.7624   23797278.6964
  -9226821.42046  -7169826.92545  23489497.1704   23489493.8894
 10  3 18  3 20 30.0000000  0  9G 3G22G21G31G24G 6G16G18G29
  -9431072.12147  -7260149.71344  23000120.1454   23000115.9014
   -427983.84846   -324169.43943  24936878.9834   24936874.6704
 -23638071.50148 -18404817.41947  20901508.7994   20901504.2914
 -12830414.98247  -9980105.06946  22829095.3144   22829091.1234
 -21879637.49248 -17021780.40147  20672540.9604   20672538.4404
 -16631471.78847 -12930704.53346  22141586.8514   22141583.6764
 -23211117.61848 -18077343.93847  20732824.6474   20732820.0324
  -8046745.81447  -6250663.02444  23783121.4684   23783116.5414
  -9146854.15146  -7107514.79945  23504714.7214   23504711.2044
 10  3 18  3 21  0.0000000  0  9G 3G22G21G31G24G 6G16G18G29
  -9516764.95046  -7326923.32644  22983812.9114   22983809.8444
   -520484.93246   -396248.03643  24919276.2124   24919272.1104
 -23627919.86348 -18396907.03947  20903440.5944   20903435.8474
 -12737285.01947  -9907536.27546  22846817.5874   22846812.7374
 -21844467.29548 -16994375.05647  20679233.9394   20679231.0634
 -16695003.55147 -12980209.78846  22129497.4274   22129493.8364
 -23251902.55948 -18109124.41247  20725063.3304   20725058.8904
  -8120981.96947  -6308509.39444  23768993.7904   23768990.1534
  -9066834.62346  -7045161.91945  23519941.5364   23519938.5884
 10  3 18  3 21 30.0000000  0  9G 3G22G21G31G24G 6G16G18G29
  -9602322.58147  -7393591.57844  22967532.5504   22967528.0634
   -613073.80347   -468394.95043  24901656.8544   24901652.8574
 -23617304.45748 -18388635.30247  20905461.0344   20905456.0874
 -12643916.55747  -9834781.64746  22864584.7864   22864580.8434
 -21808773.56448 -16966561.75847  20686026.3494   20686023.5524
 -16758364.24447 -13029581.74846  22117440.3424   22117436.8354
 -23292322.75548 -18140620.67547  20717371.6594   20717367.2134
  -8195030.42647  -6366209.47644  23754903.1284   23754899.1984
  -8986762.50946  -6982768.09645  23535178.8134   23535175.6834
 10  3 18  3 22  0.0000000  0  9G 3G22G21G31G24G 6G16G18G29
  -9687744.81047  -7460154.36944  22951277.2604   22951272.3174
   -705748.88846   -540609.03743  24884021.4814   24884017.2134
 -23606227.29948 -18380003.73947  20907568.8064   20907564.2054
 -12550313.91347  -9761844.54746  22882397.0824   22882393.1474
 -21772558.92848 -16938342.55447  20692917.3814   20692914.7524
 -16821554.30547 -13078820.76046  22105415.4544   22105411.5974
 -23332376.97248 -18171831.75047  20709749.4044   20709744.8934
  -8268888.40747  -6423761.15444  23740849.0794   23740844.6524
  -8906639.80346  -6920334.82945  23550426.2104   23550422.5194
 10  3 18  3 22 30.0000000  0  9G 3G22G21G31G24G 6G16G18G29
  -9773030.62547  -7526610.83544  22935047.5504   22935044.3284
   -798507.07546   -612887.89943  24866370.3074   24866364.9634
 -23594687.58748 -18371011.75347  20909764.6294   20909760.1564
 -12456479.19048  -9688726.59846  22900253.4144   22900248.8244
 -21735824.52448 -16909718.34247  20699907.7314   20699905.3234
 -16884572.75747 -13127926.03646  22093423.4214   22093420.3594
 -23372062.83448 -18202755.79747  20702197.6864   20702192.9584
  -8342552.75247  -6481161.93544  23726830.5434   23726826.5634
  -8826465.70946  -6857861.54745  23565682.7604   23565679.8164
 10  3 18  3 23  0.0000000  0  9G 3G22G21G31G24G 6G16G18G29
  -9858179.24047  -7592960.39944  22918844.2764   22918840.4064
   -891345.95946   -685229.70643  24848703.6034   24848697.4564
 -23582686.82748 -18361660.50747  20912048.3724   20912043.7324
 -12362415.07647  -9615429.90846  22918152.9544   22918148.6104
 -21698572.17448 -16880690.53847  20706996.6014   20706993.7104
 -16947419.69247 -13176897.66446  22081464.4964   22081460.7124
 -23411378.64948 -18233391.49847  20694715.9164   20694711.4104
  -8416021.23747  -6538410.12344  23712851.0094   23712845.4854
  -8746241.06846  -6795348.86045  23580948.5144   23580945.0804
 10  3 18  3 23 30.0000000  0  9G 3G22G21G31G24G 6G16G18G29
  -9943190.29647  -7659202.76544  22902668.1474   22902664.2904
   -984262.65046   -757632.02643  24831022.1054   24831016.3674
 -23570225.84548 -18351950.64547  20914419.4064   20914414.9394
 -12268124.31847  -9541956.59446  22936096.3424   22936091.4014
 -21660803.29048 -16851260.22747  20714183.6604   20714181.1414
 -17010094.72047 -13225735.33646  22069537.4594   22069534.1324
 -23450323.02248 -18263737.76347  20687305.0144   20687300.4884
  -8489290.68247  -6595503.18444  23698907.7874   23698902.9974
  -8665966.39046  -6732797.17845  23596224.8274   23596221.2844
 10  3 18  3 24  0.0000000  0  9G 3G22G21G31G24G 6G16G18G29
 -10028063.20247  -7725337.46245  22886517.0144   22886513.5684
  -1077254.84446   -830093.22843  24813326.0004   24813320.9764
 -23557305.69248 -18341882.98647  20916878.2254   20916873.2534
 -12173610.31247  -9468309.32746  22954081.5074   22954076.9614
 -21622520.07048 -16821429.15147  20721468.7744   20721466.3464
 -17072597.93547 -13274439.12946  22057643.8284   22057640.1904
 -23488894.26248 -18293793.27847  20679965.1424   20679960.4374
  -8562358.39547  -6652439.04444  23685003.6624   23684998.4434
  -8585642.29747  -6670206.99545  23611509.8964   23611506.4554
 10  3 18  3 24 30.0000000  0  9G 3G22G21G31G24G 6G16G18G29
 -10112797.96047  -7791364.53045  22870392.3914   22870388.9344
  -1170319.96346   -902611.20743  24795615.7204   24795610.4064
 -23543927.48848 -18331458.40647  20919424.3494   20919418.9274
 -12078876.28347  -9394490.61146  22972109.2974   22972105.0194
 -21583724.90948 -16791199.15447  20728851.1464   20728848.5574
 -17134929.50247 -13323009.18046  22045782.1684   22045779.0474
 -23527091.42948 -18323557.29747  20672696.4714   20672692.1304
  -8635222.32847  -6709216.12844  23671138.2334   23671132.6174
  -8505269.30946  -6607578.70345  23626803.7014   23626801.0434
 10  3 18  3 25  0.0000000  0  9G 3G22G21G31G24G 6G16G18G29
 -10197392.93247  -7857282.65945  22854293.9574   22854291.1554
  -1263455.26146   -975183.88243  24777891.7654   24777887.4794
 -23530091.60048 -18320677.19247  20922056.6424   20922051.7794
 -11983924.19947  -9320502.00246  22990177.8074   22990174.1564
 -21544418.88148 -16760571.08247  20736330.7794   20736328.3144
 -17197088.51347 -13371444.75646  22033953.8674   22033950.4554
 -23564911.79048 -18353027.71347  20665499.6944   20665495.1824
  -8707879.10747  -6765831.79244  23657311.8844   23657306.6844
  -8424847.75847  -6544912.57645  23642108.3704   23642105.0304
 10  3 18  3 25 30.0000000  0  9G 3G22G21G31G24G 6G16G18G29
 -10281847.99347  -7923091.76444  22838222.7014   22838219.5434
  -1356658.21346  -1047809.24043  24760156.0794   24760150.9744
 -23515799.04548 -18309540.12647  20924776.7134   20924771.7674
 -11888757.51748  -9246346.16246  23008287.8334   23008283.4934
 -21504603.89648 -16729546.40747  20743907.2784   20743904.1594
 -17259074.92648 -13419745.84746  22022158.3884   22022154.5164
 -23602353.82348 -18382203.32347  20658374.7444   20658370.3964
  -8780326.03947  -6822283.92444  23643525.8184   23643520.7034
  -8344378.08147  -6482208.92545  23657421.5844   23657417.7524
 10  3 18  3 26  0.0000000  0  9G 3G22G21G31G24G 6G16G18G29
 -10366162.02447  -7988790.95944  22822177.5894   22822174.7834
  -1449925.84246  -1120485.00443  24742407.3874   24742402.5804
 -23501050.15648 -18298047.48747  20927583.3034   20927578.7204
 -11793378.61348  -9172024.95546  23026437.8784   23026433.5054
 -21464281.36248 -16698126.25447  20751580.4484   20751577.6394
 -17320888.21247 -13467912.04146  22010395.5054   22010392.1324
 -23639415.54548 -18411082.58847  20651322.0884   20651317.9604
  -8852560.03447  -6878570.13844  23629779.9764   23629775.2454
  -8263860.37347  -6419467.84944  23672743.2354   23672739.6114
 10  3 18  3 26 30.0000000  0  9G 3G22G21G31G24G 6G16G18G29
 -10450334.93647  -8054380.24844  22806160.0724   22806156.4724
  -1543255.92146  -1193209.43244  24724646.5364   24724642.2744
 -23485846.30848 -18286200.32947  20930476.2174   20930471.5294
 -11697790.69148  -9097540.88246  23044627.2474   23044623.1624
 -21423453.42148 -16666312.26947  20759349.9374   20759347.1614
 -17382528.64748 -13515943.53146  21998665.5754   21998662.3724
 -23676095.71148 -18439664.53647  20644342.0244   20644337.3104
  -8924578.44947  -6934688.38844  23616075.0124   23616070.6234
  -8183295.44947  -6356690.02644  23688073.8154   23688070.6334
 10  3 18  3 27  0.0000000  0  9G 3G22G21G31G24G 6G16G18G29
 -10534366.14147  -8119859.10444  22790169.5904   22790165.7244
  -1636646.48546  -1265980.98944  24706875.0124   24706870.8284
 -23470188.72048 -18273999.60947  20933455.9394   20933451.1564
 -11601997.20547  -9022896.62546  23062856.0544   23062851.8334
 -21382122.46648 -16634106.32847  20767215.0384   20767212.3804
 -17443996.31048 -13563840.38946  21986969.0394   21986965.2204
 -23712393.19248 -18467948.29447  20637435.0724   20637430.2024
  -8996379.22147  -6990637.04944  23602411.4084   23602406.7464
  -8102684.56847  -6293876.34544  23703413.5784   23703410.6124
 10  3 18  3 27 30.0000000  0  9G 3G22G21G31G24G 6G16G18G29
 -10618255.50647  -8185227.44145  22774206.3414   22774202.8174
  -1730094.42846  -1338797.27844  24689092.6224   24689088.4184
 -23454078.53848 -18261446.22047  20936521.4784   20936516.8834
 -11506000.85547  -8948094.30445  23081123.5514   23081118.8544
 -21340290.43048 -16601509.92947  20775175.3894   20775172.3074
 -17505291.10248 -13611602.55346  21975304.7384   21975301.6844
 -23748305.86848 -18495932.19447  20630601.0564   20630596.4884
  -9067959.53947  -7046413.93444  23588790.2144   23588786.1184
  -8022027.92847  -6231027.04744  23718761.5914   23718758.8584
 10  3 18  3 28  0.0000000  0  9G 3G22G21G31G24G 6G16G18G29
 -10702001.92747  -8250484.37445  22758270.2454   22758266.8754
  -1823596.99946  -1411656.11444  24671299.8214   24671294.6694
 -23437516.62048 -18248540.82547  20939673.1784   20939668.6414
 -11409804.49047  -8873136.10545  23099429.2224   23099424.4604
 -21297958.89948 -16568524.31747  20783230.9024   20783228.3374
 -17566412.54748 -13659229.64846  21963673.8904   21963670.6034
 -23783832.38848 -18523615.19447  20623840.3284   20623835.8174
  -9139316.09747  -7102016.44144  23575212.0334   23575207.0434
  -7941325.46146  -6168142.02444  23734119.2144   23734116.0124
 10  3 18  3 28 30.0000000  0  9G 3G22G21G31G24G 6G16G18G29
 -10785605.11147  -8315629.69945  22742360.9714   22742357.3314
  -1917151.86847  -1484555.74944  24653496.2524   24653490.5464
 -23420503.57448 -18235283.90847  20942910.6434   20942905.8614
 -11313410.95147  -8798024.25945  23117771.9434   23117767.3254
 -21255129.80048 -16535150.99247  20791380.9154   20791378.4304
 -17627360.24748 -13706721.35446  21952075.6954   21952072.8484
 -23818970.73948 -18550995.72747  20617153.4814   20617149.2974
  -9210446.74247  -7157442.91945  23561676.1244   23561671.7034
  -7860577.95247  -6105221.88444  23749485.6444   23749481.6084
 10  3 18  3 29  0.0000000  0  9G 3G22G21G31G24G 6G16G18G29
 -10869063.96147  -8380662.54845  22726479.1664   22726476.0884
  -2010756.30546  -1557494.08744  24635684.1984   24635678.4314
 -23403041.03648 -18221676.73247  20946233.6914   20946228.6204
 -11216823.46447  -8722761.29345  23136152.0584   23136147.5494
 -21211805.31348 -16501391.64547  20799625.0074   20799622.1494
 -17688134.49247 -13754077.89746  21940510.9844   21940507.3514
 -23853719.51548 -18578072.69547  20610541.4564   20610536.8564
  -9281348.91347  -7212691.35944  23548184.1524   23548179.3734
  -7779785.90246  -6042267.07844  23764859.6164   23764856.0264
 10  3 18  3 29 30.0000000  0  9G 3G22G21G31G24G 6G16G18G29
 -10952377.84947  -8445582.43245  22710624.6784   22710621.0024
  -2104407.55847  -1630468.91244  24617862.7444   24617857.7714
 -23385129.23548 -18207719.47747  20949642.1654   20949637.2864
 -11120044.14547  -8647348.85845  23154568.3894   23154564.4564
 -21167986.75748 -16467247.31747  20807963.5694   20807961.1054
 -17748734.44047 -13801298.62046  21928978.6724   21928976.0734
 -23888076.70448 -18604844.53047  20604003.5094   20603998.8504
  -9352019.19247  -7267759.08044  23534735.9194   23534731.3764
  -7698949.30047  -5979277.54144  23780242.0024   23780238.4064
 10  3 18  3 30  0.0000000  0  9G 3G22G21G31G24G 6G16G18G29
 -11035546.25247  -8510388.95745  22694798.8674   22694795.1774
  -2198102.91146  -1703478.07044  24600033.0604   24600027.8154
 -23366769.38448 -18193413.09547  20953135.9574   20953131.1084
 -11023076.53247  -8571789.70645  23173020.9304   23173016.9934
 -21123676.54748 -16432719.88347  20816395.6344   20816392.5974
 -17809160.28247 -13848383.68346  21917480.0814   21917476.9864
 -23922041.00748 -18631310.22247  20597540.3184   20597535.9864
  -9422455.15547  -7322644.25144  23521332.6684   23521327.6574
  -7618069.08446  -5916254.02044  23795633.2864   23795629.0974
 10  3 18  3 30 30.0000000  0  9G 3G22G21G31G24G 6G16G18G29
 -11118568.56747  -8575081.67545  22678999.4754   22678996.3244
  -2291840.15946  -1776519.92944  24582195.4334   24582190.0784
 -23347963.16848 -18178758.90247  20956714.7054   20956709.6134
 -10925923.79247  -8496086.28145  23191508.1884   23191504.4764
 -21078876.70449 -16397810.91547  20824920.7874   20824918.2124
 -17869412.07848 -13895333.12346  21906014.5754   21906010.8564
 -23955610.77348 -18657468.47947  20591152.2114   20591147.7004
  -9492654.29247  -7377344.87445  23507973.4204   23507968.6364
  -7537145.65446  -5853196.80544  23811032.5254   23811029.0514
 10  3 18  3 31  0.0000000  0  9G 3G22G21G31G24G 6G16G18G29
 -11201443.73947  -8639659.73245  22663229.2014   22663225.4334
  -2385615.61546  -1849591.57544  24564349.5964   24564345.0594
 -23328710.23248 -18163756.60747  20960378.5364   20960373.5404
 -10828587.56247  -8420239.89445  23210031.0504   23210027.1484
 -21033588.49148 -16362521.38747  20833538.8364   20833535.9544
 -17929488.43847 -13942145.85846  21894582.4424   21894578.4834
 -23988783.87648 -18683317.65748  20584839.6224   20584834.6664
  -9562613.09047  -7431858.20645  23494661.5024   23494656.8944
  -7456178.68646  -5790105.68244  23826439.5354   23826437.0984
 10  3 18  3 31 30.0000000  0  9G 3G22G21G31G24G 6G16G18G29
 -11284171.68247  -8704123.05045  22647486.5984   22647483.1744
  -2479427.03546  -1922691.27044  24546498.3024   24546493.0894
 -23309012.16248 -18148407.46147  20964126.8774   20964122.0354
 -10731071.46647  -8344253.35845  23228587.5674   23228583.1194
 -20987814.44649 -16326853.30547  20842249.4434   20842246.3864
 -17989389.83647 -13988822.26846  21883183.0394   21883179.9254
 -24021558.98348 -18708856.70947  20578602.6634   20578598.1284
  -9632329.40647  -7486182.61545  23481394.6194   23481390.2714
  -7375168.84646  -5726981.16744  23841855.5314   23841851.9284
 10  3 18  3 32  0.0000000  0  9G 3G22G21G31G24G 6G16G18G29
 -11366751.61047  -8768471.02845  22631772.1424   22631769.0044
  -2573271.93746  -1995817.01543  24528639.4374   24528635.3304
 -23288870.35048 -18132712.54547  20967959.9294   20967954.8384
 -10633378.63047  -8268129.06945  23247177.6714   23247173.0774
 -20941556.45348 -16290808.10847  20851051.8924   20851049.0794
 -18049116.22947 -14035362.30846  21871818.1784   21871814.9934
 -24053934.42048 -18734084.31447  20572441.7294   20572437.1124
  -9701800.13247  -7540315.63745  23468174.6064   23468169.9354
  -7294116.84146  -5663823.78744  23857278.4364   23857275.9394
 10  3 18  3 32 30.0000000  0  9G 3G22G21G31G24G 6G16G18G29
 -11449183.35847  -8832703.52945  22616085.7594   22616082.4494
  -2667148.50346  -2068967.46444  24510775.4354   24510770.9374
 -23268286.70648 -18116673.34147  20971876.6244   20971871.5374
 -10535512.59347  -8191869.83745  23265801.0984   23265796.9744
 -20894817.40248 -16254388.07247  20859946.0684   20859943.1284
 -18108668.19447 -14081766.43246  21860486.0684   21860481.8004
 -24085909.60648 -18759000.04047  20566357.0094   20566352.7214
  -9771023.66547  -7594256.04344  23455002.5054   23454997.5864
  -7213023.95746  -5600634.54044  23872710.9624   23872706.7474
 10  3 18  3 33  0.0000000  0  9G 3G22G21G31G24G 6G16G18G29
 -11531466.11147  -8896819.95145  22600428.3924   22600424.8654
  -2761053.47846  -2142140.06844  24492906.0614   24492901.3314
 -23247261.72748 -18100290.23847  20975877.6364   20975872.8194
 -10437475.84947  -8115477.56945  23284457.0004   23284452.2404
 -20847598.69748 -16217594.27547  20868931.4954   20868929.0244
 -18168045.00647 -14128034.06746  21849186.6384   21849183.2174
 -24117482.34348 -18783602.17248  20560348.7254   20560344.3454
  -9839997.26147  -7648001.68044  23441876.5744   23441871.9074
  -7131890.09646  -5537413.38244  23888150.2774   23888146.5614
 10  3 18  3 33 30.0000000  0  9G 3G22G21G31G24G 6G16G18G29
 -11613599.21047  -8960819.75145  22584798.8124   22584795.1984
  -2854983.95246  -2215332.56144  24475031.4284   24475026.2224
 -23225796.16848 -18083563.82147  20979962.6334   20979957.6114
 -10339271.35047  -8038954.60445  23303144.7504   23303139.9494
 -20799902.49948 -16180428.39647  20878007.8394   20878005.2334
 -18227246.12147 -14174164.79146  21837921.2514   21837917.4404
 -24148650.74448 -18807889.24548  20554417.9624   20554413.1074
  -9908717.66447  -7701550.07044  23428799.7764   23428794.4124
  -7050715.37546  -5474160.37144  23903597.1444   23903593.6604
 10  3 18  3 34  0.0000000  0  9G 3G22G21G31G24G 6G16G18G29
 -11695581.49347  -9024702.04945  22569197.9474   22569194.7944
  -2948937.24546  -2288542.79544  24457153.3154   24457147.4624
 -23203891.25948 -18066495.05747  20984130.4474   20984125.6794
 -10240901.56647  -7962302.85645  23321863.9164   23321859.4054
 -20751730.50448 -16142891.77347  20887174.4874   20887171.7234
 -18286271.27147 -14220158.41546  21826689.1834   21826685.6944
 -24179413.65748 -18831860.34848  20548563.8534   20548559.2714
  -9977182.01747  -7754898.91145  23415771.6454   23415766.9164
  -6969499.95746  -5410875.67444  23919051.5354   23919048.8554
 10  3 18  3 34 30.0000000  0  9G 3G22G21G31G24G 6G16G18G29
 -11777412.31147  -9088466.31245  22553625.1014   22553622.3994
  -3042910.23047  -2361768.41844  24439270.4624   24439264.9474
 -23181547.74648 -18049084.52647  20988382.7764   20988377.8864
 -10142369.40347  -7885524.56945  23340613.7144   23340609.3844
 -20703084.39848 -16104985.72147  20896431.4324   20896428.7494
 -18345120.07047 -14266014.61846  21815490.6124   21815487.2214
 -24209768.65348 -18855513.59548  20542787.5844   20542783.0484
 -10045387.37447  -7808045.93645  23402792.8124   23402788.2454
  -6888244.16946  -5347559.48544  23934513.9324   23934510.9434
 10  3 18  3 35  0.0000000  0  9G 3G22G21G31G24G 6G16G18G29
 -11859091.04147  -9152112.05945  22538082.8654   22538079.6354
  -3136900.02047  -2435007.13144  24421384.8804   24421379.7544
 -23158766.85948 -18031333.18047  20992717.7024   20992712.9424
 -10043677.81647  -7808622.06045  23359394.1524   23359390.2424
 -20653966.73948 -16066712.21247  20905778.1074   20905775.6604
 -18403792.50447 -14311733.40646  21804325.6144   21804321.9194
 -24239714.28048 -18878847.84348  20537089.0824   20537084.1834
 -10113331.51447  -7860989.39845  23389863.0044   23389858.7344
  -6806948.61646  -5284212.32744  23949983.8654   23949980.9574
 10  3 18  3 35 30.0000000  0  9G 3G22G21G31G24G 6G16G18G29
 -11940617.83947  -9215639.41845  22522568.7024   22522565.7924
  -3230904.56547  -2508257.35944  24403496.2804   24403490.7544
 -23135550.02648 -18013242.13447  20997135.6264   20997130.7604
  -9944829.93447  -7731597.75745  23378204.2634   23378200.0564
 -20604379.55148 -16028072.84847  20915214.5924   20915211.9444
 -18462288.30747 -14357314.54246  21793194.0794   21793191.0104
 -24269249.42948 -18901862.24748  20531468.7224   20531464.0044
 -10181011.93047  -7913727.38445  23376983.7074   23376979.4474
  -6725613.73346  -5220834.51544  23965461.8154   23965458.5354
 10  3 18  3 36  0.0000000  0  9G 3G22G21G31G24G 6G16G18G29
 -12021991.87347  -9279047.74845  22507083.8164   22507080.5814
  -3324921.72647  -2581517.42744  24385605.4814   24385599.9674
 -23111898.59848 -17994812.44747  21001636.1604   21001631.3044
  -9845828.83147  -7654454.06145  23397043.9404   23397039.9274
 -20554325.00748 -15989069.30647  20924739.2414   20924736.4024
 -18520607.59247 -14402758.13246  21782096.6234   21782092.9764
 -24298372.58148 -18924555.61448  20525926.6114   20525922.3444
 -10248425.81747  -7966257.67245  23364155.1374   23364150.4084
  -6644240.01646  -5157426.45244  23980946.0914   23980943.4904
 10  3 18  3 36 30.0000000  0  9G 3G22G21G31G24G 6G16G18G29
 -12103211.56947  -9342335.80145  22491627.9484   22491625.0264
  -3418947.31046  -2654784.07044  24367713.1284   24367707.4594
 -23087812.89548 -17976044.36147  21006219.4504   21006214.7874
  -9746676.63647  -7577192.64745  23415911.4774   23415907.6714
 -20503804.56348 -15949702.72747  20934353.5094   20934350.5474
 -18578749.39948 -14448063.43446  21771032.1354   21771029.4034
 -24327081.59848 -18946926.28348  20520463.7954   20520459.0584
 -10315569.83447  -8018577.68045  23351378.4174   23351373.6214
  -6562827.22646  -5093987.94343  23996439.0514   23996435.7714
 10  3 18  3 37  0.0000000  0  9G 3G22G21G31G24G 6G16G18G29
 -12184277.61347  -9405504.13345  22476201.8284   22476198.2154
  -3512980.05746  -2728056.28544  24349819.4674   24349813.4584
 -23063295.64248 -17956940.00947  21010885.1574   21010880.2834
  -9647377.68447  -7499816.85545  23434807.9244   23434803.4504
 -20452822.00748 -15909976.06447  20944054.9104   20944052.2234
 -18636714.92447 -14493231.36246  21760001.6724   21759998.2594
 -24355376.54248 -18968974.28648  20515079.3384   20515074.8064
 -10382443.00847  -8070686.64645  23338652.1524   23338648.2764
  -6481377.22846  -5030520.44344  24011938.6244   24011935.1614
 10  3 18  3 37 30.0000000  0 10G 3G22G19G21G31G24G 6G16G18G29
 -12265188.07247  -9468551.22145  22460805.0714   22460801.5704
  -3607016.05146  -2801331.01744  24331924.9374   24331919.1064
   -334335.90545                  24904790.4824
 -23038346.53648 -17937499.14747  21015632.7524   21015627.8064
  -9547933.63947  -7422327.99545  23453731.3604   23453726.7994
 -20401377.94148 -15869889.77447  20953844.4024   20953841.6224
 -18694502.52148 -14538260.65546  21749005.4814   21749002.0364
 -24383254.10848 -18990697.07248  20509774.2824   20509769.3664
 -10449041.11747  -8122581.25545  23325979.5574   23325975.0764
  -6399888.75946  -4967022.96044  24027445.6684   24027441.9124
 10  3 18  3 38  0.0000000  0 10G 3G22G19G21G31G24G 6G16G18G29
 -12345944.41347  -9531478.23145  22445437.4904   22445434.3774
  -3701054.27046  -2874607.48744  24314029.6904   24314024.1704
                                  24888433.3494
 -23012968.85848 -17917724.32947  21020461.9984   21020456.6824
  -9448349.48347  -7344729.98345  23472681.8334   23472676.7084
 -20349476.31148 -15829446.94647  20963721.0944   20963718.0984
 -18752113.95248 -14583152.66846  21738041.8814   21738038.6394
 -24410714.76448 -19012094.98948  20504548.9004   20504544.0304
 -10515363.57347  -8174261.08745  23313358.9384   23313354.0454
  -6318364.29646  -4903497.42444  24042959.1514   24042955.9864
 10  3 18  3 38 30.0000000  0 10G 3G22G19G21G31G24G 6G16G18G29
 -12426541.00147  -9594280.76445  22430100.5024   22430097.2474
  -3795087.52646  -2947880.08244  24296135.4564   24296129.8624
   -506140.12745                  24872095.0614
 -22987159.32048 -17897612.99147  21025373.3294   21025368.8024
  -9348623.32147  -7267021.31845  23491658.8334   23491654.4514
 -20297114.70848 -15788645.69347  20973685.3384   20973682.1544
 -18809544.38647 -14627903.65346  21727113.4024   21727110.0764
 -24437753.00048 -19033163.73748  20499403.8594   20499399.2634
 -10581403.07447  -8225720.42345  23300792.1634   23300787.2064
  -6236799.53846  -4839940.49944  24058480.4964   24058477.1394
 10  3 18  3 39  0.0000000  0 10G 3G22G19G21G31G24G 6G16G18G29
 -12506983.28147  -9656963.06345  22414793.1524   22414789.7924
  -3889119.05046  -3021151.36444  24278241.7374   24278236.0874
   -591927.76745   -399937.85242  24855771.0804   24855765.8574
 -22960924.81748 -17877170.52647  21030365.5964   21030360.5914
  -9248763.92847  -7189208.84145  23510661.7374   23510657.4224
 -20244301.46948 -15747492.51447  20983735.5624   20983732.5134
 -18866799.49547 -14672518.00246  21716217.6944   21716214.6384
 -24464372.48748 -19053906.20148  20494338.1324   20494333.7774
 -10647162.91547  -8276961.85445  23288278.2014   23288273.8894
  -6155200.70846  -4776357.00144  24074008.2704   24074004.8954
 10  3 18  3 39 30.0000000  0 10G 3G22G19G21G31G24G 6G16G18G29
 -12587268.07247  -9719522.62445  22399515.7424   22399512.1944
  -3983143.01646  -3094416.74644  24260349.9024   24260344.4554
   -677637.85646   -466724.91843  24839462.1794   24839455.8984
 -22934263.71448 -17856395.64247  21035438.9414   21035434.3154
  -9148771.26347  -7111292.53245  23529690.1474   23529685.2324
 -20191035.58648 -15705986.62947  20993871.1714   20993868.1454
 -18923876.05747 -14716993.24546  21705356.5904   21705353.5784
 -24490569.06548 -19074319.11948  20489352.9004   20489348.4164
 -10712637.28747  -8327980.83945  23275818.8194   23275814.5164
  -6073565.35646  -4712745.05643  24089542.5614   24089539.9074
 10  3 18  3 40  0.0000000  0 10G 3G22G19G21G31G24G 6G16G18G29
 -12667394.92747  -9781959.13545  22384267.8364   22384264.4714
  -4077157.72846  -3167674.93244  24242459.0974   24242453.6284
   -763270.59146   -533451.75243  24823167.8504   24823161.5294
 -22907177.92048 -17835289.82847  21040593.4494   21040588.5794
  -9048649.38647  -7033275.49345  23548742.7634   23548736.9984
 -20137320.22748 -15664130.50047  21004093.0484   21004089.9364
 -18980774.85148 -14761329.95446  21694529.4814   21694525.9104
 -24516341.82348 -19094401.78448  20484448.8184   20484443.9814
 -10777824.70447  -8378776.23645  23263413.7754   23263409.6384
  -5991894.66346  -4649105.55944  24105084.1634   24105081.5314
 10  3 18  3 40 30.0000000  0 10G 3G22G19G21G31G24G 6G16G18G29
 -12747362.34647  -9844271.37845  22369050.5944   22369047.3474
  -4171159.14946  -3240922.77444  24224571.3854   24224565.9464
   -848825.34746   -600117.76743  24806887.3404   24806881.1164
 -22879667.81348 -17813853.37847  21045828.4494   21045823.3474
  -8948400.15347  -6955159.20645  23567819.1424   23567813.8984
 -20083156.23948 -15621924.79547  21014399.9914   21014397.1204
 -19037494.39747 -14805527.00146  21683735.9074   21683732.3824
 -24541688.51048 -19114152.46348  20479625.4144   20479620.3824
 -10842721.78347  -8429345.36145  23251064.8774   23251060.2374
  -5910188.00846  -4585438.05844  24120632.5844   24120629.3574
 10  3 18  3 41  0.0000000  0 10G 3G22G19G21G31G24G 6G16G18G29
 -12827170.56947  -9906459.59345  22353863.5564   22353859.7624
  -4265145.18946  -3314158.61244  24206686.3344   24206681.1234
   -934302.21446   -666723.07843  24790621.7594   24790614.3464
 -22851735.29548 -17792087.77247  21051143.8724   21051139.1704
  -8848026.84347  -6876946.28645  23586919.3304   23586915.1784
 -20028546.55848 -15579371.79747  21024791.6334   21024789.3064
 -19094035.19947 -14849584.76646  21672976.6894   21672973.3624
 -24566608.18048 -19133570.38548  20474883.2714   20474878.5334
 -10907326.29447  -8479686.53345  23238770.8104   23238766.1344
  -5828446.19847  -4521743.15544  24136187.8504   24136184.5404
 10  3 18  3 41 30.0000000  0 10G 3G22G19G21G31G24G 6G16G18G29
 -12906817.90047  -9968522.44045  22338707.0074   22338703.1314
  -4359112.78746  -3387380.05344  24188804.8294   24188799.5964
  -1019700.32745   -733267.04743  24774369.7824   24774363.9804
 -22823381.46848 -17769993.88847  21056539.2374   21056534.4054
  -8747532.25647  -6798638.84145  23606042.7714   23606038.5864
 -19973493.02348 -15536472.93447  21035268.1724   21035265.5064
 -19150396.60648 -14893502.73746  21662251.4254   21662247.6584
 -24591099.15648 -19152654.27048  20470222.9144   20470218.0954
 -10971635.26347  -8529797.42245  23226533.2094   23226528.7164
  -5746669.21647  -4458020.85144  24151748.7814   24151746.2314
 10  3 18  3 42  0.0000000  0 10G 3G22G19G21G31G24G 6G16G18G29
 -12986304.48748 -10030460.04545  22323582.0084   22323577.6954
  -4453059.42547  -3460585.21044  24170927.8354   24170922.2974
  -1105019.56146   -799749.55743  24758134.3824   24758128.8034
 -22794607.53748 -17747572.63747  21062014.7734   21062009.7804
  -8646919.23247  -6720239.11845  23625189.0334   23625185.5994
 -19917998.09848 -15493230.14047  21045828.5364   21045825.9844
 -19206578.71348 -14937280.98546  21651560.5154   21651556.5604
 -24615160.30148 -19171403.21248  20465644.1084   20465639.7804
 -11035646.38147  -8579676.20745  23214352.2634   23214348.1474
  -5664857.66146  -4394271.63844  24167316.7364   24167314.2814
 10  3 18  3 42 30.0000000  0 10G 3G22G19G21G31G24G 6G16G18G29
 -13065629.93547 -10092272.07845  22308486.1144   22308482.4564
  -4546982.08146  -3533771.67844  24153055.1014   24153049.4604
  -1190260.07246   -866170.68143  24741913.8544   24741907.4084
 -22765415.41148 -17724825.52347  21067569.7404   21067565.0274
  -8546191.07447  -6641749.68845  23644357.3414   23644353.0774
 -19862064.02448 -15449645.14947  21056472.1944   21056469.5814
 -19262581.27348 -14980919.34646  21640903.4324   21640899.4744
 -24638790.08348 -19189816.03148  20461147.6414   20461143.1244
 -11099357.05747  -8629320.86645  23202228.4744   23202224.0434
  -5583012.02246  -4330495.84444  24182892.1404   24182888.9154
 10  3 18  3 43  0.0000000  0 10G 3G22G19G21G31G24G 6G16G18G29
 -13144792.60847 -10153957.27045  22293421.8504   22293419.5114
  -4640877.54246  -3606936.93244  24135187.1804   24135181.1534
  -1275420.79945   -932529.66043  24725707.2304   24725701.4644
 -22735805.08748 -17701752.54847  21073204.4554   21073199.7934
  -8445349.76447  -6563172.08345  23663546.1804   23663542.7074
 -19805692.36348 -15405719.17647  21067199.4784   21067197.0494
 -19318403.40848 -15024417.10346  21630280.5264   21630277.4744
 -24661986.02248 -19207890.79848  20456733.6254   20456729.0964
 -11162764.37647  -8678729.16045  23190162.1954   23190157.6064
  -5501131.73547  -4266693.03044  24198473.6484   24198470.7574
 10  3 18  3 43 30.0000000  0 10G 3G22G19G21G31G24G 6G16G18G29
 -13223791.16647 -10215514.55145  22278388.7924   22278386.0524
  -4734742.71046  -3680078.60444  24117325.4474   24117319.0194
  -1360501.26745   -998826.09442  24709515.2534   24709508.5634
 -22705777.83048 -17678354.67447  21078918.2164   21078913.2084
  -8344397.82147  -6484508.27045  23682756.8344   23682752.5054
 -19748885.14248 -15361453.82047  21078009.5844   21078006.7954
 -19374044.56548 -15067773.85246  21619692.3464   21619689.1034
 -24684746.86048 -19225626.51048  20452402.2434   20452397.7734
 -11225865.19747  -8727898.64845  23178154.9924   23178150.9194
  -5419217.08846  -4202863.45644  24214061.2664   24214058.1104
 10  3 18  3 44  0.0000000  0 10G 3G22G19G21G31G24G 6G16G18G29
 -13302627.12047 -10276945.15745  22263386.4804   22263383.8964
  -4828576.91746  -3753196.13944  24099468.5164   24099463.5884
  -1445503.02445  -1065061.22843  24693341.7074   24693335.2804
 -22675336.85948 -17654634.43047  21084711.2774   21084706.0704
  -8243340.47347  -6405762.32645  23701987.1814   23701983.0984
 -19691646.55348 -15316852.31747  21088901.7414   21088898.9974
 -19429506.45848 -15110990.90246  21609138.2054   21609135.3404
 -24707073.85248 -19243024.17348  20448153.6764   20448148.7904
 -11288658.81047  -8776828.73645  23166206.1834   23166200.8454
  -5337270.02347  -4139008.59044  24229654.7324   24229651.8014
 10  3 18  3 44 30.0000000  0 10G 3G22G19G21G31G24G 6G16G18G29
 -13381298.11747 -10338247.20945  22248416.0594   22248413.7794
  -4922375.53846  -3826285.95344  24081619.3104   24081613.7004
  -1530423.97345  -1131233.36842  24677182.3514   24677175.1524
 -22644481.99148 -17630591.68047  21090582.8494   21090577.8534
  -8142178.66747  -6326934.98445  23721237.6424   23721233.6154
 -19633976.90948 -15271914.92547  21099875.9254   21099872.9534
 -19484787.08248 -15154066.71246  21598618.9934   21598615.8524
 -24728962.32548 -19260080.12348  20443988.2284   20443983.5394
 -11351141.08647  -8825516.20845  23154315.7034   23154310.5454
  -5255289.17346  -4075127.39744  24245255.2314   24245253.0144
 10  3 18  3 45  0.0000000  0 10G 3G22G19G21G31G24G 6G16G18G29
 -13459804.96747 -10399421.36745  22233476.7044   22233473.4484
  -5016136.94647  -3899346.77844  24063776.9604   24063771.3804
  -1615265.46746  -1197343.64343  24661038.0224   24661029.4644
 -22613216.13348 -17606228.66947  21096532.2484   21096527.3174
  -8040917.04747  -6248029.86845  23740507.5774   23740503.5644
 -19575880.37748 -15226644.90147  21110931.7044   21110928.4744
 -19539887.70448 -15197002.24746  21588133.6404   21588130.5684
 -24750412.93448 -19276794.88948  20439906.5734   20439902.0414
 -11413311.28447  -8873960.51245  23142484.7854   23142480.0124
  -5173276.48646  -4011221.42644  24260861.8744   24260859.5774
 10  3 18  3 45 30.0000000  0 10G 3G22G19G21G31G24G 6G16G18G29
 -13538145.62647 -10460466.05345  22218569.4314   22218565.6124
  -5109857.45747  -3972375.72044  24045942.7404   24045936.8964
  -1700026.16446  -1263390.93643  24644907.6694   24644901.6514
 -22581539.13548 -17581545.29947  21102560.3904   21102555.3624
  -7939557.12847  -6169048.16245  23759795.6354   23759791.7274
 -19517357.70848 -15181042.82447  21122067.7814   21122065.0384
 -19594806.93848 -15239796.45446  21577682.9954   21577679.5254
 -24771423.28348 -19293166.58748  20435908.3314   20435903.7214
 -11475165.23747  -8922158.40745  23130714.4174   23130709.6294
  -5091231.35146  -3947290.17944  24276474.5774   24276471.9344
 10  3 18  3 46  0.0000000  0 10G 3G22G19G21G31G24G 6G16G18G29
 -13616320.23147 -10521381.31245  22203693.3234   22203689.3734
  -5203534.85447  -4045371.09544  24028117.0584   24028111.2314
  -1784706.36046  -1329375.51443  24628794.1844   24628787.9614
 -22549453.14648 -17556543.22847  21108665.7274   21108661.2494
  -7838102.40247  -6089992.57145  23779101.7954   23779097.5454
 -19458411.89748 -15135111.02447  21133284.9794   21133282.3104
 -19649545.13948 -15282449.59146  21567266.7774   21567263.2034
 -24791992.73648 -19309194.74248  20431994.0894   20431989.4464
 -11536701.38447  -8970108.62645  23119004.9634   23119000.0324
  -5009154.45746  -3883334.18744  24292092.9134   24292089.9264
 10  3 18  3 46 30.0000000  0 10G 3G22G19G21G31G24G 6G16G18G29
 -13694327.85447 -10582166.45845  22188848.5834   22188845.1554
  -5297165.87747  -4118330.30544  24010299.5734   24010293.2274
  -1869305.50046  -1395296.88544  24612695.4394   24612688.8494
 -22516959.35148 -17531223.38347  21114849.2874   21114844.3974
  -7736555.55547  -6010865.19845  23798425.4334   23798421.5744
 -19399045.27148 -15088851.31147  21144581.8434   21144579.0954
 -19704101.88448 -15324961.33746  21556884.8484   21556881.2624
 -24812119.71948 -19324878.10948  20428163.7884   20428159.5444
 -11597916.88147  -9017809.00945  23107355.5964   23107350.7484
  -4927045.88146  -3819353.51244  24307717.9674   24307714.8074
 10  3 18  3 47  0.0000000  0 10G 3G22G19G21G31G24G 6G16G18G29
 -13772167.65447 -10642820.82445  22174036.4954   22174032.8324
  -5390747.75447  -4191251.23544  23992491.5174   23992485.2464
  -1953823.00046  -1461154.66744  24596612.3104   24596606.7514
 -22484058.85148 -17505586.62647  21121110.1484   21121105.3724
  -7634919.54347  -5931668.30045  23817766.6184   23817762.0214
 -19339259.62548 -15042265.09947  21155958.7784   21155955.9104
 -19758476.67048 -15367331.29146  21546537.6704   21546534.4594
 -24831802.35748 -19340215.23148  20424418.7754   20424413.8194
 -11658808.97747  -9065257.38945  23095768.2454   23095763.5094
  -4844905.79846  -3755348.26743  24323348.6224   24323345.4074
 10  3 18  3 47 30.0000000  0 10G 3G22G19G21G31G24G 6G16G18G29
 -13849838.71247 -10703343.72145  22159256.2774   22159252.6314
  -5484277.60547  -4264131.62644  23974693.3504   23974687.6664
  -2038258.98046  -1526948.87144  24580544.5464   24580539.2584
 -22450753.14048 -17479634.12047  21127447.9834   21127443.0854
  -7533197.11546  -5852404.08545  23837123.9514   23837119.7744
 -19279057.16648 -14995354.09547  21167414.9194   21167412.5174
 -19812669.18648 -15409559.22346  21536224.9224   21536221.6984
 -24851039.56648 -19355205.26748  20420757.7034   20420753.2224
 -11719375.38647  -9112451.98145  23084243.1274   23084238.9554
  -4762734.38246  -3691318.63543  24338985.5824   24338982.2394
 10  3 18  3 48  0.0000000  0 10G 3G22G19G21G31G24G 6G16G18G29
 -13927340.33547 -10763734.58845  22144508.4014   22144504.5364
  -5577752.42547  -4336969.12744  23956905.1814   23956899.1904
  -2122612.78346  -1592679.10344  24564492.3174   24564487.5734
 -22417043.42948 -17453366.81447  21133862.8444   21133857.9124
  -7431390.85546  -5773074.56645  23856496.8064   23856492.7334
 -19218440.34848 -14948120.20647  21178949.7704   21178947.4744
 -19866679.03848 -15451644.81946  21525947.3654   21525943.4544
 -24869829.88048 -19369847.07148  20417182.3324   20417177.7644
 -11779613.33847  -9159390.63745  23072780.2174   23072775.0064
  -4680531.79847  -3627264.67244  24354628.3914   24354625.4234
 10  3 18  3 48 30.0000000  0 10G 3G22G19G21G31G24G 6G16G18G29
 -14004672.47747 -10823993.39345  22129792.3194   22129788.4844
  -5671169.95847  -4409761.99544  23939128.4154   23939122.6814
  -2206884.90246  -1658345.68744  24548456.1294   24548450.9374
 -22382931.80048 -17426786.31947  21140353.9694   21140349.1304
  -7329504.39546  -5693682.56845  23875885.8054   23875881.3464
 -19157411.84148 -14900565.52947  21190563.4584   21190560.8364
 -19920506.65448 -15493588.41246  21515704.1844   21515700.6754
 -24888172.49048 -19384140.02048  20413691.6344   20413687.1074
 -11839520.85547  -9206071.82045  23061379.9554   23061375.7354
  -4598298.91546  -3563187.12044  24370276.0724   24370273.0344
 10  3 18  3 49  0.0000000  0 10G 3G22G19G21G31G24G 6G16G18G29
 -14081833.72147 -10884119.02146  22115108.8574   22115105.9494
  -5764526.59747  -4482507.41744  23921363.1694   23921357.4204
  -2291074.14146  -1723947.66444  24532435.4014   24532429.8334
 -22348418.83648 -17399893.10347  21146921.7534   21146916.8214
  -7227539.89146  -5614229.77145  23895288.3354   23895284.1934
 -19095973.26248 -14852691.31247  21202254.7224   21202252.2804
 -19974150.89948 -15535389.12146  21505496.1574   21505492.4534
 -24906065.36748 -19398082.52448  20410286.7884   20410282.3624
 -11899094.96747  -9252493.18745  23050043.3334   23050038.8364
  -4516035.28247  -3499085.60144  24385930.4464   24385928.2604
 10  3 18  3 49 30.0000000  0 10G 3G22G19G21G31G24G 6G16G18G29
 -14158823.41747 -10944110.99146  22100458.2504   22100454.8334
  -5857820.08747  -4555203.61144  23903610.0144   23903604.4694
  -2375180.67146  -1789485.33144  24516430.8254   24516424.5294
 -22313506.47448 -17372688.66447  21153565.1814   21153560.1304
  -7125500.65347  -5534718.74244  23914705.7014   23914701.1934
 -19034127.40948 -14804499.73947  21214023.5864   21214020.7314
 -20027611.98048 -15577047.09946  21495322.8414   21495318.9374
 -24923507.43248 -19411673.74948  20406967.7974   20406962.9534
 -11958333.55947  -9298653.13045  23038770.4534   23038766.3064
  -4433741.54346  -3434960.65144  24401590.6194   24401588.1514
 10  3 18  3 50  0.0000000  0 10G 3G22G19G21G31G24G 6G16G18G29
 -14235641.47047 -11003969.20145  22085840.1854   22085836.5024
  -5951047.55347  -4627848.37944  23885869.5084   23885864.3074
  -2459204.69446  -1854958.57344  24500441.3134   24500435.9284
 -22278196.20248 -17345174.16847  21160284.4434   21160279.9324
  -7023389.59547  -5455151.70544  23934137.3114   23934131.8134
 -18971876.81548 -14755992.78047  21225869.5154   21225866.6254
 -20080889.84748 -15618562.32346  21485184.4904   21485180.8944
 -24940497.75648 -19424912.96448  20403734.8004   20403730.0304
 -12017234.29347  -9344549.79445  23027562.1184   23027557.7364
  -4351418.19147  -3370812.61644  24417256.3014   24417253.3074
 10  3 18  3 50 30.0000000  0 10G 3G22G19G21G31G24G 6G16G18G29
 -14312287.15047 -11063693.09445  22071255.0214   22071251.6324
  -6044206.54647  -4700439.79244  23868142.2904   23868136.2324
  -2543145.69446  -1920367.12044  24484467.3284   24484462.2364
 -22242489.74648 -17317350.95447  21167079.1444   21167074.5814
  -6921210.03547  -5375531.28345  23953581.3984   23953576.5694
 -18909223.97948 -14707172.38547  21237791.8774   21237788.9354
 -20133984.33348 -15659934.63746  21475080.8154   21475077.4454
 -24957035.39248 -19437799.43848  20400587.4314   20400583.0794
 -12075794.88147  -9390181.42745  23016418.1204   23016414.0944
  -4269065.78347  -3306641.92844  24432928.4944   24432924.3384
 10  3 18  3 51  0.0000000  0 10G 3G22G19G21G31G24G 6G16G18G29
 -14388759.40547 -11123281.84946  22056702.9744   22056699.2474
  -6137293.74947  -4772975.26644  23850428.3534   23850422.3964
  -2627003.42046  -1985710.80644  24468510.1194   24468504.4904
 -22206388.44048 -17289220.05847  21173948.9704   21173944.4824
  -6818964.26847  -5295859.29245  23973037.8544   23973033.2564
 -18846171.00648 -14658040.20347  21249790.2884   21249787.5044
 -20186894.93748 -15701163.67346  21465012.4184   21465009.1854
 -24973119.06448 -19450332.17648  20397526.7914   20397522.0434
 -12134012.64647  -9435545.91445  23005339.8454   23005335.3524
  -4186684.07847  -3242448.41044  24448605.4204   24448601.5834
 10  3 18  3 51 30.0000000  0 10G 3G22G19G21G31G24G 6G16G18G29
 -14465057.27047 -11182734.73246  22042184.3184   22042180.3914
  -6230305.84347  -4845452.21144  23832728.8484   23832722.7494
  -2710776.83946  -2050988.79943  24452568.7104   24452562.5874
 -22169892.96748 -17260782.03047  21180893.8514   21180889.4574
  -6716654.90447  -5216137.78845  23992506.6404   23992502.5824
 -18782719.51248 -14608597.48147  21261865.0334   21261861.9944
 -20239620.75348 -15742248.72746  21454979.0284   21454974.9754
 -24988746.20248 -19462509.16748  20394552.9784   20394548.6344
 -12191884.98347  -9480641.24045  22994327.3714   22994322.7534
  -4104273.09247  -3178232.06744  24464286.6054   24464283.0284
 10  3 18  3 52  0.0000000  0 10G 3G22G19G21G31G24G 6G16G18G29
 -14541180.12847 -11242051.23345  22027698.0354   22027694.8144
  -6323240.15047  -4917868.53944  23815043.6514   23815038.3784
  -2794466.12546  -2116201.17144  24436643.6064   24436637.5774
 -22133005.00748 -17232038.17047  21187913.5504   21187909.6324
  -6614285.03846  -5136369.15145  24011987.1544   24011983.1644
 -18718871.97648 -14558846.15147  21274014.5264   21274011.9094
 -20292161.89848 -15783189.87546  21444980.3204   21444977.2404
 -25003916.28448 -19474330.01148  20391666.4974   20391661.4494
 -12249409.33347  -9525465.41445  22983380.5844   22983376.5864
  -4021833.31047  -3113993.29844  24479975.1094   24479970.9804
 10  3 18  3 52 30.0000000  0 10G 3G22G19G21G31G24G 6G16G18G29
 -14617127.74447 -11301231.19146  22013245.9904   22013242.0584
  -6416093.94847  -4990222.11845  23797374.7984   23797368.7724
  -2878071.53646  -2181348.23144  24420733.7984   24420727.5354
 -22095726.62648 -17202990.07347  21195007.2964   21195002.6864
  -6511857.78747  -5056555.78945  24031479.0234   24031474.6564
 -18654631.14448 -14508788.36247  21286239.4374   21286236.2414
 -20344518.50448 -15823987.23146  21435017.5424   21435014.0514
 -25018627.82348 -19485793.54848  20388866.9434   20388862.1574
 -12306583.74147  -9570016.89945  22972501.1344   22972497.1164
  -3939365.18347  -3049732.45144  24495668.0714   24495664.7034
 10  3 18  3 53  0.0000000  0 10G 3G22G19G21G31G24G 6G16G18G29
 -14692899.28347 -11360273.93346  21998826.9794   21998823.6844
  -6508864.68547  -5062510.99244  23779720.4094   23779714.8694
  -2961592.70246  -2246429.63844  24404840.8844   24404834.2974
 -22058059.10248 -17173638.75747  21202174.9964   21202170.2784
  -6409375.80047  -4976699.75345  24050980.5174   24050976.0724
 -18589999.58748 -14458426.11047  21298538.3354   21298535.5014
 -20396690.01448 -15864640.34746  21425089.4054   21425085.8834
 -25032880.45048 -19496899.49848  20386154.8074   20386150.0994
 -12363405.81947  -9614293.84745  22961688.1334   22961683.1034
  -3856869.34747  -2985450.00244  24511366.3624   24511363.2414
 10  3 18  3 53 30.0000000  0 10G 3G22G19G21G31G24G 6G16G18G29
 -14768493.62547 -11419178.61346  21984441.7334   21984438.7814
  -6601549.18147  -5134732.69145  23762083.4194   23762077.5234
  -3045028.80746  -2311444.75944  24388963.1844   24388957.0884
 -22020003.77248 -17143985.24947  21209416.6914   21209412.0614
  -6306841.55647  -4896802.98345  24070492.3164   24070487.4144
 -18524979.20048 -14407760.87147  21310911.2684   21310908.5544
 -20448675.90448 -15905148.83546  21415196.9024   21415193.4224
 -25046671.90048 -19507646.08248  20383530.0294   20383525.3734
 -12419872.99847  -9658294.23745  22950942.3434   22950937.7484
  -3774345.19547  -2921145.50544  24527070.2184   24527067.7734
 10  3 18  3 54  0.0000000  0 10G 3G22G19G21G31G24G 6G16G18G29
 -14843909.96947 -11477944.59145  21970090.7794   21970087.1424
  -6694144.80447  -5206885.13244  23744463.2364   23744457.0184
  -3128379.93546  -2376393.70944  24373102.0144   24373095.3154
 -21981562.32448 -17114030.88047  21216732.0814   21216726.8604
  -6204258.57647  -4816868.21344  24090013.2134   24090007.5724
 -18459572.82948 -14356794.87147  21323357.7384   21323354.4934
 -20500476.08648 -15945512.60146  21405339.8564   21405336.0114
 -25060001.82248 -19518033.03848  20380993.6174   20380989.0774
 -12475982.92547  -9702016.24945  22940265.4574   22940260.2474
  -3691793.21947  -2856819.32544  24542778.9834   24542776.3974
 10  3 18  3 54 30.0000000  0 10G 3G22G19G21G31G24G 6G16G18G29
 -14919147.51247 -11536571.24746  21955773.6104   21955770.0994
  -6786648.39247  -5278965.86144  23726860.3584   23726854.2804
  -3211645.36246  -2441275.83044  24357256.4964   24357251.1444
 -21942735.96648 -17083776.57247  21224120.4274   21224115.4084
  -6101629.31846  -4736897.40244  24109542.3014   24109538.2634
 -18393782.35948 -14305529.56647  21335877.0904   21335874.5434
 -20552090.24448 -15985731.42046  21395518.2124   21395514.1564
 -25072868.40448 -19528058.95848  20378545.2404   20378540.3804
 -12531732.93147  -9745457.80845  22929656.2994   22929651.4474
  -3609213.59647  -2792471.58244  24558493.4104   24558489.7954
 10  3 18  3 55  0.0000000  0 10G 3G22G19G21G31G24G 6G16G18G29
 -14994205.36747 -11595057.86646  21941490.3824   21941486.9924
  -6879057.11947  -5350972.65845  23709275.0714   23709269.6514
  -3294825.37446  -2506091.41444  24341427.7584   24341422.1944
 -21903526.15848 -17053223.47447  21231582.2504   21231576.7944
  -5998956.82947  -4656892.93844  24129080.8564   24129076.7074
 -18327610.49448 -14253967.08447  21348469.0824   21348466.3124
 -20603517.89048 -16025804.90647  21385731.8244   21385728.0204
 -25085270.57748 -19537722.98348  20376185.1524   20376180.5264
 -12587120.93247  -9788617.27545  22919115.9884   22919111.5944
  -3526606.71047  -2728102.60944  24574213.3754   24574210.0464
 10  3 18  3 55 30.0000000  0 10G 3G22G19G21G31G24G 6G16G18G29
 -15069083.26148 -11653404.26546  21927241.8444   21927238.5554
  -6971368.41347  -5422903.54744  23691709.3414   23691703.4404
  -3377919.55846  -2570840.12843  24325615.4004   24325609.6064
 -21863934.56648 -17022372.88247  21239115.8794   21239110.8874
  -5896243.69547  -4576856.80744  24148626.3184   24148622.2164
 -18261059.33048 -14202109.03747  21361133.6774   21361130.8744
 -20654758.76748 -16065732.85946  21375980.4814   21375976.7524
 -25097207.23448 -19547024.28048  20373913.7594   20373909.0394
 -12642144.62247  -9831492.88945  22908646.0274   22908641.6594
  -3443972.72746  -2663712.52144  24589938.4444   24589934.9654
 10  3 18  3 56  0.0000000  0 10G 3G22G19G21G31G24G 6G16G18G29
 -15143780.84448 -11711610.15446  21913027.0904   21913023.8814
  -7063579.00647  -5494755.96645  23674161.6884   23674156.5694
  -3460927.81046  -2635521.86043  24309819.1784   24309813.3914
 -21823962.61748 -16991225.90647  21246722.4944   21246717.3364
  -5793493.02747  -4496791.41645  24168179.1154   24168175.4414
 -18194131.49248 -14149957.48247  21373869.3944   21373866.4914
 -20705812.90648 -16105515.30246  21366265.1034   21366261.6494
 -25108677.44148 -19555962.11148  20371730.9044   20371726.3684
 -12696801.93147  -9874082.97445  22898244.4214   22898240.1904
  -3361311.99546  -2599301.61244  24605668.2124   24605664.5444
 10  3 18  3 56 30.0000000  0 10G 3G22G19G21G31G24G 6G16G18G29
 -15218296.66248 -11769674.41346  21898847.3534   21898843.6214
  -7155686.03647  -5566527.65345  23656633.9624   23656629.1184
  -3543849.63646  -2700136.27843  24294039.5324   24294032.9614
 -21783611.70448 -16959783.64147  21254400.8614   21254396.0614
  -5690707.30847  -4416698.70845  24187738.9164   24187734.2844
 -18126829.01148 -14097513.99247  21386676.9444   21386674.0464
 -20756679.59048 -16145151.67447  21356585.7624   21356582.0674
 -25119679.55248 -19564535.18348  20369637.4444   20369632.5714
 -12751089.82747  -9916385.23545  22887913.7284   22887909.8234
  -3278624.42046  -2534869.77943  24621402.7124   24621399.2764
 10  3 18  3 57  0.0000000  0 10G 3G22G19G21G31G24G 6G16G18G29
 -15292630.44448 -11827596.84046  21884702.0874   21884698.2444
  -7247687.15447  -5638216.83645  23639127.1814   23639121.8694
  -3626685.34046  -2764683.57144  24278277.2104   24278271.4024
 -21742884.29748 -16928048.00447  21262151.1234   21262145.9284
  -5587890.23647  -4336581.55844  24207303.7994   24207300.1424
 -18059154.91948 -14044780.92847  21399554.5744   21399551.5454
 -20807359.09248 -16184642.19447  21346941.7744   21346938.1504
 -25130213.54848 -19572743.49448  20367632.9464   20367628.2184
 -12805007.24947  -9958398.80445  22877654.3084   22877649.5814
  -3195911.12346  -2470417.89443  24637142.4594   24637138.9424
 10  3 18  3 57 30.0000000  0 10G 3G22G19G21G31G24G 6G16G18G29
 -15366781.29948 -11885376.72846  21870591.3294   21870587.9844
  -7339579.39247  -5709821.16745  23621640.3434   23621634.7194
  -3709434.16746  -2829163.15744  24262530.3144   24262524.8914
 -21701781.36348 -16896019.73947  21269972.6664   21269968.0584
  -5485044.18646  -4256441.84844  24226874.3194   24226871.1814
 -17991111.34248 -13991759.96347  21412502.7124   21412499.8944
 -20857850.93748 -16223986.48347  21337333.6694   21337330.6594
 -25140277.70448 -19580585.70548  20365717.6534   20365712.8324
 -12858551.35047 -10000121.47645  22867464.9654   22867460.4474
  -3113172.03346  -2405945.91543  24652887.2894   24652884.0764
 10  3 18  3 58  0.0000000  0 10G 3G22G19G21G31G24G 6G16G18G29
 -15440748.62048 -11943013.59946  21856515.9944   21856512.4414
  -7431359.74947  -5781338.30145  23604175.3774   23604169.9074
  -3792096.30446  -2893575.19844  24246801.0254   24246795.0304
 -21660304.76748 -16863700.31747  21277865.3934   21277860.9344
  -5382171.84046  -4176281.64144  24246450.5254   24246446.7714
 -17922700.52948 -13938452.82847  21425520.9604   21425518.0214
 -20908154.98648 -16263184.45147  21327761.2344   21327757.5414
 -25149870.96448 -19588060.97748  20363892.2674   20363887.0834
 -12911719.82547 -10041551.44745  22857347.0664   22857342.6734
  -3030407.10046  -2341453.76744  24668636.9354   24668633.7394
 10  3 18  3 58 30.0000000  0 10G 3G22G19G21G31G24G 6G16G18G29
 -15514531.46548 -12000506.72946  21842475.4484   21842472.3864
  -7523024.79047  -5852765.60445  23586732.5354   23586726.1534
  -3874670.92646  -2957919.04944  24231087.2704   24231081.9644
 -21618455.41048 -16831090.42347  21285829.0344   21285824.2404
  -5279275.85046  -4096103.03644  24266031.2814   24266026.9454
 -17853924.72848 -13884861.29647  21438608.5444   21438606.0044
 -20958270.21648 -16302235.27647  21318224.4094   21318220.8894
 -25158991.85048 -19595168.16048  20362156.5154   20362151.7764
 -12964510.12847 -10082686.74445  22847301.6684   22847296.6204
  -2947616.36646  -2276941.50643  24684391.7034   24684388.0814
 10  3 18  3 59  0.0000000  0 10G 3G22G19G21G31G24G 6G16G18G29
 -15588128.91948 -12057855.39746  21828470.3584   21828467.0664
  -7614571.88647  -5924101.00745  23569311.9054   23569306.3814
  -3957157.65346  -3022194.37744  24215389.7634   24215385.2714
 -21576234.98148 -16798191.38247  21293863.1904   21293858.7304
  -5176359.08246  -4015908.21144  24285615.2054   24285611.3784
 -17784786.36948 -13830987.24547  21451765.0954   21451762.5024
 -21008196.62148 -16341138.96947  21308723.3754   21308720.4434
 -25167639.56348 -19601906.63748  20360510.7944   20360506.3254
 -13016920.27347 -10123525.79245  22837328.1934   22837323.6824
  -2864800.20546  -2212409.44243  24700151.6354   24700147.8794
 10  3 18  3 59 30.0000000  0 10G 3G22G19G21G31G24G 6G16G18G29
 -15661540.00748 -12115058.83346  21814500.4554   21814497.1334
  -7705998.42247  -5995342.47345  23551913.8494   23551907.7564
  -4039556.68946  -3086401.36844  24199709.1884   24199705.1904
 -21533645.34648 -16765004.64647  21301967.8374   21301962.9864
  -5073424.33646  -3935699.37344  24305204.3784   24305199.6774
 -17715287.97848 -13776832.66447  21464990.4024   21464987.4524
 -21057933.85148 -16379895.24847  21299259.0314   21299255.5754
 -25175812.89948 -19608275.47648  20358955.8304   20358950.5774
 -13068947.81447 -10164066.71945  22827427.8094   22827422.9134
  -2781958.59846  -2147857.54543  24715915.2544   24715912.9644
 10  3 18  4  0  0.0000000  0 10G 3G22G19G21G31G24G 6G16G18G29
 -15734763.88248 -12172116.39746  21800567.0304   21800563.2794
  -7797300.69047  -6066487.09545  23534539.6474   23534533.7864
  -4121867.32846  -3150539.48344  24184046.4504   24184041.4084
 -21490687.55449 -16731531.04347  21310142.4364   21310137.6734
  -4970474.25546  -3855478.57444  24324794.5044   24324790.0264
 -17645431.61848 -13722399.13847  21478283.6114   21478280.9654
 -21107481.29948 -16418503.64446  21289830.2954   21289826.6534
 -25183510.65148 -19614273.73348  20357490.5794   20357486.0424
 -13120590.29547 -10204307.61845  22817600.3734   22817595.8004
  -2699091.80846  -2083286.06243  24731684.0244   24731681.2344
 10  3 18  4  0 30.0000000  0 10G 3G22G19G21G31G24G 6G16G18G29
 -15807799.97048 -12229027.63646  21786668.7074   21786664.9674
  -7888476.22147  -6137532.96245  23517188.9154   23517183.5674
  -4204089.23846  -3214608.45744  24168400.1864   24168394.6684
 -21447363.24448 -16697771.83347  21318386.8134   21318381.7874
  -4867511.57046  -3775247.98844  24344387.8154   24344384.3974
 -17575219.70148 -13667688.55547  21491644.4684   21491641.4474
 -21156838.61248 -16456963.88247  21280438.1554   21280434.3634
 -25190731.61848 -19619900.45848  20356116.4584   20356111.8924
 -13171845.55647 -10244246.77445  22807846.5594   22807842.8794
  -2616199.91546  -2018694.98443  24747457.9674   24747454.8094
 10  3 18  4  1  0.0000000  0 10G 3G22G19G21G31G24G 6G16G18G29
 -15880648.66148 -12285792.83346  21772806.1824   21772802.5334
  -7979523.54647  -6208478.91545  23499863.5474   23499858.4334
  -4286223.56746  -3278609.26643  24152771.0534   24152764.0894
 -21403675.70548 -16663729.59747  21326699.9524   21326695.5244
  -4764540.42546  -3695010.82344  24363982.5054   24363979.0774
 -17504656.05448 -13612703.89247  21505072.1144   21505069.8404
 -21206006.96448 -16495276.87547  21271081.3144   21271077.8744
 -25197476.33948 -19625156.09048  20354833.0874   20354828.7094
 -13222712.68947 -10283883.49045  22798167.1774   22798163.0794
  -2533284.37446  -1954085.45743  24763236.8514   24763233.0284
 10  3 18  4  1 30.0000000  0 10G 3G22G19G21G31G24G 6G16G18G29
 -15953308.31648 -12342410.73946  21758979.0324   21758975.4964
  -8070438.43747  -6279321.67145  23482562.9024   23482557.6494
  -4368269.06747  -3342540.84844  24137158.6534   24137151.2374
 -21359625.06548 -16629404.41847  21335082.6124   21335077.8474
  -4661562.79946  -3614768.60744  24383577.9684   24383575.5584
 -17433742.06848 -13557446.23946  21518566.7364   21518564.3504
 -21254984.98848 -16533441.56547  21261761.5844   21261757.9404
 -25203742.67548 -19630038.95248  20353640.8094   20353636.5074
 -13273188.63547 -10323215.38145  22788561.6614   22788557.4054
  -2450344.66845  -1889457.12343  24779019.5794   24779016.4754
