     2.11           OBSERVATION DATA    G (GPS)             RINEX VERSION / TYPE
teqc  2008Oct2                          20100319 00:20:21UTCPGM / RUN BY / DATE
MSXP|IAx86-PII|bcc32 5.0|MSWin95->XP|486/DX+                COMMENT
teqc  2008Oct2      ICC                 20100319 00:18:52UTCCOMMENT
BIT 2 OF LLI FLAGS DATA COLLECTED UNDER A/S CONDITION       COMMENT
GARRAF                                                      MARKER NAME
13489M001                                                   MARKER NUMBER
ICC                 ICC                                     OBSERVER / AGENCY
4520250860          TRIMBLE NETRS       1.15                REC # / TYPE / VERS
12545487            TRM41249.00     NONE                    ANT # / TYPE
  4796983.5767   160309.1177  4187340.3773                  APPROX POSITION XYZ
        0.0540        0.0000        0.0000                  ANTENNA: DELTA H/E/N
     1     1                                                WAVELENGTH FACT L1/2
     4    L1    L2    C1    P2                              # / TYPES OF OBSERV
    30.0000                                                 INTERVAL
coordenades ajust ICC 2006.0                                COMMENT
 SNR is mapped to RINEX snr flag value [0-9]                COMMENT
  L1 & L2: min(max(int(snr_dBHz/6), 0), 9)                  COMMENT
teqc windowed: start @ 2010 Mar 18 00:00:00.000             COMMENT
teqc windowed: delta = 86399.999 sec                        COMMENT
Forced Modulo Decimation to 30 seconds                      COMMENT
  2010     3    18     0     0    0.0000000     GPS         TIME OF FIRST OBS
                                                            END OF HEADER
 10  3 18  0  0  0.0000000  0  9G30G 9G26G14G31G27G 2G12G29
 -27599996.60748 -21493496.42947  20083803.9404   20083800.0574
  35415067.21446  27599546.05944  24817855.0694   24817852.4324
   1257449.33046    988874.52942  24971354.1604   24971351.9424
 -17461788.12447 -13602137.26045  22179710.5764   22179705.9184
 -13539229.54348 -10540217.96645  22678279.2414   22678273.4604
  37011398.06246  28844813.88843  24623657.8644   24623654.3854
 -11124261.06447  -8664349.40645  23015008.3524   23015001.6514
 -17225858.65347 -13418061.04146  21866245.1854   21866241.0504
 -24248348.46148 -18883022.92247  20483706.3884   20483702.7624
 10  3 18  0  0 30.0000000  0  9G30G 9G26G14G31G27G 2G12G29
 -27587492.06748 -21483752.64246  20086183.3324   20086179.5254
  35532854.73847  27691328.45943  24840269.3214   24840266.8714
   1371601.97746   1077824.36642  24993076.5554   24993075.4124
 -17403532.31647 -13556743.10645  22190795.4744   22190791.5994
 -13622881.56848 -10605401.35145  22662360.2874   22662355.4334
  37109498.74746  28921255.86744  24642325.3234   24642322.6664
 -11115699.59947  -8657678.13545  23016637.5144   23016631.7394
 -17167003.97047 -13372200.25346  21877445.1144   21877440.6404
 -24285756.89248 -18912172.35247  20476587.9454   20476583.7354
 10  3 18  0  1  0.0000000  0  9G30G 9G26G14G31G27G 2G12G29
 -27574659.94448 -21473753.58446  20088624.9554   20088621.2374
  35650715.39147  27783167.90043  24862697.3614   24862693.6694
   1485680.14346   1166716.19243  25014784.7944   25014783.1384
 -17344804.92947 -13510981.52945  22201971.6604   22201967.0844
 -13706313.28548 -10670413.07146  22646484.0744   22646479.3424
  37207746.12647  28997812.15643  24661022.0344   24661018.7514
 -11106589.90047  -8650579.67145  23018370.9444   23018365.6914
 -17107984.12348 -13326210.77346  21888675.8974   21888672.1924
 -24322671.99048 -18940937.35947  20469562.8404   20469559.0044
 10  3 18  0  1 30.0000000  0  9G30G 9G26G14G31G27G 2G12G29
 -27561499.60048 -21463498.76746  20091129.6814   20091125.7014
  35768648.12047  27875063.56443  24885139.4954   24885134.4924
   1599681.71446   1255548.32343  25036478.8884   25036477.4504
 -17285607.67447 -13464853.80045  22213236.5184   22213231.5004
 -13789521.78947 -10735250.87145  22630649.6334   22630644.5964
  37306139.39347  29074482.16843  24679745.8394   24679741.8124
 -11096931.31747  -8643053.46945  23020209.0524   23020203.1644
 -17048798.83948 -13280092.38446  21899938.9194   21899934.9294
 -24359092.70848 -18969317.13447  20462632.3764   20462628.9654
 10  3 18  0  2  0.0000000  0  9G30G 9G26G14G31G27G 2G12G29
 -27548011.77748 -21452988.79146  20093696.1294   20093692.1544
  35886650.39546  27967013.31843  24907594.2674   24907590.7074
   1713603.56946   1344318.28742  25058158.2654   25058157.0984
 -17225944.02847 -13418362.65645  22224590.0564   22224585.5394
 -13872505.11948 -10799913.19145  22614858.6304   22614853.5164
  37404676.16646  29151263.99143  24698496.8224   24698493.0954
 -11086724.57547  -8635100.16345  23022150.9634   23022145.3684
 -16989449.70848 -13233846.32346  21911232.4714   21911228.6224
 -24395019.46248 -18997311.99447  20455796.0654   20455792.1864
 10  3 18  0  2 30.0000000  0  9G30G 9G26G14G31G27G 2G12G29
 -27534196.75148 -21442223.83446  20096325.2234   20096321.5844
  36004720.32646  28059015.75343  24930061.6394   24930059.1024
   1827442.97446   1433023.93443  25079821.2984   25079819.8574
 -17165816.74547 -13371510.23045  22236031.9534   22236028.1434
 -13955261.14447 -10864398.38945  22599110.7424   22599105.1484
  37503354.72846  29228156.28843  24717273.9594   24717271.6044
 -11075969.36947  -8626719.48845  23024197.8144   23024191.4704
 -16929936.33647 -13187472.27646  21922557.7794   21922553.1054
 -24430452.22848 -19024921.93847  20449053.5164   20449049.1484
 10  3 18  0  3  0.0000000  0  9G30G 9G26G14G31G27G 2G12G29
 -27520053.85048 -21431203.39446  20099016.4884   20099012.6664
  36122856.65846  28151069.89643  24952542.9774   24952539.4084
   1941197.71846   1521663.63143  25101468.0184   25101466.8864
 -17105227.72447 -13324298.01645  22247561.3874   22247558.4334
 -14037786.92748 -10928704.19745  22583406.5354   22583401.3984
  37602174.00845  29305158.18542  24736078.1154   24736076.2514
 -11064665.79847  -8617911.48345  23026348.9514   23026342.6654
 -16870258.97548 -13140970.43146  21933913.8044   21933909.5754
 -24465390.08348 -19052146.22347  20442404.9534   20442400.8134
 10  3 18  0  3 30.0000000  0  9G30G 9G26G14G31G27G 2G12G29
 -27505583.15648 -21419927.52446  20101770.0674   20101766.1304
  36241057.67446  28243174.46643  24975036.0114   24975031.9504
   2054865.51646   1610235.51843  25123098.5884   25123097.0854
 -17044178.94047 -13276727.54745  22259178.1944   22259175.6154
 -14120080.25048 -10992828.84546  22567746.2734   22567741.7584
  37701132.64445  29382268.54342  24754909.5704   24754908.0164
 -11052813.13647  -8608675.65645  23028603.8454   23028598.9024
 -16810417.81848 -13094340.96846  21945300.8604   21945297.1034
 -24499832.20448 -19078984.24947  20435850.4214   20435846.9244
 10  3 18  0  4  0.0000000  0  9G30G 9G26G14G31G27G 2G12G29
 -27490785.81948 -21408397.12846  20104585.9094   20104581.8234
  36359320.36346  28335327.11643  24997541.0524   24997536.4724
   2168442.64746   1698736.74443  25144712.4764   25144710.2024
 -16982674.14747 -13228801.74045  22270882.7074   22270878.9594
 -14202139.94647 -11056771.46446  22552130.7534   22552126.6194
  37800227.69146  29459485.29043  24773767.0714   24773765.4764
 -11040412.59847  -8599012.88945  23030964.1274   23030957.5744
 -16750413.86348 -13047584.64746  21956719.2864   21956714.7804
 -24533779.84548 -19105436.94847  20429390.5904   20429386.3994
 10  3 18  0  4 30.0000000  0  9G30G 9G26G14G31G27G 2G12G29
 -27475662.01448 -21396612.35846  20107464.1814   20107459.8244
  36477643.18047  28427526.61243  25020057.3784   25020052.8354
   2281926.19246   1787165.01143  25166307.0384   25166306.6674
 -16920716.38447 -13180523.00045  22282673.0244   22282668.4664
 -14283963.91548 -11120530.40445  22536560.2794   22536555.5104
  37899457.53446  29536807.06743  24792650.5744   24792648.5504
 -11027464.59047  -8588923.52145  23033428.4034   23033420.7424
 -16690248.05948 -13000702.22246  21968168.3954   21968165.0054
 -24567233.11548 -19131504.43347  20423024.8604   20423020.9294
 10  3 18  0  5  0.0000000  0  9G30G 9G26G14G31G27G 2G12G29
 -27460210.83448 -21384572.48246  20110404.0444   20110400.2544
  36596024.96546  28519772.08044  25042584.6124   25042580.1584
   2395314.85646   1875519.39443  25187885.2754   25187883.8564
 -16858307.25547 -13131892.49045  22294549.0204   22294543.9284
 -14365548.87048 -11184103.07845  22521035.2064   22521030.2204
  37998821.61946  29614233.50043  24811559.5084   24811557.2774
 -11013968.19647  -8578406.84445  23035996.3094   23035989.9054
 -16629919.82447 -12953693.21946  21979648.6834   21979643.5544
 -24600190.44848 -19157185.46147  20416753.1134   20416749.1354
 10  3 18  0  5 30.0000000  0  9G30G 9G26G14G31G27G 2G12G29
 -27444432.73248 -21372277.84546  20113406.7084   20113402.7774
  36714463.27246  28612061.62243  25065122.1264   25065118.9904
   2508605.80446   1963797.65943  25209443.9094   25209443.7404
 -16795449.40647 -13082912.36245  22306510.8764   22306506.1534
 -14446892.75447 -11247487.90145  22505555.9894   22505551.4864
  38098318.11446  29691763.01443  24830492.7284   24830490.2714
 -10999923.80547  -8567463.16345  23038669.1234   23038662.8464
 -16569429.58148 -12906557.97946  21991159.4974   21991155.2774
 -24632652.14348 -19182480.29447  20410576.2144   20410572.4414
 10  3 18  0  6  0.0000000  0  9G30G 9G26G14G31G27G 2G12G29
 -27428328.49948 -21359729.09746  20116471.4634   20116467.5354
  36832956.02746  28704393.52042  25087669.8754   25087667.9324
   2621795.56346   2051997.04243  25230984.5344   25230983.4834
 -16732146.34447 -13033585.28445  22318556.9724   22318551.5554
 -14527993.82848 -11310683.55645  22490122.7554   22490118.3824
  38197944.71646  29769393.87743  24849451.2034   24849449.4644
 -10985332.04047  -8556092.93745  23041445.5694   23041439.7734
 -16508778.60548 -12859297.49946  22002701.4154   22002697.1114
 -24664618.74648 -19207389.33247  20404492.8164   20404489.1364
 10  3 18  0  6 30.0000000  0  9G30G 9G26G14G31G27G 2G12G29
 -27411897.13948 -21346925.44546  20119598.4254   20119594.1794
  36951502.66345  28796767.37342  25110226.1514   25110225.0724
   2734882.69446   2140116.44743  25252503.4814   25252503.1684
 -16668399.55347 -12983912.45845  22330687.2594   22330683.7384
 -14608848.96648 -11373687.54346  22474736.3824   22474732.3004
  38297700.74245  29847125.61742  24868435.1044   24868432.2984
 -10970192.22948  -8544295.67045  23044326.7074   23044320.5264
 -16447966.12748 -12811911.17346  22014273.0224   22014269.2044
 -24696089.20648 -19231911.75847  20398504.2544   20398500.3224
 10  3 18  0  7  0.0000000  0  9G30G 9G26G14G31G27G 2G12G29
 -27395139.17848 -21333867.29846  20122786.9994   20122783.7184
  38645520.59345  30116781.16942  25132796.1674   25132795.7394
   2847864.58846   2228153.88843  25274003.5014   25274002.5044
 -16604212.31448 -12933896.43345  22342901.2664   22342896.9664
 -14689456.37947 -11436498.50245  22459398.0024   22459392.3184
  38397584.34045  29924956.79642  24887442.3914   24887439.0014
 -10954504.78647  -8532071.70845  23047310.9754   23047304.7954
 -16386992.44948 -12764399.22446  22025876.4354   22025871.8704
 -24727063.61648 -19256047.65047  20392610.0244   20392606.3304
 10  3 18  0  7 30.0000000  0  9G30G 9G26G14G31G27G 2G12G29
 -27378055.92648 -21320555.67547  20126037.8514   20126034.0784
  38764167.24146  30209232.95043  25155375.8824   25155373.2194
   2960737.19946   2316106.18843  25295483.4924   25295481.6704
 -16539588.05647 -12883539.85845  22355198.9364   22355195.6604
 -14769814.58248 -11499115.29746  22444106.7294   22444101.1794
  38497592.71045  30002885.01142  24906471.8204   24906469.2314
 -10938270.91947  -8519421.93045  23050401.1104   23050394.5414
 -16325859.14247 -12716762.88246  22037509.4464   22037504.9364
 -24757542.88248 -19279797.71847  20386809.9474   20386806.0564
 10  3 18  0  8  0.0000000  0  9G30G 9G26G14G31G27G 2G12G29
 -27360645.78548 -21306989.33846  20129350.7114   20129346.7094
  38882862.12546  30301722.31143  25177963.0444   25177960.7074
   3073499.42946   2403972.46643  25316940.3734   25316940.4404
 -16474528.38147 -12832844.03045  22367579.2734   22367576.1954
 -14849920.01848 -11561535.08446  22428862.5554   22428857.7014
  38597725.60945  30080910.49342  24925528.1354   24925525.5324
 -10921489.29947  -8506345.32145  23053594.4384   23053589.1724
 -16264565.36547 -12669001.52046  22049173.5434   22049169.2634
 -24787525.56448 -19303160.83447  20381104.4004   20381100.6414
 10  3 18  0  8 30.0000000  0  9G30G 9G26G14G31G27G 2G12G29
 -27342909.23248 -21293168.65346  20132726.4674   20132722.3524
  39001602.87646  30394247.45643  25200558.4064   25200556.5644
   3186148.64746   2491750.65843  25338377.2804   25338377.8024
 -16409036.11647 -12781811.11945  22380042.0754   22380038.2464
 -14929771.07748 -11623756.68146  22413667.2634   22413662.2294
  38697980.86946  30159031.29542  24944606.4594   24944603.4064
 -10904160.74747  -8492842.54345  23056892.1524   23056886.2984
 -16203111.65447 -12621115.51546  22060867.5124   22060863.2234
 -24817012.12348 -19326137.36347  20375493.2094   20375489.6604
 10  3 18  0  9  0.0000000  0  9G30G 9G26G14G31G27G 2G12G29
 -27324847.12448 -21279094.27646  20136163.1034   20136159.4594
  39120387.23746  30486806.54743  25223162.2964   25223160.7094
   3298681.91246   2579438.61543  25359792.4204   25359793.6284
 -16343114.56047 -12730443.69345  22392586.9154   22392583.3564
 -15009365.62548 -11685778.41046  22398521.1674   22398515.9574
  38798356.39046  30237245.74642  24963707.1094   24963705.2204
 -10886285.97947  -8478914.15545  23060293.4394   23060286.9804
 -16141498.83648 -12573105.54046  22072592.5474   22072587.8994
 -24846002.68948 -19348727.41547  20369976.6654   20369972.7074
 10  3 18  0  9 30.0000000  0  9G30G 9G26G14G31G27G 2G12G29
 -27306459.21548 -21264766.04147  20139662.3004   20139658.1214
  39239213.70346  30579398.39043  25245774.4734   25245772.3964
   3411096.77846   2667034.43743  25381184.4894   25381184.9994
 -16276766.18747 -12678743.65745  22405212.9204   22405208.2124
 -15088701.16448 -11747598.30146  22383424.2084   22383420.4374
  38898850.88846  30315552.89143  24982830.8384   24982829.3024
 -10867865.23447  -8464560.31945  23063798.9764   23063793.3154
 -16079727.12447 -12524971.74346  22084346.8034   22084341.9894
 -24874497.39148 -19370931.07347  20364554.3574   20364549.9874
 10  3 18  0 10  0.0000000  0  8G30G 9G26G14G31G 2G12G29
 -27287743.14948 -21250182.09746  20143224.0334   20143219.8264
  39358083.04845  30672023.65742  25268393.7134   25268391.5974
   3523393.49546   2754538.32443  25402553.6394   25402554.5834
 -16209991.25947 -12626711.25345  22417920.1874   22417915.1484
 -15167773.05848 -11809212.74446  22368376.6054   22368372.2974
 -10848896.30846  -8449779.32745  23067408.5874   23067402.6164
 -16017794.22948 -12476712.36246  22096132.2844   22096128.2034
 -24902493.37348 -19392746.12847  20359226.6354   20359223.3324
 10  3 18  0 10 30.0000000  0  9G30G 9G26G14G24G31G 2G12G29
 -27268703.90848 -21235346.32846  20146846.8544   20146843.2754
  39476988.34145  30764676.84642  25291022.2014   25291019.6764
   3635564.52746   2841944.27743  25423899.5544   25423900.4484
 -16142797.40647 -12574352.38245  22430705.8614   22430701.8864
                                  24922411.4594
 -15246583.80948 -11870623.72546  22353380.2744   22353374.8404
 -10829384.12147  -8434575.01845  23071121.3194   23071115.9574
 -15955705.50648 -12428331.54746  22107947.6564   22107943.4044
 -24929995.83248 -19414176.60747  20353993.1414   20353989.4324
 10  3 18  0 11  0.0000000  0  9G30G 9G26G14G24G31G 2G12G29
 -27249339.70648 -21220257.34146  20150531.7424   20150527.6654
  39595929.96145  30857358.42842  25313656.5674   25313653.5854
   3747609.17146   2929251.77543  25445220.7624   25445221.0324
 -16075185.57247 -12521667.85345  22443572.4964   22443567.9334
                                  24902064.3054
 -15325129.09148 -11931827.84146  22338433.8574   22338427.5484
 -10809327.25447  -8418946.31645  23074938.3154   23074931.9324
 -15893459.73348 -12379828.36246  22119792.7424   22119788.7254
 -24957002.84948 -19435221.02847  20348854.1274   20348850.1954
 10  3 18  0 11 30.0000000  0  8G30G 9G26G14G31G 2G12G29
 -27229649.89848 -21204914.63246  20154278.4964   20154274.6014
  39714906.81646  30950067.48542  25336297.4284   25336294.5674
   3859525.31146   3016459.02943  25466518.2814   25466518.1934
 -16007157.87447 -12468659.24945  22456517.0114   22456513.1484
 -15403406.07248 -11992822.87546  22323537.6674   22323533.1064
 -10788725.46047  -8402892.93445  23078858.4454   23078852.5574
 -15831055.46747 -12331201.66646  22131667.8254   22131663.1294
 -24983513.48748 -19455878.66147  20343809.0694   20343805.0024
 10  3 18  0 12  0.0000000  0  8G30G 9G26G14G31G 2G12G29
 -27209634.75748 -21189318.43446  20158087.2884   20158083.4604
  39833916.67946  31042802.19243  25358944.0514   25358942.3954
   3971311.02446   3103564.82743  25487790.3184   25487789.4084
 -15938717.10947 -12415328.79345  22469541.3444   22469537.6514
 -15481412.49448 -12053607.08846  22308693.1654   22308689.8084
 -10767579.12247  -8386415.25045  23082882.4534   23082877.1634
 -15768493.63548 -12282452.20046  22143573.1984   22143568.4114
 -25009528.01448 -19476149.71047  20338858.7264   20338854.7994
 10  3 18  0 12 30.0000000  0  8G30G 9G26G14G31G 2G12G29
 -27189294.70848 -21173469.04646  20161957.8004   20161954.2504
  39952957.38746  31135560.95943  25381597.4054   25381595.4894
   4082963.24846   3190566.72843  25509037.1294   25509035.2784
 -15869866.34847 -12361678.85445  22482642.7964   22482640.4324
 -15559146.42548 -12114178.98646  22293901.2784   22293896.5234
 -10745889.01147  -8369513.88345  23087009.8534   23087003.1464
 -15705775.09747 -12233580.61446  22155507.7964   22155503.7284
 -25035046.97248 -19496034.60847  20334002.4494   20333998.6864
 10  3 18  0 13  0.0000000  0  8G30G 9G26G14G31G 2G12G29
 -27168629.38548 -21157366.19346  20165890.4194   20165886.3714
  40072027.60246  31228342.74543  25404255.9254   25404253.7564
   4194480.40346   3277463.61643  25530257.1574   25530257.0494
 -15800607.92847 -12307711.27845  22495822.7094   22495819.6844
 -15636605.03648 -12174536.34146  22279161.1224   22279156.2374
 -10723655.21347  -8352188.84045  23091240.5254   23091234.3294
 -15642899.36148 -12184586.53646  22167472.6814   22167468.1814
 -25060069.88748 -19515532.97847  20329240.8924   20329237.1794
 10  3 18  0 13 30.0000000  0  8G30G 9G26G14G31G 2G12G29
 -27147638.89048 -21141009.96646  20169884.6104   20169880.5034
  40191125.79446  31321146.24842  25426919.1004   25426917.4434
   4305859.70745   3364253.13643  25551450.6004   25551451.4084
 -15730944.91747 -12253428.41345  22509078.9124   22509075.3934
 -15713785.99048 -12234677.34646  22264474.5694   22264468.6774
 -10700878.07847  -8334440.41145  23095575.2144   23095569.3734
 -15579867.04348 -12135470.44546  22179467.0284   22179462.5594
 -25084596.75848 -19534644.81847  20324573.5154   20324569.4124
 10  3 18  0 14  0.0000000  0  8G30G26G14G24G31G 2G12G29
 -27126324.90248 -21124401.67546  20173940.8094   20173936.9244
   4417097.17145   3450932.26243  25572616.7914   25572617.8694
 -15660881.60147 -12198833.64145  22522411.8124   22522408.7084
                                  24779673.9914
 -15790688.77548 -12294601.58746  22249840.4004   22249834.9964
 -10677559.65247  -8316270.20645  23100012.3114   23100006.7514
 -15516679.79048 -12086233.62946  22191491.4194   22191487.0834
 -25108629.88148 -19553371.92147  20320000.0294   20319996.2624
 10  3 18  0 14 30.0000000  0  8G30G26G14G24G31G 2G12G29
 -27104683.95048 -21107538.59746  20178058.6614   20178055.1424
  36036593.20645                  25593758.8714
 -15590417.48547 -12143926.53145  22535820.6974   22535817.2444
   -553677.39645                  24759224.1744
 -15867307.46948 -12354304.46446  22235259.9314   22235255.5194
 -10653696.79447  -8297675.75445  23104553.3974   23104547.2534
 -15453334.52048 -12036873.67545  22203545.5624   22203540.6074
 -25132164.94048 -19571710.93047  20315521.7024   20315518.0494
 10  3 18  0 15  0.0000000  0  8G30G26G14G24G31G 2G12G29
 -27082718.82248 -21090422.92346  20182238.3704   20182235.0594
  36147543.38945                  25614872.6994
 -15519557.89647 -12088711.27845  22549304.3224   22549300.7574
   -661209.18745                  24738758.5124
 -15943642.21248 -12413786.07946  22220734.4464   22220729.0654
 -10629293.15347  -8278659.90845  23109197.3204   23109190.4764
 -15389834.00748 -11987392.78146  22215629.0834   22215624.6984
 -25155205.30248 -19589664.44247  20311137.1984   20311133.5174
 10  3 18  0 15 30.0000000  0  8G30G26G14G24G31G 2G12G29
 -27060430.40248 -21073055.32546  20186479.9444   20186475.9344
  36258344.15346                  25635957.3014
 -15448306.52547 -12033190.72645  22562862.8014   22562858.4324
                                  24718281.4674
 -16019691.44948 -12473045.21046  22206262.0884   22206257.8364
 -10604349.52447  -8259223.33745  23113944.0254   23113937.5494
 -15326179.62847 -11937791.98046  22227742.0674   22227737.4104
 -25177751.82048 -19607233.14947  20306846.6564   20306842.7234
 10  3 18  0 16  0.0000000  0  7G30G26G14G31G 2G12G29
 -27037817.43248 -21055434.83746  20190783.0404   20190779.2214
  36368994.44245                  25657013.3544
 -15376664.76247 -11977365.97944  22576496.0594   22576491.3984
 -16095451.91348 -12532079.33746  22191845.4434   22191840.6714
 -10578865.34947  -8239365.53345  23118793.5454   23118788.5124
 -15262369.84147 -11888070.07846  22239884.6464   22239880.6634
 -25199803.42548 -19624416.21847  20302650.5654   20302646.7284
 10  3 18  0 16 30.0000000  0  8G30G26G14G24G31G 2G12G29
 -27014881.75148 -21037562.87246  20195147.5344   20195143.9554
  36479489.96545                  25678039.4114
 -15304637.08047 -11921240.52944  22590202.4204   22590198.6114
   -734368.24945                  24677301.3654
 -16170922.57648 -12590887.64246  22177483.7004   22177478.6974
 -10552842.77647  -8219088.18045  23123745.9194   23123739.6204
 -15198406.56948 -11838228.58946  22252056.9654   22252053.0324
 -25221361.77648 -19641214.92447  20298547.9294   20298544.2924
 10  3 18  0 17  0.0000000  0  7G30G14G24G31G 2G12G29
 -26991617.97748 -21019435.27146  20199574.7194   20199570.6174
 -15232221.39547 -11864812.72745  22603983.0134   22603978.0064
   -842146.32045                  24656788.3434
 -16246095.43648 -12649463.89046  22163179.2104   22163173.8344
 -10526277.17147  -8198387.69545  23128800.9204   23128794.5534
 -15134285.10747 -11788263.83246  22264259.0394   22264254.8614
 -25242421.85848 -19657625.36847  20294540.7834   20294536.5734
 10  3 18  0 17 30.0000000  0  7G30G14G24G31G 2G12G29
 -26968021.65948 -21001048.53646  20204064.9564   20204061.1824
 -15159415.51447 -11808080.86645  22617837.7624   22617833.2674
                                  24636267.7394
 -16320964.05948 -12707803.07546  22148932.1394   22148927.8674
 -10499164.52947  -8177260.97445  23133960.4954   23133953.8124
 -15070000.86648 -11738172.23146  22276491.7494   22276488.0464
 -25262978.90748 -19673643.84647  20290628.9454   20290624.8114
 10  3 18  0 18  0.0000000  0  7G30G14G24G31G 2G12G29
 -26944122.20648 -20982425.58846  20208612.4294   20208609.0444
 -15086251.91347 -11751070.26745  22631760.1664   22631756.4674
    517549.71645                  24615738.5254
 -16395555.51148 -12765926.29246  22134737.8774   22134733.9114
 -10471534.55647  -8155731.13945  23139218.0674   23139212.2384
 -15005583.47648 -11687976.87746  22288750.0694   22288745.5164
 -25283062.89248 -19689293.70547  20286806.9414   20286802.7094
 10  3 18  0 18 30.0000000  0  7G30G14G24G31G 2G12G29
 -26919891.27248 -20963544.35146  20213223.9084   20213220.1484
 -15012705.07447 -11693761.06644  22645755.7194   22645751.8694
    409608.46845                  24595196.6654
 -16469838.61248 -12823809.22146  22120601.8864   22120597.4624
 -10443359.64147  -8133776.63245  23144579.4104   23144574.1524
 -14941004.58048 -11637655.65246  22301038.8784   22301034.5164
 -25302645.37448 -19704552.77647  20283080.4254   20283076.5734
 10  3 18  0 19  0.0000000  0  7G30G14G24G31G 2G12G29
 -26895335.98648 -20944410.36546  20217896.8304   20217892.5984
 -14938784.76147 -11636160.83445  22659821.8994   22659817.9124
    301620.82945                  24574647.1344
 -16543817.86948 -12881455.38446  22106524.3174   22106519.4544
 -10414647.45947  -8111403.50145  23150043.8154   23150036.9074
 -14876271.54748 -11587214.34346  22313357.0784   22313353.2434
 -25321733.69048 -19719426.78047  20279447.8954   20279443.8034
 10  3 18  0 19 30.0000000  0  7G30G14G24G31G 2G12G29
 -26870458.05548 -20925024.96746  20222630.4694   20222626.8124
 -14864495.52247 -11578273.11944  22673958.8684   22673954.5804
    193587.62445                  24554087.7684
 -16617492.96148 -12938864.54246  22092504.5074   22092500.4624
 -10385400.31147  -8088613.55145  23155608.5634   23155603.2404
 -14811386.00648 -11536654.21246  22325704.6574   22325700.4944
 -25340329.70548 -19733917.16947  20275909.3504   20275905.4934
 10  3 18  0 20  0.0000000  0  7G30G14G24G31G 2G12G29
 -26845256.01548 -20905387.01346  20227426.2934   20227422.3844
 -14789839.03347 -11520099.24244  22688164.9114   22688160.9144
     85513.15545                  24533520.5444
 -16690860.06648 -12996033.71746  22078543.3014   22078538.9614
 -10355617.28946  -8065406.00145  23161276.5274   23161270.7924
 -14746346.83347 -11485974.35246  22338081.0574   22338076.5854
 -25358432.46948 -19748023.21547  20272464.5774   20272460.2084
 10  3 18  0 20 30.0000000  0  7G30G14G24G31G 2G12G29
 -26819731.67148 -20885497.92646  20232283.7914   20232279.6244
 -14714819.69247 -11461642.62444  22702441.0054   22702437.6864
    -22601.36145                  24512947.3094
 -16763918.21048 -13052962.14046  22064640.7264   22064635.6104
 -10325300.73147  -8041782.69745  23167045.0074   23167039.7414
 -14681155.92248 -11435176.25645  22350486.5474   22350481.5874
 -25376043.60148 -19761746.17747  20269113.1864   20269109.0364
 10  3 18  0 21  0.0000000  0  7G30G14G24G31G 2G12G29
 -26793884.73948 -20865357.46546  20237202.0654   20237198.8554
 -14639440.24547 -11402905.42444  22716785.7764   22716781.4074
   -130753.11846                  24492366.9154
 -16836665.05648 -13109647.99646  22050797.7214   22050792.4814
 -10294451.43347  -8017744.27345  23172916.0854   23172910.5634
 -14615813.58448 -11384260.16845  22362921.3314   22362915.6714
 -25393163.47748 -19775086.33747  20265855.3054   20265850.9804
 10  3 18  0 21 30.0000000  0  7G30G14G24G31G 2G12G29
 -26767715.40948 -20844965.78346  20242181.9174   20242178.5554
 -14563703.72347 -11343889.94144  22731197.4564   22731192.4034
   -238938.78046                  24471780.1834
 -16909098.07848 -13166089.30846  22037013.8794   22037009.6204
 -10263069.96347  -7993291.17845  23178887.3564   23178881.8414
 -14550319.87348 -11333226.10545  22375384.0234   22375378.7774
 -25409791.96648 -19788043.59047  20262691.0954   20262687.1284
 10  3 18  0 22  0.0000000  0  8G30G21G14G24G31G 2G12G29
 -26741223.37348 -20824322.65546  20247223.3734   20247219.9714
    325363.08145                  25052984.0044
 -14487613.06647 -11284598.53944  22745677.3954   22745672.9834
   -347156.08746                  24451186.3514
 -16981214.75347 -13222284.11546  22023290.6404   22023285.8014
 -10231156.76647  -7968423.75445  23184960.4714   23184953.3264
 -14484674.43948 -11282073.82846  22387876.0144   22387871.4384
 -25425929.50748 -19800618.29047  20259620.0984   20259616.3174
 10  3 18  0 22 30.0000000  0  8G30G21G14G24G31G 2G12G29
 -26714415.02648 -20803433.03646  20252324.5034   20252321.2804
    228960.57345                  25034636.8904
 -14411176.77747 -11225037.79344  22760222.9774   22760218.5434
   -455407.47946   -531485.28643  24430586.5024   24430582.3944
 -17053018.84447 -13278235.34446  22009626.7904   22009621.7854
 -10198719.02447  -7943147.58845  23191133.1594   23191127.0994
 -14418883.71148 -11230808.33645  22400395.8264   22400390.1154
 -25441582.77148 -19812815.63147  20256641.2094   20256637.5674
 10  3 18  0 23  0.0000000  0  8G30G21G14G24G31G 2G12G29
 -26687278.42048 -20782287.63246  20257488.3324   20257484.4514
    132496.86245                  25016279.9284
 -14334386.08547 -11165200.88545  22774835.3234   22774830.7724
   -563678.71046   -615852.13843  24409982.5384   24409980.8934
 -17124495.89448 -13333931.75446  21996025.0104   21996020.1944
 -10165745.66747  -7917454.05645  23197407.7384   23197402.9924
 -14352936.45447 -11179420.86545  22412943.9184   22412939.1494
 -25456740.20248 -19824626.60647  20253756.7724   20253753.0584
 10  3 18  0 23 30.0000000  0  8G30G21G14G24G31G 2G12G29
 -26659819.77348 -20760891.29446  20262714.1684   20262710.2874
     35968.18445                  24997909.9744
 -14257250.59747 -11105095.32744  22789513.6934   22789510.1494
   -671972.67846   -700236.63543  24389375.2634   24389373.1494
 -17195649.63148 -13389376.20746  21982484.5834   21982480.2344
 -10132243.51147  -7891348.46045  23203782.6314   23203777.2824
 -14286838.36048 -11127915.86745  22425522.6314   22425517.8034
 -25471408.02148 -19836056.07747  20250965.5204   20250962.1884
 10  3 18  0 24  0.0000000  0  8G30G21G14G24G31G 2G12G29
 -26632039.50248 -20739244.33146  20268000.4854   20267996.3514
    -60623.05545                  24979527.8264
 -14179772.97147 -11044723.17944  22804256.9984   22804252.8434
   -780286.87446   -784636.83943  24368763.6164   24368761.6894
 -17266478.00548 -13444567.13546  21969006.9954   21969002.1144
 -10098213.64147  -7864831.66445  23210258.4514   23210252.0514
 -14220589.93948 -11076293.73145  22438129.2784   22438124.6544
 -25485586.59548 -19847104.31547  20248267.7034   20248264.0634
 10  3 18  0 24 30.0000000  0  8G30G21G14G24G31G 2G12G29
 -26603936.72948 -20717346.07646  20273347.8984   20273344.0684
   -157274.13745                  24961134.9354
 -14101955.52947 -10984086.20944  22819065.4704   22819061.1124
   -888618.23746   -869050.61543  24348148.0334   24348146.4444
 -17336978.04048 -13499502.24146  21955591.4314   21955586.3364
 -10063655.98347  -7837903.63945  23216834.5254   23216827.8374
 -14154190.52447 -11024553.94545  22450764.3464   22450760.5534
 -25499275.99948 -19857771.36847  20245662.9214   20245659.1494
 10  3 18  0 25  0.0000000  0  8G30G21G14G24G31G 2G12G29
 -26575513.82448 -20695198.35846  20278756.7884   20278752.9474
   -253984.06445                  24942732.3834
 -14023803.01046 -10923188.16644  22833937.1514   22833932.7964
   -996965.23546   -953476.55343  24327530.0374   24327527.9654
 -17407149.17548 -13554181.02146  21942238.0784   21942233.4804
 -10028573.32947  -7810566.51745  23223510.1924   23223505.4794
 -14087642.24447 -10972698.15745  22463428.2274   22463423.5744
 -25512478.20848 -19868058.79347  20243150.0514   20243146.3864
 10  3 18  0 25 30.0000000  0  8G30G21G14G24G31G 2G12G29
 -26546769.53348 -20672800.21146  20284226.7134   20284222.8814
   -350749.83246                  24924319.3284
 -13945317.65247 -10862030.75244  22848872.9514   22848868.3834
  -1105323.76946  -1037911.32243  24306909.8754   24306907.5714
 -17476987.97448 -13608600.87146  21928948.1704   21928943.0834
  -9992965.88347  -7782820.42045  23230286.1854   23230281.7664
 -14020944.76147 -10920726.10845  22476120.1174   22476116.1504
 -25525192.97148 -19877966.39947  20240730.9594   20240727.3514
 10  3 18  0 26  0.0000000  0  8G30G21G14G24G31G 2G12G29
 -26517704.68048 -20650152.28646  20289757.4354   20289753.4994
   -447569.84846                  24905894.2804
 -13866503.03747 -10800616.77144  22863870.5244   22863865.7514
  -1213692.28146  -1122354.01843  24286287.1944   24286284.8844
 -17546492.67748 -13662760.40446  21915722.4674   21915716.1264
  -9956835.02747  -7754666.50445  23237161.7934   23237156.0724
 -13954098.72547 -10868638.30545  22488840.6974   22488836.7484
 -25537421.40348 -19887495.05047  20238403.5854   20238399.8984
 10  3 18  0 26 30.0000000  0  8G30G21G14G24G31G 2G12G29
 -26488317.83848 -20627253.45246  20295349.3514   20295346.0794
   -544440.23846                  24887460.0264
 -13787360.93247 -10738947.60044  22878930.8534   22878926.1394
  -1322066.46947  -1206801.13943  24265664.4744   24265662.6164
 -17615659.69848 -13716656.75146  21902559.7264   21902554.2094
  -9920180.49747  -7726104.55145  23244136.4664   23244130.6824
 -13887102.81748 -10816433.73045  22501589.9614   22501585.6834
 -25549162.55748 -19896643.99547  20236169.1044   20236165.2184
 10  3 18  0 27  0.0000000  0  8G30G21G14G24G31G 2G12G29
 -26458610.74548 -20604105.07946  20301002.5194   20300999.1554
   -641360.04346                  24869016.8284
 -13707895.76146 -10677026.67644  22894052.5824   22894046.8544
  -1430444.89547  -1291251.66043  24245040.5924   24245038.6794
 -17684488.15347 -13770289.31346  21889462.2344   21889458.1994
  -9883004.46747  -7697136.19945  23251211.2944   23251206.0554
 -13819958.75647 -10764113.68645  22514367.3244   22514362.5574
 -25560418.49148 -19905414.84647  20234027.4444   20234023.4414
 10  3 18  0 27 30.0000000  0  8G30G21G14G24G31G 2G12G29
 -26428582.60248 -20580706.52646  20306716.8154   20306713.4234
   -738326.46646                  24850565.7674
 -13628109.76246 -10614855.77744  22909235.1294   22909230.7394
  -1538823.77946  -1375702.52743  24224416.5594   24224413.8194
 -17752974.95948 -13823655.67946  21876429.5774   21876425.1034
  -9845307.61647  -7667762.01445  23258384.3014   23258379.1224
 -13752665.89947 -10711677.70545  22527172.9144   22527168.0234
 -25571188.55748 -19913807.09947  20231978.1184   20231974.4304
 10  3 18  0 28  0.0000000  0  8G30G21G14G24G31G 2G12G29
 -26398233.85448 -20557058.16446  20312491.8084   20312488.5164
   -835337.14046   -643052.88843  24832104.7664   24832101.6404
 -13548006.42746 -10552437.62144  22924478.6244   22924474.5114
  -1647200.24946  -1460151.54043  24203792.2064   24203790.7484
 -17821117.97347 -13876754.10746  21863462.0894   21863456.5544
  -9807091.04247  -7637982.86445  23265656.8014   23265650.9074
 -13685224.60247 -10659126.05245  22540006.2344   22540001.2864
 -25581473.92848 -19921821.67147  20230020.5994   20230017.2874
 10  3 18  0 28 30.0000000  0  8G30G21G14G24G31G 2G12G29
 -26367564.92548 -20533160.30846  20318327.9044   20318323.8654
   -932389.98946   -718678.18443  24813635.3224   24813631.6834
 -13467588.74346 -10489774.49544  22939781.3044   22939777.4824
  -1755571.72746  -1544596.74743  24183170.3924   24183167.5894
 -17888915.09447 -13929583.04246  21850561.0544   21850554.9914
  -9768355.95947  -7607799.69245  23273027.9934   23273022.8744
 -13617635.45547 -10606459.18745  22552868.2374   22552863.7344
 -25591275.58748 -19929459.31647  20228155.8824   20228152.0094
 10  3 18  0 29  0.0000000  0  8G30G21G14G24G31G 2G12G29
 -26336575.71948 -20509012.87246  20324225.0114   20324221.1134
  -1029482.98146   -794334.82143  24795158.9654   24795155.1814
 -13386860.16246 -10426869.12544  22955143.5284   22955139.9744
  -1863935.43046  -1629035.83543  24162549.8324   24162546.4684
 -17956363.98348 -13982140.61446  21837725.7784   21837721.4674
  -9729103.36147  -7577213.23745  23280497.3504   23280492.4974
 -13549898.55748 -10553677.19545  22565757.9764   22565752.6254
 -25600593.68848 -19936720.17047  20226382.6944   20226378.8394
 10  3 18  0 29 30.0000000  0  8G30G21G14G24G31G 2G12G29
 -26305266.61148 -20484616.15946  20330183.1134   20330178.6664
  -1126613.28246   -870020.52243  24776675.4544   24776672.5804
 -13305823.66346 -10363723.82544  22970564.8024   22970560.0544
  -1972288.69846  -1713466.78743  24141930.4324   24141926.9924
 -18023462.52747 -14034425.18846  21824957.0264   21824952.8064
  -9689334.49647  -7546224.52444  23288065.2264   23288059.7734
 -13482014.51447 -10500780.54745  22578675.8374   22578671.3194
 -25609429.07348 -19943604.87547  20224701.3234   20224697.5444
 10  3 18  0 30  0.0000000  0  8G30G21G14G24G31G 2G12G29
 -26273637.75248 -20459970.30546  20336202.1164   20336198.0434
  -1223778.74246   -945733.64343  24758184.8834   24758182.2624
 -13224482.44046 -10300341.07244  22986043.1124   22986038.9514
  -2080628.56946  -1797887.29443  24121313.8724   24121311.1594
 -18090208.26147 -14086434.85946  21812256.0724   21812250.9304
  -9649050.83047  -7514834.65545  23295731.1784   23295725.1354
 -13413983.03647 -10447769.02946  22591621.7544   22591618.3224
 -25617782.23448 -19950113.83447  20223111.6334   20223107.6534
 10  3 18  0 30 30.0000000  0  8G30G21G14G24G31G 2G12G29
 -26241689.33548 -20435075.43746  20342281.7034   20342277.9394
  -1320977.16146  -1021472.45143  24739688.3534   24739685.9574
 -13142839.46447 -10236723.18044  23001579.2174   23001575.0804
  -2188952.07346  -1882295.08843  24100700.0464   24100698.7414
 -18156599.16447 -14138168.01546  21799622.2424   21799617.1514
  -9608253.24247  -7483044.32545  23303494.5164   23303488.7764
 -13345804.90447 -10394643.22245  22604595.1624   22604591.8954
 -25625654.30248 -19956247.91447  20221613.4844   20221610.0464
 10  3 18  0 31  0.0000000  0  8G30G21G14G24G31G 2G12G29
 -26209421.73348 -20409931.85846  20348421.6764   20348418.1874
  -1418206.23646  -1097235.17943  24721186.7884   24721183.0964
 -13060898.17847 -10172872.82344  23017172.2934   23017168.0274
  -2297256.47146  -1966688.00043  24080090.3714   24080089.7314
 -18222632.89848 -14189622.87046  21787056.5524   21787052.0084
  -9566943.06247  -7450854.56945  23311355.9764   23311351.0594
 -13277480.00047 -10341403.05745  22617597.6344   22617593.5754
 -25633045.66548 -19962007.41347  20220206.8054   20220203.5334
 10  3 18  0 31 30.0000000  0  8G30G21G14G24G31G 2G12G29
 -26176835.36948 -20384539.89046  20354622.4954   20354618.5824
  -1515463.99546  -1173020.29943  24702678.0624   24702674.6474
 -12978661.81046 -10108792.55344  23032821.4374   23032817.1714
  -2405539.28846  -2051064.09743  24059484.4124   24059484.0964
 -18288307.28047 -14240797.70746  21774559.0724   21774553.9174
  -9525121.80447  -7418266.54845  23319314.2084   23319309.1034
 -13209008.81747 -10288048.92545  22630626.9694   22630623.0094
 -25639957.70048 -19967393.41247  20218891.6344   20218887.9764
 10  3 18  0 32  0.0000000  0  8G30G21G14G24G31G 2G12G29
 -26143929.24548 -20358898.76946  20360884.6254   20360880.4474
  -1612747.22546  -1248825.21243  24684166.1054   24684162.0144
 -12896132.72946 -10044484.20544  23048525.7004   23048521.6524
  -2513796.84146  -2135420.51143  24038884.7574   24038883.2534
 -18353619.58948 -14291690.41246  21762130.4404   21762125.8964
  -9482789.79647  -7385280.56744  23327369.6114   23327362.6534
 -13140390.95547 -10234580.47245  22643684.5754   22643680.2034
 -25646389.76748 -19972405.40447  20217667.7074   20217663.9984
 10  3 18  0 32 30.0000000  0  8G30G21G14G24G31G 2G12G29
 -26110704.03248 -20333008.99846  20367207.0574   20367203.5324
  -1710053.96046  -1324648.47543  24665648.7874   24665644.3494
 -12813314.64046  -9979950.62444  23064285.1104   23064279.6924
  -2622026.52846  -2219755.18543  24018288.5064   24018287.9594
 -18418567.65647 -14342299.29346  21749771.2864   21749766.3474
  -9439948.77447  -7351897.96545  23335521.9054   23335515.6644
 -13071627.07447 -10180998.24145  22656769.6164   22656766.0394
 -25652343.01048 -19977044.29547  20216534.6794   20216531.2014
 10  3 18  0 33  0.0000000  0  8G30G21G14G24G31G 2G12G29
 -26077159.90748 -20306870.72546  20373590.4394   20373586.7204
  -1807381.60846  -1400487.98843  24647128.3054   24647123.6204
 -12730210.33647  -9915194.04244  23080100.1434   23080095.5084
  -2730225.35546  -2304065.85443  23997698.7734   23997696.5034
 -18483149.05847 -14392622.48246  21737482.1334   21737476.6064
  -9396599.91747  -7318119.65545  23343771.6304   23343766.5834
 -13002717.29448 -10127302.33245  22669883.0084   22669878.5044
 -25657817.93548 -19981310.46647  20215493.0774   20215489.4354
 10  3 18  0 33 30.0000000  0  8G30G21G14G24G31G 2G12G29
 -26043297.27348 -20280484.26946  20380034.0124   20380030.6934
  -1904728.20146  -1476342.33243  24628602.9134   24628599.2894
 -12646823.33047  -9850217.17144  23095968.1384   23095964.5194
  -2838391.03646  -2388350.70743  23977115.5104   23977112.9464
 -18547362.25948 -14442658.70946  21725262.2224   21725258.1774
  -9352745.13747  -7283947.07945  23352116.8314   23352111.3874
 -12933662.33748 -10073493.27945  22683023.7034   22683018.7304
 -25662816.22548 -19985205.23447  20214541.9144   20214538.4994
 10  3 18  0 34  0.0000000  0  8G30G21G14G24G31G 2G12G29
 -26009116.85648 -20253850.17746  20386538.4844   20386534.5964
  -2002091.75046  -1552209.86443  24610075.6654   24610071.7674
 -12563157.28247  -9785022.86844  23111890.2264   23111884.7964
  -2946520.84747  -2472607.64343  23956540.1694   23956535.5624
 -18611205.00047 -14492406.32646  21713113.6484   21713109.1614
  -9308385.47947  -7249381.11145  23360557.5884   23360551.2884
 -12864462.42347 -10019571.26845  22696191.6894   22696187.4264
 -25667338.74248 -19988729.26747  20213681.4084   20213677.5294
 10  3 18  0 34 30.0000000  0  8G30G21G14G24G31G 2G12G29
 -25974618.52648 -20226968.37746  20393103.1204   20393099.3004
  -2099469.59446  -1628088.56043  24591545.7994   24591541.9084
 -12479215.16947  -9719613.41044  23127862.4324   23127858.7244
  -3054611.46847  -2556834.01343  23935970.2664   23935967.1584
 -18674675.03048 -14541863.48846  21701035.6334   21701030.4194
  -9263522.11747  -7214422.65645  23369095.0594   23369088.6844
 -12795117.49947  -9965536.27745  22709387.3274   22709383.1884
 -25671385.84848 -19991882.85447  20212911.3424   20212907.1714
 10  3 18  0 35  0.0000000  0  8G30G21G14G24G31G 2G12G29
 -25939802.16748 -20199838.76246  20399728.8524   20399724.5194
  -2196859.36046  -1703976.54543  24573012.0664   24573009.1964
 -12394999.75147  -9653991.02944  23143888.7594   23143884.5354
  -3162659.71147  -2641027.33543  23915409.5064   23915405.9894
 -18737769.64148 -14591028.11046  21689028.7664   21689024.4364
  -9218156.38347  -7179072.73445  23377728.0324   23377721.4504
 -12725627.56747  -9911388.30145  22722611.3754   22722607.4304
 -25674958.45848 -19994666.71047  20212231.5314   20212227.5054
 10  3 18  0 35 30.0000000  0  8G30G21G14G24G31G 2G12G29
 -25904667.79348 -20172461.33746  20406414.5694   20406410.4734
  -2294258.27446  -1779871.66043  24554477.5544   24554473.3334
 -12310514.15347  -9588158.11044  23159965.9324   23159962.7474
  -3270662.79347  -2725185.49843  23894856.9214   23894853.1434
 -18800486.47448 -14639898.38146  21677094.5424   21677089.8784
  -9172289.26947  -7143332.12245  23386456.5234   23386450.9144
 -12655992.78747  -9857127.47545  22735862.9544   22735858.1054
 -25678056.63348 -19997080.86847  20211641.6014   20211637.8434
 10  3 18  0 36  0.0000000  0  8G30G21G14G24G31G 2G12G29
 -25869215.77248 -20144836.38246  20413160.9204   20413156.8364
  -2391664.32446  -1855772.30643  24535941.4614   24535936.9694
 -12225761.79547  -9522117.35044  23176092.7424   23176090.0504
  -3378618.01946  -2809306.36043  23874313.4244   23874309.4674
 -18862823.78548 -14688472.90846  21665232.0464   21665227.8394
  -9125922.75147  -7107202.35245  23395279.4404   23395273.7114
 -12586213.90847  -9802754.33445  22749140.9034   22749136.5764
 -25680681.86848 -19999126.50147  20211142.1644   20211138.3524
 10  3 18  0 36 30.0000000  0  8G30G21G14G24G31G 2G12G29
 -25833445.80848 -20116963.68146  20419967.3704   20419963.7424
  -2489075.10746  -1931676.65843  24517405.5634   24517401.3674
 -12140745.49447  -9455870.90944  23192271.4384   23192268.8004
  -3486522.17347  -2893387.44443  23853780.7944   23853776.1044
 -18924778.68948 -14736749.45846  21653442.4334   21653438.0704
  -9079057.62547  -7070684.08145  23404197.0554   23404190.8524
 -12516290.45847  -9748268.54145  22762447.1064   22762443.1004
 -25682834.43348 -20000803.81247  20210732.7504   20210728.8994
 10  3 18  0 37  0.0000000  0  8G30G21G14G24G31G 2G12G29
 -25797358.78048 -20088843.93546  20426834.7114   20426831.1624
  -2586488.28146  -2007582.89643  24498867.0714   24498865.2554
 -12055469.07147  -9389421.76844  23208499.1214   23208495.8414
  -3594372.79547  -2977426.75743  23833257.3584   23833254.0194
 -18986349.58748 -14784726.78046  21641726.0054   21641720.8854
  -9031695.84947  -7033778.79645  23413210.5224   23413203.8884
 -12446223.11947  -9693670.63045  22775780.4394   22775776.7564
 -25684515.77448 -20002113.94547  20210412.6514   20210409.4174
 10  3 18  0 37 30.0000000  0  8G30G21G14G24G31G 2G12G29
 -25760954.56148 -20060477.02846  20433762.3524   20433758.3704
  -2683901.50246  -2083489.22043  24480330.4024   24480327.8644
 -11969935.16047  -9322771.98144  23224775.5164   23224771.4854
  -3702166.43446  -3061421.68444  23812744.7824   23812743.4634
 -19047534.15748 -14832403.06146  21630083.3134   21630078.3564
  -8983838.65647  -6996487.47945  23422316.9664   23422311.8774
 -12376011.96547  -9638960.66445  22789141.7944   22789137.4694
 -25685726.57248 -20003057.41747  20210181.8834   20210178.2234
 10  3 18  0 38  0.0000000  0  8G30G21G14G24G31G 2G12G29
 -25724234.09248 -20031863.68046  20440749.8464   20440745.8184
  -2781312.75246  -2159393.99743  24461794.7654   24461791.7074
 -11884147.59447  -9255924.55344  23241100.3554   23241096.8934
  -3809900.81646  -3145370.49343  23792243.8264   23792241.5214
 -19108330.39948 -14879776.76946  21618514.0314   21618509.8424
  -8935488.03247  -6958811.64645  23431517.7114   23431512.3774
 -12305657.91447  -9584139.32245  22802529.1524   22802524.6764
 -25686468.29648 -20003635.38547  20210041.1474   20210037.6034
 10  3 18  0 38 30.0000000  0  8G30G21G14G24G31G 2G12G29
 -25687197.29248 -20003003.84146  20447797.8084   20447793.5824
  -2878719.12846  -2235294.94944  24443258.7614   24443255.2844
 -11798109.37947  -9188881.79243  23257472.8984   23257468.9124
  -3917572.67146  -3229270.57043  23771753.3984   23771751.7684
 -19168736.06848 -14926846.11046  21607018.9454   21607013.8004
  -8886645.21747  -6920752.33444  23440812.5964   23440806.1314
 -12235161.03547  -9529206.71345  22815944.4364   22815938.9064
 -25686741.44548 -20003848.23047  20209988.9744   20209985.3474
 10  3 18  0 39  0.0000000  0  8G30G21G14G24G31G 2G12G29
 -25649843.83848 -19973897.24846  20454905.8164   20454901.9954
  -2976118.63547  -2311190.54143  24424724.2824   24424719.8564
 -11711823.83447  -9121646.30344  23273893.0174   23273887.0074
  -4025178.81546  -3313119.46843  23751277.3234   23751274.9744
 -19228748.71948 -14973609.22546  21595599.1924   21595593.8334
  -8837311.65747  -6882310.59544  23450200.4054   23450193.5274
 -12164520.84647  -9474162.41645  22829386.8404   22829382.5944
 -25686547.07048 -20003696.76547  20210026.2474   20210022.6504
 10  3 18  0 39 30.0000000  0  8G30G21G14G24G31G 2G12G29
 -25612174.02448 -19944544.14546  20462074.2784   20462070.3994
  -3073508.84246  -2387078.87843  24406190.5604   24406186.2784
 -11625293.95047  -9054220.41544  23290358.9014   23290353.7814
  -4132716.57947  -3396915.06744  23730813.5824   23730810.9684
 -19288366.09248 -15020064.31146  21584254.3184   21584250.0504
  -8787488.67247  -6843487.49545  23459681.3014   23459675.7094
 -12093737.75147  -9419006.74345  22842855.9204   22842851.6794
 -25685885.70548 -20003181.41947  20210151.7344   20210147.6114
 10  3 18  0 40  0.0000000  0  8G30G21G14G24G31G 2G12G29
 -25574188.06448 -19914944.69646  20469302.5514   20469299.0164
  -3170886.79046  -2462957.72843  24387660.5184   24387655.4414
 -11538522.53747  -8986606.35244  23306870.9604   23306866.0694
  -4240182.89347  -3480654.97644  23710363.6014   23710360.7804
 -19347586.07248 -15066209.77246  21572985.2944   21572980.2004
  -8737177.37147  -6804283.85744  23469255.0074   23469249.4714
 -12022811.59947  -9363739.63845  22856352.8164   22856348.2594
 -25684757.78748 -20002302.52847  20210366.5624   20210362.9404
 10  3 18  0 40 30.0000000  0  8G30G21G14G24G31G 2G12G29
 -25535886.17148 -19885099.08346  20476591.1794   20476587.2304
  -3268250.54147  -2538825.42743  24369133.2924   24369128.1904
 -11451513.18047  -8918806.87944  23323428.0834   23323423.6674
  -4347575.09347  -3564337.12144  23689928.0064   23689924.0984
 -19406406.68348 -15112043.99946  21561791.5364   21561786.3924
  -8686379.54147  -6764701.12544  23478921.7344   23478914.4384
 -11951743.13347  -9308361.63145  22869877.0194   22869872.7204
 -25683164.73448 -20001061.17547  20210669.4674   20210665.9564
 10  3 18  0 41  0.0000000  0  8G30G21G14G24G31G 2G12G29
 -25497268.44948 -19855007.35646  20483940.0684   20483936.1054
  -3365597.55646  -2614680.11444  24350608.3584   24350604.2654
 -11364269.13747  -8850824.54744  23340029.8094   23340026.7204
  -4454889.78247  -3647958.90244  23669505.4044   23669503.1924
 -19464825.17848 -15157564.90646  21550675.0194   21550669.9304
  -8635096.95447  -6724740.69744  23488680.1054   23488673.4844
 -11880532.78347  -9252873.05045  22883427.7574   22883424.2534
 -25681107.95648 -19999458.49047  20211061.1514   20211057.6204
 10  3 18  0 41 30.0000000  0  8G30G21G14G24G31G 2G12G29
 -25458335.04348 -19824669.64446  20491349.0194   20491345.5784
  -3462925.22447  -2690519.75844  24332086.9424   24332083.9204
 -11276793.45047  -8782661.68644  23356676.5874   23356672.7984
  -4562123.82046  -3731517.87844  23649099.5864   23649097.0934
 -19522839.53748 -15202770.89746  21539635.1454   21539630.8024
  -8583331.01947  -6684403.62744  23498531.0654   23498525.4044
 -11809180.02747  -9197273.53445  22897005.6444   22897002.4064
 -25678587.69048 -19997494.63947  20211540.6384   20211536.6374
 10  3 18  0 42  0.0000000  0  8G30G21G14G24G31G 2G12G29
 -25419086.80947 -19794086.61946  20498817.7774   20498814.3164
  -3560231.91347  -2766343.05844  24313570.1574   24313567.3314
 -11189089.64347  -8714321.08744  23373366.2374   23373363.0294
  -4669275.16746  -3815012.44044  23628710.0694   23628706.4304
 -19580448.11848 -15247660.71246  21528673.0024   21528668.5974
  -8531083.94747  -6643691.59944  23508473.2824   23508468.1784
 -11737685.84147  -9141563.77645  22910610.5884   22910607.2724
 -25675605.80948 -19995171.09747  20212108.3164   20212104.2784
 10  3 18  0 42 30.0000000  0  8G30G21G14G24G31G 2G12G29
 -25379523.53348 -19763258.09846  20506346.3614   20506342.7314
  -3657514.90847  -2842147.91243  24295057.6754   24295053.7144
 -11101160.71147  -8645805.05844  23390098.3874   23390094.0784
  -4776340.32846  -3898439.82244  23608336.3794   23608333.2014
 -19637648.78248 -15292232.66346  21517788.1494   21517783.0344
  -8478356.79847  -6602605.52044  23518506.5264   23518500.3034
 -11666050.39647  -9085743.97145  22924242.3214   22924238.5784
 -25672162.98948 -19992488.37847  20212763.2954   20212759.5274
 10  3 18  0 43  0.0000000  0  8G30G21G14G24G31G 2G12G29
 -25339645.80148 -19732184.54946  20513934.9204   20513930.9814
  -3754771.99447  -2917932.57643  24276549.9814   24276545.2324
 -11013010.56647  -8577116.64544  23406873.2494   23406869.3364
  -4883316.82346  -3981798.10643  23587978.3414   23587976.1404
 -19694439.67747 -15336485.30446  21506981.4714   21506975.9324
  -8425151.66247  -6561146.97244  23528631.3074   23528624.0104
 -11594273.89347  -9029814.24445  22937900.9924   22937896.8364
 -25668260.59148 -19989447.54147  20213505.8614   20213501.8184
 10  3 18  0 43 30.0000000  0  8G30G21G14G24G31G 2G12G29
 -25299453.70148 -19700866.03446  20521583.2334   20521579.3104
  -3852001.03847  -2993695.35943  24258048.4374   24258042.9654
 -10924642.32447  -8508258.28344  23423689.0594   23423685.1654
  -4990201.66646  -4065084.93744  23567638.9134   23567637.2064
 -19750818.26348 -15380416.66446  21496252.6444   21496248.1474
  -8371470.08747  -6519317.17244  23538846.8644   23538841.1294
 -11522356.63647  -8973774.84845  22951586.2634   22951583.1824
 -25663899.51248 -19986049.29347  20214335.7374   20214332.2584
 10  3 18  0 44  0.0000000  0  8G30G21G14G24G31G 2G12G29
 -25258946.74148 -19669302.18246  20529291.2344   20529287.8214
  -3949198.91647  -3069433.87043  24239552.4664   24239547.1864
 -10836058.27147  -8439231.76144  23440545.9084   23440541.9454
  -5096991.19446  -4148297.47544  23547317.4664   23547316.1374
 -19806781.70747 -15424024.53546  21485602.8704   21485598.7044
  -8317312.73347  -6477116.62944  23549152.5034   23549147.3934
 -11450298.17947  -8917625.39845  22965298.8784   22965294.6484
 -25659079.76048 -19982293.64647  20215253.0664   20215248.7664
 10  3 18  0 44 30.0000000  0  8G30G21G14G24G31G 2G12G29
 -25218125.99348 -19637493.80546  20537059.2484   20537055.4144
  -4046363.20747  -3145146.21143  24221061.8794   24221057.9424
 -10747262.04747  -8370039.90043  23457442.9234   23457439.7204
  -5203682.97146  -4231433.91344  23527014.4034   23527013.1974
 -19862328.45248 -15467307.72746  21475033.1404   21475027.9784
  -8262682.11447  -6434547.33144  23559548.3974   23559542.5544
 -11378098.99347  -8861366.31345  22979038.2464   22979033.4114
 -25653803.16948 -19978182.01947  20216256.9204   20216253.1924
 10  3 18  0 45  0.0000000  0  9G30G21G16G14G24G31G 2G12G29
 -25176991.55647 -19605441.01846  20544887.0684   20544883.3804
  -4143491.82147  -3220830.78643  24202579.0894   24202574.4014
   -324786.48945                  25122986.5124
 -10658257.10547  -8300685.42244  23474379.3594   23474376.9094
  -5310273.97046  -4314491.79244  23506731.6214   23506729.7044
 -19917456.64248 -15510264.74746  21464542.2314   21464537.6434
  -8207580.03747  -6391610.64844  23570034.1484   23570027.0404
 -11305759.64247  -8804997.97445  22992803.0924   22992799.0174
 -25648071.13948 -19973715.50647  20217348.2384   20217344.5254
 10  3 18  0 45 30.0000000  0  9G30G21G16G14G24G31G 2G12G29
 -25135548.31147 -19573147.58946  20552772.9354   20552769.8224
  -4240587.02946  -3296489.34643  24184102.5224   24184096.8594
   -411277.63946   -315354.65843  25106527.3674   25106522.6324
 -10569051.69846  -8231174.75644  23491354.5474   23491352.1364
  -5416765.68746  -4397472.29344  23486466.0824   23486465.2204
 -19972168.75748 -15552897.55646  21454130.8414   21454126.6794
  -8152012.81147  -6348311.49244  23580608.7654   23580602.0494
 -11233284.77647  -8748524.06445  23006594.8824   23006591.0324
 -25641888.82748 -19968898.11747  20218524.3404   20218520.2514
 10  3 18  0 46  0.0000000  0  9G30G21G16G14G24G31G 2G12G29
 -25093787.30947 -19540606.56346  20560719.6734   20560716.2194
  -4337637.60846  -3372113.10543  24165633.9884   24165629.0244
   -497758.86745   -382742.62342  25090072.7214   25090066.9944
 -10479639.46046  -8161502.90343  23508369.3504   23508367.0204
  -5523146.22846  -4480366.19244  23466222.6264   23466221.3024
 -20026453.48747 -15595197.35646  21443801.1764   21443795.9714
  -8095973.14947  -6304644.22345  23591271.6424   23591267.0544
 -11160665.76747  -8691937.84645  23020414.6724   23020409.9414
 -25635248.59248 -19963723.90647  20219787.9304   20219784.2344
 10  3 18  0 46 30.0000000  0  9G30G21G16G14G24G31G 2G12G29
 -25051713.33747 -19507821.66746  20568726.3774   20568722.8394
  -4434645.30547  -3447703.45644  24147174.1154   24147169.4414
   -584234.34746   -450126.05242  25073614.4724   25073610.2574
 -10390028.11247  -8091675.90744  23525422.6764   23525418.4894
  -5629416.96646  -4563174.54644  23446000.5534   23445997.5994
 -20080313.19948 -15637165.95546  21433551.5494   21433546.8424
  -8039466.92647  -6260613.41644  23602024.8694   23602018.9324
 -11087907.54647  -8635243.11845  23034259.8374   23034255.4234
 -25628155.89748 -19958197.12847  20221137.5314   20221133.6534
 10  3 18  0 47  0.0000000  0  9G30G21G16G14G24G31G 2G12G29
 -25009325.35548 -19474792.07846  20576793.1934   20576788.5534
  -4531606.86847  -3523257.83344  24128723.0534   24128718.5324
   -670702.25946   -517503.62443  25057160.6684   25057155.7074
 -10300219.78947  -8021695.38644  23542513.2024   23542509.0444
  -5735573.90446  -4645894.21144  23425799.5384   23425795.8864
 -20133744.98247 -15678801.10646  21423383.9354   21423379.2734
  -7982495.03647  -6216219.73644  23612867.0964   23612859.6474
 -11015008.30347  -8578438.52145  23048131.3914   23048127.4444
 -25620610.82848 -19952317.85147  20222573.3984   20222569.2934
 10  3 18  0 47 30.0000000  0  9G30G21G16G14G24G31G 2G12G29
 -24966624.11048 -19441518.37846  20584918.4434   20584914.7374
  -4628520.12247  -3598774.58043  24110280.9084   24110276.2634
   -757163.33146   -584875.94542  25040708.3894   25040702.9494
 -10210218.67647  -7951564.67344  23559638.7094   23559635.7604
  -5841614.65246  -4728523.33244  23405620.3604   23405616.3904
 -20186746.93647 -15720101.33446  21413298.2664   21413293.5484
  -7925059.71247  -6171464.95244  23623795.7654   23623790.0474
 -10941969.37347  -8521525.08745  23062030.1564   23062026.0414
 -25612615.05548 -19946087.37747  20224094.9954   20224090.6144
 10  3 18  0 48  0.0000000  0  9G30G21G16G14G24G31G 2G12G29
 -24923611.31947 -19408001.92946  20593103.3504   20593100.0544
  -4725384.07347  -3674252.90344  24091847.7924   24091844.1154
   -843618.60346   -652243.61142  25024256.9154   25024249.7904
 -10120028.79147  -7881286.85244  23576801.4014   23576797.7844
  -5947537.35746  -4811060.49344  23385464.1694   23385460.2804
 -20239318.51347 -15761066.18846  21403293.9854   21403289.2624
  -7867163.94347  -6126351.34244  23634812.3734   23634807.9974
 -10868792.13147  -8464503.89345  23075955.5594   23075951.8864
 -25604170.86448 -19939507.48647  20225701.6444   20225697.5794
 10  3 18  0 48 30.0000000  0  9G30G21G16G14G24G31G 2G12G29
 -24880285.86147 -19374241.84246  20601347.5804   20601344.5944
  -4822195.07247  -3749689.98244  24073426.2624   24073421.8174
   -930066.03746   -719605.25343  25007806.0784   25007799.9054
 -10029652.60647  -7810863.88443  23593999.3104   23593996.2734
  -6053337.83746  -4893502.40344  23365330.4584   23365327.0594
 -20291456.30048 -15801693.03546  21393372.8124   21393367.9834
  -7808808.33847  -6080879.44844  23645917.4654   23645911.3184
 -10795475.84747  -8407374.33445  23089907.2554   23089903.2274
 -25595278.29548 -19932578.21447  20227394.1164   20227389.8824
 10  3 18  0 49  0.0000000  0  9G30G21G16G14G24G31G 2G12G29
 -24836648.69547 -19340238.87546  20609652.1564   20609648.7254
  -4918951.12247  -3825084.25244  24055013.9684   24055009.8284
  -1016505.72246   -786960.81642  24991356.5074   24991351.8664
  -9939093.45646  -7740298.33443  23611231.7254   23611228.0524
  -6159013.62646  -4975847.15244  23345221.4734   23345218.2924
 -20343158.67348 -15841980.60146  21383533.7094   21383528.9344
  -7749995.40547  -6035051.19744  23657109.7414   23657102.8064
 -10722021.05247  -8350136.83045  23103885.3074   23103880.3084
 -25585938.91748 -19925300.77347  20229170.9634   20229167.2954
 10  3 18  0 49 30.0000000  0  9G30G21G16G14G24G31G 2G12G29
 -24792700.11348 -19305993.24146  20618015.1844   20618011.7154
  -5015649.86947  -3900433.87244  24036612.8424   24036608.8504
  -1102937.93646   -854310.59242  24974909.1564   24974905.3114
  -9848354.76246  -7669592.91443  23628498.8874   23628494.2204
  -6264561.77146  -5058092.42744  23325135.6754   23325133.1604
 -20394423.90247 -15881927.52746  21373778.0364   21373774.3854
  -7690726.57947  -5988867.68244  23668387.8774   23668382.3384
 -10648427.80247  -8292791.42445  23117889.6684   23117884.4154
 -25576154.04548 -19917676.18947  20231033.2684   20231029.2634
 10  3 18  0 50  0.0000000  0  9G30G21G16G14G24G31G 2G12G29
 -24748439.61948 -19271504.54646  20626437.7714   20626434.2334
  -5112288.53947  -3975736.69344  24018222.7204   24018218.3844
  -1189361.60446   -921653.67042  24958463.9424   24958458.2584
  -9757439.30646  -7598749.71743  23645800.0334   23645794.9974
  -6369978.89646  -5140235.57844  23305075.3824   23305073.6674
 -20445249.29448 -15921531.73646  21364106.5114   21364102.1794
  -7631003.25647  -5942330.03344  23679752.8074   23679747.7984
 -10574695.92747  -8235338.02645  23131920.4814   23131915.0994
 -25565924.18648 -19909704.86847  20232979.7254   20232975.8404
 10  3 18  0 50 30.0000000  0  9G30G21G16G14G24G31G 2G12G29
 -24703868.16447 -19236773.54146  20634918.8694   20634915.7684
  -5208865.53447  -4050991.43243  23999845.1204   23999838.9674
  -1275777.03346   -988990.29543  24942019.7034   24942014.6604
  -9666350.89046  -7527771.72843  23663133.8964   23663128.9344
  -6475262.70646  -5222274.87944  23285040.6124   23285038.8614
 -20495633.36148 -15960792.03546  21354519.2114   21354513.8544
  -7570828.26747  -5895440.43544  23691203.7264   23691197.9344
 -10500826.75147  -8177777.63245  23145976.9084   23145972.7464
 -25555251.35348 -19901388.37247  20235011.2754   20235006.8084
 10  3 18  0 51  0.0000000  0  9G30G21G16G14G24G31G 2G12G29
 -24658985.23847 -19201799.84046  20643459.6074   20643456.5594
  -5305377.41147  -4126195.47043  23981478.6724   23981472.7094
  -1362183.16446  -1056319.73442  24925576.4494   24925572.3134
  -9575092.29647  -7456661.13943  23680499.8694   23680495.1284
  -6580409.58946  -5304207.48444  23265032.5254   23265030.0624
 -20545573.67547 -15999706.57946  21345015.8234   21345011.1964
  -7510202.81547  -5848199.84044  23702740.3674   23702734.4274
 -10426819.39846  -8120109.59645  23160060.3404   23160057.4374
 -25544136.00748 -19892727.06347  20237126.0754   20237122.6504
 10  3 18  0 51 30.0000000  0  9G30G21G16G14G24G31G 2G12G29
 -24613792.35147 -19166584.62246  20652059.9314   20652056.7164
  -5401822.78847  -4201347.61843  23963125.4844   23963119.7244
  -1448580.63146  -1123642.38543  24909135.9244   24909131.4904
  -9483667.61847  -7385421.14543  23697897.8134   23697893.6114
  -6685417.16746  -5386031.55444  23245049.7574   23245047.5484
 -20595068.92747 -16038274.30746  21335596.7834   21335592.6154
  -7449129.60947  -5800610.32644  23714362.6474   23714356.8694
 -10352674.70147  -8062334.54545  23174169.9414   23174166.3074
 -25532580.20448 -19883722.53847  20239325.0964   20239321.4914
 10  3 18  0 52  0.0000000  0  9G30G21G16G14G24G31G 2G12G29
 -24568288.79748 -19131127.32746  20660719.0114   20660715.8164
  -5498198.10847  -4276445.24743  23944786.7614   23944781.1024
  -1534967.92146  -1190957.11142  24892696.5714   24892691.1594
  -9392079.03047  -7314053.44443  23715326.4474   23715321.0504
  -6790281.41546  -5467743.92944  23225095.0884   23225092.1394
 -20644116.38348 -16076493.10946  21326263.5314   21326258.5684
  -7387609.52847  -5752672.57344  23726069.1144   23726063.2984
 -10278392.38947  -8004452.22845  23188304.7934   23188301.1864
 -25520584.35448 -19874375.11847  20241607.6484   20241604.3244
 10  3 18  0 52 30.0000000  0  9G30G21G16G14G24G31G 2G12G29
 -24522474.62847 -19095427.97946  20669437.7084   20669433.2424
  -5594501.30647  -4351486.65644  23926460.1494   23926455.1014
  -1621344.94846  -1258263.83642  24876259.4834   24876254.0964
  -9300329.82047  -7242560.56543  23732785.0084   23732780.0094
  -6894999.54947  -5549342.45444  23205167.7334   23205165.4584
 -20692714.20448 -16114361.53446  21317015.4424   21317011.5564
  -7325644.49747  -5704388.13644  23737861.3104   23737854.7604
 -10203972.84147  -7946462.98145  23202466.7414   23202462.8094
 -25508149.54548 -19864685.65847  20243973.9074   20243970.5614
 10  3 18  0 53  0.0000000  0  9G30G21G16G14G24G31G 2G12G29
 -24476350.56347 -19059487.15346  20678214.3244   20678210.1734
  -5690730.24247  -4426470.22843  23908149.3354   23908143.3354
  -1707711.78346  -1325562.63443  24859824.3074   24859818.9494
  -9208424.00746  -7170945.65843  23750274.1114   23750269.1834
  -6999569.06047  -5630825.16744  23185269.0624   23185265.8574
 -20740860.78148 -16151878.36346  21307854.0694   21307849.3994
  -7263236.89347  -5655758.86844  23749736.4354   23749730.5834
 -10129416.46446  -7888367.11545  23216654.1674   23216650.6564
 -25495277.80948 -19854655.73147  20246423.4944   20246419.4854
 10  3 18  0 53 30.0000000  0  9G30G21G16G14G24G31G 2G12G29
 -24429916.94348 -19023305.11046  20687050.6324   20687046.6034
  -5786882.53647  -4501394.07144  23889851.5554   23889846.6644
  -1794068.10946  -1392853.28543  24843390.8804   24843385.7294
  -9116364.51746  -7099211.05743  23767792.6224   23767787.4904
  -7103986.91847  -5712189.72044  23165399.3244   23165396.2284
 -20788554.00948 -16189041.91246  21298777.9934   21298773.4014
  -7200388.72547  -5606786.30444  23761697.1194   23761690.6324
 -10054723.51547  -7830164.85645  23230868.1224   23230864.3304
 -25481970.13448 -19844286.12147  20248955.8084   20248951.8004
 10  3 18  0 54  0.0000000  0  9G30G21G16G14G24G31G 2G12G29
 -24383174.26148 -18986882.25346  20695945.6854   20695942.4034
  -5882955.96947  -4576256.48944  23871569.1684   23871564.4964
  -1880413.53546  -1460135.37843  24826960.2294   24826954.7094
  -9024154.59946  -7027359.18743  23785339.9004   23785334.0134
  -7208250.12646  -5793433.76244  23145557.8834   23145555.5974
 -20835791.79048 -16225850.57046  21289789.0164   21289783.7674
  -7137101.94246  -5557471.87344  23773739.9174   23773734.4494
  -9979894.32647  -7771856.40645  23245107.4684   23245103.3814
 -25468227.96448 -19833577.93347  20251570.5554   20251567.1054
 10  3 18  0 54 30.0000000  0  9G30G21G16G14G24G31G 2G12G29
 -24336122.39948 -18950218.48746  20704899.2884   20704895.9494
  -5978947.67947  -4651055.19643  23853302.4044   23853298.1224
  -1966747.18846  -1527408.28443  24810531.6984   24810527.0494
  -8931797.06047  -6955392.28243  23802914.8634   23802910.1884
  -7312355.27446  -5874554.61744  23125746.8284   23125745.1794
 -20882572.06547 -16262302.72046  21280887.0774   21280882.4884
  -7073378.41547  -5507817.16144  23785865.1224   23785859.6364
  -9904928.67247  -7713441.59745  23259372.7734   23259367.9364
 -25454052.04048 -19822531.75347  20254268.4094   20254264.7614
 10  3 18  0 55  0.0000000  0  9G30G21G16G14G24G31G 2G12G29
 -24288761.18648 -18913313.65846  20713911.6254   20713907.9664
  -6074855.21447  -4725788.31743  23835052.0624   23835046.8484
  -2053068.36946  -1594671.50243  24794105.4274   24794100.1874
  -8839295.34347  -6883313.04443  23820517.6214   23820513.3644
  -7416299.24546  -5955549.88244  23105967.7694   23105964.5984
 -20928892.95848 -16298396.93246  21272072.5934   21272068.1644
  -7009219.36947  -5457823.14744  23798074.6754   23798068.5124
  -9829826.49647  -7654920.44045  23273664.2404   23273661.0514
 -25439443.52248 -19811148.49047  20257048.3244   20257044.5764
 10  3 18  0 55 30.0000000  0  9G30G21G16G14G24G31G 2G12G29
 -24241091.59448 -18876168.53246  20722982.9274   20722979.0394
  -6170676.32447  -4800454.06443  23816817.5634   23816812.8804
  -2139377.65246  -1661925.49143  24777680.6384   24777675.7994
  -8746653.01147  -6811124.23343  23838146.4934   23838142.1234
  -7520079.65947  -6036417.71745  23086218.5234   23086216.3374
 -20974752.98248 -16334132.01546  21263345.3284   21263340.8364
  -6944627.66647  -5407491.95344  23810365.8664   23810359.8664
  -9754588.73746  -7596293.68245  23287981.8074   23287977.7114
 -25424404.55748 -19799429.82147  20259910.2694   20259906.4424
 10  3 18  0 56  0.0000000  0  9G30G21G16G14G24G31G 2G12G29
 -24193114.32548 -18838783.66046  20732112.8024   20732108.8974
  -6266409.26147  -4875051.11544  23798599.5434   23798595.2114
  -2225674.95046  -1729170.10143  24761259.6704   24761254.7984
  -8653873.62147  -6738828.60943  23855802.1944   23855797.2404
  -7623693.75446  -6117155.95845  23066501.2034   23066498.9614
 -21020150.46747 -16369506.67646  21254706.4664   21254701.9374
  -6879605.45847  -5356825.29044  23822739.6254   23822733.7444
  -9679216.06947  -7537561.71645  23302324.8874   23302319.8184
 -25408936.33448 -19787376.65847  20262853.8494   20262849.6454
 10  3 18  0 56 30.0000000  0  9G30G21G16G14G24G31G 2G12G29
 -24144828.60447 -18801158.43546  20741301.2144   20741297.3524
  -6362050.25547  -4949576.52144  23780400.1024   23780396.1684
  -2311958.59446  -1796404.05043  24744838.8014   24744835.3124
  -8560959.28446  -6666427.87143  23873483.4934   23873478.5914
  -7727137.59246  -6197761.52045  23046816.4774   23046814.9074
 -21065082.46848 -16404518.62846  21246156.1394   21246152.2424
  -6814153.92347  -5305824.11444  23835194.4294   23835188.5684
  -9603707.37047  -7478723.77345  23316693.6234   23316689.6384
 -25393039.26148 -19774989.32747  20265878.8704   20265875.0274
 10  3 18  0 57  0.0000000  0  9G30G21G16G14G24G31G 2G12G29
 -24096235.12348 -18763293.38846  20750548.2834   20750544.1124
  -6457597.38847  -5024028.78244  23762218.7024   23762214.9794
  -2398228.83846  -1863627.56943  24728422.9574   24728417.6554
  -8467913.43647  -6593924.61243  23891189.6034   23891184.9264
  -7830408.27246  -6278232.16945  23027164.3354   23027163.6654
 -21109547.42448 -16439166.65346  21237694.8304   21237690.7614
  -6748275.47647  -5254490.24144  23847730.9984   23847724.7114
  -9528063.46647  -7419780.47445  23331088.1984   23331084.8954
 -25376715.16548 -19762269.24847  20268985.0614   20268981.3284
 10  3 18  0 57 30.0000000  0  9G30G21G16G14G24G31G 2G12G29
 -24047334.11948 -18725188.70846  20759853.7174   20759849.9744
  -6553048.29447  -5098406.06544  23744054.5304   23744050.9834
  -2484485.10746  -1930840.26243  24712009.1004   24712004.5914
  -8374739.72646  -6521321.74743  23908918.6044   23908914.5214
  -7933503.08147  -6358565.75545  23007547.0934   23007544.6814
 -21153543.66547 -16473449.44546  21229323.0954   21229318.1604
  -6681972.02847  -5202825.21944  23860347.2084   23860342.0724
  -9452284.51247  -7360731.96745  23345508.4154   23345504.5844
 -25359965.32048 -19749217.41447  20272172.1984   20272168.5174
 10  3 18  0 58  0.0000000  0  9G30G21G16G14G24G31G 2G12G29
 -23998125.94047 -18686844.68846  20769217.4924   20769214.1104
  -6648400.76447  -5172706.67744  23725909.0814   23725905.5124
  -2570727.13746  -1998041.79743  24695597.2674   24695593.5064
  -8281441.09046  -6448621.53943  23926673.7084   23926668.7444
  -8036419.15647  -6438760.06945  22987963.3304   22987959.7604
 -21197069.24148 -16507365.48146  21221040.1864   21221035.1804
  -6615245.77247  -5150830.77444  23873045.3514   23873038.7554
  -9376371.07147  -7301578.64445  23359954.2164   23359950.4814
 -25342791.20448 -19735834.98647  20275440.6384   20275437.0454
 10  3 18  0 58 30.0000000  0  9G30G21G16G14G24G31G 2G12G29
 -23948610.84747 -18648261.51246  20778640.3604   20778636.4604
  -6743652.03347  -5246928.43544  23707783.9044   23707779.1844
  -2656954.28747  -2065231.73943  24679188.6014   24679183.2714
  -8188020.88646  -6375826.61443  23944450.2574   23944447.1034
  -8139153.19847  -6518812.56345  22968413.3964   22968409.2324
 -21240122.57348 -16540913.52846  21212847.3764   21212843.2064
  -6548098.63447  -5098508.30744  23885823.2144   23885816.9814
  -9300323.02146  -7242320.41645  23374425.1714   23374420.4664
 -25325193.86048 -19722122.76647  20278789.2854   20278785.9684
 10  3 18  0 59  0.0000000  0  9G30G21G16G14G24G31G 2G12G29
 -23898789.10548 -18609439.37446  20788120.6064   20788117.1314
  -6838799.83547  -5321069.55944  23689677.9024   23689673.0124
  -2743166.34647  -2132409.94943  24662783.1994   24662778.5404
  -8094482.63846  -6302939.71543  23962250.9474   23962246.0904
  -8241702.24247  -6598720.89644  22948898.8734   22948895.7204
 -21282701.73048 -16574092.10146  21204744.4454   21204740.1704
  -6480533.06847  -5045859.79244  23898680.2714   23898673.8884
  -9224140.58747  -7182957.50345  23388923.3854   23388917.9104
 -25307174.99048 -19708082.08347  20282218.1624   20282214.4914
 10  3 18  0 59 30.0000000  0  9G30G21G16G14G24G31G 2G12G29
 -23848661.40048 -18570378.83246  20797659.8194   20797656.4584
  -6933842.02347  -5395128.39544  23671591.7534   23671587.8554
  -2829363.13146  -2199576.24343  24646380.5874   24646376.0204
  -8000829.45147  -6229963.25043  23980071.8824   23980068.3084
  -8344063.43047  -6678482.85144  22929419.6094   22929417.5684
 -21324804.68348 -16606899.59746  21196732.7924   21196728.0414
  -6412550.76647  -4992886.57444  23911617.2404   23911610.8804
  -9147824.22747  -7123490.19445  23403445.5834   23403441.1874
 -25288735.99348 -19693714.03547  20285727.1374   20285723.5914
 10  3 18  1  0  0.0000000  0  9G30G21G16G14G24G31G 2G12G29
 -23798227.81647 -18531079.95546  20807257.2824   20807253.5614
  -7028775.92347  -5469102.84444  23653526.4584   23653522.9114
  -2915544.01046  -2266730.13843  24629980.1394   24629976.3704
  -7907064.40947  -6156899.62544  23997915.4864   23997911.1904
  -8446233.59147  -6758095.97045  22909977.0554   22909975.4814
 -21366429.90548 -16639334.83046  21188811.8994   21188807.0924
  -6344153.92147  -4939590.33544  23924632.4384   23924626.5314
  -9071374.16047  -7063918.72745  23417992.7494   23417989.2434
 -25269878.20448 -19679019.64847  20289315.5764   20289312.2584
 10  3 18  1  0 30.0000000  0  9G30G21G16G14G24G31G 2G12G29
 -23747488.33647 -18491542.69746  20816912.2414   20816908.9504
  -7123598.83647  -5542990.80944  23635482.8104   23635478.7294
  -3001708.30247  -2333871.11643  24613584.0264   24613579.6994
  -7813190.54647  -6083751.18443  24015778.7484   24015775.0434
  -8548209.80047  -6837557.93245  22890572.1814   22890569.5574
 -21407575.55848 -16671396.38346  21180982.2024   21180977.9954
  -6275344.79347  -4885972.83944  23937726.4514   23937720.6624
  -8994790.74447  -7004243.34245  23432567.2204   23432562.6394
 -25250602.83448 -19663999.87947  20292983.6804   20292980.2214
 10  3 18  1  1  0.0000000  0  9G30G21G16G14G24G31G 2G12G29
 -23696443.83347 -18451767.77446  20826625.7874   20826621.9984
  -7218308.72447  -5616790.69944  23617460.1764   23617456.0404
  -3087855.98146  -2400999.17243  24597191.1674   24597185.7284
  -7719211.41046  -6010520.72743  24033663.0754   24033658.5334
  -8649989.28147  -6916866.59444  22871204.2974   22871201.0144
 -21448239.50047 -16703082.57646  21173243.9084   21173239.2964
  -6206125.45547  -4832035.69844  23950898.6634   23950892.9754
  -8918074.18947  -6944464.20845  23447165.8054   23447161.4264
 -25230911.65648 -19648656.09847  20296730.4164   20296726.9864
 10  3 18  1  1 30.0000000  0  9G30G21G16G14G24G31G 2G12G29
 -23645094.03547 -18411754.95946  20836397.8884   20836394.1744
  -7312902.97947  -5690500.49644  23599459.1684   23599455.1374
  -3173986.14747  -2468113.57243  24580800.9564   24580795.3574
  -7625129.85346  -5937210.40743  24051565.8334   24051562.3824
  -8751568.48447  -6996019.20845  22851874.3984   22851871.1254
 -21488420.18247 -16734392.19846  21165597.6174   21165593.2004
  -6136497.70647  -4777780.30244  23964148.4794   23964143.3104
  -8841224.16547  -6884581.07745  23461789.1924   23461785.5064
 -25210805.53748 -19632988.98847  20300556.7534   20300552.9704
 10  3 18  1  2  0.0000000  0  9G30G21G16G14G24G31G 2G12G29
 -23593439.34847 -18371504.56846  20846227.0524   20846223.7934
  -7407378.90747  -5764118.08644  23581481.0704   23581477.1374
  -3260098.05147  -2535213.70743  24564414.2914   24564408.9584
  -7530948.82446  -5863822.63143  24069487.9504   24069483.5464
  -8852944.65647  -7075013.60845  22832582.5504   22832580.0284
 -21528115.74847 -16765323.81246  21158044.2524   21158038.8294
  -6066463.73847  -4723208.37244  23977475.3964   23977469.4954
  -8764241.07947  -6824594.27644  23476438.9064   23476434.4704
 -25190285.59648 -19616999.42647  20304461.4984   20304457.9044
 10  3 18  1  2 30.0000000  0  9G30G21G16G14G24G31G 2G12G29
 -23541480.12147 -18331016.86146  20856114.5414   20856111.0214
  -7501734.14947  -5837641.63644  23563526.4674   23563521.6034
  -3346191.91846  -2602299.81343  24548031.3704   24548026.5244
  -7436671.80546  -5790360.05243  24087427.8314   24087423.6744
  -8954114.17047  -7153846.99145  22813330.7134   22813328.6124
 -21567324.22747 -16795875.88146  21150582.9504   21150578.2134
  -5996025.29647  -4668321.25944  23990878.8414   23990872.6094
  -8687124.70247  -6764503.60544  23491113.0834   23491108.9364
 -25169353.32648 -19600688.56047  20308444.7724   20308440.9804
 10  3 18  1  3  0.0000000  0  9G30G21G16G14G24G31G 2G12G29
 -23489217.06347 -18290292.42546  20866059.6894   20866056.9554
  -7595966.66647  -5911069.53444  23545593.8554   23545589.2004
  -3432267.37046  -2669371.55743  24531652.4824   24531648.0204
  -7342302.00246  -5716825.27443  24105386.2284   24105382.1394
  -9055074.60047  -7232517.45645  22794118.6284   22794116.5994
 -21606044.16047 -16826047.25546  21143215.1504   21143210.2664
  -5925184.80847  -4613120.89644  24004359.3544   24004353.5824
  -8609876.04247  -6704309.86045  23505812.8014   23505809.7044
 -25148010.87848 -19584058.08947  20312506.0524   20312502.2364
 10  3 18  1  3 30.0000000  0  9G30G21G16G14G24G31G 2G12G29
 -23436650.68447 -18249331.63546  20876062.7034   20876059.3954
  -7690074.19947  -5984400.02044  23527685.3864   23527681.4064
  -3518323.80946  -2736428.50343  24515275.8684   24515272.2044
  -7247843.00446  -5643220.88643  24123361.6124   24123357.3914
  -9155823.32647  -7311022.96345  22774946.8784   22774944.6674
 -21644274.26047 -16855836.94346  21135939.8524   21135935.4344
  -5853945.16347  -4557609.50544  24017916.1554   24017911.1384
  -8532495.52647  -6644013.38445  23520538.7154   23520533.6094
 -25126259.49848 -19567108.96047  20316645.4504   20316641.5964
 10  3 18  1  4  0.0000000  0  9G30G21G16G14G24G31G 2G12G29
 -23383781.32047 -18208134.73546  20886123.6144   20886119.9604
  -7784054.16447  -6057631.14344  23509801.8954   23509797.7724
  -3604360.71346  -2803470.21743  24498903.7344   24498899.2174
  -7153298.04146  -5569549.52543  24141353.0974   24141348.7314
  -9256357.52047  -7389361.30045  22755816.2814   22755813.6304
 -21682012.73647 -16885243.54846  21128758.6754   21128753.6594
  -5782308.43347  -4501788.67144  24031547.8834   24031543.0404
  -8454983.49847  -6583614.39645  23535288.4714   23535284.5644
 -25104100.68347 -19549842.34247  20320861.7924   20320858.3574
 10  3 18  1  4 30.0000000  0  9G30G21G16G14G24G31G 2G12G29
 -23330608.46547 -18166701.35146  20896242.3064   20896238.6554
  -7877903.91047  -6130760.80844  23491942.4634   23491938.6904
  -3690377.67146  -2870496.35843  24482535.0834   24482531.3234
  -7058669.78746  -5495813.25443  24159359.3194   24159356.4244
  -9356673.28747  -7467529.40045  22736726.3714   22736723.7624
 -21719257.46248 -16914265.40746  21121670.8334   21121666.4834
  -5710276.06647  -4445659.54044  24045255.2694   24045249.8004
  -8377339.78447  -6523112.81845  23550063.6784   23550059.9474
 -25081535.58248 -19532259.14547  20325156.0104   20325152.1684
 10  3 18  1  5  0.0000000  0  9G30G21G16G14G24G31G 2G12G29
 -23277132.54948 -18125031.80746  20906418.4274   20906414.9814
  -7971621.15647  -6203787.20244  23474109.4114   23474104.5064
  -3776373.89946  -2937506.34143  24466170.6954   24466167.1954
  -6963961.12046  -5422014.34844  24177382.4904   24177378.7714
  -9456767.53847  -7545524.88445  22717678.6174   22717676.2154
 -21756006.49148 -16942901.02446  21114678.0024   21114673.8804
  -5637850.10247  -4389223.73044  24059037.7894   24059031.8304
  -8299563.99847  -6462508.31544  23564863.8564   23564858.5434
 -25058565.05948 -19514360.03947  20329527.3674   20329523.3874
 10  3 18  1  5 30.0000000  0  9G30G21G16G14G24G31G 2G12G29
 -23223354.15147 -18083126.56346  20916651.9554   20916648.3714
  -8065203.03747  -6276708.14144  23456301.4914   23456296.2314
  -3862348.81346  -3004499.77543  24449809.8604   24449805.6784
  -6869175.60146  -5348155.56943  24195419.3144   24195415.9264
  -9556637.61647  -7623345.69045  22698674.1594   22698672.3404
 -21792258.74248 -16971149.52547  21107779.5314   21107775.0434
  -5565033.21447  -4332483.30244  24072893.4614   24072888.8114
  -8221656.97147  -6401801.54245  23579689.1624   23579684.1254
 -25035191.49548 -19496146.87347  20333975.0094   20333971.3814
 10  3 18  1  6  0.0000000  0  9G30G21G16G14G24G31G 2G12G29
 -23169273.63247 -18040985.92346  20926943.3504   20926939.3144
  -8158647.61047  -6349522.10444  23438519.0774   23438514.2304
  -3948302.60046  -3071476.73143  24433453.8874   24433448.7724
  -6774316.33346  -5274239.32243  24213470.1684   24213466.3324
  -9656280.59847  -7700989.56745  22679712.9564   22679710.8214
 -21828012.45548 -16999009.55446  21100975.4064   21100970.4704
  -5491827.67647  -4275439.99444  24086823.6414   24086819.6174
  -8143618.83247  -6340992.59844  23594539.0064   23594535.2604
 -25011416.01848 -19477620.52047  20338498.9184   20338495.3714
 10  3 18  1  6 30.0000000  0  9G30G21G16G14G24G31G 2G12G29
 -23114891.23447 -17998610.02746  20937291.5324   20937288.2634
  -8251952.40947  -6422227.14545  23420764.0854   23420760.2024
  -4034234.01846  -3138436.25343  24417101.2024   24417096.9024
  -6679386.20246  -5200267.85243  24231535.1724   24231531.0234
  -9755693.24047  -7778453.95145  22660795.6454   22660793.1504
 -21863265.64148 -17026479.57647  21094267.0514   21094262.3804
  -5418235.09647  -4218095.14244  24100828.6754   24100822.6134
  -8065449.59847  -6280081.55645  23609414.0354   23609410.7914
 -24987239.83648 -19458781.93947  20343099.7324   20343096.3614
 10  3 18  1  7  0.0000000  0  9G30G21G16G14G24G31G 2G12G29
 -23060207.61147 -17955999.42046  20947697.7034   20947694.3244
  -8345114.85847  -6494821.24244  23403035.9004   23403031.8144
  -4120143.09546  -3205378.37443  24400753.4274   24400748.1424
  -6584389.12346  -5126244.21443  24249612.1294   24249609.4764
  -9854873.16647  -7855736.97145  22641921.5154   22641919.6694
 -21898017.00048 -17053558.56446  21087654.1174   21087649.5314
  -5344258.50547  -4160451.06044  24114905.9084   24114900.0644
  -7987150.16747  -6219069.00245  23624314.6024   23624310.2804
 -24962664.72647 -19439632.49547  20347776.1474   20347772.8604
 10  3 18  1  7 30.0000000  0  9G30G21G16G14G24G31G 2G12G29
 -23005223.09247 -17913154.35646  20958161.3824   20958157.3924
  -8438132.64247  -6567302.58944  23385335.6094   23385330.8674
  -4206029.03446  -3272302.45643  24384409.3594   24384404.4434
  -6489327.85246  -5052170.58843  24267701.3724   24267699.7614
  -9953817.00047  -7932836.06245  22623093.5424   22623090.8524
 -21932265.09947 -17080245.39447  21081136.9974   21081131.9754
  -5269899.93147  -4102509.34144  24129055.5764   24129051.0774
  -7908720.41047  -6157954.91445  23639238.5964   23639235.6184
 -24937692.27847 -19420173.44447  20352528.1234   20352524.7384
 10  3 18  1  8  0.0000000  0  9G30G21G16G14G24G31G 2G12G29
 -22949937.41347 -17870074.61146  20968681.8094   20968678.0114
  -8531003.02147  -6639669.09544  23367662.4304   23367656.9554
  -4291891.31047  -3339208.08843  24368070.8914   24368065.7884
  -6394205.06746  -4978049.03943  24285803.9334   24285800.5084
 -10052521.19947  -8009748.40644  22604310.0054   22604307.8264
 -21966007.75048 -17106538.36446  21074716.0574   21074711.5694
  -5195161.04646  -4044271.19144  24143278.2444   24143274.0674
  -7830160.35047  -6096739.29345  23654188.1474   23654184.9804
 -24912323.38248 -19400405.47147  20357356.0154   20357351.7504
 10  3 18  1  8 30.0000000  0  9G30G21G16G14G24G31G 2G12G29
 -22894352.01248 -17826761.31746  20979259.0264   20979256.0334
  -8623723.87846  -6711919.09844  23350017.8994   23350012.5874
  -4377729.90847  -3406095.26843  24351735.9604   24351730.2424
  -6299024.57946  -4903882.39743  24303916.1624   24303912.1284
 -10150983.33647  -8086472.12244  22585573.6414   22585571.2324
 -21999243.80348 -17132436.59246  21068391.5414   21068387.4434
  -5120044.51347  -3985738.86544  24157571.6334   24157566.7904
  -7751470.48947  -6035422.54145  23669162.5794   23669158.5914
 -24886560.17748 -19380330.24447  20362258.4114   20362254.7634
 10  3 18  1  9  0.0000000  0  9G30G21G16G14G24G31G 2G12G29
 -22838466.26947 -17783213.99746  20989893.6604   20989890.2504
  -8716292.66946  -6784050.62744  23332403.0984   23332398.0664
  -4463543.60547  -3472963.07943  24335406.2684   24335400.1174
  -6203788.75346  -4829672.70843  24322038.8464   24322034.8074
 -10249200.00547  -8163004.61744  22566883.1674   22566880.5794
 -22031971.60347 -17157938.77546  21062163.3574   21062159.2464
  -5044552.45747  -3926913.88244  24171938.0524   24171931.9514
  -7672650.87347  -5974004.63445  23684161.3274   23684157.3154
 -24860403.56748 -19359948.46947  20367235.7504   20367231.7164
 10  3 18  1  9 30.0000000  0  9G30G21G16G14G24G31G 2G12G29
 -22782280.91147 -17739433.19846  21000585.2424   21000581.8194
  -8808707.31946  -6856062.04044  23314817.1854   23314813.1074
  -4549332.12646  -3539811.24843  24319081.5994   24319075.0514
  -6108501.62646  -4755423.05143  24340171.0764   24340167.9064
 -10347168.73647  -8239343.85645  22548240.8174   22548239.0804
 -22064189.86247 -17183043.91246  21056032.4624   21056027.8254
  -4968687.32947  -3867798.18844  24186374.7034   24186369.1804
  -7593702.07647  -5912486.10144  23699184.3814   23699181.5074
 -24833855.90547 -19339261.97947  20372287.8404   20372283.8144
 10  3 18  1 10  0.0000000  0  9G30G21G16G14G24G31G 2G12G29
 -22725796.36247 -17695419.28146  21011334.2204   21011330.0854
  -8900965.12946  -6927951.23844  23297261.1944   23297256.9964
  -4635095.06946  -3606639.46043  24302760.6884   24302754.6504
  -6013165.85446  -4681135.46043  24358313.1744   24358308.2144
 -10444886.10047  -8315487.25445  22529646.4364   22529644.4884
 -22095896.50348 -17207750.38047  21049998.9124   21049994.5144
  -4892451.47947  -3808393.63544  24200882.1314   24200876.8334
  -7514623.97847  -5850866.84844  23714232.8464   23714229.6694
 -24806917.94248 -19318271.35247  20377413.9764   20377410.4554
 10  3 18  1 10 30.0000000  0  9G30G21G16G14G24G31G 2G12G29
 -22669013.02547 -17651172.54746  21022139.4444   21022136.1844
  -8993064.12246  -6999716.65144  23279733.8984   23279731.1914
  -4720831.76946  -3673447.28443  24286444.8454   24286439.3524
  -5917784.58146  -4606812.45943  24376463.7584   24376459.6164
 -10542349.50547  -8391432.75445  22511099.3804   22511097.5994
 -22127090.53747 -17232057.43047  21044063.2104   21044058.3334
  -4815846.91546  -3748701.76843  24215459.2124   24215453.0524
  -7435417.08247  -5789147.20044  23729305.2894   23729302.0984
 -24779591.38647 -19296977.92447  20382613.9874   20382610.7734
 10  3 18  1 11  0.0000000  0  9G30G21G16G14G24G31G 2G12G29
 -22611930.99047 -17606693.04946  21033001.9254   21032997.6334
  -9085001.07246  -7071355.80044  23262238.9604   23262236.1634
  -4806541.78646  -3740234.29543  24270135.4724   24270129.5634
  -5822361.13446  -4532456.59743  24394621.7594   24394618.8654
 -10639555.73947  -8467177.84545  22492602.0754   22492599.5164
 -22157770.12947 -17255963.60547  21038224.7014   21038219.7654
  -4738875.82947  -3688724.31444  24230106.2974   24230100.8464
  -7356081.63247  -5727327.37544  23744403.0604   23744398.4264
 -24751877.88648 -19275382.99347  20387887.5724   20387884.4934
 10  3 18  1 11 30.0000000  0  9G30G21G16G14G24G31G 2G12G29
 -22554551.03047 -17561981.39946  21043920.9424   21043917.3574
  -9176774.24146  -7142867.32544  23244776.1524   23244772.0484
  -4892224.83146  -3807000.25143  24253830.7584   24253824.9504
  -5726898.81246  -4458070.51343  24412787.8064   24412785.1884
 -10736502.05947  -8542720.41744  22474153.3944   22474150.2184
 -22187934.41347 -17279468.23046  21032484.6804   21032480.3724
  -4661541.00046  -3628463.40643  24244822.4584   24244817.9004
  -7276618.29647  -5665407.89445  23759524.7094   23759520.4044
 -24723778.88248 -19253487.65647  20393234.4114   20393231.3624
 10  3 18  1 12  0.0000000  0  9G30G21G16G14G24G31G 2G12G29
 -22496872.99047 -17517037.47946  21054897.3204   21054893.2704
  -9268380.99646  -7214249.19745  23227343.8004   23227339.7714
  -4977879.94247  -3873744.44643  24237530.8814   24237525.7654
  -5631400.15446  -4383656.04243  24430960.2704   24430957.0584
 -10833185.10447  -8618057.85645  22455755.4464   22455752.2304
 -22217581.06248 -17302569.52647  21026843.2034   21026838.4994
  -4583844.29546  -3567920.54443  24259607.8464   24259602.4174
  -7197026.59247  -5603388.39044  23774670.3034   23774666.2174
 -24695295.81448 -19231293.06147  20398654.6644   20398650.8964
 10  3 18  1 12 30.0000000  0  9G30G21G16G14G24G31G 2G12G29
 -22438897.46347 -17471861.74046  21065929.3214   21065925.4404
  -9359818.52647  -7285499.21845  23209943.8954   23209939.5104
  -5063506.43147  -3940466.37244  24221236.7674   24221231.4314
  -5535868.29846  -4309215.79542  24449139.8564   24449136.3214
 -10929601.92547  -8693187.85445  22437407.7504   22437405.5494
 -22246708.73647 -17325266.43247  21021300.3944   21021296.2074
  -4505787.94447  -3507097.39443  24274461.7774   24274455.0114
  -7117306.83547  -5541269.10544  23789840.2974   23789836.3734
 -24666430.08848 -19208800.29147  20404148.0444   20404144.3804
 10  3 18  1 13  0.0000000  0  9G30G21G16G14G24G31G 2G12G29
 -22380625.24547 -17426454.83046  21077017.6724   21077014.3814
  -9451085.18546  -7356616.07744  23192576.2404   23192571.8224
  -5149104.36947  -4007166.04743  24204947.6454   24204942.5674
  -5440306.83446  -4234752.40643  24467324.9754   24467320.7214
 -11025750.06647  -8768108.47245  22419111.7744   22419110.0494
 -22275316.89048 -17347558.47947  21015856.6414   21015851.9174
  -4427374.77147  -3445996.24243  24289383.7364   24289376.0474
  -7037459.80147  -5479050.64244  23805034.4224   23805030.6894
 -24637184.15448 -19186011.24847  20409713.5944   20409709.7924
 10  3 18  1 13 30.0000000  0  9G30G21G16G14G24G31G 2G12G29
 -22322056.44047 -17380816.81946  21088163.4984   21088160.0924
  -9542178.48046  -7427597.83944  23175241.4894   23175236.8774
  -5234672.68146  -4073842.65243  24188664.1824   24188659.2504
  -5344718.39246  -4160267.93543  24485515.1054   24485510.9914
 -11121626.22947  -8842817.14445  22400867.1804   22400864.5114
 -22303403.48348 -17369444.13647  21010511.7174   21010507.6274
  -4348606.63746  -3384618.47243  24304372.5794   24304367.4414
  -6957485.25146  -5416732.79044  23820252.3554   23820248.7594
 -24607558.79748 -19162926.55447  20415350.5924   20415347.1704
 10  3 18  1 14  0.0000000  0  9G30G21G16G14G24G31G 2G12G29
 -22263191.16547 -17334947.80346  21099364.8854   21099361.6174
  -9633095.33646  -7498442.12744  23157940.7444   23157936.4304
  -5320210.87946  -4140495.77643  24172386.7434   24172382.1194
  -5249106.05947  -4085764.87743  24503709.2444   24503705.1594
 -11217227.36047  -8917311.51845  22382674.9084   22382671.7874
 -22330966.92248 -17390922.15147  21005266.8134   21005262.4314
  -4269485.80146  -3322965.85843  24319428.9564   24319424.6594
  -6877383.55947  -5354315.93644  23835495.5654   23835492.1374
 -24577555.40748 -19139547.28447  20421060.1614   20421056.6804
 10  3 18  1 14 30.0000000  0  9G30G21G16G14G24G31G 2G12G29
 -22204030.72447 -17288848.75946  21110622.9884   21110619.8644
  -9723834.42246  -7569147.89644  23140673.5424   23140668.6804
  -5405718.85445  -4207125.37243  24156116.7714   24156110.4864
  -5153473.50346  -4011246.04643  24521907.8174   24521903.1314
 -11312551.08747  -8991589.72445  22364534.9094   22364533.1384
 -22358006.68448 -17411992.09847  21000121.0324   21000116.4734
  -4190015.66047  -3261041.03244  24334551.4194   24334545.5424
  -6797156.02347  -5291800.99644  23850762.3844   23850758.8134
 -24547176.02048 -19115875.02847  20426841.0864   20426837.5784
 10  3 18  1 15  0.0000000  0  9G30G21G16G14G24G31G 2G12G29
 -22144574.59347 -17242519.31746  21121937.1834   21121934.1194
  -9814392.42346  -7639712.55944  23123440.8454   23123435.9974
  -5491195.29546  -4273730.39543  24139851.0634   24139845.0564
  -5057823.48346  -3936713.58743  24540108.5664   24540104.8864
 -11407593.67047  -9065648.86345  22346448.7324   22346446.8564
 -22384520.47748 -17432652.19846  20995075.8174   20995070.8954
  -4110197.32447  -3198844.93743  24349740.5624   24349732.6394
  -6716801.80847  -5229187.31144  23866053.7994   23866049.1124
 -24516421.51948 -19091910.48447  20432693.3714   20432690.0544
 10  3 18  1 15 30.0000000  0  9G30G21G16G14G24G31G 2G12G29
 -22084823.14647 -17195959.76646  21133307.4894   21133304.6164
  -9904767.45247  -7710134.66145  23106243.4914   23106238.6584
  -5576639.75746  -4340310.47744  24123590.9934   24123586.5624
  -4962158.78146  -3862169.78142  24558313.3774   24558309.0964
 -11502352.29047  -9139486.74145  22328416.6914   22328414.8064
 -22410506.92348 -17452901.37246  20990130.5444   20990125.9004
  -4030033.29747  -3136379.48643  24364994.3694   24364988.5364
  -6636320.80047  -5166474.82944  23881368.5864   23881364.2004
 -24485293.84448 -19067655.15947  20438616.7904   20438613.8124
 10  3 18  1 16  0.0000000  0  9G30G21G16G14G24G31G 2G12G29
 -22024776.75247 -17149170.37246  21144733.4714   21144731.0404
  -9994956.34347  -7780411.70545  23089081.4704   23089076.9834
  -5662051.51146  -4406865.07244  24107337.8784   24107333.7094
  -4866482.14845  -3787616.68442  24576519.7664   24576515.8764
 -11596823.66147  -9213100.78545  22310440.3034   22310437.6784
 -22435964.51948 -17472738.46447  20985286.2064   20985281.8474
  -3949525.67547  -3073646.31043  24380314.2834   24380309.3184
  -6555713.59747  -5103664.02544  23896707.2224   23896704.7204
 -24453794.18248 -19043109.96847  20444610.8294   20444607.8134
 10  3 18  1 16 30.0000000  0  9G30G21G16G14G24G31G 2G12G29
 -21964436.63647 -17102152.12046  21156215.8594   21156212.8524
 -10084957.42647  -7850542.40344  23071954.2724   23071949.7164
  -5747430.51246  -4473394.12743  24091090.2614   24091086.3484
  -4770797.22745  -3713057.06443  24594728.8654   24594723.4314
 -11691005.94347  -9286489.56845  22292516.9814   22292515.0244
 -22460893.09648 -17492163.32747  20980542.5264   20980537.8934
  -3868677.72946  -3010647.86243  24395699.1344   24395694.7434
  -6474980.86347  -5040755.45344  23912070.2404   23912067.4294
 -24421924.93548 -19018276.78647  20450675.4874   20450672.2744
 10  3 18  1 17  0.0000000  0  9G30G21G16G14G24G31G 2G12G29
 -21903802.69247 -17054904.90146  21167754.8154   21167751.5164
 -10174768.70547  -7920525.20844  23054863.4074   23054859.0264
  -5832775.76446  -4539896.89743  24074849.3134   24074845.6954
  -4675107.08146  -3638493.45143  24612938.0774   24612933.7524
 -11784895.68347  -9359650.40744  22274650.2224   22274648.3814
 -22485290.69248 -17511174.44547  20975899.6034   20975895.2164
  -3787491.23346  -2947385.65343  24411148.3664   24411143.0154
  -6394122.79847  -4977749.17944  23927456.4764   23927453.1774
 -24389687.20548 -18993156.46847  20456810.0304   20456806.6944
 10  3 18  1 17 30.0000000  0  9G30G21G16G14G24G31G 2G12G29
 -21842875.40147 -17007429.09446  21179348.6354   21179345.3284
 -10264386.87947  -7990357.54244  23037809.8074   23037805.5094
  -5918086.79846  -4606372.99143  24058615.1744   24058611.2504
  -4579414.56946  -3563927.94943  24631148.0514   24631143.5714
 -11878489.93147  -9432580.96645  22256840.1104   22256838.9884
 -22509156.07448 -17529770.84947  20971358.1874   20971354.1324
  -3705968.70147  -2883861.61443  24426661.9024   24426656.6034
  -6313139.64746  -4914645.42244  23942867.8504   23942863.6344
 -24357082.60248 -18967750.29647  20463014.6044   20463010.8144
 10  3 18  1 18  0.0000000  0  9G30G21G16G14G24G31G 2G12G29
 -21781655.51847 -16959725.30046  21190998.0024   21190994.7724
 -10353810.18047  -8060038.00745  23020793.5064   23020789.0584
  -6003363.13446  -4672822.10244  24042387.7814   24042383.6654
  -4483723.12046  -3489363.27043  24649357.6034   24649352.3474
 -11971785.81347  -9505279.04344  22239086.9024   22239084.6064
 -22532488.23348 -17547951.75947  20966918.5904   20966913.9104
  -3624112.71047  -2820077.74143  24442239.3864   24442234.4044
  -6232031.78747  -4851444.51644  23958302.3584   23958298.4364
 -24324112.96648 -18942059.67047  20469288.3854   20469284.7394
 10  3 18  1 18 30.0000000  0  9G30G21G16G14G24G31G 2G12G29
 -21720143.24747 -16911793.66146  21202703.5904   21202699.4444
 -10443036.05047  -8129564.65845  23003814.3784   23003809.9074
  -6088604.06146  -4739243.57943  24026167.3194   24026162.7284
  -4388035.29746  -3414801.45742  24667565.9174   24667561.4834
 -12064780.21047  -9577742.23245  22221390.6614   22221388.4444
 -22555285.76648 -17565716.06147  20962579.9684   20962575.5064
  -3541925.33546  -2756035.63943  24457879.2434   24457874.5044
  -6150799.37247  -4788146.56144  23973760.3004   23973757.4924
 -24290779.72448 -18916085.71747  20475631.7244   20475628.2074
 10  3 18  1 19  0.0000000  0  9G30G21G16G14G24G31G 2G12G29
 -21658338.54647 -16863634.17246  21214464.7464   21214461.3994
 -10532062.19747  -8198935.67444  22986873.2994   22986868.7034
  -6173808.59646  -4805636.73444  24009953.1234   24009949.5644
  -4292354.21646  -3340244.89643  24685772.9384   24685769.8244
 -12157470.03547  -9649968.07844  22203752.1614   22203750.3664
 -22577547.23148 -17583062.66646  20958343.9744   20958339.4074
  -3459409.14746  -2691737.28243  24473580.8224   24473574.8284
  -6069442.45747  -4724751.55044  23989241.7544   23989238.3934
 -24257084.04347 -18889829.34447  20482043.3894   20482040.2544
 10  3 18  1 19 30.0000000  0  9G30G21G16G14G24G31G 2G12G29
 -21596242.11147 -16815247.35646  21226281.6594   21226277.7974
 -10620886.12347  -8268149.10244  22969970.4784   22969965.9484
  -6258976.22746  -4872001.09443  23993746.0864   23993741.8594
  -4196682.75345  -3265695.78242  24703977.3534   24703973.6574
 -12249852.61247  -9721954.47744  22186172.9594   22186171.0974
 -22599271.29048 -17599990.51347  20954210.2514   20954205.6914
  -3376566.32746  -2627184.41443  24489344.3604   24489339.1564
  -5987961.46946  -4661259.87244  24004746.8464   24004743.0394
 -24223028.01247 -18863292.16747  20488524.4144   20488520.8454
 10  3 18  1 20  0.0000000  0  9G30G21G16G14G24G31G 2G12G29
 -21533854.51247 -16766633.63146  21238153.3304   21238149.6784
 -10709505.54947  -8337203.19444  22953106.5924   22953102.0364
  -6344106.56546  -4938336.38044  23977546.9854   23977541.6814
  -4101024.29245  -3191156.88842  24722182.8264   24722178.4154
 -12341924.96647  -9793699.17344  22168651.6084   22168649.7174
 -22620457.13548 -17616498.95447  20950178.5754   20950174.5034
  -3293399.32446  -2562378.98043  24505171.9494   24505165.5684
  -5906356.93447  -4597671.93844  24020276.0974   24020270.9894
 -24188613.03148 -18836475.29647  20495073.4554   20495069.9924
 10  3 18  1 20 30.0000000  0  9G30G21G16G14G24G31G 2G12G29
 -21471176.02847 -16717793.26046  21250080.9014   21250076.9304
 -10797917.92147  -8406095.93844  22936282.2804   22936276.8064
  -6429198.88646  -5004642.08844  23961353.7944   23961349.3074
  -4005381.75445  -3116630.27542  24740382.2914   24740379.3504
 -12433684.42347  -9865200.01244  22151190.4384   22151188.7744
 -22641103.67548 -17632587.17946  20946249.4744   20946244.7414
  -3209910.68946  -2497322.89343  24521057.5734   24521054.5944
  -5824629.29647  -4533988.04544  24035828.8424   24035824.8374
 -24153840.77848 -18809380.03647  20501690.2384   20501686.7154
 10  3 18  1 21  0.0000000  0  9G30G21G16G14G24G31G 2G12G29
 -21408206.60147 -16668726.17346  21262063.1524   21262059.5824
 -10886120.62147  -8474825.29944  22919497.9634   22919492.4704
  -6514251.66246  -5070916.96744  23945168.8824   23945164.2624
  -3909757.54445  -3042118.00142  24758576.1664   24758574.1694
 -12525127.39747  -9936454.26444  22133789.5604   22133787.0104
 -22661209.06548 -17648253.70747  20942423.6654   20942419.1954
  -3126102.07246  -2432017.51543  24537006.6034   24537002.7864
  -5742777.67647  -4470207.56644  24051404.5124   24051400.8784
 -24118711.96148 -18782006.94447  20508375.0784   20508371.4794
 10  3 18  1 21 30.0000000  0  9G30G21G16G14G24G31G 2G12G29
 -21344944.75947 -16619431.24946  21274101.3544   21274098.7744
 -10974109.40647  -8543387.98644  22902753.8784   22902750.1414
  -6599262.80646  -5137159.41244  23928992.0834   23928986.9624
                                  24776767.8804   24776767.2944
 -12616249.43447 -10007458.43444  22116448.9894   22116446.7584
 -22680770.29348 -17663496.21547  20938701.6034   20938697.1364
  -3041974.33347  -2366463.42343  24553016.1344   24553009.7314
  -5660800.66547  -4406329.38744  24067003.8014   24067001.2164
 -24083226.84248 -18754356.20247  20515127.7664   20515123.9094
 10  3 18  1 22  0.0000000  0  8G30G21G16G24G31G 2G12G29
 -21281396.09647 -16569912.81046  21286194.2034   21286191.5424
 -11061886.92847  -8611786.04944  22886050.4764   22886046.0594
  -6684236.29746  -5203372.49844  23912821.8034   23912817.7704
 -12707052.16547 -10078213.79044  22099170.2634   22099167.4714
 -22699791.14648 -17678317.67547  20935081.7924   20935077.4614
  -2957534.66846  -2300666.28243  24569084.8914   24569077.3164
  -5578703.65847  -4342357.73944  24082626.2504   24082624.2794
 -24047391.68848 -18726432.69447  20521946.9954   20521943.4254
 10  3 18  1 22 30.0000000  0  8G30G21G16G24G31G 2G12G29
 -21217558.61647 -16520169.34546  21298342.3704   21298339.1354
 -11149448.32847  -8680015.71944  22869388.5994   22869383.4484
  -6769169.32546  -5269554.07044  23896659.2504   23896655.6204
 -12797530.53747 -10148716.39044  22081952.6754   22081950.7394
 -22718268.32048 -17692715.47447  20931565.8164   20931560.8564
  -2872783.02446  -2234626.01543  24585212.0034   24585206.6034
  -5496484.73247  -4278291.07344  24098272.5074   24098269.2424
 -24011205.82648 -18698235.92847  20528833.1584   20528829.4454
 10  3 18  1 23  0.0000000  0  9G30G21G16G14G24G31G 2G12G29
 -21153434.75947 -16470202.72546  21310544.9074   21310541.9874
 -11236793.40747  -8748076.81045  22852766.7194   22852762.6344
  -6854063.18046  -5335705.08744  23880504.9484   23880500.5504
  24830051.33345                  24831318.3974
 -12887683.72647 -10218965.60643  22064797.1054   22064794.1944
 -22736202.75448 -17706690.36046  20928153.1324   20928147.9614
  -2787723.44646  -2168345.82443  24601398.3134   24601394.0164
  -5414146.58447  -4214131.45944  24113940.7684   24113937.3444
 -23974673.27248 -18669769.00347  20535784.8014   20535781.4194
 10  3 18  1 23 30.0000000  0  9G30G21G16G14G24G31G 2G12G29
 -21089020.95547 -16420010.14646  21322802.4724   21322799.6584
 -11323915.49447  -8815964.14645  22836188.2494   22836184.2654
  -6938912.86046  -5401821.69244  23864358.8284   23864354.4734
  24925535.61145  19426939.56443  24849490.1654   24849488.6574
 -12977504.75147 -10288956.03643  22047704.6724   22047701.0154
 -22753589.02748 -17720238.10546  20924844.2874   20924839.9354
  -2702355.00746  -2101824.99443  24617643.3804   24617638.4144
  -5331684.57647  -4149875.38444  24129632.8944   24129628.3364
 -23937791.14648 -18641029.68147  20542803.3814   20542799.6684
 10  3 18  1 24  0.0000000  0  9G30G21G16G14G24G31G 2G12G29
 -21024319.86647 -16369593.70646  21335114.2134   21335111.2174
 -11410814.46747  -8883677.62545  22819652.2954   22819647.7504
  -7023720.29346  -5467905.40244  23848219.9654   23848215.4254
  25020983.42446  19501314.23543  24867653.0814   24867650.9144
 -13066993.09946 -10358687.23343  22030676.0554   22030673.0984
 -22770428.70548 -17733359.94147  20921640.1364   20921635.8544
  -2616682.11146  -2035066.91343  24633946.4114   24633941.2004
  -5249101.16547  -4085524.65544  24145347.6314   24145342.9884
 -23900562.75847 -18612020.54247  20549887.6534   20549884.1854
 10  3 18  1 24 30.0000000  0  9G30G21G16G14G24G31G 2G12G29
 -20959331.41747 -16318953.37346  21347481.2124   21347477.7014
 -11497487.62047  -8951215.13245  22803158.8514   22803154.8164
  -7108483.81746  -5533954.89544  23832090.3374   23832085.2674
  25116391.91245  19575658.23643  24885809.2984   24885807.2484
 -13156145.18146 -10428156.39543  22013710.6464   22013707.7514
 -22786719.85148 -17746054.34347  20918540.0054   20918535.0944
  -2530706.59446  -1968073.02443  24650306.7624   24650301.9724
  -5166396.58247  -4021079.54444  24161085.6334   24161081.5144
 -23862989.55648 -18582742.72447  20557037.6484   20557034.3634
 10  3 18  1 25  0.0000000  0  9G30G21G16G14G24G31G 2G12G29
 -20894056.43547 -16268089.74845  21359902.6154   21359899.4064
 -11583932.92747  -9018575.10645  22786709.1464   22786704.5894
  -7193203.19046  -5599969.98243  23815968.9464   23815963.6344
  25211757.62845  19649968.90843  24903957.4944   24903955.3024
 -13244958.34847 -10497361.45843  21996809.7244   21996807.4664
 -22802461.85848 -17758320.83747  20915544.1044   20915538.7824
  -2444431.08246  -1900845.32343  24666725.6874   24666720.3424
  -5083571.42047  -3956540.46244  24176846.7314   24176842.1344
 -23825073.54947 -18553197.78547  20564252.8454   20564249.2334
 10  3 18  1 25 30.0000000  0  9G30G21G16G14G24G31G 2G12G29
 -20828495.48747 -16217003.30146  21372378.4074   21372375.3644
 -11670148.19147  -9085755.82445  22770302.2934   22770297.7024
  -7277877.90846  -5665950.27643  23799855.6594   23799850.7394
  25307077.22345  19724243.55843  24922095.7354   24922094.6144
 -13333430.00646 -10566300.39343  21979974.6994   21979972.6754
 -22817654.34148 -17770159.14946  20912653.0914   20912648.3964
  -2357858.36346  -1833386.02343  24683198.6944   24683194.1454
  -5000626.14847  -3891907.81644  24192631.1824   24192627.4894
 -23786816.63447 -18523387.20447  20571532.5604   20571529.3214
 10  3 18  1 26  0.0000000  0  9G30G21G16G14G24G31G 2G12G29
 -20762648.94947 -16165694.33145  21384908.7734   21384905.4534
 -11756130.97447  -9152755.37845  22753940.4394   22753935.4904
  -7362506.96146  -5731894.95744  23783751.6734   23783746.8784
  25402348.42745  19798480.48343  24940225.6884   24940224.4564
 -13421557.21046 -10634970.95843  21963204.8394   21963202.4894
 -22832296.13948 -17781568.34347  20909866.7954   20909862.3564
  -2270990.64346  -1765696.91543  24699729.5374   24699722.9854
  -4917561.05247  -3827181.79644  24208438.8924   24208434.1944
 -23748220.44147 -18493312.24947  20578877.2244   20578873.9814
 10  3 18  1 26 30.0000000  0  9G30G21G16G14G24G31G 2G12G29
 -20696517.04247 -16114162.98345  21397493.3584   21397489.3554
 -11841878.87647  -9219571.92245  22737622.6674   22737618.7864
  -7447089.58747  -5797803.49544  23767655.6294   23767651.4504
  25497568.69545  19872677.72842  24958344.9764   24958345.2934
 -13509336.74046 -10703370.55143  21946500.2394   21946498.5314
 -22846385.82548 -17792547.31947  20907185.7254   20907181.0794
  -2183830.24646  -1697779.71843  24716315.1814   24716308.9194
  -4834376.13447  -3762362.36344  24224267.8414   24224263.8084
 -23709286.20347 -18462973.87647  20586286.3304   20586282.6614
 10  3 18  1 27  0.0000000  0  9G30G21G16G14G24G31G 2G12G29
 -20630100.02347 -16062409.46245  21410131.6814   21410128.8204
 -11927389.18247  -9286203.32845  22721351.3194   22721346.4354
  -7531624.74246  -5863675.02044  23751569.4154   23751564.8734
  25592735.24745  19946833.12242  24976456.3064   24976454.8284
 -13596765.57646 -10771496.89743  21929863.1414   21929860.7064
 -22859922.03548 -17803095.01646  20904609.8714   20904605.0914
  -2096379.13946  -1629636.01243  24732956.4764   24732952.1904
  -4751071.22947  -3697449.44444  24240120.2094   24240116.1104
 -23670015.10048 -18432373.01447  20593759.2194   20593755.0804
 10  3 18  1 27 30.0000000  0  9G30G21G16G14G24G31G 2G12G29
 -20563398.82047 -16010434.50346  21422825.1044   21422821.4914
 -12012659.91747  -9352648.03545  22705124.3134   22705119.7644
  -7616111.91346  -5929509.15544  23735491.1704   23735487.4974
  25687844.70445  20020944.07443  24994554.6954   24994553.8884
 -13683841.36147 -10839348.19943  21913293.5964   21913288.5594
 -22872904.31148 -17813211.09247  20902139.6214   20902135.2274
  -2008639.90246  -1561267.76743  24749653.3664   24749648.5034
  -4667647.00747  -3632443.57744  24255995.4314   24255991.8134
 -23630409.25348 -18401511.32047  20601296.1734   20601291.7394
 10  3 18  1 28  0.0000000  0  9G30G21G16G14G24G31G 2G12G29
 -20496414.21448 -15958238.70446  21435571.9394   21435567.8924
 -12097689.03147  -9418904.47545  22688943.8054   22688939.6134
  -7700550.52947  -5995305.46144  23719423.2024   23719419.6424
  25782894.09145  20095008.19843  25012641.4704   25012641.1214
 -13770561.56346 -10906922.32543  21896791.3804   21896787.7304
 -22885332.37048 -17822895.28847  20899774.5064   20899770.4374
  -1920615.64146  -1492677.48643  24766404.3854   24766397.9784
  -4584104.67647  -3567345.67444  24271893.4274   24271889.9574
 -23590470.45648 -18370390.17947  20608896.1354   20608892.1564
 10  3 18  1 28 30.0000000  0  9G30G21G16G14G24G31G 2G12G29
 -20429146.51247 -15905822.32746  21448372.1034   21448369.0724
 -12182474.31447  -9484970.92445  22672809.6944   22672804.6004
  -7784939.96047  -6061063.44544  23703365.0364   23703360.7394
  25877880.36645  20169023.16042  25030717.4624   25030716.7734
 -13856923.47746 -10974217.33043  21880356.9714   21880353.4934
 -22897205.10648 -17832146.77247  20897514.9574   20897510.7074
  -1832308.83546  -1423866.97143  24783207.7404   24783201.6214
  -4500443.89047  -3502155.46744  24287812.5754   24287809.2134
 -23550200.31347 -18339010.85647  20616559.2354   20616555.5794
 10  3 18  1 29  0.0000000  0  9G30G21G16G14G24G31G 2G12G29
 -20361595.49447 -15853185.17946  21461227.0864   21461223.7774
 -12267012.71247  -9550845.00445  22656722.8194   22656718.1594
  -7869278.70847  -6126781.93444  23687316.1364   23687311.6714
  25972801.24545  20242987.14843  25048780.2354   25048779.3584
 -13942923.57247 -11041230.36943  21863991.4924   21863987.8134
 -22908520.99948 -17840964.37247  20895361.9064   20895356.6184
  -1743720.88546  -1354837.43943  24800065.1644   24800060.9114
  -4416664.46847  -3436872.79844  24303755.1014   24303751.1694
 -23509599.73447 -18307374.03447  20624285.3204   20624282.0774
 10  3 18  1 29 30.0000000  0  9G30G21G16G14G24G31G 2G12G29
 -20293762.75348 -15800328.50746  21474134.6254   21474132.2734
 -12351303.05047  -9616525.78745  22640682.7854   22640678.2654
  -7953567.34747  -6192461.39744  23671275.8964   23671272.4954
  26067653.32446  20316897.54143  25066831.4644   25066828.7704
 -14028559.98246 -11107960.02442  21847695.2364   21847691.9904
 -22919280.33648 -17849348.26446  20893314.3154   20893309.5174
  -1654855.36846  -1285591.58643  24816976.5594   24816971.5754
  -4332767.55447  -3371498.59344  24319721.1404   24319716.6954
 -23468671.19648 -18275481.66547  20632073.5174   20632070.1554
 10  3 18  1 30  0.0000000  0 10G30G21G16G14G24G31G 5G 2G12G29
 -20225648.65748 -15747252.59546  21487096.4554   21487093.6584
 -12435343.09347  -9682011.53345  22624690.5304   22624685.5294
  -8037804.40947  -6258100.63544  23655246.1874   23655242.0074
  26162433.39245  20390751.85843  25084867.1314   25084865.3414
 -14113830.15946 -11174404.30242  21831469.7284   21831462.5464
 -22929482.47848 -17857297.98646  20891373.1454   20891368.4154
     11519.83746                  25190249.7424
  -1565715.03646  -1216131.53243  24833939.8974   24833934.0844
  -4248753.64547  -3306033.21144  24335708.1114   24335704.2744
 -23427416.88348 -18243335.45447  20639924.4784   20639920.9314
 10  3 18  1 30 30.0000000  0 10G30G21G16G14G24G31G 5G 2G12G29
 -20157245.15647 -15693951.19746  21500113.3584   21500110.3594
 -12519121.82447  -9747293.65345  22608747.9294   22608743.2114
  -8121980.85947  -6323692.64144  23639227.8654   23639224.1874
                                  25102885.8144   25102887.2664
 -14198722.23146 -11240553.94242  21815314.8304   21815308.9394
 -22939117.64048 -17864805.91647  20889539.5524   20889534.8194
    -32852.47446    -25433.55643  25181805.1494   25181801.4844
  -1476293.24446  -1146452.21543  24850955.6444   24850949.2384
  -4164614.40147  -3240470.20744  24351719.1454   24351715.5804
 -23385829.37048 -18210929.60647  20647837.7464   20647834.4674
 10  3 18  1 31  0.0000000  0  9G30G21G16G24G31G 5G 2G12G29
 -20088568.43347 -15640436.87946  21513181.9444   21513178.6084
 -12602652.55447  -9812382.53145  22592852.5684   22592847.7294
  -8206111.49746  -6389248.97044  23623217.6884   23623215.3214
 -14283249.31046 -11306419.24442  21799229.5884   21799224.6904
 -22948200.96948 -17871883.85247  20887811.0724   20887805.8664
    -76853.84746    -59720.32943  25173432.1254   25173428.3084
  -1386608.43246  -1076567.91943  24868022.4034   24868015.4644
  -4080366.00547  -3174822.12244  24367750.7764   24367747.1524
 -23343925.95648 -18178277.59047  20655812.1824   20655808.3784
 10  3 18  1 31 30.0000000  0  9G30G21G16G24G31G 5G 2G12G29
 -20019611.13048 -15586703.92646  21526304.0124   21526301.8004
 -12685925.17947  -9877270.27545  22577006.2504   22577001.9214
  -8290188.00647  -6454763.12144  23607219.2244   23607215.7774
 -14367401.16646 -11371992.14142  21783216.1294   21783210.8114
 -22956723.80148 -17878525.01247  20886189.2834   20886184.7064
   -120474.26746    -93710.27143  25165131.2404   25165128.1754
  -1296655.10446  -1006474.45343  24885139.6884   24885135.2704
  -3996000.85147  -3109083.05944  24383804.6504   24383800.6364
 -23301700.92748 -18145374.97547  20663847.4664   20663843.0434
 10  3 18  1 32  0.0000000  0  9G30G21G16G24G31G 5G 2G12G29
 -19950374.43448 -15532753.26746  21539479.9564   21539476.7844
 -12768937.73847  -9941955.37245  22561209.4704   22561205.3624
  -8374209.63447  -6520234.48544  23591230.4604   23591226.0984
 -14451175.23345 -11437270.62842  21767274.3214   21767271.3924
 -22964685.55548 -17884728.96547  20884674.0554   20884669.5014
   -163711.47646   -127401.58943  25156902.9684   25156901.1364
  -1206436.21846   -936173.99143  24902308.2334   24902303.1734
  -3911519.64047  -3043253.56844  24399881.2534   24399876.0804
 -23259155.64147 -18112222.79847  20671943.3084   20671939.3064
 10  3 18  1 32 30.0000000  0  9G30G21G16G24G31G 5G 2G12G29
 -19880859.07648 -15478585.45846  21552707.7634   21552705.0914
 -12851688.64447 -10006436.58445  22545462.4104   22545458.1494
  -8458176.09947  -6585662.90244  23575252.4544   23575247.4794
 -14534569.32246 -11502253.01642  21751405.0484   21751401.8484
 -22972086.49848 -17890495.95147  20883265.5914   20883261.2404
   -206563.75746   -160792.91043  25148748.5614   25148745.9034
  -1115954.56146   -865668.83343  24919525.3134   24919520.6174
  -3826923.29847  -2977334.32944  24415979.4094   24415975.3354
 -23216292.09948 -18078822.64747  20680100.0004   20680096.1504
 10  3 18  1 33  0.0000000  0  9G30G21G16G24G31G 5G 2G12G29
 -19811064.98248 -15424200.46946  21565989.1994   21565986.8454
 -12934175.07947 -10070711.72645  22529765.9204   22529761.5654
  -8542085.96347  -6651047.19144  23559284.5014   23559279.3364
 -14617579.94546 -11566936.63143  21735608.8174   21735604.6144
 -22978925.17748 -17895824.80047  20881964.5764   20881959.8134
   -249027.94346   -193881.94143  25140668.4974   25140663.9874
  -1025211.94647   -794960.32443  24936793.3784   24936787.1854
  -3742211.62747  -2911325.25544  24432099.7524   24432096.2124
 -23173111.75248 -18045175.61747  20688316.7204   20688312.8194
 10  3 18  1 33 30.0000000  0  9G30G21G16G24G31G 5G 2G12G29
 -19740993.31148 -15369599.17245  21579324.0114   21579320.5444
 -13016395.27347 -10134779.38845  22514120.3154   22514116.3084
  -8625939.04347  -6716387.21444  23543327.9994   23543322.6994
 -14700205.10746 -11631319.85143  21719885.7014   21719884.3434
 -22985201.82248 -17900715.68946  20880769.7544   20880765.1414
   -291102.78646   -226667.48043  25132662.7284   25132659.4884
   -934211.53846   -724050.94043  24954110.7284   24954103.8364
  -3657385.21547  -2845226.73644  24448242.3254   24448236.6964
 -23129616.90148 -18011283.52547  20696593.5934   20696589.7294
 10  3 18  1 34  0.0000000  0  9G30G21G16G24G31G 5G 2G12G29
 -19670644.25848 -15314781.72845  21592710.7034   21592707.2904
 -13098346.80047 -10198637.70445  22498525.4234   22498521.5524
  -8709734.05447  -6781682.01744  23527382.4314   23527377.2864
 -14782441.70046 -11695400.26043  21704237.6474   21704234.4694
 -22990915.03348 -17905167.55147  20879682.6934   20879678.0734
   -332785.32546   -259147.34443  25124730.5864   25124728.3144
   -842955.48846   -652942.29943  24971476.5384   24971470.8994
  -3572444.28647  -2779038.96144  24464406.1424   24464399.7934
 -23085808.63347 -17977147.22047  20704930.6314   20704926.7354
 10  3 18  1 34 30.0000000  0  9G30G21G16G24G31G 5G 2G12G29
 -19600018.41948 -15259748.61645  21606150.3614   21606147.4914
 -13180026.98947 -10262284.58645  22482982.0364   22482977.3464
  -8793470.10647  -6846930.87144  23511447.9504   23511442.3974
 -14864286.87746 -11759175.75143  21688663.2704   21688657.8404
 -22996064.19548 -17909179.88847  20878703.0344   20878698.3154
   -374073.12046   -291319.63843  25116873.1884   25116871.9524
   -751446.39246   -581636.49443  24988889.7104   24988884.3164
  -3487389.05047  -2712762.15444  24480591.2934   24480587.4474
 -23041688.52848 -17942767.90947  20713326.3504   20713322.6114
 10  3 18  1 35  0.0000000  0  9G30G21G16G24G31G 5G 2G12G29
 -19529116.20848 -15204500.13046  21619642.5024   21619639.4574
 -13261433.75347 -10325718.43445  22467490.6554   22467485.8234
  -8877146.27747  -6912133.07444  23495525.0034   23495519.7844
 -14945737.81546 -11822644.03243  21673163.4294   21673160.4554
 -23000648.45548 -17912752.03647  20877830.4004   20877826.4134
   -414963.73146   -323182.42543  25109092.9224   25109090.0574
   -659685.94246   -510134.83643  25006350.7114   25006346.2334
  -3402219.83847  -2646396.53344  24496798.4774   24496795.8504
 -22997257.85648 -17908146.61747  20721780.9584   20721777.4534
 10  3 18  1 35 30.0000000  0  9G30G21G16G24G31G 5G 2G12G29
 -19457937.85748 -15149036.48745  21633187.2304   21633184.8564
 -13342565.00547 -10388937.58645  22452052.1834   22452047.4084
  -8960761.63147  -6977287.87044  23479613.2484   23479608.4664
 -15026791.66346 -11885802.83143  21657738.9544   21657736.8454
 -23004667.43648 -17915883.72447  20877065.8394   20877061.2874
   -455454.76046   -354733.84843  25101386.7624   25101385.5764
   -567676.77646   -438439.34843  25023858.8634   25023853.7214
  -3316936.67346  -2579942.15343  24513027.0724   24513024.2344
 -22952518.33748 -17873284.65147  20730294.7784   20730291.4924
 10  3 18  1 36  0.0000000  0  9G30G21G16G24G31G 5G 2G12G29
 -19386484.48548 -15093358.54045  21646784.4064   21646782.0424
 -13423418.25947 -10451940.11745  22436666.1224   22436661.5774
  -9044315.49747  -7042394.76944  23463713.4364   23463708.5284
 -15107446.19745 -11948650.51342  21642390.4334   21642387.4834
 -23008120.92348 -17918574.76547  20876409.0174   20876404.4664
   -495544.40046   -385972.51743  25093758.0484   25093753.9734
   -475421.76646   -366552.31843  25041415.3004   25041409.7654
  -3231540.55446  -2513399.77544  24529276.9964   24529274.4084
 -22907471.77348 -17838183.43647  20738866.7234   20738863.1954
 10  3 18  1 36 30.0000000  0  9G30G21G16G24G31G 5G 2G12G29
 -19314756.84648 -15037466.88546  21660433.7374   21660431.2324
 -13503992.07147 -10514724.89845  22421333.6974   22421329.2614
  -9127807.33447  -7107453.31244  23447825.4364   23447820.6754
 -15187699.30445 -12011185.33642  21627119.8404   21627114.9344
 -23011008.50248 -17920824.82446  20875859.2434   20875854.5484
   -535230.77346   -416896.94043  25086206.0214   25086202.0324
   -382923.57446   -294475.87043  25059016.7114   25059011.3124
  -3146032.09047  -2446769.81444  24545549.4964   24545545.4984
 -22862120.30148 -17802844.63147  20747496.9024   20747493.3884
 10  3 18  1 37  0.0000000  0  9G30G21G16G24G31G 5G 2G12G29
 -19242754.99748 -14981361.56846  21674135.1064   21674132.5944
 -13584283.60747 -10577289.73545  22406054.6694   22406049.4424
  -9211235.89147  -7172462.56444  23431948.9604   23431944.6524
 -15267547.69345 -12073404.93342  21611924.7264   21611920.1104
 -23013329.50848 -17922633.39947  20875417.6014   20875413.1274
   -574511.35546   -447505.17643  25078730.4254   25078727.5954
   -290184.44746   -222211.60343  25076664.5364   25076658.3734
  -3060411.08546  -2380052.15144  24561841.4894   24561838.4684
 -22816465.43748 -17767269.40947  20756184.5364   20756180.8124
 10  3 18  1 37 30.0000000  0  8G30G21G16G24G31G 5G12G29
 -19170478.47548 -14925042.19345  21687889.2834   21687886.5184
 -13664290.04347 -10639632.43245  22390830.1464   22390824.7974
  -9294599.38147  -7237421.11844  23416085.9034   23416082.0104
  -9045307.99844  -7224906.48342  21596805.5004   21596801.1624
 -23015082.28548 -17923999.22147  20875083.9964   20875079.7864
   -613382.73146   -477794.54143  25071334.5814   25071332.0204
  -2974677.16147  -2313246.50944  24578156.7024   24578151.6904
 -22770507.13348 -17731457.74946  20764929.9684   20764926.5274
 10  3 18  1 38  0.0000000  0  8G30G21G16G24G31G 5G12G29
 -19097930.10548 -14868511.02245  21701694.3014   21701691.5554
 -13744011.04147 -10701752.67745  22375659.2304   22375654.8444
  -9377899.31647  -7302330.13844  23400234.6054   23400230.1154
  -9124339.50944                  21581767.8834
 -23016268.63148 -17924923.64947  20874858.7044   20874854.3324
   -651844.83646   -507765.00943  25064014.3464   25064011.6394
  -2888832.52947  -2246354.58044  24594493.6524   24594489.2424
 -22724249.45348 -17695412.81147  20773732.6864   20773729.4554
 10  3 18  1 38 30.0000000  0  7G30G21G16G31G 5G12G29
 -19025109.04248 -14811767.35145  21715551.8704   21715548.8434
 -13823443.21347 -10763647.85845  22360543.9434   22360539.0184
  -9461133.08847  -7367187.61844  23384395.8244   23384390.7264
 -23016886.77848 -17925405.31847  20874740.6644   20874736.7334
   -689894.40446   -537413.97843  25056774.0164   25056772.0644
  -2802876.48047  -2179375.84144  24610850.4494   24610846.2354
 -22677692.76548 -17659134.86247  20782591.8604   20782588.5314
 10  3 18  1 39  0.0000000  0  7G30G21G16G31G 5G12G29
 -18952016.77148 -14754812.33645  21729461.0994   21729458.0604
 -13902584.53047 -10825316.41945  22345484.3864   22345478.6324
  -9544300.41047  -7431993.32444  23368569.0364   23368564.3414
 -23016936.87748 -17925444.35747  20874730.8144   20874726.2534
   -727529.56346   -566740.08543  25049612.0874   25049610.5074
  -2716810.02947  -2112311.06444  24627227.2364   24627223.3414
 -22630839.42048 -17622625.76647  20791507.7574   20791504.6324
 10  3 18  1 39 30.0000000  0  8G30G21G16G24G31G 5G12G29
 -18878653.15248 -14697645.88445  21743421.7494   21743418.3474
 -13981432.56247 -10886756.45044  22330479.4344   22330475.2964
  -9627399.69647  -7496746.02044  23352756.4704   23352751.6174
    617726.62245                  21537120.7084
 -23016418.11548 -17925040.13247  20874830.0744   20874825.6824
   -764747.73246   -595741.22443  25042529.7904   25042528.6454
  -2630632.73147  -2045159.95543  24643626.4404   24643622.1774
 -22583690.07548 -17585886.01647  20800480.6714   20800476.5754
 10  3 18  1 40  0.0000000  0  8G30G21G16G24G31G 5G12G29
 -18805018.63248 -14640268.34245  21757434.0524   21757431.0224
 -14059985.29747 -10947966.35144  22315531.1554   22315527.5444
  -9710430.24247  -7561445.10644  23336956.2414   23336951.1394
    540360.79245                  21522400.0684
 -23015329.65848 -17924191.98747  20875036.9094   20875032.5444
   -801546.73946   -624415.75743  25035528.8554   25035524.9414
  -2544344.94547  -1977922.74143  24660046.7334   24660042.1894
 -22536246.21948 -17548916.77647  20809508.5224   20809504.9414
 10  3 18  1 40 30.0000000  0  8G30G21G16G24G31G 5G12G29
 -18731115.30748 -14582681.32746  21771497.1784   21771494.5774
 -14138241.83347 -11008945.45945  22300639.7034   22300636.2254
  -9793392.19847  -7626090.79444  23321169.2394   23321164.3864
    463416.51446  -6323353.92543  21507758.5614   21507754.9914
 -23013672.88848 -17922901.00247  20875352.0814   20875347.9674
   -837925.86647   -652763.10943  25028604.8354   25028600.8404
  -2457948.65247  -1910600.93644  24676486.8144   24676482.4374
 -22488511.17948 -17511720.63447  20818592.1294   20818588.1874
 10  3 18  1 41  0.0000000  0  8G30G21G16G24G31G 5G12G29
 -18656943.13847 -14524884.85645  21785611.8514   21785609.0704
 -14216199.78447 -11069691.89044  22285804.9054   22285800.5424
  -9876284.21447  -7690681.97244  23305395.1844   23305390.3614
    386896.70046  -6382979.67643  21493197.3064   21493195.8914
 -23011447.12248 -17921166.64347  20875775.5324   20875771.0724
   -873882.42246   -680781.18743  25021762.8704   25021758.0104
  -2371443.56647  -1843194.39644  24692948.1654   24692944.5634
 -22440486.09648 -17474298.49347  20827730.9014   20827727.1274
 10  3 18  1 41 30.0000000  0  8G30G21G16G24G31G 5G12G29
 -18582501.75848 -14466878.59845  21799777.4924   21799774.2784
 -14293855.24947 -11130202.64544  22271027.5014   22271022.2804
  -9959104.52247  -7755217.25744  23289634.2154   23289630.3624
    310805.20446  -6442271.79843  21478717.8324   21478714.8784
 -23008650.89348 -17918987.76947  20876308.0284   20876303.2154
   -909413.38446   -708467.60843  25015000.9114   25014996.7584
  -2284829.18747  -1775702.69343  24709430.5734   24709427.2304
 -22392171.41948 -17436650.69446  20836924.7074   20836921.3884
 10  3 18  1 42  0.0000000  0  8G30G21G16G24G31G 5G12G29
 -18507792.46048 -14408663.55845  21813994.2824   21813991.5814
 -14371207.25447 -11190476.92744  22256307.5904   22256303.2674
 -10041852.81247  -7819696.42544  23273887.9094   23273884.2074
    235143.88747  -6501228.68943  21464319.9104   21464317.6104
 -23005284.66448 -17916364.73047  20876948.4534   20876944.3564
   -944517.04646   -735821.11543  25008321.8164   25008318.7054
  -2198106.63746  -1708126.69744  24725933.4204   24725929.9644
 -22343569.45348 -17398779.03846  20846173.8514   20846169.7274
 10  3 18  1 42 30.0000000  0  8G30G21G16G24G31G 5G12G29
 -18432815.59848 -14350240.04446  21828262.0184   21828258.9984
 -14448253.90947 -11250513.26344  22241646.2764   22241642.1654
 -10124527.96347  -7884118.62744  23258156.1584   23258151.5754
    159915.13947  -6559848.47344  21450004.3064   21450002.6144
 -23001347.81648 -17913297.06047  20877697.2684   20877693.6094
   -979191.65046   -762840.22944  25001722.6824   25001721.1624
  -2111276.51247  -1640466.87543  24742456.3194   24742453.3224
 -22294681.82948 -17360684.78346  20855476.4634   20855472.6154
 10  3 18  1 43  0.0000000  0  8G30G21G16G24G31G 5G12G29
 -18357572.42647 -14291609.01145  21842580.0134   21842577.3744
 -14524993.15747 -11310310.08044  22227043.2004   22227038.7254
 -10207129.48547  -7948483.46044  23242437.5144   23242433.3274
     85121.02147  -6618129.61044  21435771.9784   21435769.4954
 -22996841.02148 -17909785.27847  20878555.0004   20878550.8314
  -1013435.72646   -789523.90844  24995206.8414   24995205.0694
  -2024339.01147  -1572723.36443  24759000.5944   24758995.5214
 -22245510.62648 -17322369.56947  20864833.7214   20864830.1034
 10  3 18  1 43 30.0000000  0  8G30G21G16G24G31G 5G12G29
 -18282063.03448 -14232770.54045  21856949.2114   21856946.0404
 -14601422.52947 -11369865.45444  22212499.9474   22212494.9074
 -10289655.92847  -8012789.78744  23226732.9144   23226729.3224
     10764.50247  -6676069.73744  21421621.6644   21421619.9874
 -22991763.25448 -17905828.58447  20879521.6484   20879517.4734
  -1047246.56246   -815870.01043  24988772.3154   24988770.1184
  -1937294.31346  -1504896.32343  24775564.4644   24775559.3644
 -22196056.66048 -17283834.00947  20874244.5914   20874240.6714
 10  3 18  1 44  0.0000000  0  8G30G21G16G24G31G 5G12G29
 -18206287.56247 -14173724.72045  21871368.9494   21871366.1624
 -14677539.95747 -11429177.73044  22198014.9464   22198009.8624
 -10372105.90047  -8077036.52044  23211043.2204   23211039.0824
    -63151.58047  -6733666.66445  21407556.4074   21407555.2454
 -22986114.18948 -17901426.71747  20880596.3324   20880592.6074
  -1080621.64946   -841876.53643  24982421.1534   24982417.6274
  -1850142.42946  -1436985.76343  24792148.0224   24792145.0304
 -22146321.23848 -17245079.14046  20883708.6644   20883705.4764
 10  3 18  1 44 30.0000000  0  8G30G21G16G24G31G 5G12G29
 -18130247.72347 -14114472.90845  21885838.6454   21885835.0714
 -14753343.08847 -11488245.10344  22183589.3404   22183585.0944
 -10454479.24047  -8141223.51144  23195368.6724   23195363.4694
   -136625.45147  -6790919.02445  21393574.3664   21393572.4564
 -22979894.16948 -17896579.94646  20881780.0284   20881776.0804
  -1113559.63146   -867542.48944  24976153.7904   24976149.7514
  -1762884.68747  -1368992.73143  24808753.2454   24808749.6054
 -22096307.18748 -17206107.15446  20893225.8964   20893222.7734
 10  3 18  1 45  0.0000000  0  8G30G21G16G24G31G 5G12G29
 -18053943.57248 -14055015.12245  21900358.6984   21900355.4964
 -14828829.91947 -11547065.98044  22169225.2084   22169220.2664
 -10536774.49647  -8205349.69344  23179708.0234   23179702.8714
   -209654.67147  -6847824.92245  21379677.6644   21379675.5744
 -22973102.87348 -17891288.04647  20883072.5674   20883068.3494
  -1146058.52746   -892866.28844  24969968.5614   24969965.8254
  -1675521.26747  -1300917.34243  24825377.9684   24825375.2794
 -22046015.24348 -17166918.62846  20902796.4074   20902793.2674
 10  3 18  1 45 30.0000000  0  8G30G21G16G24G31G 5G12G29
 -17977375.86247 -13995351.98145  21914929.3734   21914926.2154
 -14903998.73847 -11605639.09444  22154920.9704   22154915.9854
 -10618991.16547  -8269414.61444  23164062.1724   23164057.8284
   -282236.67947  -6904382.31645  21365865.6634   21365864.0334
 -22965740.33748 -17885551.00047  20884473.7024   20884468.9064
  -1178116.52446   -917846.52044  24963868.6524   24963865.9964
  -1588052.45146  -1232759.85244  24842023.6084   24842020.5334
 -21995447.21748 -17127514.96846  20912418.8974   20912415.7754
 10  3 18  1 46  0.0000000  0  8G30G21G16G24G31G 5G12G29
 -17900545.46447 -13935484.13245  21929549.3064   21929546.3644
 -14978847.39947 -11663962.70445  22140677.8884   22140672.8824
 -10701127.48647  -8333416.92944  23148432.6954   23148427.7874
   -354368.66247  -6960589.06045  21352139.5414   21352136.9784
 -22957806.22148 -17879368.57847  20885983.3784   20885979.3244
  -1209731.47346   -942481.53644  24957852.8614   24957850.1884
  -1500478.85446  -1164520.68243  24858687.4324   24858685.0234
 -21944604.44348 -17087897.22346  20922094.3284   20922090.8674
 10  3 18  1 46 30.0000000  0  8G30G21G16G24G31G 5G12G29
 -17823452.83947 -13875411.97645  21944219.5554   21944217.1474
 -15053373.71347 -11722035.17444  22126496.1714   22126490.6754
 -10783183.05847  -8397356.30344  23132817.3874   23132813.2504
   -426048.68047  -7016443.60645  21338499.1804   21338497.4474
 -22949300.60948 -17872740.83647  20887602.0254   20887597.3374
  -1240901.24946   -966769.61944  24951921.1474   24951918.3764
  -1412800.53946  -1096199.91143  24875371.5004   24875369.4414
 -21893488.99048 -17048067.00146  20931821.1294   20931817.9254
 10  3 18  1 47  0.0000000  0  8G30G21G16G24G31G 5G12G29
 -17746098.54847 -13815135.91445  21958939.2614   21958937.2274
 -15127575.87647 -11779855.03245  22112375.6194   22112370.4194
 -10865156.98747  -8461232.09045  23117218.4684   23117213.8204
   -497274.50447  -7071944.23145  21324945.3494   21324943.3774
 -22940223.81848 -17865668.02247  20889329.1124   20889324.9484
  -1271624.57847   -990709.86844  24946074.9944   24946072.0564
  -1325018.55446  -1027798.38543  24892075.9904   24892074.2364
 -21842102.63647 -17008025.68846  20941599.7004   20941596.1384
 10  3 18  1 47 30.0000000  0  8G30G21G16G24G31G 5G12G29
 -17668483.60347 -13754656.76145  21973709.4024   21973706.6824
 -15201451.88547 -11837420.77144  22098317.2674   22098311.3964
 -10947048.17747  -8525043.41345  23101635.6914   23101630.6624
   -568043.55648  -7127088.96345  21311478.2884   21311475.9244
 -22930575.83448 -17858150.12247  20891165.0664   20891160.4694
  -1301899.51546  -1014300.72043  24940314.6584   24940310.6514
  -1237133.24346   -959316.30143  24908800.3944   24908797.2694
 -21790446.76948 -16967774.36846  20951429.4774   20951425.8104
 10  3 18  1 48  0.0000000  0  8G30G21G16G24G31G 5G12G29
 -17590608.76047 -13693975.07545  21988528.2844   21988526.5954
 -15274999.85147 -11894730.86745  22084321.7954   22084316.6864
 -11028855.83647  -8588789.64644  23086067.9494   23086063.1704
   -638353.74547  -7181876.11945  21298098.7874   21298097.3194
 -22920356.66948 -17850187.13846  20893109.5744   20893105.4254
  -1331724.20846  -1037540.73043  24934638.3994   24934634.9854
  -1149145.03446   -890754.06543  24925545.3204   24925541.6594
 -21738523.11747 -16927314.38646  20961310.2454   20961306.7264
 10  3 18  1 48 30.0000000  0  8G30G21G16G24G31G 5G12G29
 -17512474.15647 -13633090.99845  22003396.7864   22003394.1514
 -15348217.54847 -11951783.61545  22070389.0884   22070383.6694
 -11110578.38747  -8652469.55044  23070515.9484   23070511.0794
   -708202.76248  -7236303.91145  21284807.2364   21284804.7354
 -22909566.05148 -17841778.86847  20895163.0724   20895158.9614
  -1361096.38346  -1060428.11443  24929048.7724   24929044.9144
  -1061054.22146   -822111.87843  24942306.9094   24942304.9794
 -21686333.26948 -16886646.98246  20971241.4364   20971238.2984
 10  3 18  1 49  0.0000000  0  8G30G21G16G24G31G 5G12G29
 -17434080.44547 -13572005.00045  22018315.1534   22018312.4214
 -15421102.69447 -12008577.20545  22056519.2184   22056514.3274
 -11192214.60147  -8716082.17144  23054981.8244   23054976.8364
   -777587.66948  -7290370.07546  21271603.4174   21271601.6444
 -22898203.80348 -17832925.17747  20897325.1984   20897321.0124
  -1390013.85346  -1082961.16743  24923546.4534   24923541.7274
   -972861.06746   -753389.92443  24959089.4124   24959086.9194
 -21633878.20748 -16845772.90846  20981223.6234   20981219.7464
 10  3 18  1 49 30.0000000  0  8G30G21G16G24G31G 5G12G29
 -17355428.76847 -13510717.99045  22033282.1134   22033278.9934
 -15493653.72047 -12065110.48145  22042713.1014   22042708.6214
 -11273763.88547  -8779627.05344  23039462.9104   23039458.7014
   -846506.60948  -7344073.12546  21258488.8094   21258487.2424
 -22886270.38148 -17823626.41147  20899595.9714   20899591.5374
  -1418475.53246  -1105139.10643  24918129.2484   24918125.2724
   -884566.26546   -684588.77143  24975891.6994   24975888.3874
 -21581159.81947 -16804693.64946  20991255.4884   20991252.0664
 10  3 18  1 50  0.0000000  0  8G30G21G16G24G31G 5G12G29
 -17276519.47947 -13449230.20945  22048297.5524   22048294.2834
 -15565868.51347 -12121381.74745  22028971.0374   22028966.6914
 -11355225.22547  -8843103.43045  23023961.3544   23023957.3364
   -914957.28048  -7397411.30146  21245462.9744   21245460.4774
 -22873765.91248 -17813882.67846  20901975.4894   20901970.8694
  -1446479.50546  -1126960.37543  24912800.8964   24912795.7354
   -796170.27946   -615708.75643  24992712.9504   24992710.2614
 -21528179.54147 -16763410.31546  21001337.0644   21001334.0754
 10  3 18  1 50 30.0000000  0  9G30G21G16G 6G24G31G 5G12G29
 -17197353.13547 -13387542.14845  22063361.8544   22063359.0374
 -15637744.78648 -12177389.20745  22015293.7564   22015289.3604
 -11436597.22047  -8906510.16844  23008477.0174   23008472.8554
                                  24935636.4544
   -982937.21147  -7450382.68746  21232526.8464   21232524.5974
 -22860690.04848 -17803693.69647  20904464.0444   20904459.7664
  -1474023.77346  -1148423.43143  24907559.1344   24907554.9084
   -707673.48546   -546750.24043  25009552.6654   25009549.4614
 -21474938.96547 -16721924.15046  21011468.3184   21011464.9694
 10  3 18  1 51  0.0000000  0  9G30G21G16G 6G24G31G 5G12G29
 -17117937.00547 -13325659.44945  22078474.6014   22078471.1274
 -15709287.54347 -12233136.80845  22001679.2634   22001674.2454
 -11517885.16147  -8969851.41345  22993008.7294   22993004.8034
   -518788.15246                  24918420.6004
  -1050450.67347  -7502990.56246  21219678.9504   21219677.1754
 -22847049.63648 -17793064.79447  20907059.4524   20907055.4714
  -1501113.07746  -1169531.96043  24902404.6354   24902401.7804
   -619082.55046   -477718.37443  25026411.1604   25026407.8144
 -21421446.25348 -16680241.51546  21021647.7094   21021644.6614
 10  3 18  1 51 30.0000000  0  9G30G21G16G 6G24G31G 5G12G29
 -17038260.46247 -13263573.83145  22093636.4464   22093633.5474
 -15780482.51848 -12288613.41345  21988131.7594   21988127.0914
 -11599076.57647  -9033117.43045  22977558.3094   22977554.4164
   -609157.02545                  24901222.5944
  -1117483.74547  -7555224.11546  21206923.6404   21206920.9324
 -22832833.40748 -17781987.24247  20909764.7774   20909761.1584
  -1527734.02846  -1190275.56343  24897339.0874   24897335.6694
   -530386.61746   -408604.66843  25043290.1444   25043286.0974
 -21367691.53847 -16638354.73446  21031877.1054   21031873.5814
 10  3 18  1 52  0.0000000  0  9G30G21G16G 6G24G31G 5G12G29
 -16958328.44647 -13201289.14745  22108847.0164   22108844.4844
 -15851333.01048 -12343821.58545  21974649.1664   21974644.7964
 -11680175.28047  -9096311.21145  22962125.7784   22962121.4364
   -699422.58645                  24884046.3184
  -1184039.02047  -7607085.36546  21194258.6264   21194256.1544
 -22818046.12848 -17770464.70247  20912578.9714   20912574.4124
  -1553889.74946  -1210656.62443  24892361.5984   24892357.4764
   -441591.12546   -339413.36943  25060186.6844   25060183.3474
 -21313681.19047 -16596268.74446  21042155.5174   21042151.3184
 10  3 18  1 52 30.0000000  0  9G30G21G16G 6G24G31G 5G12G29
 -16878142.35347 -13138806.47445  22124105.7664   22124103.2584
 -15921837.77148 -12398760.36246  21961232.6294   21961228.2564
 -11761180.42247  -9159432.08445  22946711.1554   22946706.2274
   -789584.62146                  24866888.9534
  -1250114.61847  -7658572.82346  21181684.8084   21181682.0064
 -22802688.35148 -17758497.58246  20915501.4274   20915496.4574
  -1579578.93546  -1230674.13643  24887472.3734   24887468.3694
   -352696.55246   -270144.85943  25077103.6504   25077099.3424
 -21259416.85047 -16553984.84946  21052481.2114   21052477.3154
 10  3 18  1 53  0.0000000  0  9G30G21G16G 6G24G31G 5G12G29
 -16797703.19347 -13076126.62645  22139413.7214   22139410.2964
 -15991993.95847 -12453427.50545  21947882.2014   21947878.1504
 -11842090.99947  -9222479.29344  22931314.6414   22931309.5944
   -879642.55146                  24849751.2454
  -1315708.62347  -7709685.03646  21169202.6584   21169199.7554
 -22786761.09948 -17746086.73246  20918532.0854   20918527.5954
  -1604800.16346  -1250326.99643  24882672.6394   24882669.2974
   -263703.94846   -200799.97843  25094038.7394   25094033.4934
 -21204900.25648 -16511504.38146  21062855.0444   21062851.0174
 10  3 18  1 53 30.0000000  0  9G30G21G16G 6G24G31G 5G12G29
 -16717012.41447 -13013250.69845  22154768.3894   22154765.1524
 -16061800.86548 -12507822.49545  21934598.1314   21934593.3444
 -11922906.82047  -9285452.67444  22915935.6684   22915930.8384
   -969596.63846                  24832634.0894
  -1380819.64047  -7760420.88046  21156812.0964   21156809.9534
 -22770265.09248 -17733232.71646  20921671.1314   20921667.1224
  -1629552.44446  -1269614.47943  24877962.5944   24877959.8224
   -174614.23746   -131379.39643  25110991.5634   25110987.0164
 -21150133.86048 -16468829.27546  21073276.9954   21073272.9914
 10  3 18  1 54  0.0000000  0  9G30G21G16G 6G24G31G 5G12G29
 -16636069.18648 -12950178.04545  22170171.9974   22170168.7064
 -16131256.04548 -12561943.41546  21921381.4264   21921376.9764
 -12003625.51247  -9348350.34544  22900574.8244   22900570.6774
  -1059444.93846                  24815536.3414
  -1445444.06347  -7810777.56046  21144514.6044   21144512.0264
 -22753198.96848 -17719934.45847  20924919.0614   20924915.0734
  -1653832.70446  -1288534.15443  24873342.0474   24873339.7884
    -85426.56546    -61882.55543  25127963.6824   25127959.6234
 -21095117.79548 -16425959.62446  21083746.1104   21083742.1934
 10  3 18  1 54 30.0000000  0  9G30G21G16G 6G24G31G 5G12G29
 -16554874.81648 -12886909.71145  22185622.2934   22185619.9044
 -16200357.58348 -12615788.75246  21908231.6524   21908227.2584
 -12084246.24847  -9411171.70445  22885233.5784   22885229.4494
  -1149187.31746                  24798458.8024
  -1509580.44547  -7860753.95246  21132309.8294   21132307.2104
 -22735563.67548 -17706192.67347  20928275.0464   20928270.5374
  -1677639.78746  -1307085.13943  24868811.8624   24868808.8034
      3857.96146      7689.77143  25144953.8034   25144948.6344
 -21039854.08847 -16382897.00146  21094262.3974   21094259.0824
 10  3 18  1 55  0.0000000  0  9G30G21G16G 6G24G31G 5G12G29
 -16473430.23148 -12823446.41045  22201120.7134   22201118.1594
 -16269103.55148 -12669357.05046  21895150.1104   21895145.5054
 -12164768.36847  -9473916.18145  22869910.3534   22869905.8904
  -1238823.40745                  24781401.9034
  -1573226.70647  -7910348.42346  21120198.4474   21120195.8644
 -22717359.82148 -17692007.85246  20931738.9154   20931734.7154
  -1700972.42446  -1325266.36343  24864372.3604   24864367.2724
     93238.43646     77336.89743  25161961.5364   25161955.8364
 -20984344.62447 -16339642.87646  21104825.7154   21104822.5914
 10  3 18  1 55 30.0000000  0  9G30G21G16G 6G24G31G 5G12G29
 -16391736.46547 -12759788.92745  22216665.9794   22216663.7484
 -16337492.48848 -12722647.12846  21882135.8834   21882131.7214
 -12245190.75247  -9536582.96145  22854606.4494   22854602.4024
  -1328352.72346                  24764364.3514
  -1636380.79347  -7959559.40146  21108180.5034   21108178.0444
 -22698587.71448 -17677380.24146  20935310.7324   20935306.5754
  -1723829.20646  -1343076.86243  24860022.5204   24860018.0174
    182714.41246    147058.46142  25178988.9944   25178982.9414
 -20928590.95848 -16296198.47346  21115435.0084   21115431.9234
 10  3 18  1 56  0.0000000  0  9G30G21G16G 6G24G31G 5G12G29
 -16309794.12347 -12695937.78145  22232259.2504   22232256.7594
 -16405522.49548 -12775657.49046  21869190.2764   21869186.3134
 -12325511.97947  -9599170.92845  22839321.9764   22839317.8734
  -1417774.70646                  24747348.4604
  -1699040.77747  -8008385.36246  21096256.9324   21096254.0064
 -22679247.98948 -17662310.34447  20938991.4894   20938987.1674
  -1746208.18746  -1360515.00943  24855763.9384   24855760.9294
    272285.33046    216853.98743  25196033.4454   25196028.2114
 -20872594.88648 -16252565.16446  21126090.7964   21126087.7504
 10  3 18  1 56 30.0000000  0  9G30G21G16G 6G24G31G 5G12G29
 -16227603.65247 -12631893.25545  22247899.5064   22247896.6774
 -16473191.25548 -12828386.41246  21856313.3424   21856308.8004
 -12405731.02347  -9661679.26345  22824056.8234   22824053.4604
  -1507088.58246  -1168656.54242  24730352.8794   24730347.9564
  -1761204.50547  -8056824.62746  21084427.2324   21084424.5664
 -22659340.91848 -17646798.33347  20942779.7234   20942775.7474
  -1768108.14346  -1377579.92643  24851597.0684   24851593.7494
    361950.95646    286723.28943  25213096.2274   25213091.0934
 -20816357.23047 -16208743.61346  21136792.4284   21136789.4644
 10  3 18  1 57  0.0000000  0  9G30G21G16G 6G24G31G 5G12G29
 -16145165.82247 -12567655.98445  22263586.5984   22263584.0764
 -16540497.44948 -12880832.79746  21843505.5654   21843500.8394
 -12485846.62947  -9724107.00145  22808811.7284   22808807.8314
  -1596294.05846  -1238167.30743  24713377.8544   24713373.8344
  -1822869.86347  -8104875.56846  21072692.8504   21072690.3954
 -22638866.94948 -17630844.59846  20946675.7064   20946671.2724
  -1789527.61546  -1394270.37344  24847520.3794   24847518.8274
    451710.58445    356665.81543  25230174.6924   25230171.3534
 -20759880.09948 -16164735.45646  21147539.7564   21147536.3174
 10  3 18  1 57 30.0000000  0  9G30G21G16G 6G24G31G 5G12G29
 -16062481.84247 -12503226.94445  22279320.7684   22279318.1034
 -16607439.23548 -12932995.22746  21830767.1534   21830762.4984
 -12565858.02847  -9786453.55245  22793586.0014   22793582.1324
  -1685390.52145  -1307593.06142  24696422.7624   24696417.7734
  -1884035.35548  -8152536.97146  21061053.3424   21061051.1694
 -22617826.59948 -17614449.53346  20950679.1844   20950675.0984
  -1810464.74646  -1410585.03244  24843537.2924   24843533.6944
    541563.35446    426680.94743  25247276.6264   25247270.9434
 -20703165.09148 -16120541.94946  21158332.0664   21158329.0044
 10  3 18  1 58  0.0000000  0  9G30G21G16G 6G24G31G 5G12G29
 -15979551.87247 -12438606.18545  22295102.1464   22295099.2384
 -16674014.31648 -12984871.90246  21818098.3764   21818093.6354
 -12645763.67547  -9848717.70145  22778380.4304   22778375.8444
  -1774376.90846  -1376933.09242  24679489.3694   24679483.1604
  -1944698.21348  -8199806.72146  21049509.8034   21049507.1514
 -22596219.44248 -17597612.79446  20954790.8624   20954787.0234
  -1830918.11246  -1426522.72244  24839644.5684   24839641.0494
    631509.53946    496768.92043  25264392.3764   25264385.9874
 -20646213.02048 -16076163.71446  21169170.3634   21169166.5814
 10  3 18  1 58 30.0000000  0  9G30G21G16G 6G24G31G 5G12G29
 -15896376.99247 -12373794.61745  22310930.5734   22310927.4404
 -16740221.06148 -13036461.58146  21805499.6914   21805494.5414
 -12725562.11947  -9910898.30745  22763195.5464   22763190.9184
  -1863252.82346  -1446187.04143  24662576.6764   24662571.4514
  -2004856.53848  -8246683.32946  21038062.2634   21038058.9324
 -22574047.23348 -17580335.75046  20959010.5364   20959006.0484
  -1850886.25946  -1442082.28244  24835845.2524   24835841.7704
    721548.45546    566929.09643  25281526.0174   25281520.3364
 -20589025.78848 -16031602.23046  21180052.3224   21180049.4464
 10  3 18  1 59  0.0000000  0  9G30G21G16G 6G24G31G 5G12G29
 -15812957.50747 -12308792.40845  22326804.5134   22326801.3944
 -16806057.03347 -13087762.31846  21792971.1434   21792967.0244
 -12805251.94747  -9972994.24545  22748030.5774   22748026.1384
  -1952017.25346  -1515354.13143  24645685.5724   24645682.1074
  -2064507.71548  -8293164.76946  21026710.7784   21026707.8354
 -22551309.51648 -17562618.06146  20963336.7194   20963332.9954
  -1870367.31647  -1457262.29844  24832137.9744   24832135.2194
    811679.86745    637161.36643  25298675.9564   25298672.1994
 -20531604.66948 -15986858.51946  21190979.2264   21190976.1024
 10  3 18  1 59 30.0000000  0  9G30G21G16G 6G24G31G 5G12G29
 -15729294.76447 -12243600.68645  22342724.5514   22342722.7814
 -16871521.41447 -13138773.51146  21780513.6264   21780509.5734
 -12884832.87347 -10035005.32345  22732886.4914   22732882.6704
  -2040670.74046  -1584434.73643  24628814.5914   24628812.5054
  -2123650.90748  -8339250.37146  21015455.9634   21015453.4664
 -22528007.50248 -17544460.65246  20967771.4704   20967767.0364
  -1889360.55646  -1472062.21644  24828523.4554   24828519.4604
    901902.46945    707464.65643  25315845.8514   25315841.9244
 -20473951.58648 -15941934.03746  21201950.3654   21201947.3704
 10  3 18  2  0  0.0000000  0  9G30G21G16G 6G24G31G 5G12G29
 -15645389.86247 -12178220.26245  22358692.0334   22358688.8254
 -16936612.45647 -13189493.77846  21768127.1674   21768122.6134
 -12964303.90547 -10096930.80445  22717763.9034   22717759.8684
  -2129212.35146  -1653428.18943  24611966.3694   24611963.8514
  -2182284.13148  -8384938.58646  21004298.6324   21004295.6554
 -22504141.91048 -17525864.10546  20972312.8634   20972308.9794
  -1907864.48846  -1486480.86744  24825001.7284   24824998.2854
    992215.49246    777838.42243  25333031.4224   25333026.6854
 -20416068.31648 -15896830.20046  21212965.4974   21212962.0394
 10  3 18  2  0 30.0000000  0  9G30G21G16G 6G24G31G 5G12G29
 -15561243.96147 -12112652.02945  22374703.9784   22374700.7094
 -17001328.82847 -13239922.11945  21755811.8404   21755807.3074
 -13043664.04147 -10158769.86745  22702662.8794   22702658.5364
  -2217642.14146  -1722334.54942  24595138.6814   24595135.6674
  -2240405.88348  -8430228.25546  20993238.3734   20993235.4294
 -22479713.93648 -17506829.31746  20976961.1344   20976957.2314
  -1925878.46046  -1500517.70243  24821573.5624   24821571.0394
   1082618.08345    848282.04743  25350234.0484   25350229.7884
 -20357956.77048 -15851548.48046  21224023.3934   21224020.1734
 10  3 18  2  1  0.0000000  0  8G30G21G16G 6G24G31G 5G29
 -15476856.36847 -12046895.45945  22390762.1554   22390758.6504
 -17065667.22247 -13290055.91946  21743568.6884   21743564.3464
 -13122910.30147 -10220520.20645  22687582.6314   22687578.5184
  -2305958.26346  -1791152.32143  24578333.0294   24578327.7804
  -2298012.56847  -8475116.57046  20982276.0404   20982273.4284
 -22454722.54348 -17487355.52246  20981716.9524   20981712.3804
  -1943399.68146  -1514170.61444  24818240.4764   24818236.9254
 -20299617.00248 -15806088.92746  21235124.9594   21235121.6494
 10  3 18  2  1 30.0000000  0  8G30G21G16G 6G24G31G 5G29
 -15392228.67547 -11980951.80945  22406866.3714   22406863.3994
 -17129627.21448 -13339894.85146  21731397.4054   21731393.1044
 -13202042.73547 -10282181.83345  22672523.7884   22672519.8254
  -2394160.75646  -1859881.56543  24561547.0404   24561543.5134
  -2355103.33448  -8519602.86346  20971412.1284   20971409.3424
 -22429169.00148 -17467443.67846  20986579.5164   20986575.5134
  -1960427.37846  -1527438.92544  24815000.0214   24814997.2684
 -20241051.24148 -15760453.28346  21246269.5174   21246266.5444
 10  3 18  2  2  0.0000000  0  8G30G21G16G 6G24G31G 5G29
 -15307361.28547 -11914821.39545  22423016.1984   22423013.0424
 -17193206.46748 -13389437.13246  21719298.8774   21719293.7784
 -13281059.72647 -10343753.49345  22657487.5454   22657482.9844
  -2482248.97146  -1928521.68943  24544785.3864   24544781.8534
  -2411676.12748  -8563685.54446  20960646.8774   20960644.0944
 -22403053.94248 -17447094.27346  20991549.1964   20991544.9574
  -1976959.84446  -1540321.30944  24811853.6954   24811850.7394
 -20182260.60548 -15714642.39846  21257456.6484   21257453.4884
 10  3 18  2  2 30.0000000  0  8G30G21G16G 6G24G31G 5G29
 -15222255.49747 -11848505.20645  22439211.2774   22439207.6154
 -17256403.40048 -13438681.51246  21707272.8944   21707267.8754
 -13359960.34347 -10405234.49645  22642473.7424   22642468.2144
  -2570222.49746  -1997072.42543  24528045.5534   24528041.6894
  -2467729.27547  -8607363.31746  20949980.3524   20949977.2494
 -22376378.53548 -17426308.25246  20996625.5254   20996621.5324
  -1992996.14647  -1552817.12343  24808802.0654   24808797.8414
 -20123247.08748 -15668657.84346  21268687.0254   21268683.8664
 10  3 18  2  3  0.0000000  0  8G30G21G16G 6G24G31G 5G29
 -15136912.23447 -11782003.95845  22455451.3604   22455447.8664
 -17319216.61148 -13487626.87946  21695320.1514   21695315.4674
 -13438743.31347 -10466623.81045  22627481.1284   22627476.5064
  -2658081.02346  -2065533.64243  24511325.9704   24511322.4664
  -2523260.93147  -8650634.72646  20939412.7614   20939410.0014
 -22349143.34048 -17405086.03546  21001807.9394   21001803.9744
  -2008535.32746  -1564925.60543  24805844.7884   24805840.3204
 -20064012.05047 -15622500.66346  21279958.7884   21279955.9464
 10  3 18  2  3 30.0000000  0  8G30G21G16G 6G24G31G 5G29
 -15051332.08647 -11715318.12745  22471736.8184   22471733.4454
 -17381643.99248 -13536271.58346  21683440.4094   21683435.9834
 -13517407.44547 -10527920.52345  22612512.1214   22612506.9844
  -2745823.92346  -2133904.68643  24494629.6484   24494627.1174
  -2578269.53448  -8693498.56346  20928944.9874   20928942.1444
 -22321348.83748 -17383427.98146  21007097.4054   21007092.7384
  -2023576.17446  -1576645.66443  24802982.9454   24802980.0044
 -20004557.12547 -15576172.15046  21291273.1904   21291269.6164
 10  3 18  2  4  0.0000000  0  8G30G21G16G 6G24G31G 5G29
 -14965515.25147 -11648447.89045  22488067.0214   22488063.7684
 -17443683.54448 -13584614.10546  21671634.9974   21671629.5504
 -13595951.37548 -10589123.57545  22597565.4414   22597560.2344
  -2833450.07746  -2202184.81643  24477954.5034   24477951.4404
  -2632752.77848  -8735953.04046  20918577.0684   20918574.7534
 -22292995.59648 -17361334.54346  21012492.6314   21012488.2734
  -2038116.78646  -1587975.97943  24800216.1254   24800213.9224
 -19944883.12147 -15529672.94246  21302628.8944   21302624.9554
 10  3 18  2  4 30.0000000  0  8G30G21G16G 6G24G31G 5G29
 -14879463.07347 -11581394.24945  22504442.2484   22504439.0694
 -17505334.00748 -13632653.42046  21659903.2784   21659899.1944
 -13674373.50948 -10650231.71645  22582642.2754   22582637.0894
  -2920959.64646  -2270374.04743  24461301.8794   24461297.6944
  -2686708.90048  -8777996.76246  20908309.9164   20908306.4454
 -22264084.79248 -17338806.66346  21017994.2044   21017989.7934
  -2052156.13347  -1598915.71243  24797544.3014   24797541.2274
 -19884991.87747 -15483004.45146  21314025.5334   21314021.9654
 10  3 18  2  5  0.0000000  0  8G30G21G16G 6G24G31G 5G29
 -14793176.57247 -11514158.03245  22520862.3414   22520858.1814
 -17566593.94848 -13680388.42246  21648245.5784   21648241.1954
 -13752673.00047 -10711244.29345  22567741.8924   22567737.5084
  -3008352.04946  -2338472.00543  24444671.4074   24444668.3004
  -2740136.64448  -8819628.78546  20898143.1174   20898139.8254
 -22234617.41947 -17315845.07646  21023601.7274   21023597.2064
  -2065693.32446  -1609464.15643  24794967.5384   24794964.5644
 -19824885.17348 -15436168.06446  21325463.7834   21325459.9874
 10  3 18  2  5 30.0000000  0  8G30G21G16G 6G24G31G 5G29
 -14706656.68147 -11446739.91445  22537326.4834   22537322.9754
 -17627462.30347 -13727818.30646  21636662.7934   21636657.8344
 -13830848.91847 -10772160.57845  22552865.3024   22552861.2894
  -3095626.98446  -2406478.40843  24428063.3834   24428059.9614
  -2793034.39648  -8860847.79846  20888076.5294   20888073.7184
 -22204594.26848 -17292450.43246  21029315.1714   21029310.1024
  -2078727.51146  -1619620.65343  24792488.4204   24792483.0754
 -19764564.67247 -15389165.08446  21336942.0474   21336938.0524
 10  3 18  2  6  0.0000000  0  8G30G21G16G 6G24G31G 5G29
 -14619904.13447 -11379140.52845  22553835.4794   22553831.6724
 -17687936.75547 -13774941.24646  21625154.8264   21625150.2084
 -13908899.74647 -10832979.40945  22538013.2134   22538009.3544
  -3182783.83346  -2474392.85543  24411477.6314   24411474.1524
  -2845400.44148  -8901652.51646  20878111.7924   20878108.7374
 -22174016.13747 -17268623.30946  21035133.9074   21035128.8094
  -2091257.33546  -1629384.13643  24790102.7884   24790099.1444
 -19704031.75447 -15341996.57246  21348460.9164   21348457.6764
 10  3 18  2  6 30.0000000  0  8G30G21G16G 6G24G31G 5G29
 -14532919.51147 -11311360.31345  22570387.6314   22570383.9314
 -17748015.45648 -13821755.80946  21613722.4354   21613717.2434
 -13986823.86247 -10893699.49245  22523185.7974   22523180.7924
  -3269821.91246  -2542214.70843  24394915.0454   24394911.2714
  -2897232.56948  -8942041.16946  20868248.4794   20868245.7804
 -22142883.66748 -17244364.23846  21041057.9254   21041053.5174
  -2103281.19247  -1638753.36644  24787815.1054   24787812.0644
 -19643287.40547 -15294663.32346  21360020.2364   21360016.8794
 10  3 18  2  7  0.0000000  0  8G30G21G16G 6G24G31G 5G29
 -14445703.93047 -11243400.13145  22586984.4564   22586980.7294
 -17807697.94848 -13868261.64346  21602365.2194   21602360.2764
 -14064620.25447 -10954320.05445  22508381.5134   22508376.0444
  -3356740.81746  -2609943.70343  24378375.4484   24378371.6804
  -2948529.27848  -8982012.62446  20858487.0434   20858484.2544
 -22111197.96548 -17219674.09946  21047087.9324   21047083.1894
  -2114798.41446  -1647727.81343  24785623.2984   24785621.4454
 -19582333.27747 -15247166.61246  21371619.3764   21371616.3784
 10  3 18  2  7 30.0000000  0  8G30G21G16G 6G24G31G 5G29
 -14358257.93847 -11175260.40845  22603624.6844   22603621.8994
 -17866980.68448 -13914455.98346  21591084.0414   21591079.2074
 -14142287.45448 -11014839.93445  22493601.3394   22493595.9444
  -3443539.59446  -2677579.09443  24361857.8864   24361854.1744
  -2999288.56748  -9021565.31246  20848827.8124   20848825.0354
 -22078959.46047 -17194553.19546  21053222.5454   21053218.0904
  -2125807.43146  -1656306.24543  24783528.4404   24783524.7904
 -19521170.37547 -15199507.21146  21383258.5154   21383254.7714
 10  3 18  2  8  0.0000000  0  8G30G21G16G 6G24G31G 5G29
 -14270583.13147 -11106942.37945  22620308.6404   22620305.4484
 -17925863.23447 -13960338.47046  21579878.7594   21579873.8564
 -14219824.48048 -11075258.36845  22478846.4324   22478841.3134
  -3530218.42646  -2745121.02443  24345363.9124   24345361.3294
  -3049509.59048  -9060698.54446  20839270.9784   20839268.4234
 -22046169.92947 -17169002.91946  21059461.9654   21059457.3124
  -2136307.70746  -1664488.26243  24781529.8974   24781526.9544
 -19459800.87348 -15151686.82146  21394936.4524   21394933.3074
 10  3 18  2  8 30.0000000  0  8G30G21G16G 6G24G31G 5G29
 -14182680.08147 -11038446.51545  22637035.9234   22637033.2994
 -17984344.44048 -14005908.24646  21568750.3204   21568745.6204
 -14297229.95947 -11135574.31545  22464116.8684   22464112.1914
  -3616776.75046  -2812569.05643  24328892.5354   24328889.1134
  -3099190.65748  -9099411.06246  20829817.4064   20829813.8904
 -22012830.10447 -17143023.83446  21065806.4654   21065801.4894
  -2146298.04947  -1672272.93243  24779628.7434   24779625.2374
 -19398226.21048 -15103706.56946  21406654.2034   21406650.4574
 10  3 18  2  9  0.0000000  0  8G30G21G16G 6G24G31G 5G29
 -14094549.27847 -10969773.17545  22653807.0604   22653803.2344
 -18042422.21348 -14051163.63146  21557698.7884   21557694.4604
 -14374502.34547 -11195786.57445  22449412.5124   22449407.6504
  -3703213.85746  -2879922.64843  24312444.1294   24312440.5084
  -3148329.97648  -9137701.42746  20820466.5344   20820462.8664
 -21978940.70848 -17116616.50746  21072255.4064   21072250.8614
  -2155777.28146  -1679659.34743  24777825.2994   24777821.6604
 -19336447.17348 -15055567.07446  21418410.2144   21418406.4874
 10  3 18  2  9 30.0000000  0  8G30G21G16G 6G24G31G 5G29
 -14006191.91947 -10900923.29845  22670620.6334   22670617.8984
 -18100095.37048 -14096103.75446  21546723.7654   21546718.6654
 -14451640.76947 -11255894.42245  22434733.4634   22434729.1114
  -3789529.70146  -2947181.73043  24296017.8334   24296014.8144
  -3196926.30248  -9175568.70546  20811218.5334   20811215.6524
 -21944503.01048 -17089781.96346  21078808.7714   21078804.8244
  -2164744.97246  -1686647.12843  24776119.2024   24776115.8814
 -19274465.82347 -15007269.93046  21430205.1634   21430200.9094
 10  3 18  2 10  0.0000000  0  8G30G21G16G 6G24G31G 5G29
 -13917608.32047 -10831897.13445  22687477.2714   22687474.6754
 -18157361.54548 -14140726.74546  21535826.5274   21535821.6444
 -14528642.91047 -11315896.08545  22420079.7954   22420075.6264
  -3875723.11346  -3014345.40443  24279615.7114   24279612.4494
  -3244977.62548  -9213011.29646  20802074.8134   20802071.8684
 -21909517.68148 -17062520.66746  21085465.7754   21085461.4654
  -2173199.27047  -1693234.89444  24774510.2984   24774506.2764
 -19212283.06048 -14958815.83446  21442037.8874   21442034.0494
 10  3 18  2 10 30.0000000  0  8G30G21G16G 6G24G31G 5G29
 -13828800.29747 -10762696.08545  22704377.4854   22704373.9424
 -18214220.61147 -14185032.50346  21525006.2544   21525001.9064
 -14605508.72847 -11375791.51945  22405453.0074   22405448.2114
  -3961794.38846  -3081413.92743  24263237.1614   24263234.4304
  -3292483.11948  -9250028.55146  20793034.4414   20793032.3084
 -21873986.56348 -17034834.09446  21092227.5264   21092223.1864
  -2181140.29546  -1699422.69243  24772999.3624   24772994.2614
 -19149901.25048 -14910206.63246  21453908.4684   21453904.8214
 10  3 18  2 11  0.0000000  0  8G30G21G16G 6G24G31G 5G29
 -13739767.90847 -10693320.17245  22721319.1774   22721315.9104
 -18270670.09547 -14229019.10046  21514264.4074   21514260.3194
 -14682236.26047 -11435579.19245  22390851.9484   22390847.4304
  -4047742.60546  -3148386.52943  24246881.2824   24246879.1314
  -3339440.44248  -9286618.66246  20784099.3134   20784096.7454
 -21837909.93348 -17006722.44646  21099092.3634   21099088.2844
  -2188566.39747  -1705209.28643  24771585.7034   24771580.6814
 -19087320.65047 -14861442.53346  21465817.2474   21465813.5334
 10  3 18  2 11 30.0000000  0  8G30G21G16G 6G24G31G 5G29
 -13650512.30847 -10623770.36344  22738304.1914   22738300.6724
 -18326708.78948 -14272685.59946  21503600.4464   21503595.9614
 -14758823.87447 -11495257.85745  22376278.4064   22376273.5364
  -4133567.12746  -3215262.76444  24230550.2544   24230547.0124
  -3385848.28548  -9322780.60446  20775267.6204   20775265.2464
 -21801288.94648 -16978186.59846  21106061.5904   21106056.5894
  -2195476.54246  -1710593.77843  24770270.4624   24770267.7894
 -19024542.77648 -14812524.70646  21477763.9624   21477759.6624
 10  3 18  2 12  0.0000000  0  8G30G21G16G 6G24G31G 5G29
 -13561034.33847 -10554047.27945  22755331.4664   22755327.0984
 -18382334.50048 -14316030.29446  21493015.5824   21493010.6694
 -14835270.22047 -11554826.44645  22361731.2554   22361726.9504
  -4219267.45546  -3282042.24643  24214241.7774   24214238.6314
  -3431705.17448  -9358513.25346  20766541.7394   20766538.5384
 -21764124.58648 -16949227.36046  21113133.1384   21113129.4654
  -2201870.05847  -1715575.68043  24769054.8334   24769050.8804
 -18961568.99347 -14763454.23346  21489747.2234   21489743.3044
 10  3 18  2 12 30.0000000  0  8G30G21G16G 6G24G31G 5G29
 -13471335.35347 -10484151.99645  22772400.9354   22772397.2644
 -18437547.23548 -14359053.20546  21482508.8074   21482503.9404
 -14911575.09047 -11614284.76545  22347210.6314   22347207.1734
  -4304843.87446  -3348725.15543  24197957.4784   24197953.1694
  -3477010.49548  -9393816.09546  20757920.1844   20757917.3614
 -21726418.90948 -16919846.33346  21120308.3444   21120304.0224
  -2207746.54446  -1720154.78343  24767935.7924   24767933.0864
 -18898401.69248 -14714232.97546  21501767.8264   21501763.2994
 10  3 18  2 13  0.0000000  0  8G30G21G16G 6G24G31G 5G29
 -13381416.08447 -10414085.03445  22789511.6664   22789508.5154
 -18492344.47448 -14401752.35046  21472081.3384   21472076.0024
 -14987735.71647 -11673630.70645  22332717.7424   22332713.9414
  -4390295.50146  -3415310.81543  24181695.8144   24181693.0574
  -3521762.02648  -9428687.41746  20749404.1124   20749401.0954
 -21688172.38148 -16890043.84546  21127586.7114   21127582.5714
  -2213104.47946  -1724329.78343  24766916.8134   24766913.3164
 -18835041.38348 -14664861.31546  21513824.5544   21513820.5994
 10  3 18  2 13 30.0000000  0  8G30G21G16G 6G24G31G 5G29
 -13291277.30347 -10343847.02045  22806664.8684   22806661.7004
 -18546724.69048 -14444126.53746  21461732.7384   21461728.7454
 -15063751.13947 -11732863.50245  22318252.4694   22318247.5224
  -4475621.69946  -3481798.72843  24165459.0444   24165456.6684
  -3565958.57248  -9463126.26846  20740993.7804   20740991.5034
 -21649386.24748 -16859820.89946  21134967.7914   21134962.9584
  -2217943.43346  -1728100.36443  24765996.2824   24765990.5104
 -18771489.61548 -14615340.46346  21525918.3284   21525914.4904
 10  3 18  2 14  0.0000000  0  8G30G21G16G 6G24G31G 5G29
 -13200919.92847 -10273438.69345  22823859.4624   22823856.0304
 -18600686.90848 -14486175.01646  21451464.4054   21451459.5194
 -15139619.90447 -11791982.01345  22303814.7084   22303809.4324
  -4560822.16646  -3548188.75743  24149246.2134   24149241.9784
  -3609598.78948  -9497131.62746  20732689.6104   20732686.7354
 -21610061.54148 -16829178.26546  21142450.9054   21142446.9364
  -2222262.31646  -1731465.69943  24765173.4864   24765168.8494
 -18707747.92748 -14565671.62746  21538047.9874   21538044.2064
 10  3 18  2 14 30.0000000  0  8G30G21G16G 6G24G31G 5G29
 -13110344.87947 -10202860.75545  22841095.0674   22841092.0754
 -18654229.72548 -14527896.69346  21441275.5904   21441270.8334
 -15215341.06347 -11850985.49945  22289405.7964   22289401.1554
  -4645896.57646  -3614480.41843  24133056.8784   24133053.7304
  -3652681.49548  -9530702.56546  20724491.1814   20724488.1664
 -21570200.09548 -16798117.40946  21150036.3974   21150031.1634
  -2226060.45347  -1734425.30043  24764450.7814   24764447.2474
 -18643817.62948 -14515855.82046  21550213.4534   21550209.4934
 10  3 18  2 15  0.0000000  0  8G30G21G16G 6G24G31G 5G29
 -13019552.77047 -10132113.69044  22858371.4524   22858368.6594
 -18707351.37348 -14569290.18746  21431166.6604   21431162.0674
 -15290912.68547 -11909872.46345  22275024.9974   22275020.3414
  -4730844.03246  -3680673.22643  24116891.4624   24116889.7804
  -3695204.81248  -9563837.60746  20716399.0164   20716396.0794
 -21529802.38047 -16766638.66846  21157723.6164   21157719.4054
  -2229337.13646  -1736978.57144  24763826.9684   24763824.5414
 -18579699.47348 -14465893.62846  21562414.7314   21562410.9704
 10  3 18  2 15 30.0000000  0  8G30G21G16G 6G24G31G 5G29
 -12928545.41447 -10061198.88045  22875689.5284   22875686.3334
 -18760051.31648 -14610355.06046  21421138.1964   21421133.2764
 -15366334.09547 -11968642.40045  22260672.5594   22260668.1914
  -4815664.70646  -3746767.22943  24100751.1074   24100748.0334
  -3737168.22948  -9596536.36646  20708413.7784   20708411.1814
 -21488870.47647 -16734743.69646  21165513.0324   21165508.9194
  -2232092.10246  -1739125.24843  24763303.3234   24763300.0114
 -18515395.94948 -14415786.98746  21574651.4234   21574647.6934
 10  3 18  2 16  0.0000000  0  8G30G21G16G 6G24G31G 5G29
 -12837323.38847  -9990116.78845  22893049.5204   22893046.0814
 -18812327.80748 -14651089.97746  21411190.7064   21411185.6744
 -15441603.18447 -12027293.63145  22246349.5894   22246344.8514
  -4900358.06546  -3812762.06943  24084634.4234   24084629.5644
  -3778570.26148  -9628797.68846  20700535.3304   20700532.5324
 -21447405.19147 -16702433.07646  21173402.8354   21173398.2924
  -2234324.03047  -1740864.42143  24762878.7744   24762875.4664
 -18450907.85348 -14365536.53046  21586922.8304   21586919.3584
 10  3 18  2 16 30.0000000  0  8G30G21G16G 6G24G31G 5G29
 -12745887.34747  -9918867.92544  22910448.9864   22910445.7214
 -18864179.44448 -14691493.85546  21401323.0904   21401318.7584
 -15516718.87447 -12085825.33645  22232055.4204   22232050.7034
  -4984923.78146  -3878657.40643  24068541.8234   24068537.9654
  -3819409.69548  -9660620.61746  20692763.7944   20692760.9264
 -21405408.17648 -16669708.14446  21181395.5254   21181391.0664
  -2236032.77146  -1742195.88444  24762553.4184   24762549.3134
 -18386236.54348 -14315143.31746  21599229.2074   21599225.4174
 10  3 18  2 17  0.0000000  0  8G30G21G16G 6G24G31G 5G29
 -12654238.63347  -9847453.33045  22927889.0224   22927884.5854
 -18915604.89548 -14731565.63146  21391537.1054   21391532.6354
 -15591679.82647 -12144236.45845  22217790.8644   22217786.4694
  -5069361.15346  -3944452.79943  24052474.0704   24052470.2024
  -3859685.20248  -9692004.13046  20685099.6064   20685096.7264
 -21362880.31948 -16636569.56746  21189487.8804   21189483.8314
  -2237217.42046  -1743118.95944  24762327.7494   24762323.9624
 -18321383.59548 -14264608.55746  21611570.8514   21611566.7684
 10  3 18  2 17 30.0000000  0  8G30G21G16G 6G24G31G 5G29
 -12562378.05947  -9775873.66744  22945369.7664   22945365.1494
 -18966602.88748 -14771304.33046  21381832.6444   21381828.0384
 -15666484.44047 -12202525.75445  22203556.0974   22203551.7814
  -5153670.10946  -4010148.06743  24036430.7604   24036427.8474
  -3899395.62848  -9722947.30946  20677542.7034   20677540.1944
 -21319823.55748 -16603018.84346  21197681.3064   21197676.5474
  -2237877.30646  -1743633.12243  24762203.0534   24762198.0504
 -18256350.04048 -14213933.07246  21623946.2574   21623942.1744
 10  3 18  2 18  0.0000000  0  8G30G21G16G 6G24G31G 5G29
 -12470305.98747  -9704129.17544  22962890.1104   22962886.8674
 -19017171.79348 -14810708.66146  21372209.9124   21372205.6814
 -15741131.05447 -12260691.95245  22189351.3974   22189347.1694
  -5237849.37746  -4075742.22543  24020411.0824   24020408.9944
  -3938539.18548  -9753448.77946  20670093.9844   20670091.3364
 -21276238.67748 -16569056.60946  21205975.4194   21205970.6524
  -2238011.36946  -1743737.56843  24762177.3624   24762172.2884
 -18191136.78648 -14163117.55946  21636355.9654   21636352.1404
 10  3 18  2 18 30.0000000  0  8G30G21G16G 6G24G31G 5G29
 -12378023.49147  -9632220.76744  22980450.6304   22980447.6314
 -19067310.34348 -14849777.65346  21362668.9354   21362664.3264
 -15815617.95447 -12318733.69845  22175177.0024   22175171.9684
  -5321898.88846  -4141235.37843  24004418.1154   24004414.0634
  -3977114.69648  -9783507.61346  20662753.3384   20662751.1804
 -21232126.95748 -16534683.82946  21214369.6854   21214365.2124
  -2237619.41446  -1743432.13243  24762251.3394   24762247.4444
 -18125745.27448 -14112163.15746  21648799.4804   21648796.2154
 10  3 18  2 19  0.0000000  0  8G30G21G16G 6G24G31G 5G29
 -12285532.05247  -9560149.54244  22998051.5904   22998047.4244
 -19117017.58448 -14888510.56746  21353209.7144   21353205.6424
 -15889944.38447 -12376650.39045  22161032.9484   22161027.7164
  -5405818.72346  -4206627.44143  23988448.2304   23988444.2224
  -4015121.83148  -9813123.54946  20655520.9454   20655518.1954
 -21187490.38548 -16499902.10046  21222863.3164   21222859.3094
  -2236700.87946  -1742716.36443  24762426.0624   24762423.2394
 -18060177.37648 -14061071.29046  21661276.2124   21661273.1414
 10  3 18  2 19 30.0000000  0  8G30G21G16G 6G24G31G 5G29
 -12192833.31647  -9487916.76745  23015691.4084   23015688.8184
 -19166293.08548 -14926907.04846  21343832.9534   21343828.7964
 -15964109.64647 -12434441.48545  22146919.5474   22146914.7464
  -5489609.13646  -4271918.67343  23972504.2014   23972501.0624
  -4052560.20648  -9842296.30546  20648396.6884   20648394.7434
 -21142331.11248 -16464713.06346  21231457.0484   21231452.2514
  -2235256.11646  -1741590.55843  24762700.9534   24762698.1244
 -17994435.34848 -14009843.74046  21673786.6794   21673783.7144
 10  3 18  2 20  0.0000000  0  8G30G21G16G 6G24G31G 5G29
 -12099927.18147  -9415522.40344  23033371.1234   23033368.1524
 -19215134.51448 -14964965.30946  21334538.9814   21334534.4074
 -16038111.02847 -12492104.88945  22132837.3424   22132832.8624
  -5573268.52846  -4337107.81143  23956584.2044   23956581.9924
  -4089427.47448  -9871024.03346  20641381.1754   20641378.3794
 -21096649.50948 -16429117.00546  21240149.6464   21240146.0784
  -2233283.56746  -1740053.49343  24763075.9704   24763072.5364
 -17928518.88948 -13958480.26546  21686329.7484   21686327.5614
 10  3 18  2 20 30.0000000  0  8G30G21G16G 6G24G31G 5G29
 -12006814.53047  -9342967.09844  23051089.4784   23051086.2694
 -19263540.62748 -15002684.36146  21325327.0904   21325322.3054
 -16111947.43147 -12549639.74845  22118787.1794   22118782.5954
  -5656796.57846  -4402194.56843  23940688.7374   23940685.2444
  -4125722.57048  -9899305.91046  20634474.3834   20634471.6394
 -21050447.01948 -16393115.09046  21248942.3384   21248937.5194
  -2230782.80246  -1738104.83143  24763551.9784   24763547.8484
 -17862429.39648 -13906981.96746  21698906.6624   21698903.5524
 10  3 18  2 21  0.0000000  0  8G30G21G16G 6G24G31G 5G29
 -11913496.75147  -9270251.97244  23068848.2934   23068844.6264
 -19311510.45848 -15040063.45446  21316198.8274   21316193.8444
 -16185616.89147 -12607044.52345  22104768.7154   22104763.4484
  -5740193.12346  -4467178.87143  23924819.0684   23924814.5834
  -4161444.51648  -9927141.20046  20627676.8374   20627673.5784
 -21003725.16948 -16356708.44946  21257832.5594   21257828.4234
  -2227753.33346  -1735744.18344  24764128.7264   24764124.8984
 -17796168.61348 -13855350.19946  21711515.7314   21711512.0454
 10  3 18  2 21 30.0000000  0  8G30G21G16G 6G24G31G 5G29
 -11819975.25747  -9197378.08045  23086644.2574   23086640.3584
 -19359043.24748 -15077101.98046  21307154.1704   21307148.9904
 -16259118.86947 -12664318.79345  22090781.4134   22090776.2574
  -5823458.08746  -4532060.66943  23908974.6814   23908969.8754
  -4196593.02948  -9954529.64446  20620987.6544   20620985.4864
 -20956485.87448 -16319898.62846  21266822.0184   21266817.9044
  -2224195.45947  -1732971.79644  24764805.8824   24764802.4734
 -17729738.33548 -13803586.36346  21724156.6644   21724153.0094
 10  3 18  2 22  0.0000000  0  8G30G21G16G 6G24G31G 5G29
 -11726250.14247  -9124345.51544  23104478.9364   23104475.6584
 -19406136.88948 -15113798.30846  21298192.1294   21298187.5844
 -16332451.11547 -12721460.78545  22076826.5674   22076821.7444
  -5906590.60146  -4596839.22444  23893154.2954   23893151.5154
  -4231166.40048  -9981469.93146  20614409.0474   20614405.9814
 -20908730.38648 -16282686.57146  21275909.6454   21275905.2614
  -2220107.77446  -1729786.55944  24765583.6984   24765580.3414
 -17663138.66648 -13751690.52446  21736830.6984   21736826.2004
 10  3 18  2 22 30.0000000  0  8G30G21G16G 6G24G31G 5G29
 -11632322.62347  -9051155.24044  23122353.3214   23122349.5664
 -19452790.85448 -15150152.03746  21289314.3954   21289309.7094
 -16405612.18447 -12778469.40545  22062904.8144   22062900.4924
  -5989590.04146  -4661514.11343  23877360.9514   23877357.5374
  -4265163.62148 -10007961.26646  20607939.7994   20607936.6754
 -20860460.17447 -16245073.41746  21285095.4594   21285090.4754
  -2215489.93546  -1726188.26543  24766461.8814   24766458.5734
 -17596371.23848 -13699663.96346  21749535.7234   21749531.4864
 10  3 18  2 23  0.0000000  0  8G30G21G16G 6G24G31G 5G29
 -11538194.40947  -8977808.60144  23140265.0504   23140262.0194
 -19499004.06948 -15186162.33046  21280520.0654   21280515.7654
 -16478601.12047 -12835343.90546  22049015.4444   22049011.4754
  -6072456.77346  -4726085.59443  23861591.4244   23861588.3684
  -4298584.14148 -10034003.22346  20601579.9394   20601577.1924
 -20811677.36347 -16207060.84446  21294378.4504   21294373.9114
  -2210342.09246  -1722176.91443  24767442.3274   24767437.8014
 -17529437.76848 -13647508.02646  21762273.0074   21762268.8694
 10  3 18  2 23 30.0000000  0  8G30G21G16G 6G24G31G 5G29
 -11443866.29547  -8904306.19944  23158214.9544   23158211.6974
 -19544775.32148 -15221828.23546  21271810.1254   21271805.5844
 -16551416.14247 -12892082.86945  22035158.8734   22035154.7914
  -6155190.20746  -4790553.19944  23845847.6414   23845845.2304
  -4331427.21048 -10059595.21446  20595329.8324   20595327.7484
 -20762383.53947 -16168650.07346  21303758.6044   21303754.2924
  -2204663.79046  -1717752.28843  24768522.9994   24768518.7074
 -17462339.68348 -13595223.81446  21775041.4454   21775036.8734
 10  3 18  2 24  0.0000000  0  8G30G21G16G 6G24G31G 5G29
 -11349338.57047  -8830648.22944  23176203.1104   23176199.2734
 -19590103.02548 -15257148.51746  21263184.9544   21263180.0164
 -16624055.49847 -12948684.95645  22021336.3794   22021331.6934
  -6237789.66446  -4854916.38544  23830130.0874   23830127.2134
  -4363691.21948 -10084735.98446  20589190.1934   20589187.8494
 -20712579.58048 -16129841.80946  21313235.9714   21313231.2034
  -2198454.50946  -1712913.87544  24769704.3674   24769700.4094
 -17395077.49848 -13542811.72146  21787840.7594   21787836.7544
 10  3 18  2 24 30.0000000  0  8G30G21G16G 6G24G31G 5G29
 -11254612.94647  -8756836.04544  23194228.5284   23194225.1644
 -19634986.28148 -15292122.47946  21254643.4904   21254638.7144
 -16696517.89247 -13005149.15045  22007547.2914   22007541.5904
  -6320254.83547  -4919174.94044  23814436.7374   23814435.4254
  -4395375.88648 -10109425.33246  20583160.9874   20583157.9124
 -20662267.49548 -16090637.58346  21322810.1494   21322805.3534
  -2191714.09746  -1707661.59143  24770987.2674   24770984.1014
 -17327652.74348 -13490272.95846  21800671.4134   21800667.3444
 10  3 18  2 25  0.0000000  0  8G30G21G16G 6G24G31G 5G29
 -11159689.85947  -8682870.01344  23212291.9934   23212288.9864
 -19679424.07448 -15326749.33146  21246187.3844   21246182.9314
 -16768801.44047 -13061473.99745  21993792.3284   21993787.1394
  -6402585.30846  -4983328.54543  23798769.9314   23798767.7124
  -4426479.78848 -10133662.14246  20577242.3204   20577239.4924
 -20611448.60248 -16051038.46746  21332480.8234   21332476.2584
  -2184442.03846  -1701995.01143  24772370.3534   24772366.9194
 -17260066.32148 -13437608.22346  21813533.0034   21813528.5544
 10  3 18  2 25 30.0000000  0  8G30G21G16G 6G24G31G 5G29
 -11064570.72947  -8608751.21544  23230393.1124   23230389.4014
 -19723415.64448 -15361028.47546  21237816.2594   21237811.2954
 -16840905.35247 -13117658.85046  21980071.2104   21980066.8504
  -6484781.08246  -5047377.20043  23783128.9214   23783123.5594
  -4457002.72548 -10157446.23446  20571433.5084   20571431.3414
 -20560125.30248 -16011046.27246  21342247.4614   21342242.4834
  -2176638.49446  -1695914.34244  24773856.2294   24773850.4594
 -17192320.04148 -13384818.92446  21826424.5314   21826419.8654
 10  3 18  2 26  0.0000000  0  8G30G21G16G 6G24G31G 5G29
 -10969256.99647  -8534480.77144  23248530.9054   23248527.3764
 -19766960.18848 -15394959.29346  21229529.8124   21229525.3724
 -16912827.85947 -13173702.35846  21966384.6664   21966380.5204
  -6566841.95746  -5111320.77143  23767512.2864   23767508.3284
  -4486944.14748 -10180777.19946  20565735.7704   20565733.7714
 -20508299.41448 -15970662.48846  21352109.5334   21352105.3004
  -2168303.37847  -1689419.44944  24775442.3394   24775437.9474
 -17124415.66648 -13331906.42546  21839346.2254   21839342.2404
 10  3 18  2 26 30.0000000  0  8G30G21G16G 6G24G31G 5G29
 -10873749.06647  -8460059.01444  23266704.4324   23266701.8464
 -19810056.04048 -15428540.46746  21221329.0914   21221324.1124
 -16984566.93847 -13229602.94045  21952733.0924   21952728.7774
  -6648767.03946  -5175158.46444  23751923.2794   23751919.8334
  -4516302.54848 -10203653.86347  20560149.3764   20560147.2614
 -20455971.96948 -15929887.84846  21362066.6584   21362062.1824
  -2159435.83746  -1682509.65643  24777129.2894   24777124.9274
 -17056353.44748 -13278870.93446  21852297.6244   21852293.9444
 10  3 18  2 27  0.0000000  0  8G30G21G16G 6G24G31G 5G29
 -10778048.06147  -8385486.84444  23284916.3274   23284913.3704
 -19852702.20248 -15461771.23946  21213213.7384   21213208.8954
 -17056121.44347 -13285359.69445  21939116.7184   21939112.1774
  -6730555.97947  -5238890.08544  23736358.7994   23736355.7974
  -4545077.29948 -10226075.74746  20554673.9774   20554671.0934
 -20403144.71248 -15888723.75146  21372119.6144   21372114.4014
  -2150035.84146  -1675184.98644  24778917.5034   24778913.4374
 -16988134.93448 -13225713.66546  21865279.3874   21865275.6054
 10  3 18  2 27 30.0000000  0  8G30G21G16G 6G24G31G 5G29
 -10682155.49547  -8310765.36844  23303164.3304   23303161.2604
 -19894897.58848 -15494650.75346  21205184.3664   21205179.6434
 -17127489.91447 -13340971.48645  21925535.8614   21925530.8954
  -6812208.74647  -5302515.61644  23720821.0344   23720817.5004
  -4573268.00948 -10248042.54446  20549309.2694   20549306.6084
 -20349819.78148 -15847171.86046  21382266.9014   21382262.7644
  -2140103.50246  -1667445.45843  24780808.4064   24780803.6844
 -16919761.11148 -13172435.36346  21878290.1684   21878286.3434
 10  3 18  2 28  0.0000000  0  8G30G21G16G 6G24G31G 5G29
 -10586071.88047  -8235895.05744  23321447.9314   23321445.8744
 -19936641.30048 -15527178.30346  21197240.2974   21197236.3454
 -17198670.27047 -13396436.68245  21911990.4224   21911985.5584
  -6893724.50747  -5366034.40144  23705309.5634   23705305.7854
  -4600873.52548 -10269553.32246  20544055.8704   20544053.5094
 -20295998.49548 -15805233.21146  21392508.8714   21392504.1244
  -2129638.30946  -1659290.79043  24782799.4644   24782795.3494
 -16851232.99348 -13119036.83146  21891330.7164   21891327.1684
 10  3 18  2 28 30.0000000  0  8G30G21G16G 6G24G31G 5G29
 -10489798.75847  -8160877.08044  23339768.5964   23339765.2674
 -19977932.89948 -15559353.57346  21189383.1534   21189378.8434
 -17269661.79948 -13451754.76745  21898481.4544   21898476.5144
  -6975103.74847  -5429446.78344  23689823.3944   23689820.2994
  -4627893.79848 -10290608.07446  20538914.0484   20538911.5904
 -20241683.54648 -15762909.87346  21402844.5334   21402840.2914
  -2118640.77646  -1650721.28143  24784892.4064   24784888.1914
 -16782552.78648 -13065519.78746  21904399.9994   21904396.6514
 10  3 18  2 29  0.0000000  0  8G30G21G16G 6G24G31G 5G29
 -10393337.16047  -8085712.20544  23358124.2304   23358120.6864
 -20018771.56848 -15591175.91746  21181611.6794   21181607.1014
 -17340463.07948 -13506924.59845  21885008.5404   21885004.0684
  -7056346.00347  -5492752.44644  23674363.6924   23674359.6164
  -4654328.35248 -10311206.41247  20533883.9314   20533881.1064
 -20186876.45648 -15720203.07046  21413274.2954   21413270.1854
  -2107110.45146  -1641736.57643  24787085.6504   24787081.6424
 -16713721.46348 -13011885.00446  21917498.2144   21917495.2454
 10  3 18  2 29 30.0000000  0  9G30G21G16G 6G24G31G 5G18G29
 -10296687.47147  -8010400.76144  23376516.2534   23376512.8034
 -20059155.49448 -15622643.90346  21173926.5114   21173922.1164
 -17411071.29448 -13561943.98145  21871572.0904   21871567.8124
  -7137450.08147  -5555950.43544  23658929.6584   23658926.6944
  -4680175.68148 -10331347.19546  20528965.5784   20528962.7764
 -20131578.54048 -15677113.79046  21423796.8144   21423792.9544
  -2095047.01846  -1632336.47643  24789381.8464   24789377.8154
    461393.79746                  25284566.3934
 -16644739.07648 -12958132.50046  21930625.5574   21930622.2264
 10  3 18  2 30  0.0000000  0  9G30G21G16G 6G24G31G 5G18G29
 -10199851.51547  -7934944.19144  23394943.1584   23394939.3324
 -20099083.88948 -15653756.93446  21166328.7974   21166324.2754
 -17481485.39147 -13616812.10546  21858172.8584   21858168.1294
  -7218416.34047  -5619041.00143  23643522.9304   23643519.6884
  -4705435.66048 -10351030.28646  20524158.3754   20524155.6434
 -20075791.88648 -15633643.68546  21434412.8244   21434407.8204
  -2082450.62146  -1622521.10643  24791779.7424   24791774.5004
    380855.47046    300266.20843  25269242.3634   25269238.3174
 -16575607.74648 -12904263.93346  21943780.6704   21943777.8494
 10  3 18  2 30 30.0000000  0  9G30G21G16G 6G24G31G 5G18G29
 -10102829.72647  -7859342.79543  23413406.1384   23413402.4074
 -20138555.81148 -15684514.25646  21158817.5204   21158812.7854
 -17551703.78448 -13671527.73245  21844810.7434   21844805.4924
  -7299243.97447  -5682023.56544  23628140.8584   23628137.6134
  -4730107.35748 -10370254.98346  20519463.6464   20519461.0284
 -20019518.10448 -15589793.99646  21445121.4544   21445117.5254
  -2069321.04346  -1612290.27643  24794276.6034   24794272.7654
    300233.02546    237443.66543  25253900.0884   25253895.8944
 -16506328.26748 -12850279.94246  21956964.4744   21956960.9904
 10  3 18  2 31  0.0000000  0  9G30G21G16G 6G24G31G 5G18G29
 -10005623.01047  -7783597.31443  23431903.7104   23431899.5974
 -20177570.36048 -15714915.20046  21151393.4814   21151388.4764
 -17621724.76248 -13726089.52745  21831485.8924   21831481.5164
  -7379932.67447  -5744897.89644  23612787.2334   23612782.9124
  -4754189.99748 -10389020.66646  20514880.4904   20514878.0494
 -19962758.93248 -15545566.06946  21455922.2774   21455917.6144
  -2055658.13646  -1601643.82243  24796876.4244   24796873.4804
    219528.85846    174557.46043  25238542.4634   25238536.4384
 -16436901.66248 -12796181.28846  21970175.5594   21970172.5054
 10  3 18  2 31 30.0000000  0  9G30G21G16G 6G24G31G 5G18G29
  -9908233.01547  -7707709.00144  23450436.1994   23450432.5594
 -20216127.26648 -15744959.53346  21144056.3264   21144051.4404
 -17691546.88647 -13780496.37746  21818199.2454   21818195.2324
  -7460482.16047  -5807663.70044  23597459.0184   23597455.6844
  -4777683.09148 -10407326.96446  20510410.1154   20510407.6184
 -19905516.49248 -15500961.56846  21466815.2514   21466809.7014
  -2041461.81546  -1590581.74243  24799578.0444   24799574.3654
    138745.35846    111609.39942  25223169.5544   25223163.8604
 -16367329.10548 -12741968.91146  21983415.1224   21983411.7434
 10  3 18  2 32  0.0000000  0 10G30G21G16G 6G24G31G 5G18G 3G29
  -9810660.79546  -7631678.71044  23469003.7074   23469000.7934
 -20254225.42648 -15774646.40546  21136806.3614   21136802.0594
 -17761168.38747 -13834746.91045  21804950.6474   21804945.9014
  -7540892.25447  -5870320.90144  23582156.8614   23582154.2934
  -4800586.58448 -10425173.83646  20506051.6124   20506048.6934
 -19847792.88948 -15455982.13946  21477799.8464   21477794.7904
  -2026732.67946  -1579104.52043  24802380.9744   24802375.7564
     57884.83545     48601.36742  25207781.5584   25207777.1004
    166867.19445                  24812216.8244
 -16297612.14847 -12687644.00646  21996681.3844   21996678.4214
 10  3 18  2 32 30.0000000  0 10G30G21G16G 6G24G31G 5G18G 3G29
  -9712907.11147  -7555507.00844  23487606.6194   23487602.1044
 -20291863.40848 -15803974.69646  21129644.1664   21129639.3944
 -17830587.77548 -13888839.93346  21791740.8704   21791735.9064
  -7621162.57946  -5932869.19944  23566882.3774   23566878.5914
  -4822899.93748 -10442560.85346  20501805.5914   20501802.8214
 -19789589.78248 -15410629.05646  21488875.3314   21488870.3154
  -2011470.76646  -1567212.11343  24805284.6004   24805281.3244
    -23050.09645    -14464.65442  25192380.9954   25192375.6634
     70158.28245                  24793815.7594
 -16227751.62147 -12633207.23346  22009975.4964   22009972.1784
 10  3 18  2 33  0.0000000  0 10G30G21G16G 6G24G31G 5G18G 3G29
  -9614974.39247  -7479195.80244  23506242.2064   23506238.7214
 -20329041.97948 -15832945.00246  21122569.3994   21122564.7574
 -17899804.85948 -13942775.31546  21778568.8174   21778564.3114
  -7701293.89746  -5995309.18743  23551633.7684   23551629.0214
  -4844623.71148 -10459488.47146  20497671.7794   20497668.6424
 -19730910.37948 -15364904.85446  21500041.4134   21500036.7534
  -1995677.18946  -1554905.40343  24808291.3264   24808287.4244
   -104058.09446    -77587.62742  25176965.4574   25176958.5334
    -26481.26445                  24775428.4564
 -16157749.97547 -12578660.48746  22023296.3474   22023292.5704
 10  3 18  2 33 30.0000000  0 10G30G21G16G 6G24G31G 5G18G 3G29
  -9516861.66447  -7402744.33744  23524911.8854   23524909.2624
 -20365758.41248 -15861555.21046  21115581.9764   21115577.3934
 -17968815.50548 -13996549.84146  21765436.8944   21765432.3954
  -7781283.86246  -6057639.01143  23536411.7874   23536408.1284
  -4865755.26548 -10475954.60846  20493650.5884   20493647.6154
 -19671754.52848 -15318809.38746  21511298.6304   21511293.8544
  -1979349.65646  -1542182.67043  24811397.3204   24811394.4744
   -185134.32946   -140763.81542  25161534.9464   25161528.5914
   -123049.29345                  24757047.7724
 -16087606.12847 -12524002.95546  22036644.6434   22036640.5384
 10  3 18  2 34  0.0000000  0 10G30G21G16G 6G24G31G 5G18G 3G29
  -9418571.42146  -7326154.55844  23543615.3704   23543613.5794
 -20402012.36748 -15889805.04046  21108683.5134   21108678.8004
 -18037619.38548 -14050163.27646  21752344.8614   21752338.7694
  -7861133.23646  -6119859.25944  23521217.0194   23521212.0574
  -4886295.52048 -10491960.00046  20489741.8634   20489739.2714
 -19612125.62748 -15272345.31146  21522645.2874   21522641.5984
  -1962489.66646  -1529044.96543  24814606.3604   24814601.4394
   -266277.50345   -203992.17342  25146096.1774   25146090.0864
   -219546.24145                  24738689.6534
 -16017322.53947 -12469236.53846  22050018.6294   22050015.3334
 10  3 18  2 34 30.0000000  0 10G30G21G16G 6G24G31G 5G18G 3G29
  -9320105.11546  -7249427.59344  23562352.8634   23562350.5594
 -20437803.93948 -15917694.57046  21101872.0724   21101867.6844
 -18106215.64748 -14103614.90346  21739290.6454   21739284.9324
  -7940842.21546  -6181970.15443  23506049.5134   23506045.7034
  -4906244.78348 -10507504.86946  20485945.8564   20485943.1574
 -19552025.85348 -15225514.33846  21534082.1994   21534077.1584
  -1945097.93346  -1515492.95643  24817915.3824   24817911.1524
   -347485.64645   -267271.17843  25130642.8014   25130637.9704
   -315972.03645                  24720339.4464
 -15946900.80547 -12414362.45946  22063419.6944   22063416.2054
 10  3 18  2 35  0.0000000  0 10G30G21G16G 6G24G31G 5G18G 3G29
  -9221462.69247  -7172563.40244  23581124.2914   23581121.6724
 -20473131.47247 -15945222.51246  21095149.8634   21095145.1734
 -18174601.34748 -14156902.43846  21726276.4594   21726271.7514
  -8020409.64146  -6243970.71743  23490907.9784   23490903.4944
  -4925601.50948 -10522588.02046  20482262.1144   20482259.2394
 -19491456.41448 -15178317.38146  21545608.2624   21545603.5954
  -1927173.48446  -1501525.82743  24821326.9344   24821322.8214
   -428755.50746   -330598.23543  25115177.6894   25115173.0264
   -412325.47245                  24702004.0214
 -15876340.79047 -12359380.64746  22076847.0914   22076842.8534
 10  3 18  2 35 30.0000000  0 10G30G21G16G 6G24G31G 5G18G 3G29
  -9122646.17547  -7095563.51644  23599928.6264   23599925.6934
 -20507994.99547 -15972388.88546  21088515.3594   21088510.8064
 -18242775.61648 -14210025.24946  21713303.8614   21713300.0564
  -8099835.72346  -6305861.20944  23475793.8094   23475790.3934
  -4944366.12548 -10537209.79846  20478691.7224   20478688.8144
 -19430420.18248 -15130756.68146  21557222.9504   21557218.8914
  -1908717.69446  -1487144.70843  24824838.9524   24824835.4434
   -510084.97846   -393971.75243  25099701.2664   25099696.4754
   -508606.11046                  24683682.2774
 -15805644.56747 -12304292.69046  22090300.0344   22090296.1784
 10  3 18  2 36  0.0000000  0 10G30G21G16G 6G24G31G 5G18G 3G29
  -9023655.94147  -7018428.25744  23618766.0874   23618762.5514
 -20542393.13747 -15999192.63646  21081969.6524   21081964.8604
 -18310736.43548 -14262981.75146  21700371.6434   21700367.1404
  -8179119.90646  -6367641.04144  23460706.1994   23460703.6204
  -4962537.70748 -10551369.47346  20475233.4824   20475230.5524
 -19368918.40848 -15082833.23446  21568926.6804   21568921.5864
  -1889730.01946  -1472349.07643  24828453.0904   24828448.0344
   -591470.87846   -457389.21143  25084214.1004   25084209.6924
   -604813.30745                  24665374.9284
 -15734812.53147 -12249098.90746  22103779.1154   22103775.1414
 10  3 18  2 36 30.0000000  0 10G30G21G16G 6G24G31G 5G18G 3G29
  -8924493.23847  -6941158.60844  23637635.5454   23637631.9014
 -20576325.25148 -16025633.23846  21075512.4354   21075507.6634
 -18378481.81248 -14315770.34946  21687480.2044   21687475.1234
  -8258261.68147  -6429309.95744  23445646.3204   23445644.8074
  -4980116.09748 -10565066.90946  20471888.3364   20471885.3334
 -19306953.28648 -15034548.71546  21580717.4684   21580713.8764
  -1870210.71046  -1457139.19643  24832166.4164   24832161.6744
   -672910.84946   -520848.84543  25068716.0284   25068711.6464
   -700946.27646                  24647081.0814
 -15663845.85847 -12193800.20246  22117283.0674   22117279.6904
 10  3 18  2 37  0.0000000  0 10G30G21G16G 6G24G31G 5G18G 3G29
  -8825159.03446  -6863755.32143  23656538.4224   23656535.1234
 -20609790.31248 -16051709.90646  21069144.3594   21069139.3414
 -18446010.15548 -14368389.84246  21674629.8364   21674624.6704
  -8337260.45947  -6490867.44044  23430613.6054   23430611.3354
  -4997100.47648 -10578301.47746  20468656.4674   20468653.5694
 -19244526.65748 -14985904.61346  21592597.4074   21592593.5024
  -1850159.41446  -1441514.81643  24835982.3184   24835977.4164
   -754402.02446   -584348.31942  25053208.2494   25053203.5834
   -797004.04446                  24628801.9054
 -15592745.42547 -12138397.27846  22130813.4904   22130810.4764
 10  3 18  2 37 30.0000000  0 10G30G21G16G 6G24G31G 5G18G 3G29
  -8725654.54646  -6786219.41743  23675474.0994   23675470.2614
 -20642787.88248 -16077422.29146  21062865.2394   21062860.4764
 -18513319.81348 -14420838.91346  21661821.2234   21661816.1504
  -8416116.29347  -6552313.50944  23415607.1784   23415605.0514
  -5013490.92648 -10591073.25046  20465537.3624   20465534.5234
 -19181640.70548 -14936902.58146  21604563.7334   21604559.4714
  -1829577.01046  -1425476.59243  24839898.9934   24839893.8734
   -835942.12145   -647885.95342  25037690.6364   25037686.8614
   -892985.99146                  24610537.4044
 -15521512.48648 -12082891.08546  22144368.1834   22144364.9214
 10  3 18  2 38  0.0000000  0 10G30G21G16G 6G24G31G 5G18G 3G29
  -8625981.64147  -6708552.20243  23694440.9374   23694437.8544
 -20675318.20248 -16102770.58346  21056674.7824   21056670.1504
 -18580410.22248 -14473117.15346  21649053.8144   21649049.7024
  -8494829.37147  -6613648.36844  23400628.8584   23400626.1974
  -5029288.22048 -10603382.81846  20462531.2764   20462528.7924
 -19118298.38748 -14887544.93746  21616618.1294   21616612.7524
  -1808464.21546  -1409025.03243  24843915.8654   24843912.7954
   -917529.13746   -711460.16742  25022165.7274   25022161.3244
   -988892.56846                  24592287.1094
 -15450148.67447 -12027282.94046  22157948.4314   22157945.1694
 10  3 18  2 38 30.0000000  0 10G30G21G16G 6G24G31G 5G18G 3G29
  -8526140.84546  -6630754.15744  23713439.6984   23713437.3534
 -20707379.94348 -16127753.75746  21050573.8364   21050568.8764
 -18647278.93848 -14525222.64146  21636329.4614   21636325.0014
  -8573399.25647  -6674871.63244  23385677.3954   23385675.8984
  -5044491.69248 -10615229.68346  20459638.0984   20459635.2334
 -19054501.40348 -14837833.00946  21628757.6984   21628753.7454
  -1786821.30546  -1392160.38843  24848034.2244   24848030.6474
   -999159.97246   -775068.56742  25006632.3554   25006627.1324
  -1084722.92846   -835359.93042  24574050.4044   24574050.2854
 -15378654.79047 -11971573.41846  22171553.4024   22171550.4224
 10  3 18  2 39  0.0000000  0 10G30G21G16G 6G24G31G 5G18G 3G29
  -8426133.02647  -6552826.01644  23732471.6324   23732467.8444
 -20738972.25448 -16152371.13546  21044561.7334   21044557.0324
 -18713923.80348 -14577153.70546  21623647.7724   21623643.0934
  -8651824.98247  -6735982.57344  23370753.3284   23370751.5764
  -5059100.89848 -10626613.47646  20456858.2624   20456855.2784
 -18990251.31448 -14787768.00446  21640984.6844   21640979.9884
  -1764648.29446  -1374882.69043  24852254.5724   24852250.7924
  -1080831.91847   -838709.08743  24991091.1764   24991085.2384
  -1180476.38046   -909972.98042  24555829.8124   24555828.2334
 -15307031.63347 -11915763.17246  22185182.4414   22185179.6204
 10  3 18  2 39 30.0000000  0 10G30G21G16G 6G24G31G 5G18G 3G29
  -8325960.46347  -6474769.48844  23751533.2524   23751530.1484
 -20770095.64948 -16176623.13246  21038639.6264   21038634.0054
 -18780344.46448 -14628910.06246  21611008.2864   21611003.7084
  -8730107.46547  -6796981.89344  23355857.1694   23355854.5874
  -5073116.42748 -10637534.65546  20454191.1214   20454188.3954
 -18925551.39548 -14737352.47646  21653296.5324   21653291.9294
  -1741946.49346  -1357193.02343  24856574.7964   24856570.5194
  -1162542.94947   -902380.03343  24975542.0254   24975535.8894
  -1276152.72946   -984525.99843  24537622.9094   24537622.1734
 -15235281.20347 -11859853.75746  22198836.3974   22198833.0434
 10  3 18  2 40  0.0000000  0 10G30G21G16G 6G24G31G 5G18G 3G29
  -8225623.37247  -6396584.76144  23770626.8504   23770623.9454
 -20800748.24548 -16200508.27846  21032806.2514   21032801.6384
 -18846538.06148 -14680489.48846  21598411.7604   21598407.4234
  -8808245.48947  -6857868.65044  23340987.1014   23340984.3534
  -5086537.23048 -10647992.40646  20451637.0484   20451635.0014
 -18860402.89548 -14686587.41846  21665693.8854   21665689.5724
  -1718715.30146  -1339090.75744  24860994.5184   24860990.5764
  -1244289.86547   -966078.87643  24959986.6394   24959980.3394
  -1371750.39346  -1059017.69642  24519431.4384   24519428.9234
 -15163403.38748 -11803845.06846  22212514.4814   22212511.4004
 10  3 18  2 40 30.0000000  0 10G30G21G16G 6G24G31G 5G18G 3G29
  -8125123.21746  -6318272.93843  23789750.4644   23789747.8094
 -20830929.90648 -16224026.44446  21027063.2244   21027058.4994
 -18912503.40348 -14731891.04646  21585858.9754   21585853.8914
  -8886238.89147  -6918642.70344  23326146.0414   23326142.5624
  -5099363.78248 -10657987.13246  20449196.5814   20449193.4304
 -18794808.30548 -14635474.76246  21678176.2724   21678171.6614
  -1694955.60846  -1320576.68043  24865516.0654   24865511.4874
  -1326070.26247  -1029803.85143  24944423.6434   24944417.6044
  -1467269.18546  -1133447.90342  24501255.0244   24501252.4064
 -15091399.52047 -11747738.17146  22226216.2204   22226213.3204
 10  3 18  2 41  0.0000000  0 10G30G21G16G 6G24G31G 5G18G 3G29
  -8024460.39846  -6239834.35243  23808906.6324   23808903.2274
 -20860639.44148 -16247176.73046  21021409.5244   21021404.8674
 -18978238.21348 -14783112.97646  21573350.0854   21573345.4774
  -8964086.90747  -6979303.49244  23311331.0224   23311329.4234
  -5111595.48548 -10667518.32846  20446868.7794   20446865.9804
 -18728769.51048 -14584015.95546  21690742.8804   21690738.9164
  -1670667.14146  -1301650.59844  24870138.2854   24870134.8704
  -1407881.18247  -1093552.56743  24928855.0724   24928849.5044
  -1562708.26346  -1207816.02842  24483092.7884   24483089.5814
 -15019270.45948 -11691533.72246  22239942.3424   22239938.1884
 10  3 18  2 41 30.0000000  0 10G30G21G16G 6G24G31G 5G18G 3G29
  -7923637.27146  -6161270.89443  23828092.6674   23828088.8684
 -20889877.29248 -16269959.46046  21015845.7484   21015840.9604
 -19043741.56648 -14834154.55446  21560885.1504   21560880.8584
  -9041790.28947  -7039851.54944  23296545.1944   23296543.0404
  -5123233.10948 -10676586.59246  20444654.0754   20444651.2604
 -18662289.36848 -14532213.25946  21703393.4924   21703388.8894
  -1645851.30346  -1282313.56444  24874861.0134   24874857.9824
  -1489720.84946  -1157323.73943  24913281.7724   24913276.1274
  -1658067.74346  -1282122.04643  24464946.8994   24464943.7134
 -14947017.89348 -11635233.02246  22253691.4844   22253687.6524
 10  3 18  2 42  0.0000000  0 10G30G21G16G 6G24G31G 5G18G 3G29
  -7822654.47746  -6082583.01643  23847308.1964   23847305.9284
 -20918642.10848 -16292373.59346  21010372.1014   21010367.3034
 -19109011.95548 -14885014.59946  21548464.9324   21548460.2254
  -9119347.85747  -7100285.99644  23281787.2044   23281784.9754
  -5134275.77548 -10685191.25746  20442552.8884   20442549.7864
 -18595369.40148 -14480067.83146  21716127.7504   21716123.9814
  -1620508.12046  -1262565.63743  24879683.1344   24879680.4454
  -1571586.24446  -1221114.85643  24897702.6904   24897697.8024
  -1753346.58046  -1356365.34342  24446814.8874   24446813.6294
 -14874642.11348 -11578836.32446  22267463.9114   22267459.8974
 10  3 18  2 42 30.0000000  0 10G30G21G16G 6G24G31G 5G18G 3G29
  -7721512.76246  -6003771.31543  23866555.1454   23866552.7784
 -20946933.60848 -16314418.90946  21004988.2874   21004983.5724
 -19174046.51548 -14935690.88546  21536088.9474   21536084.1654
  -9196759.50547  -7160606.76344  23267056.0464   23267053.2654
  -5144723.50048 -10693332.35046  20440564.9874   20440561.5934
 -18528012.08048 -14427581.60946  21728945.4944   21728941.8244
  -1594637.82646  -1242406.92943  24884606.2654   24884601.8264
  -1653473.99746  -1284923.40543  24882120.2424   24882115.7174
  -1848544.07946  -1430545.19443  24428700.4914   24428698.3834
 -14802144.18048 -11522344.44546  22281259.7634   22281255.8914
 10  3 18  2 43  0.0000000  0 10G30G21G16G 6G24G31G 5G18G 3G29
  -7620214.03246  -5924837.24643  23885831.1014   23885828.6894
 -20974751.99048 -16336095.56946  20999694.7924   20999689.8004
 -19238844.46648 -14986182.77946  21523758.5644   21523753.5504
  -9274025.62847  -7220814.09644  23252353.2284   23252349.6944
  -5154577.19748 -10701010.53647  20438689.3774   20438685.9694
 -18460220.15948 -14374756.75846  21741845.9354   21741841.7584
  -1568241.65646  -1221838.49643  24889629.2444   24889625.1694
  -1735382.56846  -1348748.20043  24866533.7124   24866528.7724
  -1943660.45646  -1504661.83042  24410600.3774   24410597.8334
 -14729525.79248 -11465758.70046  22295078.6984   22295074.7774
 10  3 18  2 43 30.0000000  0 10G30G21G16G 6G24G31G 5G18G 3G29
  -7518759.34647  -5845781.64443  23905138.0184   23905135.5504
 -21002096.31048 -16357402.83346  20994491.0194   20994486.7144
 -19303403.70448 -15036488.67246  21511472.9454   21511468.8114
  -9351145.36647  -7280907.39744  23237677.6064   23237674.7634
  -5163836.43348 -10708225.51346  20436927.3864   20436924.3654
 -18391995.76148 -14321594.88946  21754828.6104   21754824.8324
  -1541319.84246  -1200860.44343  24894751.5544   24894748.6494
  -1817308.77346  -1412586.77243  24850944.0704   24850938.8674
  -2038694.81146  -1578714.51543  24392515.7464   24392514.2584
 -14656787.72548 -11409079.68345  22308920.4354   22308916.0504
 10  3 18  2 44  0.0000000  0 10G30G21G16G 6G24G31G 5G18G 3G29
  -7417149.74546  -5766605.35743  23924473.1504   23924471.6324
 -21028965.94048 -16378340.20846  20989378.3154   20989373.1464
 -19367722.58948 -15086607.28246  21499233.7494   21499229.2054
  -9428118.72347  -7340886.60144  23223029.1584   23223027.6824
  -5172501.34748 -10714977.39046  20435278.1294   20435275.3074
 -18323340.87848 -14268097.57346  21767893.3034   21767888.8094
  -1513872.98746  -1179473.30544  24899974.8474   24899972.7764
  -1899250.30947  -1476437.33943  24835351.3524   24835344.9094
  -2133646.29646  -1652702.69942  24374447.4814   24374444.6544
 -14583930.85648 -11352308.11045  22322784.4654   22322780.3984
 10  3 18  2 44 30.0000000  0 10G30G21G16G 6G24G31G 5G18G 3G29
  -7315386.26546  -5687309.16843  23943838.1234   23943835.9464
 -21055360.64148 -16398907.49746  20984354.8434   20984350.5534
 -19431799.48248 -15136537.33046  21487040.4824   21487036.0684
  -9504945.14047  -7400751.31944  23208409.8604   23208407.9324
  -5180571.84348 -10721266.08846  20433743.0314   20433739.7274
 -18254257.79548 -14214266.61646  21781039.4784   21781034.6544
  -1485901.90646  -1157677.65643  24905298.1114   24905295.1964
  -1981204.39847  -1540297.68843  24819755.8964   24819749.3484
  -2228514.02446  -1726625.64543  24356394.5284   24356390.8704
 -14510955.83648 -11295444.46446  22336671.2214   22336666.8814
 10  3 18  2 45  0.0000000  0 10G30G21G16G 6G24G31G 5G18G 3G29
  -7213470.39846  -5607894.21543  23963232.9834   23963229.5964
 -21081279.65647 -16419104.12746  20979422.8554   20979418.3614
 -19495632.59348 -15186277.41846  21474893.1454   21474888.3284
  -9581624.52547  -7460501.46444  23193818.2444   23193816.9824
  -5188048.38748 -10727091.95446  20432319.8834   20432317.3714
 -18184748.91048 -14160103.84846  21794265.8894   21794261.9574
  -1457406.95546  -1135473.81343  24910720.0524   24910716.5184
  -2063168.14147  -1604165.55143  24804158.3294   24804154.1624
  -2323298.11446  -1800483.34743  24338357.2184   24338354.3734
 -14437863.84648 -11238489.69046  22350579.8794   22350576.0484
 10  3 18  2 45 30.0000000  0 10G30G21G16G 6G24G31G 5G18G 3G29
  -7111403.46147  -5528361.50144  23982656.1904   23982652.3454
 -21106723.00047 -16438930.10146  20974581.2934   20974576.7694
 -19559220.56448 -15235826.47246  21462792.8384   21462787.7044
  -9658156.62647  -7520136.85544  23179254.4464   23179253.0574
  -5194931.19448 -10732455.17246  20431010.4974   20431008.1084
 -18114816.88548 -14105611.37346  21807574.2794   21807569.6294
  -1428388.92646  -1112862.34543  24916242.5514   24916237.8014
  -2145139.25846  -1668039.16443  24788559.2144   24788555.2724
  -2417997.84645  -1874275.33543  24320337.4094   24320334.8904
 -14364656.02948 -11181444.64446  22364511.1804   22364507.2364
 10  3 18  2 46  0.0000000  0 10G30G21G16G 6G24G31G 5G18G 3G29
  -7009185.64446  -5448711.25344  24002107.0624   24002103.6714
 -21131689.64548 -16458384.62746  20969830.2324   20969825.7684
 -19622560.94248 -15285182.60146  21450739.5094   21450735.2544
  -9734540.78247  -7579656.95944  23164720.0354   23164718.3424
  -5201219.60648 -10737355.23746  20429813.6344   20429811.0724
 -18044463.28248 -14050790.38846  21820961.8064   21820956.9834
  -1398848.10146  -1089843.51443  24921863.1424   24921860.3314
  -2227114.45046  -1731915.90842  24772959.7004   24772954.2124
  -2512611.85746  -1948000.46143  24302332.4724   24302329.4364
 -14291332.95948 -11124309.80646  22378464.1144   22378459.7544
 10  3 18  2 46 30.0000000  0 10G30G21G16G 6G24G31G 5G18G 3G29
  -6906818.74447  -5368944.82644  24021587.1464   24021583.8504
 -21156179.15048 -16477467.36346  20965170.2644   20965165.6224
 -19685652.17648 -15334344.60546  21438733.7074   21438730.0694
  -9810776.75247  -7639061.58744  23150211.8184   23150211.0414
  -5206914.28748 -10741792.64746  20428730.1734   20428727.2084
 -17973690.72648 -13995642.96146  21834429.8514   21834425.0774
  -1368785.41746  -1066418.03143  24927584.0474   24927581.5654
  -2309091.56946  -1795794.14142  24757360.1244   24757354.5584
  -2607139.75946  -2021658.59143  24284344.2754   24284341.2224
 -14217895.67548 -11067085.96446  22392438.4204   22392434.7374
 10  3 18  2 47  0.0000000  0 10G30G21G16G 6G24G31G 5G18G 3G29
  -6804304.73247  -5289063.78943  24041094.7994   24041091.3804
 -21180192.31548 -16496178.89946  20960600.3284   20960595.8844
 -19748493.56848 -15383311.92146  21426775.1894   21426771.1094
  -9886865.22747  -7698351.30344  23135733.3724   23135730.8744
  -5212016.48848 -10745768.38346  20427759.2194   20427756.1094
 -17902502.50748 -13940171.61846  21847976.3394   21847971.6474
  -1338202.30346  -1042587.04243  24933404.7644   24933402.2174
  -2391068.18245  -1859671.93242  24741760.9034   24741756.2164
  -2701582.06946  -2095250.00243  24266373.3314   24266368.4544
 -14144345.65147 -11009774.26745  22406434.5094   22406431.2574
 10  3 18  2 47 30.0000000  0 10G30G21G16G 6G24G31G 5G18G 3G29
  -6701644.06847  -5209068.44643  24060629.9774   24060626.0454
 -21203728.76948 -16514518.99246  20956121.4544   20956117.0744
 -19811082.51048 -15432082.51446  21414864.6624   21414860.2124
  -9962805.37347  -7757525.43344  23121282.2104   23121279.5494
  -5216525.82548 -10749282.14546  20426901.1734   20426898.6324
 -17830900.41648 -13884377.78646  21861601.5914   21861597.1894
  -1307099.10646  -1018350.77543  24939322.9094   24939319.6034
  -2473041.35346  -1923547.09743  24726161.9204   24726157.7224
  -2795937.57846  -2168773.76443  24248417.5964   24248415.3044
 -14070683.66948 -10952375.34245  22420452.2484   22420448.6824
 10  3 18  2 48  0.0000000  0 10G30G21G16G 6G24G31G 5G18G 3G29
  -6598838.14346  -5128959.90943  24080192.7274   24080189.1254
 -21226787.64448 -16532486.94846  20951733.5364   20951729.1864
 -19873417.25748 -15480655.04046  21403003.1624   21402997.8414
 -10038596.82547  -7816583.67745  23106859.7564   23106857.5694
  -5220442.29148 -10752333.93447  20426155.9534   20426152.9724
 -17758886.64148 -13828263.16946  21875305.6614   21875300.7894
  -1275476.28846   -993709.60143  24945340.7784   24945336.6654
  -2555008.57646  -1987417.68943  24710564.3724   24710558.9254
  -2890205.44746  -2242229.24143  24230479.0964   24230476.0764
 -13996910.41447 -10894889.69145  22434490.8714   22434486.8924
 10  3 18  2 48 30.0000000  0 10G30G21G16G 6G24G31G 5G18G 3G29
  -6495888.06746  -5048739.09343  24099784.4234   24099781.4404
 -21249368.28248 -16550082.24046  20947436.5074   20947431.9954
 -19935496.04847 -15529028.11646  21391189.9404   21391185.4784
 -10114239.30247  -7875525.87744  23092465.6994   23092462.1744
  -5223766.28447 -10754924.05046  20425523.2404   20425520.1934
 -17686463.79348 -13771829.79446  21889087.1624   21889081.8884
  -1243334.85846   -968664.30143  24951456.8004   24951452.1404
  -2636966.90746  -2051281.34743  24694967.1684   24694962.7554
  -2984385.87746  -2315616.52643  24212556.9554   24212553.8134
 -13923027.18948 -10837318.36846  22448550.1924   22448546.2894
 10  3 18  2 49  0.0000000  0 10G30G21G16G 6G24G31G 5G18G 3G29
  -6392795.43746  -4968407.21644  24119401.9344   24119399.4454
 -21271471.13548 -16567305.23846  20943230.7194   20943226.0524
 -19997317.46148 -15577200.66246  21379425.8094   21379421.2664
 -10189732.90047  -7934352.02444  23078099.4194   23078095.5164
  -5226498.35148 -10757052.93146  20425003.4674   20425000.3284
 -17613634.21947 -13715079.46546  21902945.8944   21902941.0774
  -1210675.60346   -943215.51743  24957671.8314   24957667.7154
  -2718913.75446  -2115136.04542  24679373.2444   24679369.5174
  -3078477.49046  -2388934.67643  24194651.8794   24194650.1794
 -13849034.80447 -10779661.96745  22462630.0914   22462626.7404
 10  3 18  2 49 30.0000000  0 10G30G21G16G 6G24G31G 5G18G 3G29
  -6289560.96546  -4887964.78143  24139046.8464   24139044.1664
 -21293095.15248 -16584155.12346  20939115.7424   20939111.0344
 -20058879.28548 -15625170.91946  21367711.3444   21367706.4864
 -10265076.77347  -7993061.52644  23063761.8614   23063758.7284
  -5228638.48148 -10758720.55546  20424596.1604   20424593.1794
 -17540400.34947 -13658014.13346  21916882.3944   21916877.1974
  -1177499.08347   -917363.66743  24963984.5734   24963981.4064
  -2800846.29446  -2178979.56943  24663782.5474   24663777.9544
  -3172480.03246  -2462183.41243  24176764.0254   24176761.0994
 -13774933.67447 -10721920.83345  22476731.8934   22476727.5054
 10  3 18  2 50  0.0000000  0 10G30G21G16G 6G24G31G 5G18G 3G29
  -6186186.02246  -4807412.92044  24158718.7804   24158715.9214
 -21314240.05048 -16600631.65746  20935092.2004   20935087.3784
 -20120180.01348 -15672937.71646  21356046.0934   21356040.4594
 -10340270.93047  -8051654.36944  23049452.3654   23049449.9934
  -5230186.87848 -10759927.10046  20424301.2734   20424298.8184
 -17466764.33948 -13600635.41846  21930894.1004   21930889.5224
  -1143806.35746   -891109.56243  24970396.3364   24970393.7924
  -2882761.80546  -2242809.85443  24648195.4414   24648189.0744
  -3266392.60247  -2535362.02443  24158892.7674   24158889.8404
 -13700724.97648 -10664095.87545  22490853.3584   22490849.3954
 10  3 18  2 50 30.0000000  0 10G30G21G16G 6G24G31G 5G18G 3G29
  -6082672.08046  -4726752.68244  24178416.8924   24178413.8934
 -21334906.23748 -16616735.17646  20931159.3474   20931154.4494
 -20181218.14448 -15720499.87346  21344430.5214   21344425.1574
 -10415315.33447  -8110130.51044  23035171.9404   23035168.5714
  -5231144.50248 -10760673.28746  20424118.8564   20424116.2574
 -17392728.99848 -13542945.55546  21944982.9304   21944979.0344
  -1109598.40546   -864454.00243  24976905.6034   24976903.2574
  -2964657.90746  -2306625.02843  24632611.3464   24632604.5894
  -3360215.06146  -2608470.42243  24141038.8824   24141035.8274
 -13626409.79147 -10606187.94645  22504994.8654   22504991.1704
 10  3 18  2 51  0.0000000  0 10G30G21G16G 6G24G31G 5G18G 3G29
  -5979020.28746  -4645985.05844  24198141.3464   24198137.4994
 -21355093.55748 -16632465.56146  20927318.1184   20927313.4204
 -20241992.12848 -15767856.22546  21332865.6924   21332860.9894
 -10490209.80547  -8168489.83444  23020920.3824   23020917.1364
  -5231511.85648 -10760959.53146  20424048.9544   20424046.5064
 -17318297.06348 -13484946.66146  21959147.2084   21959142.7714
  -1074876.34446   -837397.80843  24983514.2674   24983509.4944
  -3046532.07346  -2370423.05743  24617030.5954   24617025.2564
  -3453946.65646  -2681508.01643  24123202.3204   24123198.4094
 -13551989.50547 -10548198.13045  22519156.6024   22519152.8754
 10  3 18  2 51 30.0000000  0 10G30G21G16G 6G24G31G 5G18G 3G29
  -5875231.95146  -4565111.05044  24217891.2344   24217888.2104
 -21374801.46248 -16647822.35646  20923567.5404   20923563.1054
 -20302499.51348 -15815004.84246  21321351.4834   21321347.0774
 -10564954.00247  -8226732.03044  23006697.4054   23006694.0844
  -5231289.28348 -10760786.08346  20424091.5524   20424088.6334
 -17243470.64048 -13426640.34846  21973386.1724   21973381.3364
  -1039640.89946   -809941.62843  24990218.0184   24990214.6394
  -3128380.98046  -2434201.48543  24601455.4374   24601449.8194
  -3547586.88546  -2754474.43443  24105383.3804   24105379.5554
 -13477464.41047 -10490126.63845  22533337.9764   22533334.3224
 10  3 18  2 52  0.0000000  0 10G30G21G16G 6G24G31G 5G18G 3G29
  -5771308.03446  -4484131.38843  24237667.0824   24237664.4424
 -21394029.67248 -16662805.37546  20919908.8564   20919903.6634
 -20362738.18548 -15861944.06246  21309888.4224   21309883.6534
 -10639547.04447  -8284856.46544  22992502.0404   22992498.8034
  -5230476.75748 -10760152.94846  20424245.9854   20424243.6664
 -17168251.89347 -13368028.34146  21987698.9084   21987695.2904
  -1003892.53346   -782085.71543  24997021.3594   24997016.9364
  -3210202.27346  -2497958.26343  24585885.2734   24585880.1054
  -3641134.77147  -2827368.88144  24087582.8794   24087579.1774
 -13402834.80247 -10431973.69945  22547539.8354   22547536.3234
 10  3 18  2 52 30.0000000  0 10G30G21G16G 6G24G31G 5G18G 3G29
  -5667250.12446  -4403047.31743  24257468.7224   24257465.3294
 -21412777.64248 -16677414.18446  20916340.8634   20916335.4084
 -20422707.12848 -15908673.10546  21298476.8324   21298472.0194
 -10713989.14047  -8342863.27044  22978336.6844   22978333.2574
  -5229075.24548 -10759060.86646  20424512.9934   20424510.2734
 -17092643.77747 -13309112.93446  22002087.6534   22002082.2354
   -967632.56646   -753831.23043  25003921.9784   25003917.9544
  -3291993.15046  -2561691.39443  24570320.8104   24570316.2224
  -3734589.91047  -2900191.06443  24069797.6674   24069794.5194
 -13328102.02447 -10373740.36045  22561760.9894   22561757.2604
 10  3 18  2 53  0.0000000  0 10G30G21G16G 6G24G31G 5G18G 3G29
  -5563059.37646  -4321859.67143  24277294.9934   24277291.1014
 -21431046.33948 -16691649.54246  20912864.9664   20912859.7534
 -20482404.46348 -15955190.51646  21287116.7764   21287112.5204
 -10788280.33447  -8400752.50244  22964199.3944   22964195.4024
  -5227085.33148 -10757510.28146  20424891.4874   20424889.1504
 -17016649.03748 -13249896.26346  22016548.7094   22016543.7594
   -930861.94546   -725178.73943  25010918.3634   25010914.3714
  -3373750.85746  -2625398.66443  24554763.0154   24554757.4744
  -3827952.01646  -2972940.74643  24052032.0694   24052029.0904
 -13253267.20147 -10315427.51445  22576001.4714   22575997.5194
 10  3 18  2 53 30.0000000  0 10G30G21G16G 6G24G31G 5G18G 3G29
  -5458736.53346  -4240569.14643  24297147.2284   24297143.6254
 -21448834.57448 -16705510.48946  20909479.6454   20909474.8484
 -20541828.24248 -16001494.74846  21275808.8444   21275803.4554
 -10862419.75547  -8458523.49344  22950090.7454   22950087.2464
  -5224507.32548 -10755501.43846  20425382.4134   20425379.8004
 -16940269.61248 -13190379.83346  22031083.2074   22031078.7634
   -893581.45046   -696129.02043  25018013.4764   25018008.6454
  -3455472.37246  -2689077.76343  24539211.6124   24539206.3494
  -3921220.12846  -3045617.17443  24034283.0834   24034280.2894
 -13178330.95947 -10257035.61945  22590261.4144   22590257.6344
 10  3 18  2 54  0.0000000  0 10G30G21G16G 6G24G31G 5G18G 3G29
  -5354283.41846  -4159177.10843  24317025.0504   24317020.6934
 -21466142.55748 -16718997.20846  20906185.9764   20906181.0764
 -20600976.92648 -16047584.62346  21264553.1674   21264547.8204
 -10936407.67047  -8516176.38444  22936011.6714   22936008.1044
  -5221341.71148 -10753034.71746  20425984.7034   20425981.7554
 -16863508.22048 -13130565.75746  22045689.9534   22045685.7294
   -855792.46946   -666683.06143  25025204.0024   25025199.7504
  -3537155.49146  -2752726.93542  24523667.6254   24523662.3684
  -4014393.93146  -3118220.12044  24016553.4334   24016549.9264
 -13103294.65747 -10198565.78845  22604540.1044   22604536.5374
 10  3 18  2 54 30.0000000  0 10G30G21G16G 6G24G31G 5G18G 3G29
  -5249701.15146  -4077684.42043  24336925.7624   24336921.4644
 -21482970.16248 -16732109.63147  20902984.0474   20902979.0774
 -20659848.34748 -16093458.45346  21253350.2904   21253345.7694
 -11010243.49747  -8573710.77444  22921960.8094   22921958.3104
  -5217588.96348 -10750110.48746  20426699.0594   20426696.4914
 -16786367.27248 -13070455.94646  22060369.3504   22060364.7254
   -817495.92746   -636841.56543  25032490.7254   25032488.8394
  -3618797.19545  -2816343.83942  24508131.9644   24508126.3594
  -4107472.54847  -3190748.89844  23998840.6494   23998837.5224
 -13028158.38947 -10140018.06245  22618837.7604   22618834.2744
 10  3 18  2 55  0.0000000  0 10G30G21G16G 6G24G31G 5G18G 3G29
  -5144990.97346  -3996092.08243  24356851.8184   24356848.5384
 -21499316.97848 -16744847.41646  20899873.0664   20899868.3094
 -20718441.00548 -16139115.07446  21242200.1014   21242196.0624
 -11083927.21647  -8631126.65044  22907939.0624   22907936.4214
  -5213249.96348 -10746729.44646  20427524.3124   20427521.3704
 -16708849.59348 -13010052.55346  22075121.0734   22075115.9604
   -778692.77946   -606605.32043  25039874.7364   25039872.2904
  -3700394.87246  -2879926.47742  24492604.1274   24492600.1094
  -4200455.76447  -3263203.31744  23981146.4484   23981144.2514
 -12952923.40247 -10081393.40445  22633154.3614   22633151.2244
 10  3 18  2 55 30.0000000  0 10G30G21G16G 6G24G31G 5G18G 3G29
  -5040154.54646  -3914401.39744  24376801.3864   24376798.9494
 -21515183.77948 -16757211.15446  20896853.7914   20896848.7304
 -20776753.41848 -16184553.32946  21231104.0774   21231098.8734
 -11157458.77947  -8688423.95444  22893946.9264   22893943.0564
  -5208325.37048 -10742892.09646  20428461.5264   20428458.5604
 -16630957.93848 -12949357.76346  22089943.5244   22089938.8514
   -739384.22146   -575975.31143  25047356.4284   25047351.7854
  -3781946.24546  -2943473.07642  24477085.7174   24477080.2054
  -4293343.02747  -3335582.98443  23963470.4454   23963467.5824
 -12877590.88547 -10022692.75945  22647489.9664   22647487.0504
 10  3 18  2 56  0.0000000  0 10G30G21G16G 6G24G31G 5G18G 3G29
  -4935193.00946  -3832613.18743  24396774.4934   24396771.1054
 -21530570.70348 -16769200.95646  20893925.1814   20893920.4534
 -20834783.61948 -16229771.66746  21220061.4124   21220056.0304
 -11230837.77047  -8745602.37644  22879983.3264   22879980.1184
  -5202816.20448 -10738599.24446  20429509.8324   20429507.2044
 -16552695.01648 -12888373.67146  22104836.1164   22104831.3964
   -699571.68946   -544952.58743  25054931.8224   25054927.6654
  -3863448.15246                  24461576.6614
  -4386133.98547  -3407887.59144  23945812.4544   23945809.0304
 -12802161.48147  -9963916.61645  22661844.1244   22661841.0684
 10  3 18  2 56 30.0000000  0 10G30G21G16G 6G24G31G 5G18G 3G29
  -4830107.68946  -3750728.54743  24416771.8964   24416767.3974
 -21545477.24048 -16780816.42246  20891089.0234   20891084.6274
 -20892529.98548 -16274768.83346  21209072.5704   21209067.5924
 -11304064.34547  -8802662.03645  22866048.2954   22866046.2214
  -5196723.08648 -10733851.34746  20430669.4054   20430666.2934
 -16474063.44648 -12827102.31946  22119799.3704   22119794.7624
   -659256.39246   -513538.04743  25062603.5184   25062600.1064
  -3944898.11646                  24446077.5464
  -4478828.06147  -3480116.75144  23928174.0204   23928170.6004
 -12726636.16347  -9905065.73445  22676215.9514   22676212.5994
 10  3 18  2 57  0.0000000  0 10G30G21G16G 6G24G31G 5G18G 3G29
  -4724899.43546  -3668748.07343  24436792.5204   24436788.8234
 -21559902.83348 -16792057.15046  20888344.1004   20888339.1834
 -20949990.32448 -16319543.12646  21198138.2714   21198134.1164
 -11377137.74147  -8859602.32744  22852143.1074   22852141.1154
  -5190046.02648 -10728648.44046  20431940.0844   20431937.3784
 -16395065.11948 -12765545.19946  22134832.4294   22134828.3154
   -618438.82946   -481732.11343  25070369.9184   25070368.2254
  -4026293.15545                  24430589.2174
  -4571424.20146  -3552269.59043  23910553.3694   23910548.8474
 -12651015.04347  -9846140.18345  22690606.1234   22690602.7704
 10  3 18  2 57 30.0000000  0 10G30G21G16G 6G24G31G 5G18G 3G29
  -4619569.28146  -3586672.61343  24456836.0204   24456833.5184
 -21573847.44248 -16802923.08046  20885690.4604   20885685.7444
 -21007162.64948 -16364092.99946  21187258.6514   21187254.3154
 -11450057.38247  -8916422.79344  22838267.2734   22838263.7194
  -5182785.75748 -10722991.08246  20433321.4344   20433318.7804
 -16315702.63748 -12703704.30546  22149934.0584   22149929.9104
   -577120.02146   -449535.58843  25078233.3054   25078229.3044
  -4107629.91545                  24415108.3224
  -4663921.31247  -3624345.24444  23892951.8564   23892949.6634
 -12575299.03747  -9787140.71245  22705014.3234   22705011.4584
 10  3 18  2 58  0.0000000  0  9G30G21G16G 6G24G31G 5G 3G29
  -4514119.30146  -3504503.79743  24476902.7304   24476899.9204
 -21587312.17048 -16813415.07547  20883127.7664   20883123.8854
 -21064045.99548 -16408417.67646  21176433.9504   21176429.8744
 -11522823.98847  -8973124.05844  22824420.2424   22824416.0604
  -5174944.07448 -10716880.68746  20434813.7174   20434810.8944
 -16235979.41048 -12641582.30046  22165105.3654   22165100.8884
   -535301.89046   -416950.01843  25086191.3914   25086186.6344
  -4756319.71347  -3696343.96043  23875368.7564   23875366.5714
 -12499489.86147  -9728068.64045  22719440.3714   22719436.7764
 10  3 18  2 58 30.0000000  0  9G30G21G16G 6G24G31G 5G 3G29
  -4408550.42046  -3422242.32843  24496991.6124   24496987.9684
 -21600296.43748 -16823532.66946  20880657.3374   20880652.5034
 -21120638.04948 -16452515.37646  21165664.7284   21165660.1634
 -11595436.72047  -9029705.39144  22810602.5684   22810599.0324
  -5166520.92748 -10710317.18846  20436416.5594   20436413.7624
 -16155897.51048 -12579180.84246  22180344.0284   22180340.0264
   -492985.39246   -383976.09443  25094243.3834   25094239.5204
  -4848618.42346  -3768265.02743  23857804.7184   23857800.7204
 -12423587.58947  -9668924.02645  22733883.8074   22733880.7754
 10  3 18  2 59  0.0000000  0  9G30G21G16G 6G24G31G 5G 3G29
  -4302863.87646  -3339889.18943  24517103.0854   24517100.4124
 -21612799.77248 -16833275.52846  20878278.0314   20878273.1214
 -21176936.70048 -16496384.46046  21154951.7584   21154947.2234
 -11667895.23747  -9086166.54445  22796813.4964   22796810.2574
  -5157517.05048 -10703301.18346  20438130.2004   20438127.0134
 -16075459.23948 -12516501.66746  22195650.9144   22195646.9504
   -450171.45146   -350614.58043  25102391.1864   25102386.7094
  -4940816.90146  -3840107.98143  23840260.3964   23840257.3354
 -12347592.91147  -9609707.41445  22748346.1434   22748342.9664
 10  3 18  2 59 30.0000000  0  9G30G21G16G 6G24G31G 5G 3G29
  -4197060.83546  -3257445.27343  24537236.4564   24537233.9534
 -21624822.51848 -16842643.89646  20875990.2324   20875985.1524
 -21232940.63848 -16540023.88846  21144294.4064   21144289.7734
 -11740199.35047  -9142507.41044  22783055.1294   22783051.1654
  -5147933.27548 -10695833.29946  20439953.7344   20439950.9664
 -15994667.78248 -12453547.28646  22211024.8944   22211020.8634
   -406861.29746   -316866.36443  25110631.7824   25110628.2204
  -5032914.55747  -3911872.37044  23822734.5754   23822731.5634
 -12271506.65547  -9550419.44045  22762824.1954   22762821.8734
 10  3 18  3  0  0.0000000  0  9G30G21G16G 6G24G31G 5G 3G29
  -4091143.17046  -3174912.04343  24557392.6824   24557389.2344
 -21636365.53548 -16851638.45646  20873793.2574   20873788.9844
 -21288648.18648 -16583432.36546  21133693.6944   21133688.8944
 -11812349.17947  -9198728.05144  22769325.2204   22769321.5214
  -5137771.11848 -10687914.73046  20441887.5594   20441884.5284
 -15913525.94647 -12390319.90746  22226465.5444   22226461.4654
   -363056.64346   -282732.88343  25118967.4934   25118965.0634
  -5124911.46046  -3983558.22143  23805228.5944   23805224.7684
 -12195330.07147  -9491061.08145  22777320.4534   22777317.4794
 10  3 18  3  0 30.0000000  0 10G30G21G16G 6G24G31G 5G18G 3G29
  -3985110.37447  -3092289.07843  24577569.7824   24577566.5174
 -21647426.48348 -16860257.37446  20871688.5434   20871683.6914
 -21344055.32648 -16626606.74746  21123149.6834   21123145.3024
 -11884342.64747  -9254826.85144  22755625.8504   22755621.6234
  -5127029.46748 -10679544.58946  20443931.1854   20443928.6084
 -15832034.39848 -12326820.00746  22241972.6744   22241969.6944
   -318756.68246   -248213.41343  25127397.8164   25127394.7794
    438571.31345                  24322501.7784
  -5216804.69547  -4055163.30743  23787741.8624   23787738.6304
 -12119062.07147  -9431631.48345  22791833.4774   22791831.2114
 10  3 18  3  1  0.0000000  0 10G30G21G16G 6G24G31G 5G18G 3G29
  -3878966.72946  -3009579.75943  24597768.4104   24597764.9514
 -21658009.10048 -16868503.56046  20869674.9674   20869669.8414
 -21399164.12848 -16669548.67846  21112663.0334   21112658.5884
 -11956183.00047  -9310806.32544  22741954.2434   22741951.2484
  -5115712.29648 -10670726.02346  20446085.2084   20446082.2634
 -15750199.41347 -12263052.51146  22257545.6334   22257542.1504
   -273966.45246   -213311.92943  25135921.0484   25135917.6904
    357714.94445                  24307115.8724
  -5308597.14547  -4126689.89143  23770274.1474   23770270.5794
 -12042706.64447  -9372133.74745  22806363.3964   22806360.6104
 10  3 18  3  1 30.0000000  0 10G30G21G16G 6G24G31G 5G18G 3G29
  -3772712.41346  -2926784.23443  24617988.0324   24617984.2594
 -21668111.64748 -16876375.67546  20867752.5124   20867747.5554
 -21453971.04848 -16712255.38246  21102233.6954   21102228.8794
 -12027868.19446  -9366664.90244  22728313.6194   22728310.8244
  -5103818.88848 -10661458.43746  20448348.4314   20448345.3574
 -15668021.74347 -12199017.96845  22273183.4854   22273179.5164
   -228685.40445   -178027.94943  25144538.4754   25144532.6034
    276938.09546                  24291744.6784
  -5400286.67646  -4198136.28843  23752826.2094   23752822.2424
 -11966263.21547  -9312567.44545  22820910.1714   22820907.4574
 10  3 18  3  2  0.0000000  0 10G30G21G16G 6G24G31G 5G18G 3G29
  -3666348.70146  -2843903.42643  24638229.0544   24638224.2684
 -21677734.80948 -16883874.24146  20865921.2374   20865916.4224
 -21508474.61548 -16754725.67946  21091862.1624   21091856.8494
 -12099398.44547  -9422402.72344  22714701.8344   22714697.9954
  -5091350.73948 -10651742.99446  20450720.7694   20450718.3074
 -15585504.71047 -12134718.97845  22288885.8784   22288882.0824
   -182915.01246   -142362.74443  25153248.4594   25153243.6374
    196243.22046                  24276389.0244
  -5491873.07246  -4269502.26943  23735397.8884   23735394.7184
 -11889732.43647  -9252933.10345  22835473.4464   22835470.4954
 10  3 18  3  2 30.0000000  0 10G30G21G16G 6G24G31G 5G18G 3G29
  -3559875.70446  -2760937.48643  24658488.9094   24658485.2424
 -21686877.95148 -16890998.75646  20864181.2724   20864176.0814
 -21562672.09148 -16796957.47546  21081548.6654   21081543.7044
 -12170772.63747  -9478018.98144  22701119.4044   22701115.1164
  -5078307.80448 -10641579.65246  20453203.2394   20453200.4864
 -15502649.82947 -12070156.74645  22304652.7334   22304648.9284
   -136656.06546   -106316.78443  25162049.3424   25162046.6314
    115633.97646                  24261050.5204
  -5583354.56247  -4340786.51243  23717989.2894   23717986.7604
 -11813114.32947  -9193230.69445  22850053.2204   22850049.3794
 10  3 18  3  3  0.0000000  0 10G30G21G16G 6G24G31G 5G18G 3G29
  -3453295.49746  -2677887.96443  24678770.0194   24678766.9554
 -21695541.39748 -16897749.50146  20862532.8164   20862527.8394
 -21616561.72748 -16838949.41346  21071293.7844   21071289.5454
 -12241990.73647  -9533513.59644  22687566.9034   22687563.3944
  -5064691.25248 -10630969.34546  20455794.0004   20455791.2284
 -15419460.07047 -12005333.56045  22320483.5324   22320479.7314
    -89910.06746    -69891.36043  25170945.4234   25170941.7504
     35113.11446                  24245726.7984
  -5674731.15047  -4411989.03343  23700600.9194   23700598.2684
 -11736409.83647  -9133460.97445  22864649.8904   22864646.5814
 10  3 18  3  3 30.0000000  0 10G30G21G16G 6G24G31G 5G18G 3G29
  -3346609.61146  -2594756.15943  24699071.6514   24699068.7504
 -21703725.56748 -16904126.76446  20860975.2554   20860970.6584
 -21670142.41948 -16880700.61046  21061097.4344   21061092.8064
 -12313052.88247  -9588886.67444  22674044.1714   22674041.0114
  -5050502.57048 -10619913.24346  20458494.2654   20458491.1244
 -15335938.75247 -11940252.02645  22336376.4024   22336373.5864
    -42678.95246    -33087.84443  25179933.7804   25179929.9174
    -45317.14746                  24230422.0784
  -5766002.19647  -4483109.31143  23683232.3294   23683229.4304
 -11659620.40747  -9073625.05745  22879262.7414   22879258.8244
 10  3 18  3  4  0.0000000  0 10G30G21G16G 6G24G31G 5G18G 3G29
  -3239819.30246  -2511542.96943  24719393.6684   24719390.5714
 -21711430.85948 -16910130.88446  20859508.6644   20859504.0034
 -21723412.32148 -16922209.60946  21050960.7304   21050955.5674
 -12383958.76647  -9644137.99144  22660551.3884   22660547.9864
  -5035742.73448 -10608412.05946  20461302.8354   20461300.4344
 -15252088.30847 -11874914.02345  22352332.8874   22352329.3424
      5035.96946      4092.58643  25189012.9934   25189009.4184
   -125654.01346                  24215135.0594
  -5857167.63247  -4554147.32843  23665884.1214   23665880.4744
 -11582746.44647  -9013723.26645  22893891.3804   22893887.1834
 10  3 18  3  4 30.0000000  0 10G30G21G16G 6G24G31G 5G18G 3G29
  -3132926.28946  -2428249.71443  24739734.5644   24739730.5554
 -21718657.60348 -16915762.10146  20858133.8494   20858128.9274
 -21776369.30648 -16963474.80046  21040883.5424   21040878.7454
 -12454708.28147  -9699267.47045  22647088.2594   22647084.1464
  -5020412.79148 -10596466.64147  20464220.0684   20464217.2134
 -15167911.64347 -11809321.84245  22368351.1544   22368348.0314
     53233.39246     41649.07443  25198185.0704   25198180.7934
   -205894.69046                  24199865.2334
  -5948226.83247  -4625102.50343  23648556.0394   23648552.9254
 -11505788.63147  -8953756.15245  22908535.8234   22908532.3134
 10  3 18  3  5  0.0000000  0 10G30G21G16G 6G24G31G 5G18G 3G29
  -3025931.39246  -2344877.04043  24760095.6964   24760091.1424
 -21725405.43548 -16921020.14247  20856849.5914   20856845.0074
 -21829012.04548 -17004495.11646  21030865.8364   21030861.4734
 -12525300.90147  -9754274.69044  22633655.4014   22633651.7054
  -5004513.27248 -10584077.40246  20467245.3894   20467242.8914
 -15083411.14247 -11743477.29745  22384431.5284   22384428.2534
    101912.16446     79580.62143  25207448.3524   25207444.8714
   -286036.20345                  24184614.0314
  -6039178.46547  -4695973.91543  23631247.7254   23631244.9504
 -11428747.48047  -8893724.08545  22923195.9644   22923192.5054
 10  3 18  3  5 30.0000000  0 10G30G21G16G 6G24G31G 5G18G 3G29
  -2918835.40246  -2261425.57043  24780474.7854   24780471.1694
 -21731674.44348 -16925905.09146  20855656.6584   20855651.7194
 -21881337.27648 -17045268.01746  21020908.6324   21020903.7344
 -12595735.86547  -9809159.06645  22620251.4374   22620247.5294
  -4988044.92048 -10571244.91546  20470379.2934   20470376.7134
 -14998589.28547 -11677382.34845  22400572.1884   22400568.6964
    151071.51546    117886.52843  25216802.7994   25216799.6444
   -366075.36445                  24169380.4694
  -6130021.66947  -4766760.82044  23613961.2314   23613958.2444
 -11351623.21347  -8833627.25945  22937872.3504   22937868.7254
 10  3 18  3  6  0.0000000  0 10G30G21G16G 6G24G31G 5G18G 3G29
  -2811640.37146  -2177896.95343  24800874.3694   24800869.5504
 -21737465.16248 -16930417.33646  20854554.8174   20854550.0694
 -21933344.14948 -17085792.84546  21011012.1244   21011006.9594
 -12666013.62147  -9863920.94945  22606878.2704   22606874.2954
  -4971009.54648 -10557970.59846  20473621.0634   20473618.4654
 -14913449.23547 -11611039.46046  22416774.4874   22416770.5084
    200708.92346    156565.06743  25226248.4254   25226245.5004
   -446009.62945                  24154173.4724
  -6220756.58347  -4837463.35943  23596695.6494   23596691.5184
 -11274417.33147  -8773466.83945  22952564.0234   22952560.7964
 10  3 18  3  6 30.0000000  0  9G30G21G16G 6G24G31G18G 3G29
  -2704350.71346  -2094294.63343  24821289.8154   24821285.7054
 -21742781.25048 -16934559.73347  20853543.3304   20853538.4964
 -21985034.41848 -17126070.97946  21001175.6214   21001170.7504
 -12736137.10747  -9918562.59744  22593534.2364   22593530.7964
  -4953411.39148 -10544257.75046  20476970.1194   20476967.5344
 -14827996.86947 -11544453.20946  22433035.2304   22433031.6634
   -525839.54845                  24138982.4314
  -6311385.78247  -4908083.50843  23579449.7894   23579446.4074
 -11197133.53147  -8713245.69645  22967270.7344   22967266.6004
 10  3 18  3  7  0.0000000  0  9G30G21G16G 6G24G31G18G 3G29
  -2596962.38746  -2010615.43943  24841725.2544   24841721.8044
 -21747617.78248 -16938328.45746  20852622.6104   20852618.3854
 -22036400.51448 -17166096.51046  20991401.3764   20991396.6854
 -12806100.57147  -9973079.58145  22580220.6414   22580216.9614
  -4935246.38748 -10530103.17846  20480426.2994   20480424.0324
 -14742229.55347 -11477621.53646  22449356.3584   22449352.2494
   -605557.25645                  24123809.2244
  -6401903.05647  -4978616.41944  23562224.8374   23562222.6334
 -11119767.01847  -8652960.11945  22981992.9314   22981989.7344
 10  3 18  3  7 30.0000000  0  9G30G21G16G 6G24G31G18G 3G29
  -2489479.17646  -1926862.30343  24862179.3354   24862176.0984
 -21751977.24648 -16941725.43447  20851793.3944   20851789.2694
 -22087443.17948 -17205870.01046  20981687.8464   20981683.2464
 -12875906.33847 -10027473.66745  22566936.3084   22566932.8574
  -4916517.72648 -10515509.42246  20483990.3234   20483987.8694
 -14656152.48647 -11410548.49146  22465736.2814   22465732.9834
   -685161.86945                  24108662.4464
  -6492310.13347  -5049063.49044  23545020.4194   23545018.4314
 -11042321.01147  -8592612.59345  22996730.4534   22996727.4174
 10  3 18  3  8  0.0000000  0  9G30G21G16G 6G24G31G18G 3G29
  -2381901.88846  -1843035.86943  24882649.4924   24882647.5864
 -21755859.49848 -16944750.56346  20851054.6114   20851050.1104
 -22138160.46848 -17245389.97046  20972037.3684   20972031.9574
 -12945553.64347 -10081744.27945  22553683.7914   22553679.8474
  -4897226.28148 -10500477.12146  20487661.6544   20487658.5554
 -14569768.02347 -11343235.94946  22482174.6024   22482171.1514
   -764650.31845                  24093536.0974
  -6582606.37147  -5119424.17844  23527837.8244   23527835.9814
 -10964795.67947  -8532203.24745  23011483.5074   23011479.4834
 10  3 18  3  8 30.0000000  0  9G30G21G16G 6G24G31G18G 3G29
  -2274232.47446  -1759137.62543  24903138.8684   24903135.6254
 -21759265.67548 -16947404.72446  20850406.4994   20850401.6804
 -22188550.96048 -17284655.28746  20962447.9464   20962443.2824
 -13015043.10947 -10135891.89745  22540460.3024   22540456.4104
  -4877373.95348 -10485007.78346  20491439.3984   20491436.4634
 -14483079.76747 -11275686.67146  22498671.1384   22498666.9474
   -844020.55645                  24078432.8374
  -6672791.84647  -5189698.54044  23510676.4584   23510674.5054
 -10887192.53947  -8471733.28145  23026251.1404   23026247.7104
 10  3 18  3  9  0.0000000  0  9G30G21G16G 6G24G31G18G 3G29
  -2166471.79646  -1675168.29043  24923645.0624   24923641.3724
 -21762195.48948 -16949687.69246  20849848.8934   20849843.9954
 -22238611.84748 -17323663.77846  20952921.5034   20952916.9454
 -13084373.59947 -10189915.65045  22527267.0504   22527262.1044
  -4856961.34048 -10469101.83746  20495323.8194   20495320.8314
 -14396089.58247 -11207902.10245  22515224.5754   22515220.1854
   -923269.43946                  24063352.8174
  -6762865.17847  -5259885.54444  23493535.7444   23493532.9094
 -10809511.50547  -8411202.63045  23041032.6554   23041030.0674
 10  3 18  3  9 30.0000000  0  9G30G21G16G 6G24G31G18G 3G29
  -2058621.94746  -1591129.47443  24944167.9874   24944165.1894
 -21764649.96248 -16951600.26046  20849381.7794   20849377.4874
 -22288342.25048 -17362414.72846  20943458.2664   20943453.1974
 -13153545.62847 -10243815.91845  22514103.9024   22514098.9534
  -4835990.32048 -10452760.77646  20499314.6014   20499311.7694
 -14308801.11647 -11139885.10645  22531835.1284   22531831.0954
  -1002394.51846  -2150603.10243  24048295.4314   24048292.2994
  -6852826.16347  -5329985.01344  23476417.0794   23476412.3534
 -10731753.89046  -8350612.29645  23055829.8724   23055826.6314
 10  3 18  3 10  0.0000000  0  9G30G21G16G 6G24G31G18G 3G29
  -1950684.20846  -1507022.17743  24964708.2964   24964705.2224
 -21766629.83948 -16953143.01046  20849004.9564   20849000.0404
 -22337740.51648 -17400906.89046  20934057.9364   20934053.1244
 -13222559.18647 -10297592.70245  22500970.9054   22500967.2614
  -4814462.25048 -10435985.64446  20503411.2934   20503408.4224
 -14221217.15148 -11071637.87145  22548501.7454   22548497.4974
  -1081392.93846  -2212160.30043  24033262.2994   24033259.0314
  -6942674.44247  -5399996.63844  23459319.0894   23459315.0854
 -10653920.23347  -8289962.70345  23070641.1624   23070638.0974
 10  3 18  3 10 30.0000000  0  9G30G21G16G 6G24G31G18G 3G29
  -1842659.20346  -1422846.87643  24985264.5884   24985261.7374
 -21768134.59348 -16954315.55346  20848718.7244   20848714.1024
 -22386804.13848 -17439138.28446  20924721.4304   20924717.1004
 -13291413.16947 -10351245.14945  22487868.4944   22487864.2294
  -4792377.79548 -10418776.99646  20507613.4954   20507610.8744
 -14133339.55647 -11003161.81945  22565224.4844   22565219.4214
  -1160261.32646  -2273616.18543  24018254.6084   24018249.7684
  -7032408.87747  -5469919.56344  23442243.8314   23442239.7984
 -10576010.70547  -8229253.98945  23085466.7384   23085463.2974
 10  3 18  3 11  0.0000000  0  9G30G21G16G 6G24G31G18G 3G29
  -1734548.97346  -1338605.16743  25005837.6794   25005833.7884
 -21769165.21548 -16955118.62546  20848522.2824   20848517.7634
 -22435531.92448 -17477107.98246  20915448.6094   20915443.8424
 -13360108.02447 -10404773.58645  22474796.2874   22474792.6304
  -4769738.77148 -10401136.19746  20511921.7064   20511918.8644
 -14045171.88447 -10934459.72646  22582002.5644   22581998.2854
  -1238997.63347  -2334969.17443  24003271.9814   24003266.6184
  -7122028.91147  -5539753.33443  23425189.1744   23425184.4764
 -10498026.30047  -8168486.92145  23100306.5524   23100302.7334
 10  3 18  3 11 30.0000000  0  9G30G21G16G 6G24G31G18G 3G29
  -1626354.42646  -1254297.76043  25026426.2394   25026422.1764
 -21769721.82548 -16955552.34746  20848416.2034   20848412.0734
 -22483921.63148 -17514814.25146  20906240.5314   20906235.6824
 -13428642.99747 -10458177.45645  22461754.5674   22461750.4634
  -4746546.08948 -10383063.96946  20516334.9024   20516332.3034
 -13956716.85647 -10865533.74546  22598834.1474   22598830.8414
  -1317598.55846  -2396216.61444  23988313.9324   23988310.8474
  -7211534.12046  -5609497.62344  23408156.5934   23408152.6394
 -10419967.46847  -8107661.86445  23115160.8514   23115156.6314
 10  3 18  3 12  0.0000000  0  9G30G21G16G 6G24G31G18G 3G29
  -1518076.86346  -1169925.65242  25047030.7774   25047026.6844
 -21769804.70248 -16955616.91746  20848400.4374   20848396.1974
 -22531971.50148 -17552255.70946  20897097.0484   20897092.6844
 -13497017.99147 -10511456.66545  22448742.9544   22448739.1964
  -4722801.02748 -10364561.31546  20520853.3594   20520850.7644
 -13867976.97147 -10796385.81446  22615721.5744   22615716.6724
  -1396061.36046  -2457356.44943  23973383.2654   23973379.4554
  -7300923.91546  -5679151.99144  23391146.3864   23391142.3024
 -10341834.89047  -8046779.33445  23130029.1194   23130024.9094
 10  3 18  3 12 30.0000000  0  9G30G21G16G 6G24G31G18G 3G29
  -1409717.63846  -1085489.88142  25067650.6434   25067646.9954
 -21769414.01848 -16955312.48847  20848475.5504   20848470.3884
 -22579679.72448 -17589430.94146  20888018.8034   20888013.5994
 -13565232.37147 -10564610.72445  22435762.5884   22435759.3014
  -4698504.62148 -10345629.05746  20525477.1394   20525474.2944
 -13778954.89247 -10727017.93645  22632661.5544   22632656.7914
  -1474382.91046  -2518386.20444  23958479.4484   23958475.4244
  -7390197.09046  -5748715.48944  23374158.8184   23374155.3554
 -10263628.77447  -7985839.52645  23144910.9624   23144907.1734
 10  3 18  3 13  0.0000000  0  9G30G21G16G 6G24G31G18G 3G29
  -1301278.73446  -1000991.92642  25088285.7954   25088282.6764
 -21768551.68948 -16954640.54546  20848639.4134   20848634.7024
 -22627044.99448 -17626338.94946  20879005.2664   20879000.5844
 -13633287.09847 -10617640.36845  22422812.0684   22422809.3734
  -4673659.10648 -10326268.91146  20530205.0064   20530202.4484
 -13689654.39247 -10657433.12345  22649654.7874   22649650.2824
  -1552561.42246  -2579304.50143  23943601.9074   23943598.1024
  -7479354.00846  -5818188.38144  23357192.4394   23357188.8224
 -10185350.76847  -7924843.69345  23159807.1594   23159804.1084
 10  3 18  3 13 30.0000000  0  9G30G21G16G 6G24G31G18G 3G29
  -1192761.32046   -916432.88142  25108936.4244   25108933.5844
 -21767217.38148 -16953600.81747  20848892.8284   20848888.7374
 -22674065.34048 -17662978.19546  20870057.4024   20870052.6324
 -13701181.34447 -10670544.96945  22409892.1204   22409889.0684
  -4648265.48848 -10306481.67846  20535037.0274   20535034.3944
 -13600077.81247 -10587633.24045  22666700.3124   22666696.1544
  -1630593.67846  -2640108.80244  23928753.9064   23928749.4434
  -7568393.80346  -5887570.01243  23340248.9464   23340244.9094
 -10107000.98447  -7863791.95745  23174715.7094   23174712.5244
 10  3 18  3 14  0.0000000  0  9G30G21G16G 6G24G31G18G 3G29
  -1084166.32646   -831813.33542  25129600.2494   25129599.0084
 -21765411.34848 -16952193.50146  20849236.7524   20849232.3464
 -22720738.55848 -17699346.93146  20861176.0564   20861170.8994
 -13768914.43047 -10723323.99145  22397002.8924   22397000.0044
  -4622324.74848 -10286268.11146  20539973.7174   20539970.3854
 -13510227.61547 -10517620.09045  22683798.5154   22683793.7524
  -1708476.39646  -2700796.60144  23913932.3904   23913928.9704
  -7657315.41246  -5956859.57444  23323327.5854   23323324.1704
 -10028579.65847  -7802684.44045  23189639.2884   23189635.5224
 10  3 18  3 14 30.0000000  0  9G30G21G16G 6G24G31G18G 3G29
   -975495.77846   -747134.95342  25150279.3804   25150279.0984
 -21763134.71148 -16950419.50146  20849670.0434   20849665.4394
 -22767063.30548 -17735444.13446  20852360.5234   20852355.8914
 -13836486.81547 -10775977.78445  22384144.6834   22384141.4654
  -4595839.20948 -10265630.01746  20545013.7114   20545011.1604
 -13420107.40947 -10447396.55445  22700947.4784   22700943.2254
  -1786207.61747  -2761366.34544  23899141.5984   23899137.6344
  -7746118.93647  -6026057.12244  23306427.9824   23306425.2784
  -9950088.07247  -7741522.20145  23204575.6924   23204573.3964
 10  3 18  3 15  0.0000000  0  9G30G21G16G 6G24G31G18G 3G29
   -866750.30445   -662398.33542  25170973.9334   25170970.8294
 -21760387.36148 -16948278.71646  20850193.1594   20850188.1814
 -22813037.37948 -17771268.09046  20843612.2064   20843607.5414
 -13903897.53347 -10828505.59045  22371316.7974   22371313.8124
  -4568809.36348 -10244567.79546  20550157.4614   20550154.2894
 -13329719.17247 -10376964.19945  22718148.0764   22718143.6994
  -1863783.57747  -2821815.14944  23884379.2384   23884374.2404
  -7834802.98047  -6095161.54344  23289552.8784   23289550.2994
  -9871526.00147  -7680305.02945  23219525.6814   23219523.0424
 10  3 18  3 15 30.0000000  0 10G30G21G16G 6G24G31G22G18G 3G29
  41778409.56745                  25191677.7014
 -21757168.88048 -16945770.78846  20850805.2244   20850800.4914
 -22858657.88548 -17806816.53746  20834930.9924   20834926.1924
 -13971145.36747 -10880906.48345  22358519.4934   22358516.6194
  -4541236.10048 -10223082.14246  20555404.5264   20555401.7334
 -13239064.86647 -10306324.47645  22735398.8444   22735393.8904
    665291.08945                  25121612.3014
  -1941200.62047  -2882140.11543  23869647.6304   23869640.6304
  -7923365.57047  -6164171.31944  23272699.7514   23272696.8374
  -9792893.14247  -7619032.70045  23234488.2894   23234486.2594
 10  3 18  3 16  0.0000000  0 10G30G21G16G 6G24G31G22G18G 3G29
  41887297.04845                  25212401.8704
 -21753485.64348 -16942900.73246  20851506.4854   20851501.4304
 -22903928.67348 -17842092.46446  20826315.8014   20826311.3884
 -14038235.89447 -10933184.82045  22345752.7814   22345750.0014
  -4513126.13148 -10201178.26246  20560753.5914   20560750.5404
 -13148152.82047 -10235483.91345  22752698.6644   22752694.2394
    572440.17245                  25103943.7814
  -2018461.65847  -2942343.57143  23854945.2354   23854938.3044
  -8011812.25647  -6233090.78344  23255868.9574   23255864.8084
  -9714195.63047  -7557709.98545  23249464.5104   23249461.1824
 10  3 18  3 16 30.0000000  0 10G30G21G16G 6G24G31G22G18G 3G29
  41996255.86946  32737346.66643  25233136.9944   25233133.4394
 -21749332.67848 -16939664.64847  20852296.5384   20852291.8484
 -22948842.82848 -17877090.49746  20817769.1754   20817764.4184
 -14105163.33547 -10985336.06445  22333017.1664   22333013.8944
  -4484475.56748 -10178853.13946  20566205.4844   20566202.3644
 -13056980.64547 -10164440.68545  22770048.3344   22770044.3164
    479478.60546                  25086253.6234
  -2095558.55147  -3002419.10743  23840273.6734   23840266.6614
  -8100136.44947  -6301914.81744  23239061.0504   23239058.5014
  -9635428.59847  -7496333.10645  23264453.9644   23264449.6814
 10  3 18  3 17  0.0000000  0 10G30G21G16G 6G24G31G22G18G 3G29
  42105284.30745  32822303.84442  25253884.2294   25253881.3054
 -21744710.89248 -16936063.26047  20853176.1544   20853171.2414
 -22993398.71348 -17911809.38746  20809290.2854   20809285.9824
 -14171927.82347 -11037360.31745  22320312.0024   22320308.7814
  -4455286.36648 -10156108.31146  20571760.1224   20571757.3294
 -12965551.71247 -10093197.40245  22787446.6564   22787442.2544
    386408.50345                  25068541.4634
  -2172488.95647  -3062364.86643  23825634.0244   23825627.4754
  -8188338.70147  -6370643.81844  23222277.3344   23222273.8974
  -9556593.30547  -7434903.00245  23279455.7694   23279452.2254
 10  3 18  3 17 30.0000000  0 10G30G21G16G 6G24G31G22G18G 3G29
  42214380.42446  32907313.76143  25274645.1394   25274642.0714
 -21739621.65848 -16932097.62646  20854144.4894   20854139.3714
 -23037595.08748 -17946248.12446  20800879.8024   20800875.5224
 -14238529.69547 -11089257.89145  22307638.3144   22307634.2174
  -4425560.75948 -10132945.50146  20577416.5524   20577413.4854
 -12873869.13147 -10021756.45445  22804893.4194   22804888.6694
    293231.72445                  25050811.4134
  -2249250.21447  -3122178.86243  23811026.6754   23811021.1544
  -8276418.34546  -6439277.28444  23205516.4264   23205512.6034
  -9477690.70047  -7373420.47345  23294470.4554   23294466.6854
 10  3 18  3 18  0.0000000  0  9G21G16G 6G24G31G22G18G 3G29
 -21734064.67448 -16927767.50246  20855202.0374   20855197.6174
 -23081429.27148 -17980404.61746  20792538.4744   20792534.0924
 -14304967.88147 -11141027.90945  22294995.6194   22294991.0174
  -4395299.10648 -10109364.99046  20583175.2484   20583172.2284
 -12781935.10347  -9950119.54345  22822388.4774   22822383.1184
    199951.57545                  25033061.0034
  -2325838.82847  -3181858.27843  23796452.2534   23796447.3824
  -8364374.07246  -6507814.21744  23188778.5904   23188775.3374
  -9398720.36747  -7311885.17345  23309498.0264   23309493.5074
 10  3 18  3 18 30.0000000  0  9G21G16G 6G24G31G22G18G 3G29
 -21728043.29748 -16923075.50347  20856347.7614   20856343.0544
 -23124902.14048 -18014279.58346  20784265.8094   20784261.1704
 -14371244.71847 -11192672.17845  22282383.3734   22282379.8974
  -4364505.76248 -10085370.16746  20589035.2934   20589031.9804
 -12689755.11547  -9878290.96945  22839928.8644   22839924.0024
    106568.00245                  25015291.3824
  -2402254.90647  -3241403.25844  23781911.0504   23781905.8004
  -8452207.86046  -6576256.09344  23172064.2964   23172061.2204
  -9319685.45847  -7250299.54645  23324537.4924   23324533.8564
 10  3 18  3 19  0.0000000  0  9G21G16G 6G24G31G22G18G 3G29
 -21721556.30848 -16918020.70247  20857582.1614   20857577.3324
 -23168010.17548 -18047870.26646  20776062.9934   20776058.2444
 -14437358.31047 -11244189.25345  22269802.3304   22269798.9064
  -4333180.42448 -10060960.81046  20594995.6954   20594993.2034
 -12597330.36747  -9806271.72145  22857516.8834   22857511.9784
     13085.45445                  24997503.2184
  -2478493.86747  -3300810.22944  23767403.0524   23767398.3594
  -8539917.61946  -6644601.33844  23155373.4334   23155370.6154
  -9240584.98047  -7188662.83245  23339589.6524   23339586.7324
 10  3 18  3 19 30.0000000  0  9G21G16G 6G24G31G22G18G 3G29
 -21714603.41048 -16912602.86246  20858905.2164   20858900.5914
 -23210750.94548 -18081174.75946  20767929.5424   20767924.5244
 -14503307.59147 -11295578.28745  22257252.4194   22257248.7944
  -4301324.12948 -10036137.72446  20601057.8444   20601055.1464
 -12504662.76947  -9734063.20245  22875151.3404   22875146.6664
    -80492.89045                  24979692.7964
  -2554551.78047  -3360076.11244  23752929.8824   23752925.4414
  -8627501.54046  -6712848.53844  23138706.5764   23138703.3084
  -9161418.89547  -7126975.00644  23354654.4564   23354652.4264
 10  3 18  3 20  0.0000000  0  9G21G16G 6G24G31G22G18G 3G29
 -21707187.26448 -16906824.04746  20860316.4824   20860311.5834
 -23253124.26448 -18114192.92646  20759866.1304   20759861.3434
 -14569093.85547 -11346840.29645  22244734.1414   22244730.6974
  -4268939.93048 -10010903.27246  20607220.6754   20607217.1804
 -12411757.01347  -9661669.09845  22892830.6934   22892826.2574
   -174166.47945                  24961864.3804
  -2630427.84547  -3419200.32044  23738491.1204   23738487.0004
  -8714960.66347  -6780998.45544  23122063.3474   23122060.5064
  -9082188.69247  -7065237.22544  23369731.3914   23369728.7024
 10  3 18  3 20 30.0000000  0  9G21G16G 6G24G31G22G18G 3G29
 -21699308.02548 -16900684.37646  20861816.1144   20861810.9714
 -23295127.91648 -18146923.05346  20751873.1694   20751868.5174
 -14634716.42947 -11397974.77045  22232246.0294   22232243.0694
  -4236029.23248  -9985258.56946  20613483.0074   20613479.8054
 -12318615.39547  -9589091.24845  22910555.0044   22910551.1184
   -267932.06945                  24944019.3384
  -2706118.51947  -3478180.05244  23724088.0914   23724083.1414
  -8802293.91947  -6849050.33744  23105444.8844   23105441.3484
  -9002894.66947  -7003449.71345  23384820.7954   23384817.6024
 10  3 18  3 21  0.0000000  0  9G21G16G 6G24G31G22G18G 3G29
 -21690967.34248 -16894185.13046  20863403.1164   20863398.1914
 -23336761.27348 -18179364.64046  20743950.6854   20743945.2994
 -14700175.93947 -11448982.16145  22219789.8834   22219786.5144
  -4202594.53048  -9959205.56146  20619845.4884   20619842.4594
 -12225241.78747  -9516332.60445  22928323.6274   22928319.0854
                                  24926160.2144
  -2781622.50847  -3537014.33444  23709719.3954   23709714.8264
  -8889501.75247  -6917004.47244  23088849.9754   23088846.1904
  -8923538.51647  -6941613.75345  23399922.5794   23399918.8624
 10  3 18  3 21 30.0000000  0  9G21G16G 6G24G31G22G18G 3G29
 -21682163.85748 -16887325.26046  20865078.2754   20865073.4034
 -23378020.53248 -18211514.70546  20736098.9044   20736094.1994
 -14765470.34447 -11499860.90945  22207364.4414   22207361.5384
  -4168635.23148  -9932743.76546  20626307.5074   20626304.9364
 -12131636.57447  -9443393.46645  22946135.9524   22946131.4554
   -455729.63646                  24908287.2444
  -2856934.98247  -3595699.37944  23695388.2794   23695383.5344
  -8976581.55147  -6984858.82444  23072279.6804   23072275.5124
  -8844118.24347  -6879727.85245  23415035.3614   23415031.5724
 10  3 18  3 22  0.0000000  0  9G21G16G 6G24G31G22G18G 3G29
 -21672901.23448 -16880107.63547  20866840.9704   20866835.8904
 -23418906.07848 -18243373.56546  20728318.9794   20728314.7304
 -14830601.68447 -11550612.60545  22194970.7474   22194967.7114
  -4134155.62848  -9905876.54146  20632869.1544   20632866.5144
 -12037805.84247  -9370278.60045  22963991.1194   22963987.0674
   -549757.04446                  24890395.2704
  -2932054.77047  -3654234.27144  23681093.4824   23681088.7914
  -9063534.74947  -7052614.54544  23055732.7474   23055728.7354
  -8764637.66747  -6817794.95845  23430159.5154   23430156.0174
 10  3 18  3 22 30.0000000  0  9G21G16G 6G24G31G22G18G 3G29
 -21663177.65748 -16872530.81846  20868691.2664   20868686.4904
 -23459414.54148 -18274938.60246  20720610.4934   20720606.2654
 -14895567.94647 -11601235.65845  22182608.3074   22182604.5664
  -4099155.82248  -9878603.95046  20639529.3534   20639526.5454
 -11943750.67747  -9296988.89145  22981888.9494   22981884.9294
   -643866.19346                  24872485.5294
  -3006977.81247  -3712615.84844  23666836.3974   23666831.3144
  -9150359.21847  -7120269.97944  23039210.5364   23039205.9714
  -8685094.82247  -6755813.54645  23445296.1814   23445292.5964
 10  3 18  3 23  0.0000000  0  9G21G16G 6G24G31G22G18G 3G29
 -21652995.06248 -16864596.32246  20870628.8894   20870624.8444
 -23499544.64348 -18306208.81546  20712974.1484   20712969.3104
 -14960369.66447 -11651730.48145  22170276.9214   22170273.7824
  -4063638.05248  -9850927.77346  20646288.1474   20646284.7504
 -11849474.31247  -9223526.79945  22999829.3854   22999825.2824
   -738055.22246                  24854561.9524
  -3081702.25547  -3770842.70644  23652616.4164   23652611.0124
  -9237054.71247  -7187824.89044  23022713.1814   23022708.5824
  -8605491.16747  -6693784.74445  23460444.5054   23460441.9584
 10  3 18  3 23 30.0000000  0  9G21G16G 6G24G31G22G18G 3G29
 -21642353.84048 -16856304.45346  20872653.8214   20872649.2274
 -23539294.62348 -18337182.82746  20705409.9504   20705404.8174
 -15025005.95547 -11702096.41945  22157976.5244   22157972.7344
  -4027603.29248  -9822848.75446  20653145.4854   20653142.2924
 -11754979.02747  -9149894.12445  23017811.1014   23017807.3154
   -832320.95845                  24836623.8374
  -3156224.56847  -3828912.02344  23638435.3444   23638430.7814
  -9323620.38547  -7255278.63944  23006239.6084   23006236.0054
  -8525826.76547  -6631708.61244  23475603.8554   23475601.2154
 10  3 18  3 24  0.0000000  0  9G21G16G 6G24G31G22G18G 3G29
 -21631254.52948 -16847655.64246  20874765.9324   20874761.6594
 -23578662.27448 -18367858.90846  20697918.1944   20697914.4664
 -15089476.46547 -11752333.17045  22145708.3794   22145704.9244
  -3991053.30648  -9794368.23546  20660100.4244   20660098.3544
 -11660267.85947  -9076093.22645  23035834.3214   23035830.4774
   -926660.18345                  24818667.6804
  -3230541.68547  -3886821.42244  23624292.5404   23624288.9084
  -9410055.16047  -7322630.40044  22989791.9984   22989787.1674
  -8446101.73447  -6569585.24244  23490774.7324   23490772.1004
 10  3 18  3 24 30.0000000  0  9G21G16G 6G24G31G22G18G 3G29
 -21619698.64848 -16838651.06347  20876965.0084   20876960.1754
 -23617647.04848 -18398236.67146  20690500.0574   20690495.4864
 -15153781.71148 -11802441.13745  22133471.4074   22133468.1874
  -3953990.82848  -9765488.36546  20667153.3854   20667150.4314
 -11565344.45247  -9002126.94745  23053897.4684   23053894.0894
                                  24800703.1794
  -3304651.82147  -3944569.57344  23610190.1084   23610185.6704
  -9496359.50447  -7389880.52644  22973369.0184   22973364.2614
  -8366317.11747  -6507415.41845  23505957.9504   23505955.6144
 10  3 18  3 25  0.0000000  0  9G21G16G 6G24G31G22G18G 3G29
 -21607686.98948 -16829291.32846  20879250.4174   20879246.5724
 -23656246.64548 -18428314.27846  20683154.7444   20683149.4764
 -15217921.20748 -11852419.94645  22121266.4194   22121263.0324
  -3916417.32948  -9736210.31746  20674303.1414   20674299.9264
 -11470211.23447  -8927997.18245  23072001.0434   23071997.7294
  -1115551.83845                  24782725.3414
  -3378552.13947  -4002154.24644  23596127.4214   23596122.8054
  -9582532.10147  -7457027.98544  22956970.5094   22956967.4114
  -8286473.61947  -6445199.71645  23521151.3304   23521149.7554
 10  3 18  3 25 30.0000000  0  9G21G16G 6G24G31G22G18G 3G29
 -21595220.62248 -16819577.26246  20881623.0694   20881618.5384
 -23694459.64848 -18458090.64047  20675882.7644   20675878.2354
 -15281894.90648 -11902269.57245  22109092.3774   22109088.2244
  -3878334.77648  -9706535.60846  20681550.4944   20681547.4684
 -11374871.76047  -8853706.71345  23090143.4904   23090139.8974
  -1210099.28545                  24764733.5464
  -3452240.05947  -4059573.35944  23582105.2004   23582100.9214
  -9668572.90147  -7524072.72344  22940597.5974   22940593.9094
  -8206571.79447  -6382938.57345  23536355.9974   23536353.5754
 10  3 18  3 26  0.0000000  0  9G21G16G 6G24G31G22G18G 3G29
 -21582300.11148 -16809509.32646  20884081.4484   20884076.4414
 -23732284.31548 -18487564.40646  20668685.1444   20668681.0064
 -15345702.56748 -11951989.82145  22096950.1924   22096946.9414
  -3839744.85148  -9676465.53446  20688893.7294   20688891.3584
 -11279328.71547  -8779257.60645  23108324.8174   23108320.2814
                                  24746728.0744
  -3525712.69447  -4116824.78444  23568123.7764   23568119.7334
  -9754481.10547  -7591014.15844  22924249.3044   22924247.2714
  -8126612.01347  -6320632.26544  23551571.8924   23551568.3454
 10  3 18  3 26 30.0000000  0  8G21G16G 6G24G31G18G 3G29
 -21568925.64748 -16799087.66846  20886626.6644   20886622.0114
 -23769718.22448 -18516733.70747  20661561.8964   20661557.7954
 -15409343.23648 -12001579.93045  22084839.5154   22084836.6624
  -3800648.54348  -9646000.86246  20696333.0874   20696330.6404
 -11183584.18747  -8704651.48445  23126544.7554   23126539.1044
  -3598966.40447  -4173905.57244  23554184.1104   23554179.3554
  -9840255.34447  -7657851.21144  22907926.8914   22907924.9714
  -8046594.03747  -6258280.61445  23566799.2594   23566794.6604
 10  3 18  3 27  0.0000000  0  8G21G16G 6G24G31G18G 3G29
 -21555099.07948 -16788313.70246  20889257.5134   20889252.8974
 -23806760.90148 -18545598.10747  20654512.4064   20654508.1204
 -15472817.59148 -12051040.44345  22072761.0554   22072757.9314
  -3761048.74548  -9615143.86446  20703869.0784   20703866.0774
 -11087642.26347  -8629891.57545  23144801.4094   23144797.0664
  -3671999.60047  -4230814.58144  23540286.7404   23540282.1104
  -9925895.70347  -7724583.93444  22891630.1224   22891627.6184
  -7966519.63547  -6195884.98445  23582036.5114   23582033.2884
 10  3 18  3 27 30.0000000  0  9G21G16G 6G24G31G22G18G 3G29
 -21540819.84148 -16777187.02046  20891975.1004   20891970.3914
 -23843408.50148 -18574154.68646  20647538.6614   20647533.9494
 -15536123.83047 -12100369.98645  22060714.0474   22060711.3074
  -3720945.80348  -9583894.83646  20711500.3904   20711496.9254
 -10991504.07447  -8554978.72745  23163096.2244   23163090.5874
   -551355.60945                  24692649.8354
  -3744807.90447  -4287548.31144  23526431.1874   23526427.0104
 -10011400.34847  -7791210.91744  22875359.5044   22875355.7734
  -7886387.42947  -6133444.31045  23597285.5484   23597282.5294
 10  3 18  3 28  0.0000000  0  9G21G16G 6G24G31G22G18G 3G29
 -21526091.74548 -16765710.58647  20894777.8364   20894773.1334
 -23879662.71348 -18602404.71247  20640639.6484   20640635.6304
 -15599264.44348 -12149570.44645  22048698.8984   22048695.9194
  -3680344.21148  -9552257.22946  20719226.6284   20719223.5274
 -10895175.36947  -8479917.39845  23181426.7264   23181421.4564
   -646197.58945                  24674600.9624
  -3817391.01847  -4344106.57544  23512619.0134   23512614.1104
 -10096771.12247  -7857733.57544  22859114.1984   22859111.3344
  -7806200.32447  -6070960.88944  23612544.7824   23612541.5104
 10  3 18  3 28 30.0000000  0  9G21G16G 6G24G31G22G18G 3G29
 -21510913.72348 -16753883.54846  20897665.7864   20897661.3134
 -23915519.80048 -18630345.30547  20633816.2354   20633812.5324
 -15662237.27647 -12198640.18145  22036715.4084   22036712.9704
  -3639244.22848  -9520231.24346  20727047.4294   20727044.4884
 -10798657.42247  -8404708.63545  23199793.2624   23199789.3804
   -741090.47345                  24656544.8574
  -3889745.04047  -4400486.36044  23498851.3104   23498846.3814
 -10182006.01747  -7924150.35944  22842894.3154   22842891.1004
  -7725957.41647  -6008433.97444  23627814.4074   23627810.4644
 10  3 18  3 29  0.0000000  0  8G21G16G 6G24G31G18G 3G29
 -21495287.37648 -16741707.16946  20900639.2344   20900634.6254
 -23950978.37848 -18657975.36346  20627069.0744   20627064.3504
 -15725042.65547 -12247579.43145  22024763.7654   22024761.7154
  -3597647.97148  -9487818.58546  20734963.2424   20734960.3864
 -10701953.48647  -8329354.93645  23218195.5834   23218191.3134
  -3961867.56847  -4456685.72644  23485126.5544   23485121.7034
 -10267103.91547  -7990460.40944  22826700.9454   22826696.4194
  -7645659.32747  -5945864.05844  23643093.8714   23643090.6594
 10  3 18  3 29 30.0000000  0  8G21G16G 6G24G31G18G 3G29
 -21479212.87748 -16729181.58246  20903698.5754   20903693.4324
 -23986036.35148 -18685293.26346  20620398.0274   20620392.3824
 -15787679.56648 -12296387.40745  22012844.7164   22012841.7964
  -3555556.70248  -9455020.20346  20742972.9014   20742970.1624
 -10605065.63447  -8253857.91545  23236632.5104   23236628.5954
  -4033755.00447  -4512701.92044  23471446.4774   23471442.3454
 -10352064.13247  -8056663.16144  22810533.8384   22810529.4574
  -7565305.94347  -5883251.03745  23658385.3484   23658381.6354
 10  3 18  3 30  0.0000000  0  8G21G16G 6G24G31G18G 3G29
 -21462691.49648 -16716307.78146  20906842.4194   20906837.6324
 -24020692.57848 -18712298.11047  20613802.7494   20613798.3664
 -15850148.35348 -12345064.36945  22000957.4444   22000954.0084
  -3512972.96148  -9421838.05646  20751076.0254   20751073.3744
 -10507997.55247  -8178220.45945  23255103.8024   23255099.8944
  -4105405.12747  -4568533.15844  23457811.9964   23457808.1024
 -10436886.25947  -8122758.30644  22794392.7244   22794388.1114
  -7484898.36047  -5820595.80245  23673686.3804   23673683.4324
 10  3 18  3 30 30.0000000  0  9G21G16G 6G24G31G22G18G 3G29
 -21445722.74348 -16703085.36846  20910071.6234   20910066.4914
 -24054943.25348 -18738986.95547  20607285.3234   20607280.7814
 -15912446.84947 -12393608.64945  21989102.3814   21989099.1474
  -3469896.54348  -9388272.00746  20759273.3314   20759270.5754
 -10410750.24347  -8102443.36744  23273609.2954   23273605.0314
   -826457.61445                  24584226.8624
  -4176813.25547  -4624175.84144  23444223.6064   23444219.3294
 -10521567.45447  -8188743.64444  22778278.2104   22778274.2154
  -7404434.79147  -5757896.96045  23688998.3124   23688995.2954
 10  3 18  3 31  0.0000000  0  9G21G16G 6G24G31G22G18G 3G29
 -21428311.82048 -16689518.39946  20913384.8234   20913379.9234
 -24088791.71548 -18765362.38647  20600844.0344   20600839.2584
 -15974579.16547 -12442023.42845  21977278.8184   21977274.9254
  -3426334.27748  -9354327.38546  20767563.1174   20767560.3724
 -10313330.97147  -8026532.24745  23292148.0604   23292143.7484
   -921566.17146                  24566128.7154
  -4247981.47247  -4679631.61344  23430681.1264   23430676.6774
 -10606112.25347  -8254622.68744  22762189.8554   22762186.1934
  -7323920.52247  -5695158.57545  23704319.6544   23704316.6914
 10  3 18  3 31 30.0000000  0  9G21G16G 6G24G31G22G18G 3G29
 -21410456.22348 -16675604.94346  20916782.1254   20916777.5224
 -24122232.69048 -18791420.28047  20594480.4994   20594475.5664
 -16036541.72847 -12490305.93245  21965487.7754   21965483.8634
  -3382284.59948  -9320002.95546  20775945.2724   20775942.6944
 -10215739.38447  -7950486.85245  23310718.7414   23310715.0414
  -1016708.84546                  24548022.6144
  -4318903.62446  -4734895.61444  23417184.2714   23417180.3154
 -10690516.44547  -8320392.17844  22746127.5904   22746124.2984
  -7243352.20947  -5632378.11145  23719651.6214   23719648.6904
 10  3 18  3 32  0.0000000  0  9G21G16G 6G24G31G22G18G 3G29
 -21392157.92348 -16661346.51946  20920264.5304   20920259.3454
 -24155265.05748 -18817159.78746  20588194.6884   20588190.2164
 -16098335.02047 -12538456.55845  21953728.5404   21953724.9504
  -3337750.02748  -9285300.68646  20784420.1274   20784417.4294
 -10117979.14747  -7874310.06845  23329322.2724   23329317.6994
  -1111883.95046                  24529912.5394
  -4389577.20746  -4789965.92044  23403736.0924   23403731.6894
 -10774779.87847  -8386051.97444  22730092.9814   22730088.9014
  -7162731.16847  -5569556.55744  23734992.9744   23734989.2364
 10  3 18  3 32 30.0000000  0  9G21G16G 6G24G31G22G18G 3G29
 -21373417.84048 -16646743.86747  20923830.6194   20923825.5154
 -24187887.31248 -18842579.74346  20581986.7464   20581982.0094
 -16159958.68147 -12586475.00445  21942002.2484   21941998.3704
  -3292732.41348  -9250222.02546  20792986.7794   20792983.6294
 -10020052.89647  -7798003.90445  23347957.0804   23347953.1934
  -1207088.62845                  24511794.5894
  -4459999.63347  -4844840.52244  23390335.0294   23390330.6534
 -10858901.38647  -8451601.19544  22714085.1034   22714081.5724
  -7082057.74647  -5506694.15244  23750344.4394   23750339.5064
 10  3 18  3 33  0.0000000  0  9G21G16G 6G24G31G22G18G 3G29
 -21354237.25948 -16631797.95746  20927480.7564   20927476.0184
 -24220097.98748 -18867678.96546  20575857.5314   20575851.9334
 -16221412.66147 -12634361.20045  21930307.9904   21930304.0484
  -3247233.97748  -9214768.69246  20801644.8184   20801641.3584
  -9921963.95647  -7721570.98245  23366622.9944   23366618.8414
  -1302320.51246                  24493673.0444
  -4530168.97047  -4899517.91444  23376982.5854   23376977.2824
 -10942880.88547  -8517039.75344  22698104.9854   22698101.4134
  -7001332.65547  -5443791.49844  23765705.8304   23765701.6794
 10  3 18  3 33 30.0000000  0  9G21G16G 6G24G31G22G18G 3G29
 -21334617.21348 -16616509.59146  20931214.1364   20931209.3874
 -24251895.54948 -18892456.27347  20569806.4844   20569801.6614
 -16282696.69347 -12682114.98745  21918645.9194   21918641.3584
  -3201257.09148  -9178942.55046  20810393.9774   20810390.5164
  -9823715.59547  -7645013.84345  23385318.7724   23385314.9324
  -1397576.99146                  24475546.9484
  -4600082.39147  -4953995.90044  23363678.5394   23363673.4704
 -11026718.00647  -8582367.37144  22682151.0184   22682146.8784
  -6920556.31146  -5380848.89544  23781077.0234   23781073.7354
 10  3 18  3 34  0.0000000  0  9G21G16G 6G24G31G22G18G 3G29
 -21314559.36148 -16600880.09746  20935030.8454   20935025.9254
 -24283279.27448 -18916911.13347  20563834.2704   20563829.5924
 -16343810.97347 -12729736.50245  21907016.3464   21907012.2994
  -3154803.94248  -9142745.27846  20819233.4884   20819230.4734
  -9725310.76747  -7568334.79545  23404044.8734   23404040.3484
  -1492855.75846  -2021140.15343  24457416.0874   24457405.8724
  -4669737.29847  -5008272.46244  23350423.0994   23350418.7564
 -11110412.02947  -8647583.47044  22666224.7794   22666220.8594
  -6839729.44646  -5317866.96644  23796458.0014   23796455.1824
 10  3 18  3 34 30.0000000  0  9G21G16G 6G24G31G22G18G 3G29
 -21294063.58948 -16584909.36446  20938931.3014   20938926.0964
 -24314246.00848 -18941041.05547  20557941.6824   20557936.5694
 -16404754.27247 -12777224.77145  21895419.1054   21895415.1514
  -3107875.40848  -9106177.59446  20828164.1824   20828161.0224
  -9626751.62647  -7491535.50145  23422799.6654   23422795.5974
  -1588153.07145  -2095397.71442  24439280.8864   24439272.1974
  -4739130.18447  -5062344.82844  23337218.1764   23337213.9634
 -11193961.48747  -8712686.90644  22650325.7674   22650321.4674
  -6758851.51446  -5254845.22844  23811848.5324   23811845.8994
 10  3 18  3 35  0.0000000  0  9G21G16G 6G24G31G22G18G 3G29
 -21273131.51948 -16568598.66446  20942914.4354   20942909.8654
 -24344794.59348 -18964845.14747  20552128.0884   20552123.2304
 -16465526.88747 -12824580.04245  21883854.7104   21883850.3574
  -3060474.33948  -9069241.70146  20837183.9264   20837181.1434
  -9528041.52847  -7414618.55645  23441583.8444   23441579.6434
  -1683466.28745  -2169667.64542  24421143.4104   24421134.9484
  -4808259.07447  -5116211.47744  23324063.2674   23324058.9534
 -11277366.08647  -8777677.50844  22634454.1974   22634450.8354
  -6677923.52346  -5191784.49344  23827248.0174   23827245.3684
 10  3 18  3 35 30.0000000  0  9G21G16G 6G24G31G22G18G 3G29
 -21251763.84848 -16551948.52046  20946980.8194   20946975.5064
 -24374923.26848 -18988322.04447  20546395.3804   20546390.6004
 -16526127.83847 -12871801.55345  21872322.8144   21872318.7134
  -3012602.11748  -9031938.66446  20846293.7094   20846291.1724
  -9429182.92747  -7337585.87545  23460395.5934   23460391.7244
  -1778792.78145  -2243947.91042  24403002.1454   24402995.6024
  -4877120.81647  -5169869.96844  23310959.6264   23310954.7514
 -11360625.27247  -8842554.77944  22618610.0994   22618607.0224
  -6596945.29547  -5128684.57244  23842658.3554   23842654.9544
 10  3 18  3 36  0.0000000  0  9G21G16G 6G24G31G22G18G 3G29
 -21229961.73248 -16534959.84446  20951129.3314   20951124.1684
 -24404630.38948 -19011470.44547  20540742.1124   20540737.3354
 -16586557.02947 -12918889.23245  21860823.5784   21860819.3394
  -2964260.71248  -8994270.02146  20855493.0044   20855490.3484
  -9330178.73647  -7260439.79545  23479235.1834   23479231.1264
  -1874130.22946  -2318236.79542  24384860.4664   24384854.6004
  -4945712.50847  -5223318.02844  23297906.9394   23297902.3984
 -11443738.07647  -8907317.96844  22602794.1094   22602791.3364
  -6515917.16246  -5065545.78444  23858077.0764   23858074.4804
 10  3 18  3 36 30.0000000  0 10G19G21G16G 6G24G31G22G18G 3G29
    167048.56545                  25059782.6974
 -21207727.18348 -16517634.22746  20955360.6574   20955355.2864
 -24433915.45248 -19034289.97946  20535169.0964   20535164.2844
 -16646815.12747 -12965843.58345  21849356.3744   21849352.9094
  -2915453.16248  -8956238.17646  20864780.6444   20864777.5254
  -9231032.76647  -7183183.22944  23498101.7874   23498098.0734
  -1969476.16446  -2392532.41742  24366717.0554   24366711.3794
  -5014032.38447  -5276554.29744  23284905.8924   23284901.0714
 -11526704.47947  -8971967.11544  22587006.8324   22587003.3244
  -6434840.53146  -5002369.23244  23873505.8904   23873502.9194
 10  3 18  3 37  0.0000000  0 10G19G21G16G 6G24G31G22G18G 3G29
     80164.23145                  25043247.6784
 -21185060.66548 -16499972.01146  20959673.6764   20959668.9164
 -24462776.34048 -19056778.98447  20529677.1814   20529672.6094
 -16706901.10147 -13012663.82045  21837922.6694   21837919.2904
  -2866181.12148  -8917844.38446  20874156.8044   20874153.4834
  -9131747.27447  -7105817.91845  23516995.6554   23516991.5374
  -2064827.11946  -2466831.87342  24348571.8414   24348566.1404
  -5082077.46547  -5329576.41144  23271957.6244   23271952.5014
 -11609523.00047  -9036501.01144  22571246.3864   22571243.7124
  -6353715.15847  -4939154.66244  23888943.1204   23888940.0004
 10  3 18  3 37 30.0000000  0 10G19G21G16G 6G24G31G22G18G 3G29
     -6653.32645      6819.91742  25026727.6134   25026721.4624
 -21161963.88248 -16481974.51246  20964069.1924   20964064.0324
 -24491211.78348 -19078936.47647  20524265.9624   20524261.1584
 -16766815.27947 -13059350.18045  21826521.3344   21826518.2074
  -2816447.15948  -8879090.64046  20883620.5904   20883618.0914
  -9032325.86447  -7028346.71645  23535915.1694   23535911.2714
  -2160181.20946  -2541133.69942  24330426.6454   24330421.0004
  -5149845.46047  -5382382.64944  23259060.9114   23259056.2084
 -11692193.70547  -9100919.72944  22555514.8634   22555511.3844
  -6272541.80247  -4875902.69744  23904390.4584   23904387.0724
 10  3 18  3 38  0.0000000  0 10G19G21G16G 6G24G31G22G18G 3G29
    -93403.85345    -60777.93642  25010219.0694   25010211.3974
 -21138437.33448 -16463642.12846  20968545.6554   20968540.9024
 -24519219.53048 -19100760.70047  20518936.1734   20518931.5084
 -16826556.66847 -13105901.90345  21815152.9734   21815149.7114
  -2766252.47748  -8839977.89146  20893172.5374   20893169.8824
  -8932770.85747  -6950771.40745  23554860.9434   23554856.3594
  -2255534.73346  -2615435.07542  24312281.3224   24312276.8164
  -5217333.03747  -5434970.39044  23246218.9594   23246213.2854
 -11774715.24347  -9165222.22444  22539811.5104   22539808.6594
  -6191320.27646  -4812613.20044  23919846.7054   23919843.0264
 10  3 18  3 38 30.0000000  0 10G19G21G16G 6G24G31G22G18G 3G29
   -180087.14245   -128323.40842  24993724.4944   24993717.9664
 -21114483.15748 -16444976.53046  20973104.5334   20973099.1694
 -24546799.50848 -19122251.59447  20513688.5214   20513683.5124
 -16886125.80447 -13152319.40445  21803817.0754   21803814.1324
  -2715600.04548  -8800508.46746  20902811.5934   20902808.5694
  -8833085.83547  -6873094.78645  23573829.7404   23573825.7194
  -2350885.96545  -2689734.68042  24294136.3824   24294131.4734
  -5284538.40847  -5487338.22144  23233430.1614   23233424.9244
 -11857087.45447  -9229408.36144  22524136.8714   22524133.4304
  -6110051.68747  -4749287.05144  23935311.5434   23935307.8214
 10  3 18  3 39  0.0000000  0 10G19G21G16G 6G24G31G22G18G 3G29
   -266702.71345   -195815.92042  24977241.7284   24977235.7474
 -21090101.73348 -16425978.02146  20977743.4524   20977738.7854
 -24573948.85648 -19143406.93547  20508521.6834   20508517.2844
 -16945521.80748 -13198601.99445  21792514.2574   21792511.8454
  -2664491.68748  -8760683.77646  20912536.5604   20912533.9854
  -8733272.99747  -6795318.60345  23592823.7754   23592819.3564
  -2446231.59146  -2764029.97542  24275992.6044   24275986.0354
  -5351458.36447  -5539483.61544  23220695.0194   23220691.5514
 -11939309.14947  -9293477.22044  22508490.4134   22508486.5704
  -6028735.67347  -4685923.95844  23950785.1064   23950781.5784
 10  3 18  3 39 30.0000000  0 10G19G21G16G 6G24G31G22G18G 3G29
   -353250.43846   -263255.81642  24960772.5914   24960764.4034
 -21065294.67348 -16406647.83946  20982464.2914   20982459.6944
 -24600666.78848 -19164226.10347  20503437.7944   20503432.8374
 -17004744.77347 -13244749.76345  21781244.3954   21781242.4644
  -2612929.73348  -8720505.62746  20922348.7474   20922345.8534
  -8633335.78647  -6717445.48245  23611841.9684   23611836.3414
  -2541569.17746  -2838318.96542  24257851.6654   24257841.8714
  -5418090.41147  -5591404.68344  23208016.0384   23208011.4374
 -12021380.54547  -9357428.94944  22492872.8414   22492869.0834
  -5947373.34447  -4622524.74544  23966267.7894   23966264.9054
 10  3 18  3 40  0.0000000  0 10G19G21G16G 6G24G31G22G18G 3G29
   -439729.02346   -330641.63943  24944315.4064   24944308.6934
 -21040062.20448 -16386986.16846  20987266.0874   20987261.5554
 -24626950.68948 -19184707.06447  20498435.9624   20498431.3864
 -17063793.70148 -13290761.90345  21770008.3184   21770005.5194
  -2560915.57548  -8679975.11446  20932247.0454   20932243.8864
  -8533276.46647  -6639477.21145  23630882.4884   23630877.3004
  -2636895.42045  -2912599.16642  24239710.0264   24239702.4574
  -5484431.38947  -5643098.94244  23195391.7804   23195386.7604
 -12103299.41447  -9421261.80744  22477283.8574   22477280.6544
  -5865964.12646  -4559089.01844  23981759.6614   23981757.3264
 10  3 18  3 40 30.0000000  0 10G19G21G16G 6G24G31G22G18G 3G29
   -526139.28146   -397974.29143  24927872.5774   24927867.5724
 -21014406.06648 -16366994.37647  20992148.0884   20992143.3614
 -24652799.70248 -19204849.16547  20493517.1024   20493512.6244
 -17122668.49648 -13336638.34945  21758804.3864   21758801.5054
  -2508451.43748  -8639093.97246  20942230.2414   20942227.5324
  -8433098.29547  -6561416.32944  23649944.8354   23649940.6764
  -2732207.59745  -2986868.39142  24221573.0144   24221565.5444
  -5550479.32447  -5694564.84644  23182822.8724   23182819.1974
 -12185065.62047  -9484975.73244  22461724.8694   22461721.2984
  -5784508.69847  -4495617.28844  23997260.6794   23997257.9724
 10  3 18  3 41  0.0000000  0 10G19G21G16G 6G24G31G22G18G 3G29
   -612481.07446   -465253.59343  24911442.5234   24911437.5914
 -20988328.12448 -16346673.89446  20997110.8684   20997106.2314
 -24678212.86848 -19224651.63147  20488681.0614   20488676.6984
 -17181369.56148 -13382379.45245  21747634.4954   21747630.8294
  -2455540.27148  -8597864.48446  20952299.2724   20952296.0664
  -8332804.69147  -6483265.48044  23669030.4074   23669026.4124
  -2827503.66645  -3061124.90842  24203439.5254   24203433.3564
  -5616231.96647  -5745800.66144  23170311.0524   23170307.0044
 -12266679.34547  -9548570.84244  22446194.2854   22446190.4064
  -5703008.04747  -4432110.29044  24012769.3204   24012765.6314
 10  3 18  3 41 30.0000000  0 10G19G21G16G 6G24G31G22G18G 3G29
   -698753.52346   -532478.84843  24895025.1054   24895019.7524
 -20961829.17948 -16326025.36646  21002153.2944   21002148.8444
 -24703188.32848 -19244113.02347  20483928.3744   20483924.0574
 -17239896.00748 -13427984.45845  21736497.4874   21736493.8694
  -2402183.58448  -8556287.84746  20962452.5804   20962449.5944
  -8232398.10547  -6405026.59644  23688137.4884   23688132.7444
  -2922780.28445  -3135366.51542  24185308.6014   24185305.1044
  -5681686.15347  -5796803.91144  23157855.1274   23157850.7754
 -12348138.62447  -9612045.59444  22430693.2384   22430688.2404
  -5621461.82547  -4368567.79644  24028286.2774   24028282.9554
 10  3 18  3 42  0.0000000  0 10G19G21G16G 6G24G31G22G18G 3G29
   -784956.48146   -599649.99543  24878621.0284   24878615.6974
 -20934910.66648 -16305049.89946  21007275.6014   21007271.1084
 -24727725.10748 -19263232.59547  20479259.2894   20479254.3384
 -17298248.04948 -13473453.57445  21725393.2444   21725389.6434
  -2348384.08148  -8514366.15646  20972690.5024   20972687.2374
  -8131881.70547  -6326702.13845  23707264.7674   23707261.2094
  -3018035.17445  -3209591.11942  24167180.8144   24167176.7994
  -5746839.80247  -5847572.97344  23145456.8154   23145452.2404
 -12429443.83847  -9675400.29444  22415220.9104   22415216.5834
  -5539870.88246  -4304990.46444  24043813.2224   24043808.9244
 10  3 18  3 42 30.0000000  0 10G19G21G16G 6G24G31G22G18G 3G29
   -871091.08746   -666767.83243  24862230.0734   24862225.7064
 -20907575.14448 -16283749.48646  21012478.0054   21012473.0684
 -24751822.45848 -19282009.75847  20474673.1134   20474668.4594
 -17356426.15648 -13518787.16145  21714321.9824   21714318.6094
  -2294144.68348  -8472101.69346  20983011.4434   20983008.9204
  -8031259.48447  -6248295.24145  23726412.4934   23726408.5244
                                  24149059.4094
  -5811691.01447  -5898106.37744  23133116.4604   23133112.4984
 -12510595.23647  -9738635.13844  22399778.5404   22399773.8634
  -5458236.47847  -4241379.27044  24059347.2704   24059344.6824
 10  3 18  3 43  0.0000000  0  9G19G21G16G 6G24G31G18G 3G29
   -957154.18246   -733829.97943  24845853.3084   24845846.9644
 -20879820.65648 -16262122.61246  21017758.5854   21017754.1724
 -24775475.93348 -19300441.04247  20470172.4054   20470167.7094
 -17414427.46348 -13563982.97245  21703284.8894   21703281.0714
  -2239464.96048  -8429494.11846  20993416.7944   20993413.8034
  -7930531.45847  -6169805.90444  23745580.2544   23745576.0124
  -5876234.92047  -5948400.32545  23120834.5564   23120829.7114
 -12591589.18047  -9801747.29645  22384365.7364   22384360.9874
  -5376556.15247  -4177732.26144  24074891.1484   24074888.0524
 10  3 18  3 43 30.0000000  0  9G19G21G16G 6G24G31G18G 3G29
  -1043147.13046   -800837.49943  24829489.3464   24829484.3634
 -20851650.26348 -16240171.65446  21023119.4054   21023114.7654
 -24798686.10648 -19318526.89247  20465755.5484   20465750.6464
 -17472253.15848 -13609041.95745  21692280.5704   21692277.1284
  -2184348.76248  -8386546.42746  21003905.0254   21003902.1254
  -7829702.00547  -6091237.53844  23764766.9944   23764762.5544
  -5940470.29647  -5998453.86144  23108610.6054   23108605.7094
 -12672426.16547  -9864737.13944  22368982.9574   22368977.8314
  -5294832.01747  -4114051.14244  24090442.3144   24090438.5874
 10  3 18  3 44  0.0000000  0 10G19G21G16G 6G24G31G22G18G 3G29
  -1129068.44046   -867789.11243  24813138.9994   24813135.6584
 -20823064.09148 -16217896.71846  21028559.5284   21028554.6154
 -24821451.22148 -19336265.94647  20461423.3754   20461419.1894
 -17529901.84048 -13653963.00745  21681310.5124   21681306.5894
  -2128797.19448  -8343259.48146  21014476.3244   21014473.5944
  -7728773.33547  -6012591.84744  23783973.3984   23783968.5134
   -622039.77045                  24094729.3664
  -6004393.38147  -6048264.05944  23096446.3594   23096441.5614
 -12753104.56247  -9927603.40044  22353630.7734   22353625.1524
  -5213062.98447  -4050335.01044  24106001.9084   24105998.8004
 10  3 18  3 44 30.0000000  0 10G19G21G16G 6G24G31G22G18G 3G29
  -1214920.73346   -934687.00543  24796802.0804   24796797.2504
 -20794066.65548 -16195301.30446  21034077.6954   21034072.9644
 -24843771.29948 -19353658.21447  20457176.2794   20457171.6534
 -17587376.25948 -13698748.25445  21670373.5044   21670369.2674
  -2072815.28148  -8299637.21246  21025129.0554   21025125.8714
  -7627751.19247  -5933873.33144  23803197.3104   23803191.9574
   -717143.33245                  24076632.4134
  -6068004.74647  -6097831.39344  23084341.2214   23084335.7984
 -12833626.72847  -9990347.94045  22338307.6924   22338302.7224
  -5131252.40147  -3986586.49844  24121569.9944   24121567.5304
 10  3 18  3 45  0.0000000  0 10G19G21G16G 6G24G31G22G18G 3G29
  -1300701.12746  -1001528.91443  24780478.3594   24780473.2344
 -20764656.66748 -16172384.42546  21039674.2104   21039669.2764
 -24865642.85248 -19370700.99047  20453013.9094   20453009.6224
 -17644673.39548 -13743395.37045  21659470.3094   21659466.2804
  -2016402.97948  -8255679.58146  21035864.1884   21035861.3084
  -7526635.91847  -5855082.25744  23822439.2354   23822433.2604
   -812207.11446                  24058542.8724
  -6131299.52447  -6147152.00044  23072296.7194   23072292.3664
 -12913989.35747 -10052968.15345  22323014.9084   22323010.9374
  -5049398.12546  -3922803.97544  24137146.6364   24137143.9354
 10  3 18  3 45 30.0000000  0 10G19G21G16G 6G24G31G22G18G 3G29
  -1386410.49646  -1068315.40343  24764168.6014   24764164.4674
 -20734835.98448 -16149147.53146  21045348.5454   21045344.2544
 -24887065.57448 -19387394.02447  20448937.7794   20448932.6774
 -17701793.88548 -13787904.83545  21648600.5844   21648596.2094
  -1959563.06248  -8211388.73546  21046680.6414   21046677.5914
  -7425431.25647  -5776221.51944  23841698.0244   23841692.6174
   -907229.41145                  24040459.4034
  -6194275.59147  -6196224.24945  23060313.3224   23060308.4084
 -12994192.24647 -10115463.89045  22307752.7334   22307748.4964
  -4967501.59646  -3858988.52744  24152731.6464   24152728.6534
 10  3 18  3 46  0.0000000  0 10G19G21G16G 6G24G31G22G18G 3G29
  -1472048.42846  -1135046.23543  24747871.5904   24747865.4794
 -20704606.12348 -16125591.78546  21051101.1874   21051095.9594
 -24908038.19548 -19403736.32647  20444946.7954   20444941.9894
 -17758737.39548 -13832276.40445  21637764.5954   21637760.0884
  -1902297.92248  -8166766.54546  21057577.3984   21057574.8744
  -7324139.94747  -5697293.27844  23860972.5374   23860968.4904
  -1002207.50245                  24022384.4634
  -6256930.76147  -6245046.42745  23048390.0634   23048385.7484
 -13074234.98747 -10177834.86145  22292521.1464   22292517.5014
  -4885562.81246  -3795140.17744  24168324.8374   24168321.2304
 10  3 18  3 46 30.0000000  0 10G19G21G16G 6G24G31G22G18G 3G29
  -1557614.15346  -1201720.82143  24731589.1934   24731581.3784
 -20673968.09348 -16101718.00646  21056931.3684   21056926.8074
 -24928559.02448 -19419726.59247  20441041.6914   20441037.3224
 -17815503.39347 -13876509.62945  21626962.6304   21626958.3284
  -1844609.67948  -8121814.65846  21068554.9934   21068552.1614
  -7222764.66547  -5618299.60344  23880264.2484   23880259.7264
  -1097138.15445                  24004321.0904
  -6319262.11647  -6293616.28145  23036529.0854   23036524.4164
 -13154116.42747 -10240080.12545  22277320.1064   22277316.8164
  -4803581.97147  -3731259.01444  24183924.4074   24183920.9014
 10  3 18  3 47  0.0000000  0 10G19G21G16G 6G24G31G22G18G 3G29
  -1643107.01546  -1268338.63143  24715320.4114   24715312.9664
 -20642922.87848 -16077526.91746  21062839.1824   21062834.5714
 -24948626.11348 -19435363.28747  20437223.0284   20437218.6834
 -17872091.17647 -13920603.99045  21616194.2004   21616190.2714
  -1786500.04248  -8076534.43746  21079613.2234   21079610.3774
  -7121308.31447  -5539242.71844  23899571.3474   23899565.8274
  -1192018.50346                  23986266.0014
  -6381266.79747  -6341931.60245  23024730.3834   23024725.9754
 -13233835.68347 -10302199.00145  22262150.0564   22262146.6854
  -4721559.01347  -3667345.02044  24199532.0914   24199529.8644
 10  3 18  3 47 30.0000000  0 10G19G21G16G 6G24G31G22G18G 3G29
  -1728527.80346  -1334900.33343  24699065.8424   24699060.9554
 -20611472.55448 -16053020.16446  21068823.6164   21068819.2294
 -24968238.98748 -19450646.04547  20433490.8554   20433485.9414
 -17928500.97547 -13964559.68245  21605459.6034   21605456.3394
  -1727971.75648  -8030927.98846  21090750.3074   21090748.0244
  -7019774.19347  -5460125.24944  23918891.8014   23918887.3794
  -1286846.13246                  23968220.4224
  -6442943.10447  -6389991.05745  23012993.6364   23012989.0884
 -13313392.32247 -10364191.18045  22247010.8504   22247007.3294
  -4639494.70547  -3603398.86344  24215149.4164   24215146.3914
 10  3 18  3 48  0.0000000  0 10G19G21G16G 6G24G31G22G18G 3G29
  -1813875.94346  -1401405.35543  24682823.8994   24682821.3324
 -20579618.45548 -16028198.79446  21074885.8014   21074880.7334
 -24987396.38448 -19465573.88947  20429845.1394   20429840.8944
 -17984732.54747 -14008376.47145  21594759.1874   21594756.4414
  -1669027.47048  -7984997.36146  21101967.1084   21101965.3764
  -6918165.01746  -5380949.33144  23938227.5854   23938223.5954
  -1381618.33347                  23950186.3754
  -6504288.48847  -6437792.65245  23001320.0964   23001315.2124
 -13392785.79347 -10426056.21444  22231903.1244   22231899.2624
  -4557389.48747  -3539420.78844  24230773.6814   24230769.4604
 10  3 18  3 48 30.0000000  0 10G19G21G16G 6G24G31G22G18G 3G29
  -1899151.15746  -1467853.56743  24666597.2784   24666591.0594
 -20547361.73148 -16003063.68046  21081023.9534   21081018.7374
 -25006096.62448 -19480145.50847  20426287.2724   20426281.6764
 -18040785.39347 -14052054.00745  21584092.4714   21584089.2344
  -1609668.91348  -7938743.93646  21113262.8934   21113260.1544
  -6816483.61146  -5301717.14544  23957576.3034   23957572.7434
  -1476331.92446                  23932162.6084
  -6565300.09847  -6485334.15645  22989709.8254   22989705.7774
 -13472015.10047 -10487793.32444  22216825.8364   22216821.6054
  -4475243.36347  -3475410.82944  24246405.6934   24246401.9354
 10  3 18  3 49  0.0000000  0 10G19G21G16G 6G24G31G22G18G 3G29
  -1984353.04246  -1534244.62943  24650383.8934   24650376.6434
 -20514703.85648 -15977615.98246  21087238.4204   21087233.3544
 -25024338.54548 -19494360.00047  20422815.5964   20422810.6434
 -18096659.19347 -14095592.03546  21573459.9044   21573456.9184
  -1549898.59248  -7892169.67746  21124636.6814   21124633.2934
  -6714732.93047  -5222430.90744  23976938.6054   23976935.0954
  -1570984.24846                  23914150.8254
  -6625975.87047  -6532613.95945  22978163.8154   22978158.8024
 -13551079.76447 -10549402.14045  22201780.5304   22201776.1854
  -4393056.78447  -3411369.36844  24262045.3324   24262042.9214
 10  3 18  3 49 30.0000000  0 10G19G21G16G 6G24G31G22G18G 3G29
  -2069481.34046  -1600578.31843  24634184.2444   24634177.7534
 -20481646.20048 -15951856.76646  21093529.3754   21093524.1044
 -25042120.60248 -19508216.15047  20419431.6724   20419426.4004
 -18152353.56847 -14138990.23745  21562861.4044   21562858.7404
  -1489718.71948  -7845276.26746  21136088.9624   21136085.2454
  -6612915.95647  -5143093.02744  23996314.8414   23996310.2474
  -1665572.54145                  23896152.0734
  -6686313.16247  -6579630.03345  22966681.3044   22966677.0044
 -13629978.50247 -10610881.67345  22186766.2824   22186762.3714
  -4310829.99447  -3347296.54344  24277692.4154   24277688.6694
 10  3 18  3 50  0.0000000  0 10G19G21G16G 6G24G31G22G18G 3G29
  -2154536.59746  -1666855.14443  24617998.5224   24617991.5224
 -20448190.84848 -15925787.65846  21099895.3824   21099890.8884
 -25059442.49448 -19521713.73647  20416135.6574   20416130.7004
 -18207869.08047 -14182249.07146  21552297.6814   21552294.5734
  -1429132.44548  -7798066.17346  21147618.0154   21147615.4124
  -6511036.06547  -5063706.12744  24015701.4664   24015697.3604
                                  23878159.0264
  -6746310.30547  -6626381.05145  22955264.6174   22955260.2564
 -13708711.77247 -10672232.26845  22171784.1214   22171780.7734
  -4228563.94747  -3283193.16644  24293346.5334   24293342.9474
 10  3 18  3 50 30.0000000  0 10G19G21G16G 6G24G31G22G18G 3G29
  -2239514.51947  -1733071.71844  24601828.5554   24601822.1044
 -20414335.41548 -15899406.79046  21106337.6614   21106333.4734
 -25076299.24448 -19534848.86747  20412927.7494   20412923.4264
 -18263201.42148 -14225365.17645  21541768.0434   21541764.5164
  -1368138.19048  -7750538.17446  21159224.9614   21159222.1424
  -6409092.65247  -4984269.69844  24035100.5024   24035096.6064
   -279123.80146                  23860191.2124
  -6805960.93347  -6672862.05644  22943912.8944   22943908.1104
 -13787274.79047 -10733450.19745  22156834.3614   22156830.2214
  -4146255.34347  -3219056.61344  24309009.3434   24309006.2324
 10  3 18  3 51  0.0000000  0 10G19G21G16G 6G24G31G22G18G 3G29
  -2324419.91746  -1799231.73143  24585671.1214   24585665.6974
 -20380086.44148 -15872719.27946  21112855.3264   21112850.4194
 -25092694.76948 -19547624.60847  20409807.9064   20409802.9194
 -18318355.26547 -14268342.19345  21531272.8294   21531269.6394
  -1306743.25148  -7702697.96446  21170907.8784   21170904.9084
  -6307093.21147  -4904789.62644  24054510.5874   24054506.5764
   -373502.22047  -2026442.06943  23842232.8624   23842227.1214
  -6865267.58447  -6719075.05744  22932627.3334   22932622.1704
 -13865671.69847 -10794538.69745  22141915.8404   22141912.5294
  -4063909.03246  -3154890.66543  24324679.4784   24324676.2054
 10  3 18  3 51 30.0000000  0 10G19G21G16G 6G24G31G22G18G 3G29
  -2409250.72446  -1865333.70043  24569528.4824   24569521.6424
 -20345443.48248 -15845724.76946  21119447.8044   21119442.7454
 -25108625.50748 -19560038.16747  20406776.2304   20406771.2054
 -18373328.59348 -14311178.54046  21520811.7304   21520808.3254
  -1244948.13148  -7654545.92946  21182666.7474   21182663.9254
  -6205039.18347  -4825267.06044  24073930.8144   24073927.3184
   -467805.46747  -2099925.08144  23824287.7514   23824282.1864
  -6924226.62447  -6765017.16645  22921407.9464   22921404.3414
 -13943900.40547 -10855496.11045  22127029.7154   22127026.0304
  -3981524.02046  -3090694.60444  24340357.6264   24340354.4224
 10  3 18  3 52  0.0000000  0 10G19G21G16G 6G24G31G22G18G 3G29
  -2494006.64446  -1931377.26243  24553400.4754   24553394.1344
 -20310407.83048 -15818424.25646  21126114.1604   21126109.7824
 -25124090.50648 -19572088.82047  20403833.5294   20403828.7494
 -18428121.05348 -14353873.95846  21510385.3264   21510381.9024
  -1182754.92348  -7606083.69146  21194501.8234   21194499.4204
  -6102933.42847  -4745704.21044  24093361.1834   24093357.5764
   -562030.38647  -2173347.07744  23806357.1724   23806351.5394
  -6982835.11647  -6810686.10045  22910254.9004   22910250.9384
 -14021959.87747 -10916321.66445  22112175.0014   22112172.3684
  -3899100.52847  -3026468.52344  24356041.1064   24356038.6984
 10  3 18  3 52 30.0000000  0 10G19G21G16G 6G24G31G22G18G 3G29
  -2578686.79946  -1997361.75243  24537285.9464   24537281.3334
 -20274980.19348 -15790818.29846  21132856.1154   21132851.0964
 -25139087.05148 -19583774.44647  20400979.3964   20400975.0254
 -18482731.48647 -14396427.53046  21499992.7864   21499990.2854
  -1120165.00948  -7557312.32446  21206412.2674   21206409.5854
  -6000777.69747  -4666102.39244  24112800.0814   24112796.5164
   -656173.08247  -2246705.00843  23788441.1324   23788435.6524
  -7041089.74547  -6856079.30445  22899169.9154   22899165.3914
 -14099848.46347 -10977014.05945  22097353.2854   22097350.1524
  -3816637.72447  -2962211.78044  24371733.5264   24371730.1634
 10  3 18  3 53  0.0000000  0 10G19G21G16G 6G24G31G22G18G 3G29
  -2663291.47846  -2063287.47944  24521185.6694   24521179.1934
 -20239162.64248 -15762908.52146  21139672.2314   21139667.1144
 -25153615.57648 -19595095.37147  20398214.8834   20398210.4684
 -18537160.02848 -14438839.38846  21489635.5174   21489632.3874
  -1057181.80448  -7508234.50246  21218397.8504   21218394.6694
  -5898575.50547  -4586464.38144  24132249.3954   24132245.0134
   -750231.75446  -2319997.52742  23770542.8134   23770536.7084
  -7098989.06147  -6901195.63845  22888151.4934   22888148.4084
 -14177566.17447 -11037573.30345  22082564.4064   22082561.0014
  -3734136.95147  -2897925.48444  24387433.3624   24387431.6014
 10  3 18  3 53 30.0000000  0 10G19G21G16G 6G24G31G22G18G 3G29
  -2747820.26946  -2129154.03743  24505099.9874   24505093.9464
 -20202956.86348 -15734696.23746  21146561.6174   21146557.0084
 -25167674.22848 -19606050.16247  20395539.8374   20395535.3784
 -18591406.50347 -14481109.35646  21479312.9824   21479309.5614
   -993807.50148  -7458851.93446  21230457.2524   21230453.9474
  -5796329.75847  -4506792.43344  24151705.3614   24151701.9634
   -844203.65746  -2393222.34442  23752660.3264   23752654.0284
  -7156530.80147  -6946033.33645  22877201.4554   22877198.0634
 -14255112.16947 -11097998.75145  22067807.2794   22067804.3024
  -3651598.10447  -2833609.55244  24403140.1774   24403138.0444
 10  3 18  3 54  0.0000000  0 10G19G21G16G 6G24G31G22G18G 3G29
  -2832272.68946  -2194961.11644  24489030.0474   24489022.9214
 -20166363.97048 -15706182.28446  21153524.9174   21153520.6784
 -25181262.13448 -19616638.15247  20392953.8004   20392949.3284
 -18645470.25947 -14523236.96146  21469024.9914   21469021.5664
   -930044.43548  -7409166.42046  21242590.8364   21242588.3144
  -5694043.36746  -4427088.79744  24171169.8174   24171166.4304
   -938085.63046  -2466377.07442  23734793.8494   23734788.5254
  -7213712.13547  -6990590.21745  22866320.6194   22866316.4604
 -14332485.11347 -11158289.34045  22053083.9014   22053080.7094
  -3569021.19447  -2769263.88544  24418853.4754   24418851.0474
 10  3 18  3 54 30.0000000  0 10G19G21G16G 6G24G31G22G18G 3G29
  -2916648.67046  -2260708.65744  24472973.5634   24472965.4974
 -20129385.74348 -15677368.07146  21160561.9004   21160557.8824
 -25194378.11148 -19626858.40647  20390458.3534   20390453.4064
 -18699351.52547 -14565222.35646  21458771.7204   21458767.7894
   -865895.02448  -7359179.86846  21254798.1434   21254796.2734
  -5591719.37346  -4347355.90643  24190641.0084   24190637.3464
  -1031875.14547  -2539459.82743  23716948.3354   23716942.3774
  -7270531.03347  -7034864.70444  22855508.3494   22855503.5404
 -14409684.77547 -11218444.91045  22038393.7224   22038390.1174
  -3486406.92746  -2704889.17444  24434574.8104   24434572.9914
 10  3 18  3 55  0.0000000  0 10G19G21G16G 6G24G31G22G18G 3G29
  -3000948.08046  -2326396.47444  24456931.6614   24456925.1144
 -20092023.23748 -15648254.42646  21167671.8094   21167667.1114
 -25207020.76748 -19636709.82547  20388052.2134   20388047.4344
 -18753049.37547 -14607064.83246  21448553.2974   21448549.4004
   -801361.60748  -7308894.08446  21267078.6884   21267076.6734
  -5489360.45246  -4267595.79443  24210120.1884   24210114.7724
  -1125569.04147  -2612468.05743  23699119.0164   23699113.1254
  -7326984.99547  -7078854.79644  22844765.4424   22844761.4364
 -14486709.79847 -11278464.40545  22023735.5974   22023732.1114
  -3403755.44047  -2640485.49344  24450303.2454   24450301.5854
 10  3 18  3 55 30.0000000  0 10G19G21G16G 6G24G31G22G18G 3G29
  -3085170.68146  -2392024.44144  24440904.9524   24440898.2184
 -20054278.29748 -15618842.78946  21174854.5044   21174849.4344
 -25219189.17148 -19646191.70147  20385736.9564   20385732.0974
 -18806563.70647 -14648764.30946  21438369.5954   21438366.1494
   -736446.46647  -7258310.84346  21279431.4804   21279428.5204
  -5386969.50747  -4187810.67243  24229605.7354   24229598.9504
  -1219164.98447  -2685399.93043  23681308.3514   23681301.9314
  -7383071.94647  -7122558.90345  22834092.3154   22834088.3874
 -14563560.12247 -11338347.77145  22009112.0344   22009108.4174
  -3321067.12246  -2576053.07044  24466038.0954   24466035.3414
 10  3 18  3 56  0.0000000  0 10G19G21G16G 6G24G31G22G18G 3G29
  -3169316.17246  -2457592.34244  24424892.1514   24424886.3054
 -20016152.12448 -15589134.09546  21182109.6214   21182104.6054
 -25230882.28448 -19655303.22647  20383511.6564   20383506.6284
 -18859894.33247 -14690320.63446  21428221.3524   21428218.5584
   -671152.00747  -7207432.04946  21291856.6054   21291853.3244
  -5284549.56947  -4108002.98143  24249095.3944   24249089.0004
  -1312659.52347  -2758252.77644  23663516.8854   23663510.8594
  -7438789.67547  -7165975.31245  22823489.9294   22823485.4084
 -14640235.17047 -11398094.54645  21994521.0914   21994517.9164
  -3238342.13047  -2511592.07544  24481780.5144   24481776.8084
 10  3 18  3 56 30.0000000  0 10G19G21G16G 6G24G31G22G18G 3G29
  -3253384.26946  -2523099.95544  24408894.5104   24408889.0674
 -19977646.27648 -15559129.53746  21189436.9054   21189432.2674
 -25242098.64448 -19664043.24747  20381377.3454   20381372.8474
 -18913040.60447 -14731733.31546  21418107.6304   21418104.4644
   -605480.40148  -7156259.38346  21304353.8254   21304350.6294
  -5182103.02046  -4028174.56043  24268589.7684   24268584.3064
  -1406049.92647  -2831024.51444  23645744.7474   23645739.2094
  -7494135.32847  -7209101.81844  22812957.9024   22812952.6364
 -14716733.58448 -11457703.67945  21979963.4994   21979960.3924
  -3155580.60147  -2447102.61144  24497529.6424   24497526.8904
 10  3 18  3 57  0.0000000  0 10G19G21G16G 6G24G31G22G18G 3G29
  -3337374.52446  -2588546.87344  24392911.4234   24392907.5424
 -19938762.55448 -15528830.51946  21196836.5924   21196832.0134
 -25252837.60648 -19672411.26547  20379333.6754   20379328.8244
 -18966002.19347 -14773002.07545  21408029.5804   21408025.9394
   -539434.02947  -7104794.67146  21316921.6704   21316919.2844
  -5079633.12446  -3948327.91743  24288088.7924   24288083.5994
  -1499333.23447  -2903712.82643  23627993.5814   23627987.2954
  -7549107.21847  -7251937.02945  22802497.1334   22802492.6464
 -14793054.40847 -11517174.45845  21965440.2474   21965436.7334
  -3072783.08147  -2382585.05844  24513284.7034   24513281.1964
 10  3 18  3 57 30.0000000  0 10G19G21G16G 6G24G31G22G18G 3G29
  -3421286.45346  -2653932.78444  24376944.2964   24376937.1094
 -19899502.06548 -15498237.92246  21204307.5674   21204302.6814
 -25263097.66348 -19680406.12247  20377381.2114   20377376.4304
 -19018778.69547 -14814126.60546  21397986.4474   21397982.6244
   -473015.21147  -7053039.73546  21329560.4944   21329558.0534
  -4977142.43846  -3868465.11543  24307592.1854   24307587.0754
  -1592506.77046  -2976315.66643  23610263.0324   23610257.5634
  -7603702.66347  -7294478.93045  22792108.2874   22792103.3834
 -14869196.91147 -11576506.27245  21950951.4614   21950947.3444
  -2989949.65447  -2318039.56844  24529047.8324   24529045.2864
 10  3 18  3 58  0.0000000  0 10G19G21G16G 6G24G31G22G18G 3G29
  -3505119.89646  -2719257.52744  24360991.3754   24360984.3004
 -19859866.23348 -15467352.86446  21211849.8334   21211844.5374
 -25272877.38648 -19688026.68647  20375520.3614   20375515.9574
 -19071369.51947 -14855106.45545  21387978.5074   21387974.7984
   -406225.73048  -7000995.99546  21342270.4514   21342267.8344
  -4874633.16446  -3788587.84044  24327099.1034   24327094.3534
  -1685567.09446  -3048830.21443  23592553.7844   23592548.9444
  -7657918.98747  -7336725.40945  22781791.4234   22781786.8654
 -14945160.05647 -11635698.32145  21936495.7524   21936492.2734
  -2907079.87346  -2253465.75944  24544816.7724   24544815.4434
 10  3 18  3 58 30.0000000  0 10G19G21G16G 6G24G31G22G18G 3G29
  -3588874.33646  -2784520.71144  24345052.4014   24345047.3534
 -19819856.38148 -15436176.36046  21219463.5454   21219458.4714
 -25282175.76548 -19695272.18247  20373750.3964   20373746.1094
 -19123774.01547 -14895941.13646  21378006.5384   21378002.4454
   -339068.24848  -6948665.49746  21355050.4684   21355047.5524
  -4772108.43446  -3708698.50643  24346608.9544   24346603.2024
  -1778511.24647  -3121254.22543  23574868.2264   23574861.7834
  -7711754.11647  -7378674.83745  22771546.6294   22771541.9674
 -15020943.26447 -11694750.15145  21922074.6604   21922071.6254
  -2824174.28846  -2188864.04644  24560593.7304   24560591.3504
