     2.1            OBSERVATION DATA    G (GPS)             RINEX VERSION / TYPE
GPSNet 2.70 3641                        17-Mar-10 23:59:45  PGM / RUN BY / DATE
MATA                                                        MARKER NAME
13490M001                                                   MARKER NUMBER
                                                            OBSERVER / AGENCY
Unknown             TRIMBLE NETRS       1.15                REC # / TYPE / VERS
     0                                                      RCV CLOCK OFFS APPL
0220080344          TRM29659.00                             ANT # / TYPE
  4776835.5870   202618.9947  4207574.6304                  APPROX POSITION XYZ
        0.0300        0.0000        0.0000                  ANTENNA: DELTA H/E/N
     1     1     0                                          WAVELENGTH FACT L1/2
     8    C1    P2    L1    L2    S1    S2    D1    D2      # / TYPES OF OBSERV
    30.000                                                  INTERVAL
  2010     3    18     0     0    0.0000000     GPS         TIME OF FIRST OBS
coordenades ajust ICC 2006.0                                COMMENT
                                                            END OF HEADER
 10  3 18  0  0  0.0000000  0  9G30G09G26G14G31G27G02G12G29
  20070488.536    20070484.439   -27787707.16308 -21646176.21348        54.000
        47.000        -383.036        -298.470
  24810882.247    24810878.671    -2729654.49104  -2115623.20046        38.000
        22.000       -3937.899       -3068.493
  25005691.903    25005688.776     1803263.92103   1411315.97745        37.000
        19.000       -3802.890       -2963.291
  22220592.097    22220588.255   -16627289.89406 -12945131.32547        47.000
        36.000       -1951.303       -1520.496
  22689488.013    22689483.206   -14250068.06007 -11098217.23447        48.000
        38.000        2794.859        2177.813
  24617574.335    24617571.039    -1414489.69203  -1090950.43546        37.000
        21.000       -3279.628       -2555.554
  22970934.564    22970928.351   -12350409.60306  -9612542.68247        47.000
        34.000        -268.661        -209.346
  21830872.228    21830867.512   -17651078.29407 -13744949.89847        51.000
        43.000       -1946.112       -1516.451
  20499556.653    20499552.426   -24413223.50308 -19017997.49348        53.000
        49.000        1284.019        1000.535
 10  3 18  0  0 30.0000000  0  9G30G09G26G14G31G27G02G12G29
  20072706.908    20072702.483   -27776049.92708 -21637092.65048        54.000
        47.000        -394.104        -307.094
  24833369.806    24833366.607    -2611481.25803  -2023540.24646        36.000
        22.000       -3940.423       -3070.459
  25027395.175    25027392.773     1917313.41704   1500185.45245        39.000
        19.000       -3800.530       -2961.452
  22231776.866    22231772.687   -16568513.45406 -12899331.51747        47.000
        35.000       -1967.049       -1532.765
  22673554.224    22673549.406   -14333799.39007 -11163462.42747        48.000
        38.000        2787.356        2171.966
  24636310.794    24636308.492    -1316023.22304  -1014223.44646        38.000
        22.000       -3284.627       -2559.449
  22972521.499    22972514.664   -12342073.69506  -9606047.16147        47.000
        35.000        -287.024        -223.655
  21841999.053    21841994.231   -17592607.58507 -13699388.31447        50.000
        42.000       -1951.839       -1520.913
  20492273.125    20492269.334   -24451498.47508 -19047822.14248        53.000
        48.000        1267.649         987.778
 10  3 18  0  1  0.0000000  0  9G30G09G26G14G31G27G02G12G29
  20074987.945    20074983.672   -27764061.36808 -21627750.91848        54.000
        47.000        -404.954        -315.549
  24855870.927    24855867.626    -2493236.55803  -1931401.56946        36.000
        22.000       -3942.415       -3072.012
  25049083.062    25049081.504     2031284.85503   1588994.08246        36.000
        21.000       -3797.318       -2958.949
  22243050.721    22243046.297   -16509269.02707 -12853167.03847        48.000
        35.000       -1982.337       -1544.678
  22657662.874    22657658.422   -14417307.29406 -11228533.51047        47.000
        38.000        2780.041        2166.266
  24655077.026    24655072.835    -1217411.88304   -937383.55245        38.000
        20.000       -3289.095       -2562.931
  22974211.974    22974205.675   -12333188.22607  -9599123.40147        48.000
        33.000        -305.057        -237.707
  21853158.141    21853153.219   -17533967.01407 -13653694.38247        50.000
        42.000       -1957.269       -1525.144
  20485083.159    20485078.914   -24489283.43008 -19077264.95648        53.000
        49.000        1251.613         975.283
 10  3 18  0  1 30.0000000  0  9G30G09G26G14G31G27G02G12G29
  20077332.515    20077328.206   -27751740.55308 -21618150.28848        54.000
        46.000        -416.194        -324.307
  24878385.411    24878382.223    -2374920.92603  -1839207.61846        36.000
        21.000       -3944.885       -3073.936
  25070755.524    25070754.679     2145176.62802   1677740.58546        34.000
        21.000       -3794.914       -2957.076
  22254413.176    22254408.799   -16449557.96107 -12806638.94147        48.000
        35.000       -1998.132       -1556.986
  22641814.785    22641810.168   -14500588.55707 -11293427.98847        48.000
        38.000        2772.224        2160.175
  24673869.126    24673866.245    -1118656.12503   -860431.07945        37.000
        20.000       -3294.431       -2567.089
  22976007.511    22976001.259   -12323752.05506  -9591770.55147        47.000
        33.000        -323.664        -252.206
  21864349.269    21864344.548   -17475156.00707 -13607867.63847        50.000
        42.000       -1963.127       -1529.709
  20477986.175    20477982.394   -24526576.87808 -19106324.78048        53.000
        48.000        1234.993         962.332
 10  3 18  0  2  0.0000000  0  9G30G09G26G14G31G27G02G12G29
  20079740.063    20079736.258   -27739088.51208 -21608291.55148        54.000
        46.000        -427.395        -333.035
  24900913.211    24900910.208    -2256537.45103  -1746960.80346        36.000
        22.000       -3947.156       -3075.706
  25092413.567    25092411.743     2258985.09204   1766422.10345        39.000
        19.000       -3792.204       -2954.964
  22265864.495    22265859.674   -16389384.09006 -12759750.21747        47.000
        35.000       -2013.484       -1568.948
  22626010.833    22626005.768   -14583641.48507 -11358144.53847        48.000
        38.000        2764.524        2154.175
  24692690.052    24692685.562    -1019758.66804   -783368.23445        38.000
        18.000       -3298.967       -2570.624
  22977907.508    22977901.533   -12313766.45006  -9583989.55947        47.000
        33.000        -342.131        -266.596
  21875572.590    21875567.996   -17416176.45307 -13561909.55347        50.000
        42.000       -1968.908       -1534.214
  20470983.022    20470979.056   -24563379.65408 -19135002.26748        53.000
        49.000        1218.474         949.461
 10  3 18  0  2 30.0000000  0  9G30G09G26G14G31G27G02G12G29
  20082210.739    20082206.545   -27726105.52808 -21598174.94448        56.000
        47.000        -438.427        -341.631
  24923453.794    24923449.996    -2138088.04904  -1654662.60946        38.000
        21.000       -3949.594       -3077.605
  25114054.590    25114052.104     2372707.63404   1855036.78545        39.000
        19.000       -3789.320       -2952.717
  22277402.655    22277397.993   -16328750.25006 -12712503.06847        44.000
        34.000       -2028.832       -1580.908
  22610249.783    22610244.976   -14666464.00606 -11422681.56247        47.000
        38.000        2756.769        2148.132
  24711534.883    24711532.281     -920721.38603   -706196.42546        37.000
        21.000       -3303.539       -2574.186
  22979912.578    22979906.108   -12303231.00906  -9575780.11447        47.000
        33.000        -360.482        -280.895
  21886828.163    21886823.700   -17357028.04007 -13515819.88647        49.000
        42.000       -1974.603       -1538.652
  20464073.457    20464069.161   -24599691.70008 -19163297.36148        54.000
        49.000        1202.071         936.679
 10  3 18  0  3  0.0000000  0  9G30G09G26G14G31G27G02G12G29
  20084744.721    20084740.269   -27712790.82808 -21587799.85848        53.000
        47.000        -449.298        -350.103
  24946005.869    24946003.751    -2019573.96703  -1562314.09045        36.000
        20.000       -3951.476       -3079.072
  25135679.271    25135677.734     2486342.01002   1943582.66045        35.000
        20.000       -3786.232       -2950.311
  22289028.054    22289023.828   -16267658.29106 -12664898.94947        45.000
        34.000       -2043.962       -1592.697
  22594533.870    22594528.916   -14749053.10407 -11487036.68647        49.000
        39.000        2749.091        2142.148
  24730407.623    24730405.374     -821545.23604   -628916.43446        38.000
        21.000       -3308.024       -2577.681
  22982022.244    22982015.566   -12292145.74206  -9567142.24247        44.000
        34.000        -378.654        -295.055
  21898116.171    21898111.017   -17297710.97207 -13469598.78447        50.000
        42.000       -1979.933       -1542.805
  20457256.675    20457252.832   -24635512.05608 -19191209.31948        54.000
        49.000        1185.951         924.117
 10  3 18  0  3 30.0000000  0  9G30G09G26G14G31G27G02G12G29
  20087341.295    20087337.147   -27699144.93508 -21577166.70448        54.000
        47.000        -460.434        -358.780
  24968570.468    24968567.684    -1900997.20702  -1469916.68245        35.000
        20.000       -3953.558       -3080.695
  25157285.750    25157283.959     2599885.46203   2032057.73245        36.000
        19.000       -3783.129       -2947.893
  22300740.103    22300735.866   -16206110.65406 -12616939.77347        44.000
        34.000       -2059.232       -1604.597
  22578862.994    22578857.601   -14831406.98107 -11551208.52647        49.000
        39.000        2741.158        2135.967
  24749307.830    24749303.665     -722232.20604   -551529.79346        38.000
        21.000       -3312.743       -2581.358
  22984236.097    22984229.956   -12280510.58706  -9558075.86447        47.000
        35.000        -397.050        -309.390
  21909435.730    21909430.824   -17238225.89207 -13423246.77847        50.000
        42.000       -1985.727       -1547.319
  20450534.015    20450529.775   -24670840.32008 -19218737.83448        53.000
        49.000        1169.347         911.179
 10  3 18  0  4  0.0000000  0  9G30G09G26G14G31G27G02G12G29
  20090000.842    20089996.764   -27685168.13708 -21566275.68448        54.000
        46.000        -471.418        -367.338
  24991146.992    24991143.586    -1782359.92803  -1377472.13845        37.000
        20.000       -3955.548       -3082.245
  25178874.900    25178872.283     2713335.48603   2120459.99545        36.000
        19.000       -3780.080       -2945.517
  22312538.457    22312533.920   -16144110.27206 -12568627.78947        47.000
        34.000       -2074.255       -1616.302
  22563236.626    22563230.999   -14913523.62907 -11615195.52847        50.000
        39.000        2733.246        2129.802
  24768230.835    24768228.416     -622784.21903   -474038.02845        37.000
        19.000       -3317.184       -2584.819
  22986555.399    22986548.660   -12268325.59606  -9548581.06447        47.000
        34.000        -415.407        -323.694
  21920787.215    21920782.508   -17178572.84707 -13376763.90947        51.000
        43.000       -1991.276       -1551.644
  20443904.643    20443900.546   -24705676.83108 -19245883.16348        53.000
        49.000        1152.967         898.416
 10  3 18  0  4 30.0000000  0  9G30G09G26G14G31G27G02G12G29
  20092723.627    20092719.478   -27670859.99508 -21555126.48548        53.000
        46.000        -482.510        -375.982
  25013733.599    25013731.173    -1663663.31103  -1284981.31946        36.000
        22.000       -3957.705       -3083.926
  25200445.072    25200444.636     2826689.32304   2208787.29845        38.000
        20.000       -3776.851       -2943.000
  22324421.962    22324417.669   -16081659.66406 -12519964.98247        47.000
        34.000       -2089.194       -1627.943
  22547655.951    22547650.798   -14995400.38307 -11678995.58247        49.000
        39.000        2725.103        2123.457
  24787180.016    24787177.445     -523202.34203   -396441.94545        37.000
        19.000       -3321.596       -2588.257
  22988978.184    22988972.167   -12255590.82806  -9538657.85247        47.000
        35.000        -433.760        -337.995
  21932170.689    21932166.113   -17118752.29507 -13330150.50747        50.000
        42.000       -1996.880       -1556.010
  20437369.177    20437364.997   -24740021.14008 -19272644.95048        53.000
        49.000        1136.563         885.633
 10  3 18  0  5  0.0000000  0  9G30G09G26G14G31G27G02G12G29
  20095509.515    20095505.170   -27656220.51508 -21543719.10048        54.000
        47.000        -493.669        -384.677
  25036333.138    25036329.672    -1544909.39702  -1192445.95145        35.000
        20.000       -3959.592       -3085.396
  25221998.124    25221996.445     2939944.62304   2297037.79246        38.000
        21.000       -3773.708       -2940.552
  22336391.882    22336386.913   -16018761.23207 -12470953.21247        48.000
        35.000       -2104.143       -1639.592
  22532121.827    22532115.736   -15077034.84907 -11742606.85647        49.000
        39.000        2716.971        2117.120
  24806155.926    24806153.444     -423488.10703   -318742.71445        36.000
        19.000       -3326.056       -2591.732
  22991506.279    22991500.567   -12242306.24806  -9528306.22447        47.000
        35.000        -452.033        -352.234
  21943585.988    21943581.382   -17058764.61607 -13283406.87647        51.000
        43.000       -2002.497       -1560.387
  20430927.717    20430923.544   -24773872.58208 -19299022.69148        53.000
        49.000        1120.047         872.764
 10  3 18  0  5 30.0000000  0  9G30G09G26G14G31G27G02G12G29
  20098358.273    20098354.396   -27641250.07808 -21532053.82348        54.000
        47.000        -504.482        -393.103
  25058938.635    25058936.258    -1426100.46902  -1099867.63445        34.000
        20.000       -3961.108       -3086.578
  25243530.943    25243529.404     3053098.68304   2385209.29545        39.000
        20.000       -3769.995       -2937.658
  22348445.337    22348440.472   -15955417.72306 -12421594.64247        47.000
        35.000       -2118.813       -1651.023
  22516633.329    22516628.201   -15158424.89807 -11806027.67547        49.000
        39.000        2708.936        2110.859
  24825156.584    24825153.201     -323643.28304   -240941.71545        38.000
        20.000       -3330.234       -2594.988
  22994138.830    22994133.035   -12228472.15007  -9517526.40147        48.000
        35.000        -470.263        -366.439
  21955033.006    21955028.317   -16998610.04707 -13236533.20347        51.000
        42.000       -2007.881       -1564.582
  20424579.554    20424575.250   -24807231.39208 -19325016.56748        53.000
        49.000        1103.799         860.103
 10  3 18  0  6  0.0000000  0  9G30G09G26G14G31G27G02G12G29
  20101270.021    20101266.222   -27625948.40408 -21520130.44248        54.000
        47.000        -515.599        -401.766
  25081559.615    25081556.464    -1307237.77702  -1007247.46545        34.000
        19.000       -3963.026       -3088.072
  25265043.769    25265041.767     3166149.52803   2473300.46445        37.000
        18.000       -3766.688       -2935.082
  22360583.117    22360578.725   -15891631.58606 -12371891.15747        47.000
        34.000       -2133.642       -1662.578
  22501192.249    22501187.169   -15239567.80307 -11869255.90347        49.000
        39.000        2700.611        2104.373
  24844180.870    24844177.549     -223669.19502   -163040.00845        35.000
        18.000       -3334.725       -2598.487
  22996876.167    22996870.394   -12214088.15807  -9506318.08447        49.000
        34.000        -488.627        -380.748
  21966511.612    21966507.209   -16938288.98207 -13189529.80347        51.000
        43.000       -2013.524       -1568.980
  20418325.493    20418321.559   -24840097.05008 -19350626.16048        53.000
        49.000        1087.301         847.247
 10  3 18  0  6 30.0000000  0  9G30G09G26G14G31G27G02G12G29
  20104244.952    20104240.850   -27610316.44108 -21507949.70048        54.000
        47.000        -526.516        -410.272
  25104188.958    25104185.156    -1188323.87003   -914587.39246        36.000
        21.000       -3964.455       -3089.186
  25286536.232    25286534.697     3279093.37203   2561308.22945        36.000
        19.000       -3762.922       -2932.147
  22372804.933    22372800.310   -15827406.24206 -12321845.45147        47.000
        34.000       -2148.039       -1673.797
  22485798.288    22485793.328   -15320462.31107 -11932290.57747        49.000
        39.000        2692.361        2097.944
  24863229.624    24863226.796     -123568.48603    -85039.64346        37.000
        21.000       -3338.674       -2601.564
  22999717.696    22999711.560   -12199155.53006  -9494682.26247        47.000
        33.000        -506.814        -394.920
  21978022.067    21978017.457   -16877802.49707 -13142397.48347        50.000
        42.000       -2018.884       -1573.156
  20412164.913    20412160.697   -24872470.44407 -19375852.17648        52.000
        49.000        1071.009         834.552
 10  3 18  0  7  0.0000000  0  9G30G09G26G14G31G27G02G12G29
  20107282.638    20107278.715   -27594353.52908 -21495511.06448        54.000
        47.000        -537.635        -418.936
  25126826.787    25126822.824    -1069360.06703   -821888.44845        36.000
        20.000       -3966.228       -3090.567
  25308007.639    25308007.991     3391928.77202   2649231.50445        34.000
        19.000       -3759.300       -2929.324
  22385109.849    22385105.110   -15762743.89806 -12271459.21447        47.000
        34.000       -2162.761       -1685.269
  22470452.468    22470446.690   -15401105.54007 -11995129.44447        48.000
        38.000        2683.943        2091.384
  24882301.903    24882299.322      -23341.84603     -6941.15745        36.000
        19.000       -3342.986       -2604.924
  23002663.070    23002657.690   -12183673.59206  -9482618.40147        47.000
        34.000        -525.252        -409.287
  21989563.841    21989558.691   -16817149.78407 -13095135.63247        49.000
        41.000       -2024.593       -1577.605
  20406098.576    20406093.984   -24904350.45708 -19400693.73648        53.000
        49.000        1054.431         821.634
 10  3 18  0  7 30.0000000  0  9G30G09G26G14G31G27G02G12G29
  20110382.830    20110378.533   -27578059.93408 -21482814.76348        54.000
        47.000        -548.762        -427.607
  25149473.351    25149470.233     -950347.92403   -729151.88345        36.000
        20.000       -3967.946       -3091.906
  25329458.718    25329458.800     3504652.57502   2737067.70245        34.000
        19.000       -3755.671       -2926.497
  22397497.781    22397492.995   -15697646.99706 -12220734.34447        47.000
        34.000       -2177.087       -1696.432
  22455154.793    22455149.661   -15481494.97807 -12057770.55347        48.000
        38.000        2675.305        2084.654
  24901398.219    24901395.458       77008.86903     71253.97745        36.000
        19.000       -3347.214       -2608.219
  23005713.865    23005708.367   -12167642.42506  -9470126.57847        46.000
        33.000        -543.664        -423.634
  22001137.647    22001132.476   -16756331.43207 -13047744.72547        49.000
        42.000       -2030.144       -1581.930
  20400125.621    20400121.623   -24935737.02308 -19425150.80048        53.000
        49.000        1037.908         808.759
 10  3 18  0  8  0.0000000  0  9G30G09G26G14G31G27G02G12G29
  20113546.396    20113542.269   -27561435.94608 -21469861.00848        54.000
        46.000        -559.890        -436.278
  25172130.781    25172127.648    11772070.08602   9184420.41445        34.000
        18.000       -3969.338       -3092.991
  25350888.491    25350887.558     3617262.47102   2824815.33045        35.000
        18.000       -3751.985       -2923.625
  22409966.781    22409962.555   -15632118.97106 -12169673.55547        46.000
        34.000       -2191.648       -1707.777
  22439905.602    22439900.489   -15561628.85907 -12120212.52347        49.000
        39.000        2666.619        2077.885
  24920518.577    24920514.515      177481.53704    149544.12045        38.000
        19.000       -3351.379       -2611.464
  23008869.198    23008863.306   -12151062.70106  -9457207.31347        47.000
        34.000        -562.024        -437.941
  22012742.017    22012737.055   -16695348.42906 -13000225.49447        47.000
        41.000       -2035.730       -1586.283
  20394247.077    20394242.514   -24966630.54707 -19449223.67048        52.000
        49.000        1021.311         795.827
 10  3 18  0  8 30.0000000  0  9G30G09G26G14G31G27G02G12G29
  20116772.832    20116768.887   -27544481.64308 -21456649.87348        53.000
        47.000        -570.769        -444.755
  25194794.613    25194791.598    11891171.96102   9277226.89945        34.000
        18.000       -3970.974       -3094.265
  25372295.718    25372295.484     3729755.80602   2912472.13945        35.000
        19.000       -3747.834       -2920.390
  22422517.789    22422513.618   -15566162.38406 -12118278.81547        47.000
        34.000       -2205.827       -1718.827
  22424705.702    22424700.388   -15641505.26907 -12182453.86847        49.000
        39.000        2658.152        2071.287
  24939660.369    24939656.789      278074.31203    227927.87545        37.000
        18.000       -3355.290       -2614.512
  23012128.331    23012122.501   -12133934.84106  -9443860.93347        46.000
        34.000        -580.227        -452.125
  22024377.701    22024373.156   -16634201.00206 -12952578.15247        47.000
        42.000       -2041.155       -1590.510
  20388461.794    20388457.672   -24997031.08007 -19472912.38748        52.000
        49.000        1004.944         783.073
 10  3 18  0  9  0.0000000  0  9G30G09G26G14G31G27G02G12G29
  20120061.734    20120057.337   -27527197.15108 -21443181.42948        54.000
        47.000        -581.708        -453.279
  25217466.546    25217463.907    12010316.19802   9370066.44745        34.000
        18.000       -3972.383       -3095.363
  25393680.741    25393679.307     3842129.98004   3000036.03846        38.000
        21.000       -3743.965       -2917.375
  22435150.145    22435145.971   -15499779.71006 -12066552.07147        46.000
        34.000       -2219.956       -1729.836
  22409555.708    22409550.043   -15721121.35607 -12244492.38047        50.000
        40.000        2649.385        2064.456
  24958826.241    24958822.348      378785.61703    306403.89045        37.000
        20.000       -3358.999       -2617.401
  23015492.401    23015486.205   -12116258.79506  -9430087.38547        46.000
        33.000        -598.393        -466.280
  22036045.071    22036040.332   -16572889.24506 -12904802.76347        47.000
        41.000       -2046.552       -1594.716
  20382770.941    20382766.429   -25026938.04107 -19496216.51048        52.000
        49.000         988.599         770.337
 10  3 18  0  9 30.0000000  0 10G30G09G26G14G24G31G27G02G12G29
  20123413.900    20123409.472   -27509583.31108 -21429456.37448        54.000
        47.000        -592.584        -461.754
  25240147.509    25240143.655    12129500.08603   9462936.82545        36.000
        20.000       -3973.439       -3096.186
  25415041.959    25415041.034     3954381.60905   3087504.47845        40.000
        19.000       -3739.469       -2913.872
  22447863.146    22447858.669   -15432974.66106 -12014496.19247        47.000
        33.000       -2233.800       -1740.623
  24985882.554                            .00012          .00051
                      3568.304        2780.497
  22394455.063    22394449.517   -15800475.71707 -12306326.94947        50.000
        40.000        2640.883        2057.831
  24978011.667    24978009.352      479613.41702    384970.80745        35.000
        18.000       -3362.628       -2620.229
  23018959.629    23018953.784   -12098036.04706  -9415887.83947        47.000
        33.000        -616.486        -480.378
  22047743.421    22047738.410   -16511414.44207 -12856900.34147        48.000
        42.000       -2051.827       -1598.827
  20377173.479    20377169.288   -25056352.65107 -19519136.97548        52.000
        49.000         972.328         757.658
 10  3 18  0 10  0.0000000  0  9G30G09G26G14G24G31G02G12G29
  20126828.396    20126824.187   -27491639.47408 -21415474.16448        54.000
        47.000        -603.641        -470.370
  25262834.661    25262830.936    12248722.67903   9555837.39646        36.000
        21.000       -3974.491       -3097.006
  25436379.599    25436377.907     4066509.33804   3174876.45045        38.000
        18.000       -3735.389       -2910.693
  22460655.614    22460651.347   -15365749.23506 -11962112.75247        47.000
        34.000       -2247.845       -1751.568
  24965503.885    24965504.152      214500.02203    185393.27945        37.000
        19.000        3571.031        2782.622
  22379404.881    22379399.430   -15879565.39007 -12367955.26247        50.000
        40.000        2631.842        2050.786
  23022531.426    23022524.911   -12079265.98506  -9401261.80647        47.000
        33.000        -634.833        -494.675
  22059472.492    22059468.124   -16449776.09407 -12808870.46847        49.000
        41.000       -2057.440       -1603.200
  20371669.924    20371665.607   -25085273.75107 -19541672.89448        52.000
        49.000         955.773         744.758
 10  3 18  0 10 30.0000000  0  9G30G09G26G14G24G31G02G12G29
  20130305.716    20130301.650   -27473364.77708 -21401234.14148        54.000
        47.000        -614.632        -478.934
  25285529.986    25285526.085    12367982.85903   9648767.19145        37.000
        19.000       -3975.941       -3098.136
  25457691.641    25457692.112     4178511.66902   3262150.88145        35.000
        18.000       -3731.214       -2907.440
  22473527.890    22473523.092   -15298105.17906 -11909403.09347        47.000
        34.000       -2261.712       -1762.373
  24945107.588    24945108.063      107320.09503    101876.73645        36.000
        19.000        3574.264        2785.141
  22364405.682    22364399.851   -15958387.13207 -12429374.80047        50.000
        40.000        2622.970        2043.873
  23026207.822    23026201.372   -12059947.79206  -9386208.66647        47.000
        34.000        -653.026        -508.851
  22071233.417    22071228.691   -16387973.72207 -12760712.78147        50.000
        41.000       -2062.796       -1607.374
  20366260.290    20366255.992   -25113700.70107 -19563823.75048        52.000
        50.000         939.259         731.890
 10  3 18  0 11  0.0000000  0  9G30G09G26G14G24G31G02G12G29
  20133846.086    20133841.972   -27454760.28308 -21386737.13848        54.000
        46.000        -625.620        -487.496
  25308230.958    25308228.158    12487278.10403   9741724.33346        36.000
        21.000       -3977.032       -3098.986
  25478981.452    25478980.869     4290384.82203   3349324.65445        37.000
        18.000       -3726.846       -2904.036
  22486478.832    22486474.345   -15230046.42106 -11856370.30947        47.000
        34.000       -2275.464       -1773.089
  24924695.556    24924695.081          49.44703     18289.24645        36.000
        17.000        3577.114        2787.362
  22349457.485    22349451.873   -16036939.40907 -12490584.37547        50.000
        40.000        2613.906        2036.810
  23029988.109    23029981.369   -12040082.91306  -9370729.53247        47.000
        34.000        -671.280        -523.075
  22083025.148    22083020.209   -16326008.92507 -12712428.54147        49.000
        42.000       -2068.145       -1611.541
  20360944.798    20360940.697   -25141634.38707 -19585590.25648        52.000
        50.000         922.978         719.204
 10  3 18  0 11 30.0000000  0  9G30G09G26G14G24G31G02G12G29
  20137449.438    20137445.095   -27435825.93808 -21371983.10648        54.000
        47.000        -636.607        -496.057
  25330938.356    25330935.038    12606606.69203   9834707.48045        37.000
        19.000       -3978.125       -3099.838
  25500245.602    25500244.644     4402126.65903   3436396.21145        36.000
        17.000       -3722.671       -2900.783
  22499508.847    22499504.289   -15161575.60806 -11803016.43447        47.000
        34.000       -2289.150       -1783.754
  24904263.161    24904264.194     -107308.89200    -65366.61345        30.000
        18.000        3580.112        2789.698
  22334561.023    22334555.698   -16115220.03907 -12551582.26947        50.000
        40.000        2604.795        2029.710
  23033872.144    23033865.380   -12019671.66606  -9354824.65347        47.000
        34.000        -689.487        -537.263
  22094847.516    22094843.051   -16263880.92907 -12664017.13047        49.000
        41.000       -2073.555       -1615.757
  20355723.068    20355718.398   -25169074.52607 -19606972.17348        52.000
        50.000         906.440         706.317
 10  3 18  0 12  0.0000000  0  9G30G09G26G14G24G31G02G12G29
  20141115.059    20141110.875   -27416561.92408 -21356972.18748        53.000
        46.000        -647.682        -504.688
  25353650.621    25353649.244    12725966.58503   9927715.00745        37.000
        19.000       -3979.284       -3100.741
  25521483.677    25521483.207     4513734.81302   3523363.71745        35.000
        19.000       -3718.151       -2897.260
  22512616.155    22512612.107   -15092695.49406 -11749343.64347        47.000
        35.000       -2302.819       -1794.405
  24883820.065    24883818.935     -214752.70803   -149089.31245        36.000
        18.000        3582.830        2791.816
  22319716.889    22319711.680   -16193226.60607 -12612366.60247        50.000
        41.000        2595.555        2022.510
  23037859.835    23037853.706   -11998714.34906  -9338494.26547        47.000
        34.000        -707.770        -551.509
  22106700.995    22106696.461   -16201590.57307 -12615479.20447        48.000
        41.000       -2079.098       -1620.077
  20350595.234    20350591.248   -25196021.24207 -19627969.60548        52.000
        50.000         889.974         693.486
 10  3 18  0 12 30.0000000  0  9G30G09G26G14G24G31G02G12G29
  20144843.641    20144839.300   -27396968.43808 -21341704.53848        53.000
        46.000        -658.659        -513.241
  25376370.714    25376368.489    12845355.58404  10020745.10645        38.000
        18.000       -3980.158       -3101.422
  25542695.806    25542694.835     4625206.05303   3610224.59245        36.000
        20.000       -3713.459       -2893.604
  22525800.721    22525796.662   -15023409.02806 -11695354.18747        47.000
        33.000       -2316.277       -1804.891
  24863359.825    24863358.070     -322280.01603   -232877.35645        36.000
        17.000        3585.803        2794.133
  22304925.057    22304919.483   -16270957.08607 -12672935.80947        50.000
        39.000        2586.365        2015.349
  23041952.125    23041946.004   -11977211.63606  -9321738.91447        46.000
        34.000        -725.886        -565.625
  22118585.305    22118580.518   -16139138.44407 -12566815.21647        49.000
        41.000       -2084.514       -1624.297
  20345561.255    20345557.037   -25222474.87607 -19648582.82048        51.000
        50.000         873.528         680.671
 10  3 18  0 13  0.0000000  0  9G30G09G26G14G24G31G02G12G29
  20148634.482    20148630.889   -27377045.57608 -21326180.23448        53.000
        46.000        -669.700        -521.844
  25399094.693    25399092.463    12964771.92004  10113796.53745        38.000
        20.000       -3980.902       -3102.001
  25563881.145    25563880.626     4736538.86002   3696977.72545        35.000
        20.000       -3708.943       -2890.086
  22539062.088    22539058.018   -14953719.02206 -11641050.28547        47.000
        34.000       -2329.798       -1815.427
  24842880.940    24842879.513     -429887.16302   -316727.35445        35.000
        18.000        3587.838        2795.718
  22290186.381    22290181.376   -16348409.02707 -12733287.95747        49.000
        39.000        2576.926        2007.994
  23046146.949    23046140.760   -11955163.98206  -9304558.91447        44.000
        33.000        -744.027        -579.761
  22130500.429    22130495.184   -16076524.66507 -12518025.26447        48.000
        41.000       -2089.862       -1628.464
  20340620.969    20340616.813   -25248435.38407 -19668811.78148        52.000
        50.000         857.038         667.822
 10  3 18  0 13 30.0000000  0  9G30G09G26G14G24G31G02G12G29
  20152488.720    20152484.329   -27356793.32508 -21310399.26548        54.000
        47.000        -680.574        -530.317
  25421824.877    25421822.238    13084214.24104  10206868.25745        38.000
        18.000       -3981.800       -3102.701
  25585039.641    25585038.457     4847730.35103   3783621.03445        36.000
        18.000       -3703.963       -2886.205
  22552400.313    22552395.951   -14883628.40906 -11586434.23047        47.000
        33.000       -2342.977       -1825.696
  24822389.842    24822390.037     -537571.35202   -400637.10945        35.000
        16.000        3590.769        2798.001
  22275501.409    22275496.315   -16425580.09507 -12793421.24947        50.000
        40.000        2567.717        2000.818
  23050446.494    23050440.015   -11932571.71206  -9286954.53547        45.000
        33.000        -762.180        -593.907
  22142445.626    22142441.255   -16013749.69007 -12469109.69847        48.000
        41.000       -2095.183       -1632.610
  20335774.960    20335770.834   -25273902.69507 -19688656.42848        52.000
        50.000         840.725         655.110
 10  3 18  0 14  0.0000000  0  8G30G26G14G24G31G02G12G29
  20156404.862    20156400.826   -27336213.13208 -21294362.75648        53.000
        46.000        -691.540        -538.862
  25606170.816    25606169.702     4958776.93703   3870151.45745        37.000
        19.000       -3699.196       -2882.491
  22565813.197    22565809.205   -14813141.27106 -11531509.20147        46.000
        33.000       -2356.145       -1835.957
  24801884.643    24801883.870     -645331.36002   -484605.91445        35.000
        19.000        3593.094        2799.813
  22260869.518    22260864.454   -16502469.40007 -12853334.98647        50.000
        39.000        2558.177        1993.385
  23054848.371    23054842.408   -11909436.62406  -9268927.19447        44.000
        32.000        -780.236        -607.976
  22154422.066    22154417.314   -15950814.95607 -12420069.64747        48.000
        41.000       -2100.637       -1636.860
  20331022.039    20331018.120   -25298878.80607 -19708118.32548        52.000
        50.000         824.271         642.289
 10  3 18  0 14 30.0000000  0  8G30G26G14G24G31G02G12G29
  20160384.099    20160379.869   -27315301.97008 -21278068.35148        54.000
        46.000        -702.497        -547.400
  25627273.304    25627273.215            .00013  11322168.98255
        18.000       -3694.348       -2878.712
  22579302.383    22579298.251   -14742257.63306 -11476275.21147        47.000
        34.000       -2369.284       -1846.195
  24781364.904    24781365.624     -753161.43102   -568629.07045        35.000
        17.000        3595.555        2801.731
  22246292.793    22246287.611   -16579071.59507 -12913025.00747        49.000
        40.000        2548.631        1985.946
  23059354.948    23059349.077   -11885756.10706  -9250474.83347        44.000
        32.000        -798.278        -622.035
  22166429.221    22166424.301   -15887717.88207 -12370903.10447        48.000
        41.000       -2105.895       -1640.957
  20326363.289    20326359.164   -25323359.91207 -19727194.50348        52.000
        50.000         807.938         629.562
 10  3 18  0 15  0.0000000  0  9G30G21G26G14G24G31G02G12G29
  20164425.896    20164421.989   -27294061.96208 -21261517.70148        55.000
        46.000        -713.445        -555.932
  25334439.762                            .00013          .00051
                      3182.790        2480.096
  25648346.193    25648346.507    14632951.28300  11408470.40145        29.000
        19.000       -3689.227       -2874.722
  22592865.929    22592861.149   -14670982.22706 -11420735.92447        47.000
        34.000       -2382.323       -1856.355
  24760832.196    24760832.651     -861060.97203   -652706.30545        37.000
        19.000        3597.848        2803.518
  22231770.487    22231765.090   -16655386.17207 -12972490.90747        49.000
        40.000        2539.045        1978.477
  23063964.414    23063958.061   -11861533.04405  -9231599.71447        42.000
        32.000        -816.351        -636.117
  22178466.290    22178461.586   -15824460.61407 -12321611.73647        50.000
        40.000       -2111.121       -1645.030
  20321798.451    20321794.517   -25347348.63308 -19745887.00848        53.000
        50.000         791.462         616.723
 10  3 18  0 15 30.0000000  0  9G30G21G26G14G24G31G02G12G29
  20168529.999    20168525.759   -27272494.61308 -21244711.97848        54.000
        47.000        -724.483        -564.532
  25316260.184    25316258.646       79242.56402     71712.02745        35.000
        18.000        3185.932        2482.544
  25669395.108                    14743554.25102          .00051        35.000
                     -3684.244       -2870.839
  22606503.002    22606498.096   -14599319.30906 -11364894.67447        46.000
        33.000       -2395.303       -1866.470
  24740286.378    24740285.846     -969028.49804   -736836.33845        38.000
        18.000        3599.897        2805.115
  22217303.677    22217298.223   -16731412.14607 -13031731.92247        50.000
        41.000        2529.257        1970.850
  23068677.301    23068670.578   -11836768.95306  -9212303.03047        44.000
        32.000        -834.566        -650.311
  22190534.126    22190529.598   -15761045.05707 -12272197.04147        49.000
        41.000       -2116.524       -1649.240
  20317327.255    20317322.763   -25370846.48708 -19764197.01948        53.000
        50.000         775.063         603.945
 10  3 18  0 16  0.0000000  0  8G30G21G14G24G31G02G12G29
  20172697.208    20172692.929   -27250596.85408 -21227648.80348        54.000
        46.000        -735.468        -573.092
  25298062.943    25298060.085      -16387.40202     -2804.61545        35.000
        17.000        3189.420        2485.262
  22620213.203    22620208.895   -14527268.52306 -11308751.19847        45.000
        33.000       -2408.207       -1876.525
  24719727.474    24719727.718    -1077058.85904   -821015.32245        38.000
        19.000        3602.008        2806.759
  22202892.474    22202887.184   -16807144.42707 -13090744.08747        50.000
        41.000        2519.415        1963.180
  23073493.286    23073486.218   -11811461.48606  -9192582.93347        43.000
        32.000        -852.719        -664.456
  22202632.168    22202627.441   -15697467.94007 -12222656.45047        49.000
        40.000       -2122.021       -1653.522
  20312949.526    20312945.344   -25393850.55808 -19782122.26248        54.000
        50.000         758.507         591.044
 10  3 18  0 16 30.0000000  0  8G30G21G14G24G31G02G12G29
  20176926.436    20176922.454   -27228371.28008 -21210330.17048        54.000
        46.000        -746.457        -581.655
  25279845.955    25279843.772     -112114.32802    -77396.70045        35.000
        18.000        3192.425        2487.604
  22633996.523    22633992.642   -14454835.19506 -11252309.66347        44.000
        32.000       -2420.881       -1886.401
  24699159.411    24699158.070    -1185151.43704   -905242.92245        38.000
        19.000        3603.939        2808.264
  22188536.974    22188531.389   -16882582.89507 -13149527.30947        50.000
        41.000        2509.559        1955.501
  23078412.392    23078405.159   -11785613.56406  -9172441.67947        44.000
        33.000        -870.695        -678.464
  22214760.580    22214756.552   -15633732.03307 -12172992.11547        49.000
        40.000       -2127.262       -1657.607
  20308665.348    20308661.499   -25416363.31108 -19799664.65948        54.000
        50.000         742.103         578.262
 10  3 18  0 17  0.0000000  0  8G30G21G14G24G31G02G12G29
  20181218.231    20181214.166   -27205817.06408 -21192755.47448        53.000
        46.000        -757.328        -590.126
  25261612.101    25261609.649     -207935.33102   -152062.03945        34.000
        18.000        3195.709        2490.163
  22647853.250    22647848.506   -14382021.71806 -11195571.88847        45.000
        33.000       -2433.461       -1896.203
  24678577.155    24678576.684    -1293302.70904   -989515.97945        38.000
        18.000        3605.782        2809.700
  22174238.229    22174232.597   -16957724.02107 -13208078.83947        50.000
        41.000        2499.654        1947.783
  23083433.272    23083426.657   -11759225.12906  -9151879.25547        45.000
        33.000        -888.808        -692.577
  22226919.787    22226915.499   -15569837.15206 -12123203.90947        47.000
        40.000       -2132.548       -1661.726
  20304475.214    20304470.799   -25438384.24208 -19816823.81748        53.000
        50.000         725.807         565.564
 10  3 18  0 17 30.0000000  0  8G30G21G14G24G31G02G12G29
  20185572.842    20185569.150   -27182934.02908 -21174924.53748        54.000
        46.000        -768.355        -598.718
  25243359.587    25243357.705     -303847.71802   -226798.54745        35.000
        18.000        3198.378        2492.242
  22661780.062    22661775.988   -14308830.21906 -11138539.54547        44.000
        32.000       -2446.148       -1906.089
  24657986.077    24657985.324    -1401510.05703  -1073832.92445        36.000
        19.000        3607.563        2811.088
  22159996.171    22159990.772   -17032565.63007 -13266396.97647        50.000
        41.000        2489.570        1939.924
  23088557.594    23088551.554   -11732296.50806  -9130895.88447        45.000
        33.000        -906.802        -706.599
  22239108.568    22239104.276   -15505782.94007 -12073291.56047        49.000
        39.000       -2137.847       -1665.855
  20300378.169    20300374.106   -25459912.80708 -19833599.31748        54.000
        50.000         709.325         552.721
 10  3 18  0 18  0.0000000  0  8G30G21G14G24G31G02G12G29
  20189989.939    20189986.167   -27159722.34408 -21156837.51448        53.000
        46.000        -779.206        -607.173
  25225091.084    25225088.606     -399849.61003   -301604.82945        36.000
        18.000        3201.273        2494.498
  22675779.274    22675775.294   -14235264.01406 -11081215.22946        43.000
        31.000       -2458.478       -1915.697
  24637384.605    24637383.359    -1509770.97704  -1158191.70145        38.000
        19.000        3609.544        2812.632
  22145811.385    22145806.411   -17107105.60707 -13324480.07047        50.000
        41.000        2479.544        1932.113
  23093783.979    23093778.515   -11704828.14106  -9109491.93947        45.000
        32.000        -924.689        -720.537
  22251328.100    22251323.812   -15441569.89407 -12023255.41347        49.000
        40.000       -2143.234       -1670.052
  20296375.246    20296371.055   -25480949.79908 -19849991.77448        54.000
        50.000         692.963         539.971
 10  3 18  0 18 30.0000000  0  8G30G21G14G24G31G02G12G29
  20194469.389    20194465.495   -27136182.54208 -21138494.81148        54.000
        46.000        -790.084        -615.650
  25206804.560    25206801.219     -495939.33704   -376479.45145        39.000
        18.000        3204.579        2497.074
  22689849.696    22689845.143   -14161326.46305 -11023601.58146        42.000
        31.000       -2470.812       -1925.308
  24616773.858    24616771.492    -1618082.68003  -1242590.07245        37.000
        19.000        3611.190        2813.914
  22131684.769    22131679.651   -17181341.66707 -13382326.35147        50.000
        41.000        2469.432        1924.233
  23099114.348    23099108.280   -11676821.24506  -9087668.38047        43.000
        32.000        -942.545        -734.451
  22263577.357    22263573.125   -15377198.55207 -11973095.93547        49.000
        39.000       -2148.332       -1674.025
  20292465.315    20292461.045   -25501495.62108 -19866001.50048        53.000
        51.000         676.673         527.278
 10  3 18  0 19  0.0000000  0  8G30G21G14G24G31G02G12G29
  20199011.308    20199007.692   -27112315.27108 -21119896.94948        54.000
        46.000        -800.842        -624.033
  25188502.612    25188500.365     -592114.50003   -451420.66745        37.000
        18.000        3207.737        2499.535
  22703989.388    22703985.188   -14087020.85606 -10965701.11246        44.000
        31.000       -2482.829       -1934.672
  24596153.002    24596151.584    -1726442.70204  -1327025.92445        38.000
        20.000        3612.864        2815.219
  22117616.085    22117611.506   -17255271.84707 -13439934.27747        49.000
        41.000        2459.431        1916.440
  23104545.673    23104540.028   -11648277.12505  -9065426.21946        42.000
        30.000        -960.129        -748.153
  22275857.011    22275852.724   -15312669.80707 -11922813.81647        49.000
        39.000       -2153.401       -1677.975
  20288648.851    20288644.692   -25521551.12008 -19881629.15948        53.000
        51.000         660.549         514.714
 10  3 18  0 19 30.0000000  0  8G30G21G14G24G31G02G12G29
  20203615.455    20203611.473   -27088120.02308 -21101043.51148        54.000
        46.000        -811.826        -632.591
  25170186.185    25170183.019     -688372.70304   -526426.59845        38.000
        18.000        3210.040        2501.330
  22718198.775    22718194.224   -14012349.63606 -10907515.74546        44.000
        31.000       -2494.921       -1944.095
  24575522.894    24575521.677    -1834848.14303  -1411497.20545        36.000
        19.000        3614.273        2816.317
  22103606.267    22103601.680   -17328893.62207 -13497301.88347        49.000
        40.000        2449.019        1908.327
  23110079.797    23110073.679   -11619195.89205  -9042765.53546        42.000
        30.000        -978.198        -762.232
  22288166.438    22288161.271   -15247983.12107 -11872408.61147        50.000
        39.000       -2158.691       -1682.097
  20284925.981    20284921.489   -25541115.93808 -19896874.45948        54.000
        51.000         644.087         501.886
 10  3 18  0 20  0.0000000  0  8G30G21G14G24G31G02G12G29
  20208282.119    20208277.988   -27063597.06708 -21081934.73048        54.000
        46.000        -822.758        -641.111
  25151852.337    25151850.116     -784712.00602   -601495.72845        35.000
        19.000        3212.661        2503.373
  22732477.129    22732473.175   -13937316.16806 -10849048.10046        44.000
        31.000       -2507.016       -1953.519
  24554886.084    24554884.122    -1943296.55103  -1496002.02145        37.000
        20.000        3615.820        2817.522
  22089655.767    22089650.908   -17402204.91407 -13554427.56247        49.000
        41.000        2438.609        1900.214
  23115716.216    23115709.835   -11589578.32106  -9019686.93246        43.000
        30.000        -996.025        -776.124
  22300505.410    22300501.094   -15183139.11707 -11821880.81647        49.000
        39.000       -2163.886       -1686.145
  20281295.796    20281291.963   -25560190.89708 -19911738.05948        54.000
        50.000         627.818         489.209
 10  3 18  0 20 30.0000000  0  8G30G21G14G24G31G02G12G29
  20213011.035    20213006.909   -27038746.40208 -21062570.57548        54.000
        46.000        -833.857        -649.758
  25133504.426    25133501.299     -881130.30302   -676626.48945        35.000
        19.000        3215.094        2505.268
  22746823.867    22746820.113   -13861923.04606 -10790300.22646        43.000
        31.000       -2519.115       -1962.947
  24534240.621    24534239.558    -2051784.72704  -1580537.77746        38.000
        21.000        3617.096        2818.516
  22075764.523    22075759.724   -17475202.93907 -13611309.13047        50.000
        41.000        2427.999        1891.947
  23121454.331    23121447.606   -11559425.03306  -8996190.85846        46.000
        31.000       -1014.027        -790.151
  22312874.855    22312870.608   -15118137.83007 -11771230.48847        49.000
        40.000       -2169.335       -1690.391
  20277759.503    20277755.185   -25578775.70208 -19926219.71648        53.000
        50.000         611.300         476.338
 10  3 18  0 21  0.0000000  0  8G30G21G14G24G31G02G12G29
  20217802.452    20217798.409   -27013567.97608 -21042951.02248        54.000
        46.000        -844.845        -658.321
  25115141.096    25115138.421     -977625.78602   -751817.34745        35.000
        19.000        3217.816        2507.389
  22761238.875    22761234.605   -13786173.35106 -10731274.51246        43.000
        31.000       -2531.091       -1972.278
  24513588.887    24513587.711    -2160310.52603  -1665102.97046        37.000
        21.000        3617.938        2819.172
  22061933.356    22061928.538   -17547885.61807 -13667944.98247        49.000
        41.000        2417.425        1883.708
  23127294.082    23127287.521   -11528737.09106  -8972278.16747        46.000
        32.000       -1031.984        -804.143
  22325273.924    22325269.637   -15052979.93607 -11720458.10847        49.000
        39.000       -2174.645       -1694.529
  20274315.788    20274311.681   -25596871.02408 -19940319.97348        54.000
        51.000         594.920         463.574
 10  3 18  0 21 30.0000000  0  8G30G21G14G24G31G02G12G29
  20222655.796    20222651.528   -26988062.67208 -21023076.77248        53.000
        46.000        -855.668        -666.754
  25096764.755    25096762.153    -1074195.34303   -827065.87245        37.000
        18.000        3220.084        2509.156
  22775720.699    22775716.509   -13710070.74706 -10671973.78647        44.000
        32.000       -2542.645       -1981.282
  24492930.913    24492929.051    -2268871.15703  -1749695.25346        37.000
        21.000        3619.098        2820.076
  22048162.928    22048158.045   -17620251.10907 -13724333.67847        50.000
        42.000        2406.891        1875.499
  23133235.140    23133228.617   -11497515.72606  -8947949.81047        47.000
        33.000       -1049.642        -817.903
  22337702.980    22337698.526   -14987666.10407 -11669564.22847        49.000
        38.000       -2179.774       -1698.525
  20270965.570    20270961.344   -25614477.36208 -19954039.18748        53.000
        51.000         578.722         450.952
 10  3 18  0 22  0.0000000  0  8G30G21G14G24G31G02G12G29
  20227571.510    20227567.421   -26962230.03308 -21002947.44948        54.000
        46.000        -866.562        -675.243
  25078373.966    25078370.720    -1170836.94803   -902370.59845        37.000
        17.000        3222.549        2511.077
  22790269.357    22790264.529   -13633618.11906 -10612400.33346        43.000
        31.000       -2554.243       -1990.319
  24472265.536    24472263.381    -2377463.81303  -1834312.51346        37.000
        21.000        3620.162        2820.905
  22034453.362    22034447.900   -17692296.78107 -13780473.16047        50.000
        41.000        2396.084        1867.079
  23139277.405    23139271.279   -11465761.25706  -8923206.06047        47.000
        32.000       -1067.309        -831.669
  22350161.645    22350157.318   -14922195.89407 -11618548.49447        49.000
        39.000       -2184.961       -1702.567
  20267708.040    20267704.155   -25631595.06408 -19967377.65248        54.000
        51.000         562.447         438.270
 10  3 18  0 22 30.0000000  0  8G30G21G14G24G31G02G12G29
  20232549.652    20232545.761   -26936070.55108 -20982563.44348        54.000
        46.000        -877.367        -683.663
  25059969.974    25059967.388    -1267548.35204   -977729.70045        38.000
        18.000        3224.766        2512.805
  22804883.860    22804879.342   -13556818.05605 -10552556.13646        42.000
        31.000       -2565.795       -1999.321
  24451595.160    24451593.360    -2486085.90804  -1918952.78145        38.000
        19.000        3621.304        2821.796
  22020804.810    22020799.929   -17764020.48507 -13836361.76347        50.000
        41.000        2385.401        1858.754
  23145421.078    23145414.989   -11433474.92206  -8898047.86547        46.000
        32.000       -1085.155        -845.576
  22362649.538    22362645.293   -14856569.85007 -11567411.32647        50.000
        40.000       -2190.116       -1706.584
  20264543.419    20264539.380   -25648224.82608 -19980335.89848        54.000
        51.000         546.163         425.582
 10  3 18  0 23  0.0000000  0  8G30G21G14G24G31G02G12G29
  20237589.473    20237585.524   -26909584.26708 -20961924.79148        54.000
        46.000        -888.363        -692.231
  25041553.933    25041550.603    -1364327.71504  -1053141.80045        38.000
        17.000        3226.984        2514.533
  22819563.457    22819559.675   -13479673.81506 -10492443.75346        45.000
        31.000       -2577.172       -2008.186
  24430919.735    24430917.593    -2594734.32904  -2003613.36145        39.000
        20.000        3621.901        2822.260
  22007218.169    22007212.615   -17835419.81707 -13891997.60747        50.000
        42.000        2374.513        1850.270
  23151665.815    23151660.320   -11400657.76806  -8872476.04046        45.000
        31.000       -1102.836        -859.352
  22375168.014    22375162.965   -14790788.77607 -11516153.35747        50.000
        39.000       -2195.365       -1710.674
  20261471.987    20261467.207   -25664367.11308 -19992914.29948        54.000
        51.000         529.860         412.878
 10  3 18  0 23 30.0000000  0  8G30G21G14G24G31G02G12G29
  20242692.008    20242687.823   -26882771.49008 -20941031.71748        54.000
        46.000        -899.422        -700.848
  25023123.705    25023120.154    -1461173.06605  -1128605.31445        40.000
        18.000        3229.284        2516.325
  22834308.568    22834304.042   -13402189.12706 -10432066.07346        43.000
        31.000       -2588.670       -2017.145
  24410240.045    24410237.897    -2703406.69905  -2088292.60846        41.000
        22.000        3622.712        2822.893
  21993693.302    21993688.232   -17906492.51807 -13947378.92747        49.000
        42.000        2363.469        1841.664
  23158012.541    23158005.961   -11367310.59006  -8846491.24947        44.000
        32.000       -1120.574        -873.174
  22387715.145    22387710.041   -14724852.45207 -11464774.42247        49.000
        40.000       -2200.584       -1714.741
  20258492.624    20258488.717   -25680022.21208 -20005113.07548        53.000
        51.000         513.513         400.140
 10  3 18  0 24  0.0000000  0  8G30G21G14G24G31G02G12G29
  20247856.297    20247852.484   -26855632.08408 -20919884.14148        53.000
        46.000        -911.219        -710.041
  25004682.422    25004678.684    -1558081.14404  -1204117.60045        38.000
        20.000        3231.207        2517.824
  22849117.768    22849113.676   -13324366.05806 -10371424.74646        43.000
        31.000       -2599.774       -2025.798
  24389555.635    24389553.531    -2812100.11305  -2172988.48246        41.000
        22.000        3623.321        2823.367
  21980231.163    21980226.144   -17977236.04107 -14002503.76147        50.000
        43.000        2352.545        1833.152
  23164458.913    23164451.707   -11333434.01806  -8820093.91746        44.000
        31.000       -1138.183        -886.896
  22400291.644    22400287.444   -14658760.86307 -11413274.48447        50.000
        40.000       -2205.678       -1718.710
  20255606.308    20255602.576   -25695189.88208 -20016932.03248        54.000
        51.000         497.428         387.606
 10  3 18  0 24 30.0000000  0  8G30G21G14G24G31G02G12G29
  20253082.773    20253079.130   -26828165.82208 -20898481.85848        53.000
        46.000        -920.991        -717.656
  24986229.588    24986225.538    -1655050.38904  -1279677.70645        38.000
        19.000        3233.134        2519.325
  22863990.885    22863986.486   -13246207.64706 -10310522.09246        43.000
        30.000       -2611.011       -2034.554
  24368868.476    24368866.188    -2920811.61204  -2257698.51446        39.000
        21.000        3623.964        2823.868
  21966832.161    21966827.529   -18047648.13707 -14057370.32547        50.000
        43.000        2341.523        1824.563
  23171005.775    23170999.518   -11299028.73006  -8793284.58947        46.000
        32.000       -1155.684        -900.533
  22412898.241    22412893.643   -14592513.99907 -11361653.56847        49.000
        40.000       -2210.845       -1722.736
  20252812.803    20252808.700   -25709870.87408 -20028371.76348        53.000
        51.000         481.235         374.988
 10  3 18  0 25  0.0000000  0  8G30G21G14G24G31G02G12G29
  20258371.822    20258367.452   -26800373.42008 -20876825.45048        53.000
        46.000        -931.787        -726.068
  24967766.561    24967762.407    -1752078.03405  -1355283.35645        40.000
        19.000        3235.219        2520.950
  22878926.919    22878923.046   -13167717.06206 -10249360.61046        44.000
        31.000       -2621.778       -2042.944
  24348177.488    24348175.760    -3029538.31405  -2342420.37746        40.000
        22.000        3624.443        2824.241
  21953496.900    21953491.932   -18117726.46407 -14111976.81647        50.000
        42.000        2330.396        1815.893
  23177653.102    23177647.136   -11264095.78206  -8766064.09047        45.000
        32.000       -1173.032        -914.051
  22425533.713    22425529.344   -14526112.40207 -11309912.07347        49.000
        40.000       -2215.869       -1726.651
  20250111.508    20250107.480   -25724065.50008 -20039432.50148        54.000
        51.000         465.146         362.452
 10  3 18  0 25 30.0000000  0  8G30G21G14G24G31G02G12G29
  20263722.674    20263718.663   -26772254.66108 -20854914.73048        53.000
        45.000        -942.652        -734.534
  24949290.717    24949287.481    -1849161.82905  -1430932.76845        40.000
        19.000        3237.016        2522.350
  22893926.765    22893922.256   -13088897.51406 -10187942.80346        43.000
        31.000       -2632.667       -2051.429
  24327486.144    24327483.199    -3138277.62905  -2427152.05846        40.000
        22.000        3624.872        2824.576
  21940225.152    21940220.280   -18187468.73807 -14166321.44347        50.000
        42.000        2319.159        1807.137
  23184400.936    23184394.453   -11228636.36406  -8738433.37947        44.000
        32.000       -1190.699        -927.817
  22438199.083    22438194.498   -14459556.70607 -11258050.50847        48.000
        40.000       -2221.036       -1730.677
  20247503.007    20247498.433   -25737774.54208 -20050114.86948        54.000
        51.000         448.935         349.819
 10  3 18  0 26  0.0000000  0  8G30G21G14G24G31G02G12G29
  20269135.410    20269131.443   -26743810.18308 -20832750.20648        53.000
        45.000        -953.561        -743.034
  24930805.700    24930802.740    -1946299.99304  -1506624.57245        39.000
        19.000        3238.763        2523.712
  22908987.319    22908982.970   -13009752.41906 -10126271.30246        44.000
        31.000       -2643.537       -2059.899
  24306790.844    24306789.028    -3247026.87405  -2511891.53946        40.000
        22.000        3625.248        2824.868
  21927018.013    21927012.896   -18256873.06007 -14220402.72847        49.000
        42.000        2307.753        1798.249
  23191248.716    23191241.486   -11192651.82506  -8710393.47846        45.000
        31.000       -1208.200        -941.454
  22450893.570    22450888.574   -14392847.48307 -11206069.31147        49.000
        39.000       -2226.168       -1734.677
  20244986.331    20244981.592   -25750998.87408 -20060419.53448        54.000
        51.000         432.748         337.206
 10  3 18  0 26 30.0000000  0  8G30G21G14G24G31G02G12G29
  20274610.284    20274606.389   -26715039.51207 -20810331.51048        52.000
        46.000        -964.249        -751.363
  24912311.910    24912307.665    -2043489.90104  -1582356.72045        39.000
        19.000        3240.609        2525.150
  22924109.710    22924104.981   -12930284.55306 -10064348.31046        44.000
        30.000       -2654.176       -2068.189
  24286094.984    24286093.330    -3355783.09005  -2596636.46346        41.000
        22.000        3625.409        2824.994
  21913875.099    21913870.662   -18325936.70107 -14274218.55147        50.000
        42.000        2296.493        1789.475
  23198195.759    23198189.233   -11156142.81906  -8681944.88947        45.000
        32.000       -1225.660        -955.060
  22463617.476    22463612.485   -14325984.37107 -11153968.20547        48.000
        39.000       -2231.134       -1738.546
  20242562.062    20242557.947   -25763738.52808 -20070346.53648        54.000
        51.000         416.693         324.696
 10  3 18  0 27  0.0000000  0  8G30G21G14G24G31G02G12G29
  20280147.116    20280143.239   -26685943.31908 -20787659.15448        53.000
        46.000        -975.208        -759.902
  24893808.208    24893802.702    -2140729.77103  -1658127.79345        37.000
        20.000        3242.141        2526.344
  22939292.290    22939287.534   -12850497.31406 -10002176.43046        43.000
        29.000       -2664.890       -2076.538
  24265398.404    24265396.426    -3464543.92105  -2681384.94546        40.000
        22.000        3625.427        2825.008
  21900798.288    21900793.676   -18394657.79507 -14327767.45347        49.000
        42.000        2285.051        1780.559
  23205242.874    23205236.480   -11119110.45906  -8653088.50347        46.000
        32.000       -1242.981        -968.557
  22476369.997    22476365.520   -14258967.99907 -11101747.66447        49.000
        39.000       -2236.409       -1742.656
  20240230.140    20240225.826   -25775994.48408 -20079896.62348        53.000
        51.000         400.500         312.078
 10  3 18  0 27 30.0000000  0  8G30G21G14G24G31G02G12G29
  20285746.115    20285742.091   -26656520.90708 -20764732.60948        54.000
        46.000        -986.258        -768.512
  24875293.953    24875290.051    -2238016.21103  -1733935.14245        37.000
        19.000        3243.586        2527.469
  22954535.657    22954531.270   -12770393.03005  -9939757.51346        42.000
        29.000       -2675.467       -2084.779
  24244700.956    24244699.594    -3573305.59005  -2766134.16946        41.000
        23.000        3625.275        2824.890
  21887786.829    21887781.845   -18463033.35407 -14381047.09547        50.000
        43.000        2273.381        1771.466
  23212389.381    23212382.817   -11081555.49606  -8623824.90146        44.000
        31.000       -1260.476        -982.189
  22489151.660    22489147.681   -14191797.88007 -11049407.31847        49.000
        39.000       -2241.555       -1746.667
  20237989.820    20237985.575   -25787766.12608 -20089069.32148        55.000
        51.000         384.265         299.427
 10  3 18  0 28  0.0000000  0  8G30G21G14G24G31G02G12G29
  20291406.833    20291402.728   -26626773.66108 -20741552.94248        53.000
        45.000        -996.974        -776.863
  24856771.740    24856767.310    -2335348.04004  -1809777.89445        38.000
        19.000        3245.219        2528.742
  22969838.811    22969834.329   -12689976.15605  -9877095.01446        42.000
        30.000       -2685.807       -2092.836
  24224005.844    24224002.385    -3682066.30605  -2850882.61846        42.000
        23.000        3625.492        2825.058
  21874841.631    21874836.836   -18531062.15707 -14434056.55347        49.000
        43.000        2261.810        1762.450
  23219634.487    23219628.771   -11043480.07906  -8594155.71647        43.000
        32.000       -1277.799        -995.688
  22501962.986    22501958.294   -14124475.28807 -10996948.16647        48.000
        39.000       -2246.608       -1750.604
  20235841.198    20235837.335   -25799055.59108 -20097866.30448        54.000
        51.000         368.236         286.937
 10  3 18  0 28 30.0000000  0  8G30G21G14G24G31G02G12G29
  20297129.644    20297125.428   -26596701.27707 -20718119.91748        52.000
        46.000       -1007.600        -785.143
  24838242.056    24838238.025    -2432722.57902  -1885653.93945        35.000
        20.000        3246.692        2529.890
  22985199.906    22985196.018   -12609248.97105  -9814190.73946        41.000
        29.000       -2695.696       -2100.542
  24203309.527    24203307.180    -3790822.79005  -2935627.77146        41.000
        22.000        3625.291        2824.902
  21861962.462    21861957.350   -18598741.42807 -14486793.64547        51.000
        42.000        2250.232        1753.427
  23226979.564    23226973.230   -11004884.59806  -8564081.32947        45.000
        32.000       -1295.032       -1009.116
  22514803.367    22514798.279   -14057000.12707 -10944370.12547        49.000
        39.000       -2251.541       -1754.447
  20233784.920    20233780.702   -25809863.10208 -20106287.73448        54.000
        51.000         352.366         274.571
 10  3 18  0 29  0.0000000  0  8G30G21G14G24G31G02G12G29
  20302913.872    20302909.884   -26566303.39807 -20694433.25848        52.000
        46.000       -1018.641        -793.747
  24819704.607    24819700.399    -2530137.71403  -1961561.66746        36.000
        21.000        3247.750        2530.714
  23000620.588    23000616.110   -12528214.65105  -9751047.10646        40.000
        29.000       -2706.239       -2108.758
  24182614.976    24182612.337    -3899571.99505  -3020367.24746        40.000
        21.000        3624.899        2824.596
  21849150.382    21849145.201   -18666068.59107 -14539256.36047        50.000
        42.000        2238.370        1744.185
  23234422.810    23234416.388   -10965769.93105  -8533602.35847        42.000
        33.000       -1312.435       -1022.677
  22527672.317    22527668.371   -13989372.29306 -10891673.12547        47.000
        40.000       -2256.781       -1758.531
  20231820.085    20231815.478   -25820188.57108 -20114333.55248        54.000
        51.000         336.217         261.987
 10  3 18  0 29 30.0000000  0  8G30G21G14G24G31G02G12G29
  20308760.448    20308756.215   -26535580.67007 -20670493.48448        52.000
        46.000       -1029.576        -802.267
  24801159.722    24801155.296    -2627590.79703  -2037498.88246        36.000
        21.000        3249.067        2531.740
  23016098.918    23016094.415   -12446876.47805  -9687666.72346        41.000
        28.000       -2716.348       -2116.635
  24161922.468    24161919.616    -4008311.42005  -3105099.12546        41.000
        23.000        3624.452        2824.249
  21836406.391    21836400.905   -18733041.71307 -14591443.20747        50.000
        43.000        2226.479        1734.918
  23241964.279    23241958.274   -10926137.48806  -8502719.94846        44.000
        31.000       -1329.723       -1036.147
  22540570.145    22540565.573   -13921592.59707 -10838857.79647        48.000
        39.000       -2261.959       -1762.565
  20229946.719    20229942.585   -25830033.01808 -20122004.54548        54.000
        51.000         320.082         249.415
 10  3 18  0 30  0.0000000  0  8G30G21G14G24G31G02G12G29
  20314668.540    20314664.142   -26504533.45307 -20646300.85248        51.000
        46.000       -1040.240        -810.576
  24782608.328    24782603.544    -2725079.69803  -2113464.04746        36.000
        21.000        3250.332        2532.726
  23031634.029    23031629.890   -12365237.90905  -9624052.25546        41.000
        30.000       -2726.187       -2124.302
  24141232.353    24141229.499    -4117038.51205  -3189821.42646        41.000
        23.000        3624.082        2823.960
  21823729.102    21823724.332   -18799658.70007 -14643352.55547        51.000
        43.000        2214.672        1725.719
  23249604.726    23249598.122   -10885989.02806  -8471435.41946        45.000
        31.000       -1346.817       -1049.468
  22553497.160    22553492.939   -13853661.06907 -10785924.16447        48.000
        39.000       -2266.836       -1766.366
  20228164.785    20228160.820   -25839397.21508 -20129301.31648        54.000
        51.000         304.228         237.061
 10  3 18  0 30 30.0000000  0  8G30G21G14G24G31G02G12G29
  20320638.273    20320634.188   -26473161.58707 -20621855.24548        51.000
        45.000       -1051.243        -819.151
  24764049.536    24764045.437    -2822602.08402  -2189455.30445        35.000
        20.000        3251.340        2533.512
  23047226.046    23047221.874   -12283301.56705  -9560205.77246        40.000
        30.000       -2736.209       -2132.111
  24120545.275    24120542.695    -4225749.90105  -3274531.47546        41.000
        23.000        3623.415        2823.440
  21811121.125    21811115.707   -18865917.06707 -14694982.45147        50.000
        43.000        2202.517        1716.247
  23257342.571    23257336.432   -10845325.07706  -8439749.23146        45.000
        31.000       -1364.197       -1063.011
  22566453.000    22566448.584   -13785578.13807 -10732872.52947        49.000
        39.000       -2272.029       -1770.412
  20226474.151    20226470.142   -25848281.87608 -20136224.42948        53.000
        51.000         288.122         224.511
 10  3 18  0 31  0.0000000  0  8G30G21G14G24G31G02G12G29
  20326669.882    20326665.479   -26441465.49507 -20597157.00448        51.000
        46.000       -1061.780        -827.361
  24745485.244    24745482.358    -2920155.76103  -2265470.90446        37.000
        21.000        3252.288        2534.250
  23062873.764    23062870.170   -12201070.88205  -9496129.92646        41.000
        28.000       -2745.759       -2139.553
  24099861.166    24099858.892    -4334442.89004  -3359227.17146        39.000
        22.000        3622.923        2823.057
  21798581.126    21798575.781   -18931814.60307 -14746331.18347        51.000
        43.000        2190.754        1707.081
  23265178.409    23265172.159   -10804147.03206  -8407662.42447        46.000
        32.000       -1380.979       -1076.087
  22579437.494    22579432.733   -13717343.70007 -10679702.86647        48.000
        38.000       -2276.833       -1774.156
  20224874.588    20224869.898   -25856687.40108 -20142774.18948        53.000
        51.000         272.405         212.264
 10  3 18  0 31 30.0000000  0  8G30G21G14G24G31G02G12G29
  20332763.184    20332759.230   -26409445.24007 -20572206.15848        51.000
        46.000       -1072.761        -835.918
  24726916.572    24726911.754    -3017738.36004  -2341509.13046        38.000
        21.000        3253.152        2534.924
  23078577.367    23078573.233   -12118548.86605  -9431827.08046        41.000
        28.000       -2755.564       -2147.193
  24079182.474    24079179.257    -4443114.69905  -3443906.41046        40.000
        23.000        3621.917        2822.273
  21786110.159    21786105.238   -18997348.77607 -14797396.77048        50.000
        44.000        2178.362        1697.425
  23273112.026    23273105.895   -10762456.07406  -8375175.96946        45.000
        31.000       -1398.303       -1089.587
  22592450.635    22592446.244   -13648958.00507 -10626415.31747        49.000
        39.000       -2282.083       -1778.246
  20223365.887    20223361.665   -25864614.85707 -20148951.42248        52.000
        51.000         256.218         199.651
 10  3 18  0 32  0.0000000  0  8G30G21G14G24G31G02G12G29
  20338917.937    20338914.176   -26377101.00107 -20547002.86348        51.000
        46.000       -1083.616        -844.376
  24708342.253    24708337.431    -3115348.01005  -2417568.41845        40.000
        20.000        3254.084        2535.650
  23094335.545    23094331.600   -12035739.00605  -9367299.92546        41.000
        29.000       -2765.261       -2154.749
  24058506.855    24058504.029    -4551762.87205  -3528567.24846        40.000
        22.000        3621.111        2821.645
  21773709.151    21773703.906   -19062518.03107 -14848178.00948        51.000
        44.000        2166.091        1687.863
  23281142.365    23281136.708   -10720253.68106  -8342290.98046        45.000
        31.000       -1415.359       -1102.877
  22605492.912    22605489.068   -13580421.77507 -10573010.49047        48.000
        38.000       -2287.195       -1782.230
  20221948.196    20221943.864   -25872064.73408 -20154756.51948        54.000
        51.000         240.232         187.193
 10  3 18  0 32 30.0000000  0  8G30G21G14G24G31G02G12G29
  20345134.816    20345130.572   -26344432.39407 -20521546.82448        51.000
        45.000       -1094.513        -852.867
  24689762.601    24689757.802    -3212981.52003  -2493646.25345        37.000
        20.000        3254.813        2536.218
  23110148.700    23110144.392   -11952643.99305  -9302550.57846        41.000
        30.000       -2774.639       -2162.057
  24037836.798    24037834.668    -4660383.69304  -3613206.73746        39.000
        22.000        3620.116        2820.870
  21761377.592    21761372.598   -19127319.17207 -14898672.40847        49.000
        43.000        2153.773        1678.265
  23289270.929    23289264.060   -10677540.57806  -8309008.07146        46.000
        31.000       -1432.408       -1116.162
  22618564.110    22618559.019   -13511734.65107 -10519488.07747        48.000
        38.000       -2292.096       -1786.049
  20220621.491    20220617.063   -25879037.08707 -20160189.51648        52.000
        52.000         224.355         174.822
 10  3 18  0 33  0.0000000  0  8G30G21G14G24G31G02G12G29
  20351412.881    20351408.973   -26311439.96307 -20495838.43948        51.000
        45.000       -1105.316        -861.285
  24671179.093    24671174.229    -3310636.59203  -2569740.96645        37.000
        20.000        3255.299        2536.597
  23126014.149    23126010.595   -11869266.98805  -9237581.48946        41.000
        31.000       -2784.115       -2169.440
  24017173.134    24017169.866    -4768974.56505  -3697822.89446        42.000
        24.000        3618.888        2819.913
  21749116.545    21749111.368   -19191750.11807 -14948878.34247        49.000
        42.000        2141.295        1668.542
  23297495.744    23297489.343   -10634318.29506  -8275328.34647        45.000
        32.000       -1449.359       -1129.371
  22631662.831    22631658.674   -13442897.08907 -10465848.41947        48.000
        39.000       -2297.255       -1790.069
  20219385.509    20219380.944   -25885532.72208 -20165251.04948        53.000
        52.000         208.415         162.401
 10  3 18  0 33 30.0000000  0  8G30G21G14G24G31G02G12G29
  20357753.078    20357748.524   -26278123.93007 -20469877.90648        51.000
        45.000       -1115.952        -869.573
  24652592.160    24652588.025    -3408311.27803  -2645850.91646        37.000
        21.000        3256.133        2537.247
  23141933.624    23141929.584   -11785611.28505  -9172395.24246        41.000
        30.000       -2793.257       -2176.563
  23996514.708    23996511.837    -4877533.03905  -3782413.82346        42.000
        25.000        3617.930        2819.166
  21736926.643    21736922.022   -19255809.15407 -14998794.47347        48.000
        43.000        2128.990        1658.953
  23305817.353    23305810.608   -10590588.57406  -8241253.22046        46.000
        31.000       -1466.137       -1142.445
  22644791.327    22644786.345   -13373909.66406 -10412092.01147        47.000
        38.000       -2302.231       -1793.946
  20218239.819    20218235.636   -25891553.18808 -20169942.31848        53.000
        52.000         192.642         150.111
 10  3 18  0 34  0.0000000  0  8G30G21G14G24G31G02G12G29
  20364153.898    20364150.024   -26244484.44107 -20443665.32348        51.000
        45.000       -1126.756        -877.992
  24634002.300    24633997.211    -3506003.06904  -2721974.22546        38.000
        22.000        3256.755        2537.731
  23157905.193    23157901.170   -11701680.13205  -9106994.34246        41.000
        29.000       -2802.293       -2183.605
  23975862.886    23975859.956    -4986055.85205  -3866976.97846        40.000
        22.000        3616.701        2818.209
  21724807.937    21724803.148   -19319493.56907 -15048418.69447        49.000
        43.000        2116.496        1649.218
  23314235.580    23314229.244   -10546351.98306  -8206783.15646        45.000
        31.000       -1483.050       -1155.623
  22657947.436    22657942.734   -13304772.12606 -10358218.62447        47.000
        37.000       -2307.107       -1797.746
  20217184.523    20217180.089   -25897098.74908 -20174263.53248        53.000
        52.000         176.926         137.864
 10  3 18  0 34 30.0000000  0  8G30G21G14G24G31G02G12G29
  20370617.111    20370613.015   -26210521.74207 -20417200.88548        52.000
        45.000       -1137.455        -886.329
  24615408.395    24615404.268    -3603709.51905  -2798108.96946        40.000
        21.000        3256.886        2537.833
  23173928.307    23173924.415   -11617476.66505  -9041381.24846        40.000
        28.000       -2811.313       -2190.633
  23955218.798    23955216.225    -5094540.12205  -3951510.04546        41.000
        23.000        3615.313        2817.127
  21712760.854    21712755.985   -19382801.39206 -15097749.46247        47.000
        43.000        2103.995        1639.477
  23322749.782    23322742.774   -10501609.94706  -8171919.23847        47.000
        32.000       -1499.838       -1168.705
  22671132.481    22671127.933   -13235484.72307 -10304228.45247        48.000
        37.000       -2312.137       -1801.666
  20216219.579    20216215.110   -25902170.05707 -20178215.19748        52.000
        52.000         161.100         125.532
 10  3 18  0 35  0.0000000  0  8G30G21G14G24G31G02G12G29
  20377141.442    20377137.334   -26176236.58707 -20390485.19148        50.000
        45.000       -1148.077        -894.605
  24596812.861    24596808.601    -3701429.32905  -2874254.09845        40.000
        20.000        3257.714        2538.479
  23190002.219    23189999.125   -11533004.68205  -8975558.93746        41.000
        28.000       -2820.015       -2197.415
  23934583.880    23934580.647    -5202983.43805  -4036011.23046        42.000
        27.000        3614.174        2816.240
  21700785.754    21700780.943   -19445730.74206 -15146785.31447        47.000
        43.000        2091.420        1629.678
  23331359.380    23331353.279   -10456364.74406  -8136663.22446        46.000
        31.000       -1516.412       -1181.620
  22684346.026    22684341.178   -13166048.43307 -10250122.25847        48.000
        38.000       -2316.885       -1805.365
  20215344.338    20215340.056   -25906768.94407 -20181798.73748        52.000
        52.000         145.580         113.439
 10  3 18  0 35 30.0000000  0  8G30G21G14G24G31G02G12G29
  20383727.258    20383722.919   -26141627.73507 -20363517.25448        51.000
        45.000       -1159.010        -903.125
  24578216.713    24578211.419    -3799158.36405  -2950406.47646        41.000
        21.000        3257.802        2538.547
  23206127.937    23206123.677   -11448266.10805  -8909528.90346        40.000
        26.000       -2828.917       -2204.351
  23913955.032    23913953.189    -5311381.89805  -4120477.47446        41.000
        25.000        3612.528        2814.957
  21688883.452    21688878.325   -19508278.24807 -15195523.62748        48.000
        44.000        2078.529        1619.633
  23340064.880    23340058.502   -10410616.19606  -8101015.00646        45.000
        31.000       -1533.312       -1194.788
  22697587.585    22697582.850   -13096462.15106 -10195899.19447        47.000
        37.000       -2321.993       -1809.345
  20214559.062    20214554.887   -25910894.20008 -20185013.22348        53.000
        52.000         129.672         101.043
 10  3 18  0 36  0.0000000  0  8G30G21G14G24G31G02G12G29
  20390374.307    20390370.010   -26106696.36407 -20336298.01948        50.000
        45.000       -1169.716        -911.467
  24559616.882    24559612.871    -3896895.45005  -3026565.09246        40.000
        21.000        3257.901        2538.625
  23222303.147    23222299.092   -11363265.05405  -8843294.34046        40.000
        27.000       -2837.768       -2211.248
  23893336.902    23893333.523    -5419733.65105  -4204907.32646        41.000
        22.000        3610.865        2813.661
  21677053.986    21677049.227   -19570442.75707 -15243963.50148        49.000
        44.000        2065.763        1609.685
  23348865.787    23348859.646   -10364366.96906  -8064976.62347        45.000
        32.000       -1549.940       -1207.746
  22710857.904    22710853.075   -13026727.35206 -10141560.41347        47.000
        38.000       -2326.967       -1813.221
  20213863.910    20213859.771   -25914548.06207 -20187860.37548        52.000
        52.000         113.951          88.793
 10  3 18  0 36 30.0000000  0  8G30G21G14G24G31G02G12G29
  20397082.850    20397078.984   -26071442.52207 -20308827.50248        50.000
        45.000       -1180.486        -919.859
  24541017.379    24541013.192    -3994638.57405  -3102728.41346        40.000
        22.000        3258.137        2538.808
  23238528.017    23238523.434   -11278004.77205  -8776857.78846        40.000
        27.000       -2846.341       -2217.928
  23872727.511    23872724.371    -5528035.75405  -4289298.52146        42.000
        25.000        3609.187        2812.353
  21665298.044    21665292.612   -19632221.84307 -15292103.05047        50.000
        43.000        2052.775        1599.565
  23357761.507    23357756.655   -10317618.26606  -8028549.07147        46.000
        32.000       -1566.590       -1220.719
  22724156.219    22724151.300   -12956844.02906 -10087105.89347        46.000
        37.000       -2331.849       -1817.025
  20213258.030    20213254.017   -25917731.16108 -20190340.71048        53.000
        52.000          98.274          76.577
 10  3 18  0 37  0.0000000  0  8G30G21G14G24G31G02G12G29
  20403852.729    20403848.472   -26035866.44407 -20281105.88648        51.000
        45.000       -1191.209        -928.215
  24522416.215    24522411.708    -4092384.80505  -3178894.15546        41.000
        22.000        3262.156        2541.940
  23254801.283    23254796.672   -11192488.34405  -8710221.63346        41.000
        26.000       -2854.744       -2224.476
  23852128.536    23852125.568    -5636285.03905  -4373648.55446        42.000
        26.000        3607.433        2810.987
  21653615.551    21653610.435   -19693613.24307 -15339940.50648        49.000
        44.000        2039.943        1589.566
  23366752.662    23366746.617   -10270371.44106  -7991733.36446        46.000
        31.000       -1583.113       -1233.595
  22737483.037    22737477.796   -12886812.20806 -10032535.64847        47.000
        37.000       -2336.771       -1820.860
  20212741.926    20212738.068   -25920444.24107 -20192454.79348        52.000
        52.000          82.692          64.436
 10  3 18  0 37 30.0000000  0  8G30G21G14G24G31G02G12G29
  20410684.158    20410679.714   -25999968.19907 -20253133.22548        50.000
        45.000       -1201.986        -936.612
  24503815.565    24503811.174    -4190131.93205  -3255060.63846        42.000
        21.000        3258.293        2538.929
  23271122.225    23271117.374   -11106718.72005  -8643388.16846        41.000
        27.000       -2863.187       -2231.055
  23831539.119    23831537.078    -5744478.43005  -4457954.96546        41.000
        26.000        3605.456        2809.446
  21642007.117    21642001.772   -19754614.82807 -15387474.21247        49.000
        43.000        2026.862        1579.373
  23375837.425    23375832.326   -10222627.88506  -7954530.59046        45.000
        31.000       -1599.774       -1246.577
  22750837.586    22750832.895   -12816632.16106  -9977849.90647        47.000
        37.000       -2341.781       -1824.764
  20212315.041    20212310.638   -25922688.13107 -20194203.27748        52.000
        52.000          67.038          52.237
 10  3 18  0 38  0.0000000  0  8G30G21G14G24G31G02G12G29
  20417576.478    20417572.461   -25963748.50907 -20224910.09648        51.000
        45.000       -1212.561        -944.853
  24485215.166    24485210.474    -4287877.72405  -3331226.07946        41.000
        22.000        3258.269        2538.911
  23287491.792    23287486.933   -11020699.53905  -8576360.24346        42.000
        26.000       -2871.267       -2237.351
  23810962.396    23810959.034    -5852613.37205  -4542215.89246        42.000
        24.000        3603.532        2807.947
  21630473.895    21630468.233   -19815224.40107 -15434702.44948        49.000
        44.000        2013.860        1569.241
  23385016.966    23385011.581   -10174389.35406  -7916942.14046        46.000
        31.000       -1616.120       -1259.315
  22764220.189    22764216.095   -12746304.61806  -9923049.24747        47.000
        38.000       -2346.584       -1828.507
  20211976.955    20211972.557   -25924464.12307 -20195587.16848        51.000
        52.000          51.482          40.116
 10  3 18  0 38 30.0000000  0  8G30G21G14G24G31G02G12G29
  20424529.811    20424525.663   -25927207.46007 -20196436.55448        50.000
        45.000       -1223.317        -953.234
  24466615.840    24466611.175    -4385619.57905  -3407388.41846        42.000
        23.000        3258.065        2538.752
  23303907.280    23303902.759   -10934433.93705  -8509140.31446        42.000
        27.000       -2879.528       -2243.788
  23790397.558    23790393.053    -5960686.82806  -4626428.96046        43.000
        24.000        3601.478        2806.346
  21619014.875    21619009.885   -19875439.92007 -15481623.63248        49.000
        44.000        2000.653        1558.950
  23394290.669    23394285.314   -10125657.40506  -7878969.19546        45.000
        31.000       -1632.575       -1272.136
  22777631.774    22777626.970   -12675829.88506  -9868133.89047        47.000
        37.000       -2351.622       -1832.433
  20211728.034    20211723.449   -25925772.87807 -20196606.96948        52.000
        52.000          35.922          27.991
 10  3 18  0 39  0.0000000  0  8G30G21G14G24G31G02G12G29
  20431544.689    20431540.170   -25890344.70907 -20167712.33548        50.000
        45.000       -1234.005        -961.562
  24448017.471    24448012.172    -4483355.36005  -3483546.04346        41.000
        23.000        3257.929        2538.646
  23320369.628    23320364.545   -10847925.15606  -8441730.89746        43.000
        28.000       -2887.569       -2250.054
  23769842.857    23769840.623    -6068695.59205  -4710591.57546        41.000
        25.000        3599.374        2804.707
  21607632.031    21607626.876   -19935258.91607 -15528235.84648        49.000
        44.000        1987.460        1548.671
  23403657.447    23403652.150   -10076433.32806  -7840612.78946        45.000
        31.000       -1648.878       -1284.840
  22791070.343    22791066.051   -12605207.42606  -9813103.40347        47.000
        37.000       -2356.334       -1836.104
  20211567.424    20211563.351   -25926615.32007 -20197263.41948        51.000
        52.000          20.463          15.945
 10  3 18  0 39 30.0000000  0  8G30G21G14G24G31G02G12G29
  20438620.490    20438616.647   -25853160.18407 -20138737.39048        50.000
        45.000       -1244.663        -969.867
  24429419.517    24429415.345    -4581082.34505  -3559696.84446        41.000
        21.000        3257.715        2538.479
  23336878.041    23336872.410   -10761175.92606  -8374134.11346        44.000
        28.000       -2895.415       -2256.168
  23749302.148    23749300.238    -6176636.62605  -4794701.38546        41.000
        26.000        3597.192        2803.007
  21596324.603    21596319.582   -19994678.78307 -15574537.04148        50.000
        44.000        1974.204        1538.341
  23413118.358    23413111.976   -10026718.14906  -7801873.67946        45.000
        30.000       -1665.098       -1297.479
  22804537.467    22804533.217   -12534437.24106  -9757957.82647        47.000
        37.000       -2361.304       -1839.977
  20211496.081    20211491.826   -25926991.61407 -20197556.62948        52.000
        52.000           4.976           3.877
 10  3 18  0 40  0.0000000  0  8G30G21G14G24G31G02G12G29
  20445757.864    20445754.138   -25815654.33807 -20109512.05348        50.000
        45.000       -1255.585        -978.378
  24410825.165    24410819.611    -4678797.89905  -3635838.73746        41.000
        21.000        3256.900        2537.844
  23353430.845    23353425.118   -10674189.29206  -8306352.34346        44.000
        28.000       -2903.544       -2262.502
  23728775.909    23728772.640    -6284507.04206  -4878756.21846        43.000
        28.000        3594.464        2800.881
  21585093.789    21585088.445   -20053697.66507 -15620525.77748        49.000
        44.000        1960.601        1527.741
  23422671.934    23422666.549    -9976513.21506  -7762752.94346        45.000
        30.000       -1681.586       -1310.327
  22818032.551    22818028.007   -12463519.57406  -9702697.31147        46.000
        36.000       -2366.352       -1843.911
  20211512.838    20211508.645   -25926902.46107 -20197487.15948        52.000
        52.000         -10.761          -8.385
 10  3 18  0 40 30.0000000  0  8G30G21G14G24G31G02G12G29
  20452955.787    20452951.533   -25777827.53407 -20080036.63048        50.000
        45.000       -1266.208        -986.655
  24392234.002    24392228.391    -4776500.03405  -3711970.14546        41.000
        22.000        3256.449        2537.492
  23370028.267    23370022.501   -10586968.98506  -8238388.47546        44.000
        27.000       -2911.227       -2268.489
  23708262.633    23708258.890    -6392304.39006  -4962754.14446        43.000
        26.000        3592.015        2798.973
  21573939.630    21573934.442   -20112313.67007 -15666200.59148        48.000
        44.000        1947.083        1517.208
  23432318.512    23432312.840    -9925820.40906  -7723252.06246        44.000
        30.000       -1697.882       -1323.025
  22831556.123    22831551.432   -12392455.20306  -9647322.50247        45.000
        37.000       -2371.232       -1847.713
  20211618.193    20211614.168   -25926349.30308 -20197056.12348        53.000
        52.000         -26.110         -20.345
 10  3 18  0 41  0.0000000  0  8G30G21G14G24G31G02G12G29
  20460215.139    20460211.043   -25739679.90507 -20050311.21048        50.000
        45.000       -1276.903        -994.989
  24373643.556    24373639.056    -4874186.42305  -3788089.31246        42.000
        23.000        3255.904        2537.068
  23386668.901    23386664.338   -10499518.27205  -8170245.07646        42.000
        27.000       -2918.861       -2274.437
  23687763.581    23687760.244    -6500025.41505  -5046692.56646        41.000
        27.000        3589.342        2796.890
  21562862.272    21562857.146   -20170524.19907 -15711559.44348        49.000
        44.000        1933.571        1506.678
  23442057.626    23442050.538    -9874641.65306  -7683372.53246        45.000
        30.000       -1713.988       -1335.575
  22845106.643    22845102.215   -12321244.64106  -9591833.75247        46.000
        37.000       -2376.146       -1851.542
  20211811.559    20211807.472   -25925333.64907 -20196264.70348        52.000
        52.000         -41.551         -32.378
 10  3 18  0 41 30.0000000  0  8G30G21G14G24G31G02G12G29
  20467535.582    20467531.430   -25701211.50907 -20020335.85148        50.000
        45.000       -1287.526       -1003.267
  24355057.862    24355052.971    -4971854.42005  -3864194.12446        42.000
        22.000        3255.427        2536.697
  23403353.546    23403348.953   -10411840.16305  -8101924.50646        42.000
        26.000       -2926.198       -2280.155
  23667280.381    23667277.460    -6607666.82406  -5130568.90746        44.000
        27.000        3586.726        2794.852
  21551862.916    21551857.552   -20228327.13207 -15756600.69147        49.000
        43.000        1920.095        1496.178
  23451888.272    23451881.280    -9822978.26706  -7643115.31646        45.000
        29.000       -1730.061       -1348.099
  22858685.235    22858681.239   -12249887.39206  -9536230.69947        46.000
        37.000       -2380.905       -1855.251
  20212092.745    20212088.490   -25923855.62108 -20195112.99148        53.000
        52.000         -56.823         -44.278
 10  3 18  0 42  0.0000000  0  8G30G21G14G24G31G02G12G29
  20474916.573    20474913.427   -25662422.67707 -19990110.79048        52.000
        45.000       -1298.240       -1011.616
  24336476.226    24336471.026    -5069501.84005  -3940282.93546        42.000
        23.000        3254.577        2536.034
  23420081.039    23420076.298   -10323937.58305  -8033429.00546        41.000
        26.000       -2933.719       -2286.015
  23646812.859    23646809.119    -6715226.10206  -5214381.32246        43.000
        28.000        3583.981        2792.712
  21540941.142    21540936.072   -20285720.28107 -15801322.62648        50.000
        44.000        1906.306        1485.433
  23461811.351    23461805.532    -9770831.86606  -7602481.76746        45.000
        30.000       -1746.238       -1360.705
  22872292.481    22872287.865   -12178383.82206  -9480513.64447        45.000
        36.000       -2385.775       -1859.045
  20212461.743    20212457.661   -25921916.54108 -20193602.01748        53.000
        52.000         -72.269         -56.313
 10  3 18  0 42 30.0000000  0  8G30G21G14G24G31G02G12G29
  20482358.585    20482354.956   -25623314.01007 -19959636.51648        50.000
        45.000       -1308.878       -1019.905
  24317899.246    24317893.824    -5167126.71505  -4016354.21246        42.000
        22.000        3253.754        2535.393
  23436849.803    23436845.721   -10235814.43405  -7964761.62346        40.000
        26.000       -2941.060       -2291.735
  23626360.597    23626357.186    -6822700.57305  -5298127.61646        42.000
        26.000        3581.088        2790.458
  21530097.720    21530093.120   -20342702.35707 -15845724.24948        50.000
        44.000        1892.587        1474.743
  23471827.063    23471820.624    -9718204.38906  -7561473.34446        47.000
        31.000       -1762.242       -1373.176
  22885926.664    22885921.886   -12106734.94506  -9424683.37247        45.000
        36.000       -2390.689       -1862.875
  20212918.224    20212913.938   -25919517.81407 -20191732.87548        52.000
        52.000         -87.574         -68.239
 10  3 18  0 43  0.0000000  0  8G30G21G14G24G31G02G12G29
  20489861.815    20489858.545   -25583885.12007 -19928912.71448        50.000
        45.000       -1319.469       -1028.158
  24299326.376    24299321.833    -5264725.96405  -4092405.46946        42.000
        23.000        3253.021        2534.822
  23453660.581    23453656.283   -10147473.60405  -7895924.58846        40.000
        25.000       -2948.249       -2297.337
  23605926.063    23605923.077    -6930086.71106  -5381805.09846        43.000
        27.000        3578.167        2788.182
  21519333.118    21519328.653   -20399270.49507 -15889803.31648        50.000
        44.000        1878.832        1464.025
  23481932.199    23481925.830    -9665096.92606  -7520090.90846        45.000
        30.000       -1778.044       -1385.489
  22899588.831    22899584.144   -12034939.97306  -9368739.24847        44.000
        36.000       -2395.583       -1866.688
  20213462.087    20213457.832   -25916659.82308 -20189505.86548        54.000
        52.000        -102.765         -80.077
 10  3 18  0 43 30.0000000  0  8G30G21G14G24G31G02G12G29
  20497426.296    20497422.451   -25544136.25207 -19897939.58548        50.000
        45.000       -1330.201       -1036.520
  24280759.434    24280755.003    -5362297.65006  -4168435.23146        44.000
        25.000        3251.987        2534.016
  23470511.785    23470507.711   -10058918.39405  -7826920.60046        41.000
        23.000       -2955.333       -2302.857
  23585508.224    23585505.622    -7037381.74605  -5465411.59146        42.000
        29.000        3575.082        2785.778
  21508647.673    21508643.058   -20455422.41307 -15933558.05248        50.000
        44.000        1864.858        1453.136
  23492129.994    23492123.271    -9611511.21906  -7478335.81746        45.000
        30.000       -1794.122       -1398.017
  22913278.739    22913274.129   -11962999.47606  -9312681.73047        44.000
        36.000       -2400.308       -1870.370
  20214092.983    20214088.834   -25913343.65508 -20186921.83748        54.000
        52.000        -118.091         -92.019
 10  3 18  0 44  0.0000000  0  8G30G21G14G24G31G02G12G29
  20505050.396    20505046.998   -25504068.28807 -19866717.80248        51.000
        45.000       -1340.782       -1044.765
  24262197.410    24262191.850    -5459839.91206  -4244442.13646        43.000
        25.000        3251.014        2533.258
  23487403.861    23487399.563    -9970152.45705  -7757752.31446        41.000
        23.000       -2962.125       -2308.150
  23565108.180    23565105.392    -7144583.40505  -5548945.31846        41.000
        28.000        3572.025        2783.396
  21498041.873    21498037.364   -20511156.56707 -15976987.26047        48.000
        43.000        1850.990        1442.330
  23502417.523    23502411.838    -9557449.33106  -7436209.63846        45.000
        31.000       -1809.854       -1410.276
  22926996.018    22926991.472   -11890914.35706  -9256511.53047        44.000
        36.000       -2405.094       -1874.099
  20214811.132    20214807.067   -25909570.59207 -20183981.78348        52.000
        52.000        -133.282        -103.856
 10  3 18  0 44 30.0000000  0  8G30G21G14G24G31G02G12G29
  20512736.049    20512731.997   -25463681.17607 -19835247.33448        50.000
        45.000       -1351.659       -1053.240
  24243641.943    24243636.723    -5557349.26405  -4320423.42746        42.000
        24.000        3249.738        2532.263
  23504334.859    23504330.833    -9881178.28005  -7688421.82846        42.000
        24.000       -2969.393       -2313.813
  23544727.199    23544724.081    -7251688.20805  -5632403.56846        41.000
        28.000        3568.439        2780.602
  21487516.200    21487511.409   -20566470.35007 -16020088.89947        50.000
        43.000        1836.667        1431.169
  23512795.206    23512789.560    -9502912.62306  -7393713.51646        44.000
        30.000       -1825.868       -1422.754
  22940740.834    22940736.228   -11818684.00306  -9200228.14747        44.000
        35.000       -2410.155       -1878.043
  20215615.941    20215611.828   -25905341.35208 -20180686.27648        54.000
        52.000        -148.641        -115.824
 10  3 18  0 45  0.0000000  0  8G30G21G14G24G31G02G12G29
  20520482.116    20520477.946   -25422975.42607 -19803528.57948        50.000
        44.000       -1362.177       -1061.436
  24225092.824    24225088.558    -5654824.13106  -4396377.73946        43.000
        24.000        3248.615        2531.388
  23521305.499    23521301.568    -9791999.80305  -7618932.11546        42.000
        26.000       -2976.053       -2319.003
  23524364.436    23524361.325    -7358693.45605  -5715784.24546        40.000
        28.000        3565.133        2778.026
  21477070.320    21477066.203   -20621362.28407 -16062861.83448        50.000
        44.000        1822.716        1420.298
  23523263.174    23523257.390    -9447903.25706  -7350849.07346        45.000
        30.000       -1841.522       -1434.952
  22954513.826    22954509.068   -11746309.26206  -9143832.24247        44.000
        36.000       -2414.960       -1881.787
  20216507.304    20216503.257   -25900657.69008 -20177036.66948        53.000
        52.000        -163.729        -127.581
 10  3 18  0 45 30.0000000  0  8G30G21G14G24G31G02G12G29
  20528289.114    20528284.764   -25381950.67407 -19771561.25248        50.000
        45.000       -1372.957       -1069.837
  24206551.955    24206547.184    -5752261.43606  -4472302.85046        45.000
        26.000        3247.111        2530.217
  23538314.543    23538309.740    -9702620.02906  -7549285.58146        43.000
        27.000       -2982.854       -2324.302
  23504021.835    23504018.922    -7465595.45805  -5799084.49046        40.000
        29.000        3561.423        2775.135
  21466705.553    21466701.192   -20675829.68407 -16105303.95448        50.000
        44.000        1808.322        1409.082
  23533820.837    23533814.682    -9392422.34906  -7307617.21346        44.000
        30.000       -1857.283       -1447.234
  22968313.759    22968308.650   -11673789.76306  -9087323.56547        44.000
        36.000       -2419.930       -1885.660
  20217484.855    20217480.495   -25895519.53208 -20173032.90748        53.000
        52.000        -178.968        -139.455
 10  3 18  0 46  0.0000000  0  9G30G21G16G14G24G31G02G12G29
  20536156.267    20536152.167   -25340607.56307 -19739345.85648        50.000
        45.000       -1383.415       -1077.986
  24188017.617    24188011.984    -5849659.57506  -4548197.46046        43.000
        23.000        3245.999        2529.350
  25125221.179                     -742502.45703          .00051        36.000
                      2899.842        2259.617
  23555360.126    23555356.025    -9613042.14005  -7479484.64546        42.000
        26.000       -2989.152       -2329.210
  23483698.786    23483695.465    -7572391.98605  -5882302.51146        40.000
        27.000        3558.099        2772.544
  21456422.085    21456417.575   -20729870.76907 -16147413.88548        49.000
        44.000        1794.212        1398.087
  23544467.658    23544461.194    -9336472.26706  -7264019.76546        46.000
        29.000       -1872.868       -1459.378
  22982140.756    22982136.042   -11601126.36906  -9030702.73547        43.000
        35.000       -2424.475       -1889.201
  20218548.864    20218544.586   -25889928.76607 -20168676.45648        52.000
        52.000        -193.845        -151.048
 10  3 18  0 46 30.0000000  0  9G30G21G16G14G24G31G02G12G29
  20544082.754    20544078.932   -25298952.53807 -19706887.40048        51.000
        45.000       -1394.053       -1086.275
  24169489.457    24169483.975    -5947022.00206  -4624064.23946        43.000
        23.000        3244.419        2528.118
  25108665.257    25108659.796     -829502.78103   -631869.31445        36.000
        19.000        2899.751        2259.546
  23572442.365    23572437.499    -9523275.47306  -7409536.61646        43.000
        26.000       -2995.679       -2334.295
  23463395.541    23463392.573    -7679085.97005  -5965440.66346        40.000
        29.000        3554.350        2769.624
  21446219.166    21446213.520   -20783489.56407 -16189194.77048        50.000
        44.000        1779.775        1386.838
  23555202.772    23555196.106    -9280060.51606  -7220062.54646        46.000
        30.000       -1888.482       -1471.544
  22995994.062    22995989.879   -11528325.66406  -8973974.92547        44.000
        35.000       -2429.409       -1893.046
  20219697.505    20219693.458   -25883892.47608 -20163972.85448        54.000
        52.000        -209.053        -162.898
 10  3 18  0 47  0.0000000  0  9G30G21G16G14G24G31G02G12G29
  20552071.666    20552067.935   -25256972.54707 -19674175.72748        50.000
        45.000       -1404.710       -1094.579
  24150971.362    24150967.277    -6044333.41806  -4699891.24346        44.000
        26.000        3242.809        2526.864
  25092112.456    25092106.392     -916491.90103   -699653.02745        37.000
        18.000        2899.645        2259.464
  23589562.434    23589557.251    -9433310.25106  -7339433.85146        43.000
        25.000       -3002.132       -2339.324
  23443115.153    23443111.748    -7785661.47005  -6048486.47346        40.000
        30.000        3550.529        2766.646
  21436098.560    21436093.716   -20836671.22607 -16230635.03248        50.000
        44.000        1765.485        1375.703
  23566027.220    23566021.539    -9223175.89406  -7175736.85646        45.000
        29.000       -1903.885       -1483.547
  23009876.729    23009871.985   -11455373.83506  -8917129.36047        44.000
        36.000       -2434.325       -1896.876
  20220933.132    20220929.058   -25877398.74508 -20158912.80548        53.000
        52.000        -223.973        -174.524
 10  3 18  0 47 30.0000000  0  9G30G21G16G14G24G31G02G12G29
  20560120.470    20560116.715   -25214674.67207 -19641216.34748        50.000
        44.000       -1415.238       -1102.783
  24132462.653    24132458.541    -6141598.07506  -4775681.82246        43.000
        26.000        3241.413        2525.776
  25075559.171    25075554.314    -1003476.68804   -767433.32345        39.000
        19.000        2899.509        2259.357
  23606717.291    23606712.604    -9343156.99706  -7269184.56346        43.000
        26.000       -3008.177       -2344.034
  23422855.785    23422853.771    -7892122.50705  -6131443.09246        41.000
        28.000        3546.720        2763.678
  21426060.982    21426055.756   -20889420.21007 -16271738.13548        50.000
        45.000        1751.017        1364.429
  23576940.168    23576934.216    -9165827.15706  -7131049.53346        44.000
        29.000       -1919.369       -1495.612
  23023785.863    23023781.361   -11382278.77406  -8860172.17147        44.000
        36.000       -2438.934       -1900.468
  20222254.573    20222250.446   -25870455.53507 -20153502.50748        52.000
        52.000        -238.973        -186.213
 10  3 18  0 48  0.0000000  0  9G30G21G16G14G24G31G02G12G29
  20568229.754    20568226.167   -25172059.21107 -19608009.50648        50.000
        45.000       -1425.884       -1111.078
  24113963.015    24113958.015    -6238813.50406  -4851434.06846        43.000
        24.000        3239.575        2524.344
  25059007.979    25059002.743    -1090456.68104   -835209.89145        38.000
        20.000        2899.185        2259.105
  23623908.295    23623903.815    -9252818.22605  -7198790.75146        42.000
        25.000       -3014.395       -2348.879
  23402619.326    23402616.894    -7998465.68005  -6214307.87146        40.000
        30.000        3542.617        2760.481
  21416105.967    21416101.543   -20941734.47507 -16312502.49848        50.000
        45.000        1736.440        1353.070
  23587941.335    23587934.548    -9108015.66106  -7086001.61746        44.000
        28.000       -1934.805       -1507.640
  23037723.150    23037718.770   -11309040.18106  -8803103.15747        43.000
        34.000       -2443.896       -1904.335
  20223660.889    20223656.989   -25863063.65608 -20147742.59848        53.000
        52.000        -253.975        -197.902
 10  3 18  0 48 30.0000000  0  9G30G21G16G14G24G31G02G12G29
  20576399.621    20576396.172   -25129126.20207 -19574555.22848        50.000
        45.000       -1436.396       -1119.270
  24095473.939    24095468.419    -6335977.25306  -4927146.04146        44.000
        26.000        3237.906        2523.044
  25042457.492    25042451.587    -1177431.07204   -902982.14045        38.000
        18.000        2899.322        2259.212
  23641133.690    23641129.383    -9162297.60305  -7128255.22246        41.000
        24.000       -3020.326       -2353.501
  23382406.551    23382403.278    -8104688.05204  -6297078.52246        39.000
        30.000        3538.697        2757.426
  21406233.838    21406229.197   -20993611.84007 -16352926.41348        50.000
        45.000        1721.954        1341.782
  23599030.679    23599024.114    -9049743.34406  -7040594.63446        45.000
        30.000       -1950.024       -1519.499
  23051686.832    23051682.640   -11235658.59906  -8745922.71347        43.000
        35.000       -2448.393       -1907.838
  20225152.773    20225148.543   -25855224.29207 -20141634.00248        52.000
        52.000        -268.754        -209.419
 10  3 18  0 49  0.0000000  0  9G30G21G16G14G24G31G02G12G29
  20584629.873    20584626.160   -25085876.29507 -19540854.01348        51.000
        45.000       -1447.036       -1127.560
  24076994.397    24076989.361    -6433087.01906  -5002815.94146        46.000
        27.000        3235.958        2521.525
  25025907.771    25025902.124    -1264399.54005   -970749.75845        40.000
        19.000        2898.858        2258.851
  23658393.960    23658388.669    -9071598.16905  -7057580.39246        40.000
        23.000       -3026.362       -2358.204
  23362215.906    23362213.213    -8210786.88405  -6379752.89346        40.000
        28.000        3534.371        2754.055
  21396445.630    21396440.714   -21045050.38007 -16393008.39848        51.000
        45.000        1707.178        1330.269
  23610206.749    23610199.574    -8991012.40906  -6994830.24746        45.000
        30.000       -1965.414       -1531.492
  23065678.324    23065673.797   -11162134.29006  -8688631.06347        44.000
        35.000       -2453.329       -1911.685
  20226729.435    20226725.300   -25846938.67208 -20135177.67748        53.000
        52.000        -283.720        -221.080
 10  3 18  0 49 30.0000000  0  9G30G21G16G14G24G31G02G12G29
  20592920.792    20592916.639   -25042309.39207 -19506905.77948        50.000
        45.000       -1457.548       -1135.752
  24058525.137    24058520.853    -6530140.11106  -5078441.67546        44.000
        26.000        3234.004        2520.003
  25009359.196    25009354.049    -1351362.12504  -1038512.77845        38.000
        18.000        2898.375        2258.474
  23675685.655    23675681.810    -8980723.06205  -6986768.61046        40.000
        22.000       -3032.255       -2362.796
  23342050.392    23342047.236    -8316758.89405  -6462328.47346        41.000
        29.000        3530.328        2750.905
  21386740.941    21386736.141   -21096047.98007 -16432746.79048        51.000
        45.000        1692.481        1318.816
  23621469.804    23621463.836    -8931823.83206  -6948709.28146        45.000
        29.000       -1980.673       -1543.382
  23079697.046    23079691.826   -11088466.96406  -8631227.96047        44.000
        35.000       -2458.061       -1915.372
  20228391.005    20228386.576   -25838207.75407 -20128374.35948        52.000
        52.000        -298.539        -232.628
 10  3 18  0 50  0.0000000  0  9G30G21G16G14G24G31G02G12G29
  20601271.231    20601267.463   -24998426.00807 -19472710.94448        50.000
        44.000       -1468.041       -1143.928
  24040067.877    24040062.738    -6627134.71906  -5154021.84646        44.000
        27.000        3232.135        2518.547
  24992811.879    24992806.738    -1438318.75204  -1106271.14145        38.000
        18.000        2898.522        2258.589
  23693011.437    23693007.944    -8889675.87204  -6915822.74646        38.000
        23.000       -3037.772       -2367.095
  23321909.664    23321906.641    -8422601.45505  -6544803.18346        41.000
        31.000        3525.797        2747.375
  21377120.761    21377115.426   -21146602.95507 -16472140.27948        51.000
        45.000        1677.765        1307.350
  23632819.306    23632813.756    -8872180.05806  -6902233.60446        45.000
        30.000       -1995.672       -1555.069
  23093742.039    23093737.466   -11014657.38906  -8573714.02247        43.000
        34.000       -2462.704       -1918.990
  20230136.860    20230132.698   -25829032.94508 -20121225.15148        53.000
        52.000        -313.221        -244.068
 10  3 18  0 50 30.0000000  0  9G30G21G16G14G24G31G02G12G29
  20609682.513    20609678.692   -24954226.01007 -19438269.38948        50.000
        45.000       -1478.716       -1152.247
  24021622.258    24021617.039    -6724068.19106  -5229554.40746        45.000
        26.000        3229.951        2516.845
  24976265.811    24976260.293    -1525268.39904  -1174024.07845        38.000
        18.000        2898.037        2258.210
  23710370.228    23710365.547    -8798459.45204  -6844745.09646        39.000
        22.000       -3043.492       -2371.552
  23301792.952    23301790.438    -8528311.54005  -6627174.64946        40.000
        30.000        3521.406        2743.952
  21367585.086    21367580.115   -21196712.82907 -16511186.93148        50.000
        45.000        1662.851        1295.728
  23644255.152    23644249.513    -8812082.87106  -6855404.63646        46.000
        29.000       -2010.938       -1566.965
  23107814.404    23107810.141   -10940705.93106  -8516089.52047        43.000
        34.000       -2467.559       -1922.774
  20231966.927    20231963.120   -25819415.20707 -20113730.80848        52.000
        52.000        -328.121        -255.678
 10  3 18  0 51  0.0000000  0  9G30G21G16G14G24G31G02G12G29
  20618153.518    20618149.633   -24909709.49907 -19403581.20848        51.000
        44.000       -1489.236       -1160.443
  24003188.151    24003183.574    -6820937.67106  -5305037.07346        44.000
        26.000        3227.820        2515.185
  24959722.038    24959715.799    -1612210.77804  -1241771.28045        38.000
        18.000        2897.952        2258.144
  23727759.656    23727755.683    -8707077.06804  -6773538.05846        39.000
        23.000       -3048.952       -2375.807
  23281703.370    23281699.661    -8633885.93905  -6709440.34646        41.000
        30.000        3516.673        2740.264
  21358134.673    21358129.773   -21246375.62107 -16549885.21648        50.000
        45.000        1647.825        1284.020
  23655778.085    23655772.098    -8751533.97706  -6808223.68346        45.000
        30.000       -2025.935       -1578.651
  23121914.154    23121909.818   -10866612.22406  -8458354.18947        43.000
        35.000       -2472.278       -1926.450
  20233881.333    20233877.264   -25809355.48807 -20105892.06348        52.000
        52.000        -342.751        -267.079
 10  3 18  0 51 30.0000000  0  9G30G21G16G14G24G31G02G12G29
  20626684.809    20626680.471   -24864877.66907 -19368647.32948        50.000
        45.000       -1499.837       -1168.704
  23984767.597    23984762.442    -6917741.47906  -5380468.56946        44.000
        27.000        3225.529        2513.399
  24943177.750    24943172.513    -1699146.05503  -1309513.06645        37.000
        18.000        2897.599        2257.869
  23745179.435    23745175.495    -8615532.59705  -6702204.70246        40.000
        23.000       -3054.193       -2379.891
  23261639.472    23261636.533    -8739321.97205  -6791598.31746        41.000
        31.000        3512.189        2736.771
  21348769.169    21348764.441   -21295589.83407 -16588233.95148        51.000
        45.000        1632.829        1272.334
  23667385.232    23667379.282    -8690535.85206  -6760692.69346        45.000
        30.000       -2040.941       -1590.344
  23136040.888    23136036.414   -10792376.84406  -8400508.44247        43.000
        34.000       -2477.069       -1930.183
  20235879.553    20235875.105   -25798855.53508 -20097710.28448        53.000
        52.000        -357.469        -278.547
 10  3 18  0 52  0.0000000  0  9G30G21G16G14G24G31G02G12G29
  20635275.782    20635271.612   -24819730.66407 -19333467.86048        51.000
        44.000       -1510.150       -1176.740
  23966359.564    23966354.146    -7014476.97406  -5455846.83046        45.000
        27.000        3223.395        2511.736
  24926635.996    24926630.333    -1786073.74903  -1377248.91445        37.000
        17.000        2897.457        2257.759
  23762631.034    23762626.714    -8523829.07105  -6630747.43546        42.000
        25.000       -3059.291       -2383.863
  23241602.254    23241599.545    -8844616.65005  -6873646.10546        40.000
        30.000        3507.496        2733.114
  21339489.843    21339484.769   -21344353.59707 -16626231.68948        50.000
        45.000        1617.999        1260.779
  23679077.977    23679071.264    -8629090.26906  -6712812.99546        45.000
        29.000       -2055.560       -1601.735
  23150194.447    23150189.475   -10718000.45106  -8342552.82447        43.000
        35.000       -2481.503       -1933.638
  20237961.103    20237956.585   -25787916.63107 -20089186.45748        52.000
        51.000        -371.888        -289.783
 10  3 18  0 52 30.0000000  0  9G30G21G16G14G24G31G02G12G29
  20643927.636    20643923.490   -24774267.58207 -19298042.09548        50.000
        44.000       -1520.678       -1184.944
  23947964.374    23947959.258    -7111141.10806  -5531169.51846        43.000
        26.000        3220.904        2509.795
  24910096.358    24910089.960    -1872992.64104  -1444977.86845        39.000
        19.000        2897.178        2257.541
  23780111.183    23780106.740    -8431968.78905  -6559168.01246        41.000
        23.000       -3064.536       -2387.950
  23221592.467    23221589.852    -8949766.08905  -6955580.69846        41.000
        30.000        3502.505        2729.225
  21330296.715    21330291.801   -21392664.12407 -16663876.26148        50.000
        45.000        1602.759        1248.903
  23690855.969    23690849.064    -8567198.06306  -6664585.32946        44.000
        29.000       -2070.434       -1613.325
  23164374.123    23164370.166   -10643482.41706  -8284486.84347        43.000
        34.000       -2486.274       -1937.356
  20240126.321    20240122.086   -25776538.83508 -20080320.63948        53.000
        52.000        -386.557        -301.214
 10  3 18  0 53  0.0000000  0  9G30G21G16G14G24G31G02G12G29
  20652638.263    20652634.356   -24728489.52007 -19262370.89248        51.000
        44.000       -1531.265       -1193.193
  23929583.412    23929578.683    -7207732.12506  -5606435.21846        44.000
        26.000        3218.335        2507.793
  24893557.132    24893551.175    -1959903.22905  -1512700.36545        40.000
        20.000        2896.850        2257.286
  23797620.205    23797616.671    -8339956.11405  -6487469.85546        41.000
        23.000       -3069.644       -2391.930
  23201611.458    23201608.335    -9054768.19605  -7037400.54446        41.000
        29.000        3497.622        2725.420
  21321189.938    21321185.340   -21440520.16007 -16701166.67648        49.000
        45.000        1587.470        1236.990
  23702718.622    23702710.640    -8504862.14706  -6616011.88646        44.000
        29.000       -2085.279       -1624.892
  23178581.692    23178577.157   -10568823.50806  -8226311.08047        43.000
        34.000       -2491.035       -1941.067
  20242374.186    20242370.031   -25764724.51207 -20071114.67648        52.000
        51.000        -401.192        -312.617
 10  3 18  0 53 30.0000000  0  9G30G21G16G14G24G31G02G12G29
  20661409.913    20661405.963   -24682396.25607 -19226454.06748        51.000
        44.000       -1541.657       -1201.291
  23911217.652    23911212.581    -7304247.08106  -5681641.64746        46.000
        28.000        3215.848        2505.855
  24877021.330    24877015.152    -2046804.61005  -1580415.70545        40.000
        20.000        2896.541        2257.045
  23815158.625    23815154.189    -8247793.42705  -6415654.81846        41.000
        23.000       -3074.680       -2395.854
  23181659.820    23181655.979    -9159619.38204  -7119102.71546        39.000
        29.000        3492.391        2721.343
  21312170.081    21312165.350   -21487919.03607 -16738100.86648        49.000
        45.000        1572.269        1225.144
  23714663.912    23714656.659    -8442083.89905  -6567093.75746        42.000
        27.000       -2099.919       -1636.301
  23192815.414    23192811.056   -10494023.51006  -8168025.38347        43.000
        35.000       -2495.627       -1944.644
  20244705.572    20244701.274   -25752474.09207 -20061568.89148        52.000
        52.000        -415.617        -323.858
 10  3 18  0 54  0.0000000  0  9G30G21G16G14G24G31G02G12G29
  20670240.997    20670237.288   -24635988.83907 -19190292.44648        51.000
        44.000       -1551.991       -1209.344
  23892866.323    23892861.327    -7400684.33006  -5756787.52246        45.000
        28.000        3213.326        2503.891
  24860484.878    24860480.237    -2133696.85504  -1648123.92645        38.000
        18.000        2896.354        2256.899
  23832724.564    23832720.212    -8155484.56005  -6343725.81846        41.000
        24.000       -3079.281       -2399.440
  23161735.269    23161732.899    -9264317.28205  -7200685.45646        40.000
        28.000        3487.457        2717.499
  21303237.770    21303233.084   -21534859.27807 -16774677.68048        49.000
        45.000        1557.125        1213.344
  23726694.816    23726687.544    -8378865.69406  -6517832.82546        44.000
        29.000       -2114.428       -1647.606
  23207076.200    23207071.422   -10419083.21106  -8109630.36047        43.000
        34.000       -2500.287       -1948.276
  20247119.517    20247115.158   -25739789.47607 -20051684.77248        52.000
        51.000        -430.014        -335.075
 10  3 18  0 54 30.0000000  0  9G30G21G16G14G24G31G02G12G29
  20679131.699    20679127.974   -24589267.15307 -19153885.95048        49.000
        44.000       -1562.673       -1217.667
  23874530.334    23874524.938    -7497041.00006  -5831870.61646        45.000
        27.000        3210.369        2501.586
  24843952.603    24843945.731    -2220579.10404  -1715824.33745        39.000
        19.000        2895.813        2256.478
  23850318.105    23850313.878    -8063032.27205  -6271685.12146        40.000
        23.000       -3084.250       -2403.312
  23141842.426    23141839.628    -9368858.33605  -7282145.98246        41.000
        29.000        3481.951        2713.209
  21294393.078    21294388.414   -21581338.78207 -16810895.47248        50.000
        46.000        1541.482        1201.155
  23738807.091    23738801.378    -8315209.58206  -6468230.65446        43.000
        29.000       -2129.250       -1659.156
  23221363.715    23221358.912   -10344002.47506  -8051125.90147        43.000
        34.000       -2505.149       -1952.064
  20249615.621    20249611.244   -25726671.41508 -20041462.91048        53.000
        51.000        -444.650        -346.481
 10  3 18  0 55  0.0000000  0  9G30G21G16G14G24G31G02G12G29
  20688082.407    20688078.541   -24542231.38707 -19117234.72548        52.000
        44.000       -1573.067       -1225.766
  23856209.669    23856204.729    -7593315.09206  -5906889.35346        46.000
        28.000        3207.705        2499.510
  24827421.436    24827415.880    -2307451.10505  -1783516.77045        40.000
        20.000        2895.630        2256.335
  23867937.061    23867933.007    -7970440.36105  -6199535.61046        40.000
        23.000       -3088.604       -2406.704
  23121979.175    23121975.961    -9473239.97705  -7363482.32746        40.000
        28.000        3476.733        2709.143
  21285636.336    21285631.379   -21627356.12907 -16846753.15048        49.000
        45.000        1526.157        1189.213
  23751004.757    23750997.292    -8251117.17506  -6418288.54846        43.000
        29.000       -2143.697       -1670.413
  23235677.085    23235673.205   -10268781.70206  -7992512.31747        43.000
        33.000       -2509.575       -1955.513
  20252194.130    20252189.724   -25713121.45707 -20030904.50348        52.000
        51.000        -458.877        -357.567
 10  3 18  0 55 30.0000000  0  9G30G21G16G14G24G31G02G12G29
  20697092.734    20697088.625   -24494881.87707 -19080339.00448        50.000
        44.000       -1583.626       -1233.995
  23837905.150    23837901.090    -7689503.60306  -5981841.41746        44.000
        29.000        3204.738        2497.198
  24810892.038    24810885.864    -2394312.65605  -1851201.08545        40.000
        20.000        2895.226        2256.021
  23885582.803    23885579.060    -7877711.73305  -6127279.56846        41.000
        22.000       -3093.236       -2410.313
  23102146.140    23102143.462    -9577459.14805  -7444692.04746        40.000
        29.000        3471.227        2704.852
  21276967.917    21276963.402   -21672909.11707 -16882248.98848        50.000
        45.000        1510.632        1177.115
  23763282.727    23763277.523    -8186590.58306  -6368008.07446        43.000
        29.000       -2158.162       -1681.685
  23250018.122    23250014.231   -10193421.11106  -7933789.80247        43.000
        34.000       -2514.422       -1959.290
  20254854.379    20254850.489   -25699140.97507 -20020010.61548        52.000
        51.000        -473.299        -368.805
 10  3 18  0 56  0.0000000  0  9G30G21G16G14G24G31G02G12G29
  20706162.747    20706158.793   -24447218.94807 -19043199.07548        51.000
        44.000       -1594.010       -1242.085
  23819618.878    23819613.930    -7785604.53106  -6056725.23546        45.000
        28.000        3201.928        2495.009
  24794364.764    24794358.714    -2481163.36205  -1918876.90045        40.000
        19.000        2894.843        2255.722
  23903254.652    23903250.368    -7784849.63505  -6054919.52146        41.000
        22.000       -3097.491       -2413.629
  23082346.207    23082344.022    -9681512.66205  -7525772.69546        41.000
        30.000        3465.824        2700.642
  21268387.935    21268383.613   -21717995.80807 -16917381.47348        51.000
        45.000        1495.219        1165.106
  23775643.605    23775638.295    -8121631.67406  -6317390.75546        44.000
        28.000       -2172.437       -1692.808
  23264385.789    23264381.619   -10117920.99906  -7874958.54447        43.000
        34.000       -2518.951       -1962.819
  20257596.787    20257592.267   -25684730.81108 -20008781.92148        53.000
        51.000        -487.452        -379.833
 10  3 18  0 56 30.0000000  0  9G30G21G16G14G24G31G02G12G29
  20715292.092    20715288.448   -24399243.04807 -19005815.26347        52.000
        43.000       -1604.558       -1250.305
  23801347.926    23801343.076    -7881615.18806  -6131538.70546        45.000
        28.000        3198.674        2492.473
  24777840.187    24777834.400    -2568002.65905  -1986543.84845        40.000
        20.000        2894.485        2255.443
  23920949.749    23920945.669    -7691857.31705  -5982458.00146        41.000
        22.000       -3102.038       -2417.173
  23062577.612    23062574.285    -9785397.70505  -7606722.05946        40.000
        29.000        3459.856        2695.992
  21259897.776    21259892.830   -21762614.31307 -16952149.13448        50.000
        45.000        1479.285        1152.689
  23788087.796    23788080.386    -8056242.71506  -6266438.29546        45.000
        28.000       -2187.009       -1704.163
  23278779.423    23278774.343   -10042281.43605  -7816018.64247        42.000
        33.000       -2523.757       -1966.564
  20260420.247    20260415.981   -25669892.50407 -19997219.59948        51.000
        51.000        -501.892        -391.085
 10  3 18  0 57  0.0000000  0  9G30G21G16G14G24G31G02G12G29
  20724480.952    20724477.105   -24350953.77307 -18968187.26348        51.000
        44.000       -1614.833       -1258.311
  23783095.601    23783090.709    -7977532.70806  -6206279.60846        44.000
        28.000        3195.690        2490.148
  24761316.706    24761311.310    -2654829.73405  -2054201.29145        40.000
        20.000        2893.976        2255.046
  23938669.836    23938665.858    -7598737.26005  -5909896.92646        40.000
        22.000       -3106.019       -2420.275
  23042841.473    23042838.375    -9889110.56405  -7687537.24246        40.000
        29.000        3454.142        2691.539
  21251496.703    21251491.679   -21806762.19707 -16986550.08348        50.000
        46.000        1463.727        1140.566
  23800612.335    23800606.354    -7990425.12706  -6215151.89746        44.000
        28.000       -2200.902       -1714.988
  23293199.395    23293194.745    -9966502.34605  -7756970.00147        42.000
        33.000       -2528.255       -1970.069
  20263325.036    20263320.747   -25654626.82708 -19985324.26448        53.000
        51.000        -515.970        -402.055
 10  3 18  0 57 30.0000000  0  9G30G21G16G14G24G31G02G12G29
  20733729.967    20733725.946   -24302352.17207 -18930315.90248        51.000
        44.000       -1625.290       -1266.460
  23764860.659    23764856.151    -8073355.52406  -6280946.72246        44.000
        28.000        3192.400        2487.584
  24744795.992    24744790.990    -2741644.90205  -2121849.41046        40.000
        21.000        2893.474        2254.655
  23956413.749    23956409.616    -7505493.72605  -5837239.64746        41.000
        23.000       -3110.320       -2423.626
  23023138.916    23023135.996    -9992649.20805  -7768216.69846        41.000
        30.000        3448.230        2686.932
  21243185.221    21243179.851   -21850438.53307 -17020583.59748        49.000
        45.000        1447.869        1128.209
  23813217.888    23813211.575    -7924181.68306  -6163533.60446        43.000
        29.000       -2215.354       -1726.250
  23307646.598    23307641.864    -9890584.56305  -7697813.29747        42.000
        33.000       -2533.117       -1973.858
  20266311.202    20266307.057   -25638935.80007 -19973097.48648        51.000
        51.000        -530.222        -413.160
 10  3 18  0 58  0.0000000  0  9G30G21G16G14G24G31G02G12G29
  20743037.884    20743034.098   -24253437.82307 -18892200.83448        50.000
        44.000       -1635.774       -1274.629
  23746644.715    23746639.838    -8169080.62406  -6355537.68246        45.000
        28.000        3189.177        2485.073
  24728278.258    24728273.613    -2828446.94304  -2189487.32045        39.000
        18.000        2893.176        2254.423
  23974180.820    23974176.495    -7412128.98905  -5764487.99246        40.000
        22.000       -3114.241       -2426.681
  23003469.915    23003466.808   -10096009.95105  -7848757.51246        41.000
        29.000        3442.273        2682.291
  21234964.213    21234958.914   -21893640.57007 -17054247.52548        49.000
        46.000        1432.141        1115.954
  23825905.457    23825897.849    -7857513.72106  -6111584.57946        44.000
        29.000       -2229.290       -1737.109
  23322119.139    23322114.722    -9814527.88806  -7638548.36147        43.000
        33.000       -2537.678       -1977.412
  20269377.792    20269373.721   -25622820.06007 -19960539.76348        51.000
        51.000        -544.319        -424.145
 10  3 18  0 58 30.0000000  0  9G30G21G16G14G24G31G02G12G29
  20752405.083    20752401.250   -24204211.85807 -18853842.95047        50.000
        43.000       -1646.088       -1282.666
  23728447.699    23728443.124    -8264706.20806  -6430051.08446        45.000
        29.000        3185.855        2482.484
  24711764.236    24711757.457    -2915236.16105  -2257115.28645        40.000
        18.000        2892.843        2254.163
  23991968.830    23991965.555    -7318647.25605  -5691645.05746        40.000
        23.000       -3118.095       -2429.684
  22983835.218    22983832.466   -10199190.45305  -7929157.88546        41.000
        31.000        3436.338        2677.666
  21226833.339    21226827.929   -21936367.64607 -17087541.35948        49.000
        46.000        1416.305        1103.614
  23838671.734    23838665.038    -7790424.08706  -6059306.93046        45.000
        29.000       -2243.300       -1748.026
  23336619.355    23336613.888    -9738333.21706  -7579175.88747        43.000
        33.000       -2542.133       -1980.883
  20272524.934    20272520.700   -25606281.55107 -19947652.61048        52.000
        51.000        -558.339        -435.069
 10  3 18  0 59  0.0000000  0  9G30G21G16G14G24G31G02G12G29
  20761832.458    20761828.238   -24154673.33507 -18815241.50847        49.000
        43.000       -1656.636       -1290.886
  23710271.208    23710266.178    -8360228.62506  -6504484.13346        45.000
        29.000        3182.211        2479.645
  24695250.314    24695244.321    -3002011.07805  -2324732.08945        40.000
        18.000        2892.250        2253.702
  24009779.317    24009775.913    -7225050.86504  -5618712.83446        39.000
        22.000       -3121.949       -2432.687
  22964236.568    22964232.574   -10302186.55305  -8009414.57346        42.000
        31.000        3430.033        2672.753
  21218793.648    21218788.566   -21978616.62507 -17120462.64448        49.000
        46.000        1400.141        1091.019
  23851517.221    23851511.344    -7722913.91506  -6006701.59446        43.000
        28.000       -2257.466       -1759.065
  23351144.533    23351140.209    -9661999.46905  -7519695.05847        42.000
        33.000       -2546.851       -1984.559
  20275752.333    20275748.224   -25589320.68707 -19934436.35748        52.000
        51.000        -572.466        -446.078
 10  3 18  0 59 30.0000000  0  9G30G21G16G14G24G31G02G12G29
  20771318.395    20771314.606   -24104824.07107 -18776397.93747        51.000
        43.000       -1666.750       -1298.766
  23692113.277    23692107.956    -8455646.97506  -6578836.06746        43.000
        28.000        3178.835        2477.015
  24678740.219    24678734.876    -3088772.53704  -2392338.38445        39.000
        18.000        2891.702        2253.274
  24027611.464    24027606.879    -7131343.89904  -5545694.44646        39.000
        22.000       -3125.398       -2435.375
  22944671.531    22944668.567   -10404996.40105  -8089526.14347        42.000
        32.000        3423.899        2667.973
  21210845.174    21210840.054   -22020386.59107 -17153010.67448        49.000
        46.000        1384.348        1078.713
  23864444.032    23864437.582    -7654986.15906  -5953770.87946        45.000
        28.000       -2271.218       -1769.780
  23365696.956    23365691.852    -9585528.17306  -7460107.05847        43.000
        33.000       -2551.291       -1988.019
  20279060.279    20279056.047   -25571939.94307 -19920892.91248        51.000
        51.000        -586.301        -456.858
 10  3 18  1  0  0.0000000  0  9G30G21G16G14G24G31G02G12G29
  20780863.492    20780859.737   -24054663.49507 -18737311.78547        50.000
        43.000       -1677.228       -1306.931
  23673976.130    23673971.558    -8550957.98706  -6653104.34646        43.000
        29.000        3175.223        2474.200
  24662232.366    24662227.048    -3175519.37805  -2459933.33245        40.000
        19.000        2891.346        2252.997
  24045463.687    24045459.465    -7037528.83904  -5472591.82846        39.000
        21.000       -3129.167       -2438.312
  22925143.300    22925141.588   -10507616.30405  -8169489.67446        41.000
        30.000        3417.445        2662.944
  21202988.807    21202983.090   -22061675.44207 -17185183.79848        50.000
        46.000        1368.353        1066.249
  23877449.036    23877442.264    -7586642.29306  -5900515.91946        44.000
        26.000       -2284.972       -1780.498
  23380275.644    23380269.677    -9508919.07006  -7400411.63647        43.000
        33.000       -2555.890       -1991.603
  20282447.354    20282443.148   -25554140.01407 -19907022.83848        51.000
        51.000        -600.275        -467.747
 10  3 18  1  0 30.0000000  0  9G30G21G16G14G24G31G02G12G29
  20790467.830    20790464.540   -24004192.06107 -18697983.41247        49.000
        43.000       -1687.655       -1315.056
  23655860.397    23655855.038    -8646159.34606  -6727287.20646        44.000
        29.000        3171.402        2471.223
  24645728.829    24645722.540    -3262251.35505  -2527516.63145        40.000
        19.000        2890.782        2252.557
  24063337.049    24063331.746    -6943609.31504  -5399407.80745        39.000
        20.000       -3132.397       -2440.829
  22905652.706    22905648.782   -10610043.75105  -8249303.24746        42.000
        30.000        3410.816        2657.779
  21195223.213    21195218.069   -22102481.76107 -17216980.93748        50.000
        46.000        1352.052        1053.547
  23890533.394    23890526.610    -7517885.06506  -5846938.82346        44.000
        27.000       -2298.876       -1791.332
  23394878.923    23394874.696    -9432172.94806  -7340609.48247        43.000
        33.000       -2560.551       -1995.235
  20285913.852    20285909.297   -25535922.55607 -19892827.41148        50.000
        51.000        -614.228        -478.619
 10  3 18  1  1  0.0000000  0  9G30G21G16G14G24G31G02G12G29
  20800131.448    20800127.497   -23953410.19507 -18658413.12647        50.000
        43.000       -1697.863       -1323.010
  23637764.817    23637759.270    -8741248.64706  -6801382.74246        43.000
        28.000        3167.899        2468.492
  24629226.751    24629221.520    -3348967.87505  -2595087.93845        40.000
        19.000        2890.272        2252.160
  24081227.932    24081223.214    -6849588.27803  -5326144.72045        37.000
        20.000       -3135.573       -2443.304
  22886198.203    22886195.062   -10712275.57505  -8328964.41446        41.000
        30.000        3404.613        2652.945
  21187550.003    21187544.857   -22142803.01707 -17248400.09648        50.000
        46.000        1335.975        1041.019
  23903695.472    23903691.079    -7448716.10005  -5793040.95946        42.000
        27.000       -2312.433       -1801.896
  23409509.719    23409505.183    -9355289.50906  -7280700.33347        43.000
        32.000       -2564.972       -1998.680
  20289459.644    20289455.508   -25517288.78607 -19878307.58648        51.000
        51.000        -628.044        -489.385
 10  3 18  1  1 30.0000000  0  9G30G21G16G14G24G31G02G12G29
  20809853.770    20809849.953   -23902318.21807 -18618601.21047        49.000
        43.000       -1708.064       -1330.959
  23619691.699    23619686.227    -8836223.78006  -6875389.31746        45.000
        28.000        3163.938        2465.406
  24612728.259    24612722.801    -3435668.61405  -2662646.92046        40.000
        21.000        2889.807        2251.798
  24099138.444    24099132.897    -6755469.09804  -5252805.13645        39.000
        20.000       -3138.977       -2445.956
  22866781.609    22866779.252   -10814308.75705  -8408470.74946        41.000
        31.000        3397.830        2647.660
  21179969.879    21179964.734   -22182638.18307 -17279440.49248        50.000
        46.000        1319.724        1028.357
  23916937.012    23916929.854    -7379137.73206  -5738824.05646        45.000
        29.000       -2325.984       -1812.455
  23424166.107    23424161.215    -9278269.06606  -7220684.39947        43.000
        32.000       -2569.582       -2002.272
  20293084.392    20293080.555   -25498240.15607 -19863464.50348        51.000
        51.000        -641.775        -500.084
 10  3 18  1  2  0.0000000  0  9G30G21G16G14G24G31G02G12G29
  20819635.310    20819630.850   -23850916.37907 -18578547.83548        50.000
        44.000       -1718.452       -1339.053
  23601641.006    23601636.096    -8931082.03806  -6949304.81946        44.000
        29.000        3159.966        2462.311
  24596232.321    24596227.945    -3522352.73604  -2730192.97046        39.000
        21.000        2889.248        2251.362
  24117067.350    24117061.287    -6661254.79505  -5179391.40245        40.000
        19.000       -3141.919       -2448.248
  22847404.691    22847400.942   -10916140.45205  -8487820.11746        42.000
        31.000        3391.021        2642.354
  21172482.420    21172477.430   -22221985.39607 -17310100.66348        50.000
        46.000        1303.462        1015.685
  23930254.294    23930247.573    -7309152.06406  -5684289.75846        43.000
        27.000       -2339.517       -1823.000
  23438848.613    23438844.491    -9201111.96306  -7160561.98947        43.000
        33.000       -2574.077       -2005.774
  20296788.070    20296783.944   -25478777.63607 -19848298.89848        51.000
        51.000        -655.576        -510.838
 10  3 18  1  2 30.0000000  0  9G30G21G16G14G24G31G02G12G29
  20829475.625    20829472.001   -23799205.16807 -18538253.39347        50.000
        43.000       -1728.735       -1347.066
  23583612.196    23583607.298    -9025821.09306  -7023127.43446        43.000
        29.000        3156.016        2459.234
  24579740.070    24579734.619    -3609020.56905  -2797726.26645        40.000
        20.000        2888.629        2250.879
  24135013.688    24135008.004    -6566948.79904  -5105906.29645        39.000
        20.000       -3144.912       -2450.581
  22828065.699    22828062.031   -11017767.15005  -8567009.75047        42.000
        32.000        3384.253        2637.081
  21165088.212    21165083.132   -22260842.76107 -17340379.13448        50.000
        46.000        1287.115        1002.947
  23943649.156    23943643.540    -7238760.99206  -5629439.57946        44.000
        29.000       -2353.012       -1833.516
  23453557.527    23453553.084    -9123818.04006  -7100332.97747        44.000
        33.000       -2578.661       -2009.346
  20300570.474    20300566.126   -25458902.79507 -19832812.01248        51.000
        51.000        -669.238        -521.484
 10  3 18  1  3  0.0000000  0  9G30G21G16G14G24G31G02G12G29
  20839374.807    20839370.902   -23747185.20507 -18497718.36647        49.000
        43.000       -1739.195       -1355.217
  23565607.726    23565602.325    -9120438.83006  -7096855.51146        43.000
        28.000        3151.962        2456.074
  24563251.216    24563245.874    -3695671.54504  -2865246.44646        39.000
        21.000        2888.169        2250.521
  24152975.825    24152970.465    -6472554.37704  -5032352.17645        39.000
        20.000       -3147.837       -2452.860
  22808765.879    22808762.767   -11119186.38206  -8646037.70447        43.000
        32.000        3377.270        2631.639
  21157787.447    21157782.126   -22299208.69507 -17370274.67348        51.000
        46.000        1270.703         990.158
  23957120.347    23957114.031    -7167966.78705  -5574275.29446        42.000
        26.000       -2366.451       -1843.988
  23468291.683    23468287.212    -9046388.24406  -7039998.07647        44.000
        32.000       -2583.267       -2012.935
  20304430.351    20304426.272   -25438617.67507 -19817005.42248        51.000
        51.000        -682.911        -532.138
 10  3 18  1  3 30.0000000  0  9G30G21G16G14G24G31G02G12G29
  20849332.402    20849328.390   -23694856.60907 -18456942.85547        49.000
        43.000       -1749.422       -1363.186
  23547625.956    23547620.739    -9214932.57006  -7170486.99546        44.000
        29.000        3147.717        2452.766
  24546764.607    24546759.858    -3782304.61005  -2932752.69746        40.000
        21.000        2887.526        2250.020
  24170954.210    24170950.019    -6378074.48904  -4958731.50946        38.000
        21.000       -3150.550       -2454.974
  22789506.664    22789503.529   -11220395.01206  -8724901.55047        44.000
        32.000        3370.197        2626.128
  21150580.326    21150575.424   -22337081.54207 -17399785.97848        50.000
        46.000        1254.216         977.311
  23970669.296    23970662.849    -7096771.97806  -5518798.78746        45.000
        28.000       -2379.813       -1854.399
  23483051.635    23483047.216    -8968822.61106  -6979557.32846        43.000
        31.000       -2587.728       -2016.411
  20308368.647    20308364.218   -25417922.99607 -19800879.70148        50.000
        50.000        -696.590        -542.797
 10  3 18  1  4  0.0000000  0  9G30G21G16G14G24G31G02G12G29
  20859349.319    20859345.400   -23642219.11407 -18415926.63347        49.000
        43.000       -1759.700       -1371.195
  23529668.162    23529663.324    -9309299.25606  -7244019.43146        45.000
        29.000        3143.308        2449.331
  24530282.734    24530277.324    -3868918.78805  -3000244.26446        40.000
        21.000        2886.892        2249.526
  24188949.678    24188944.830    -6283511.85504  -4885046.40846        39.000
        21.000       -3153.367       -2457.169
  22770287.410    22770285.032   -11321389.76706  -8803598.75746        43.000
        31.000        3362.815        2620.375
  21143467.450    21143462.726   -22374458.99407 -17428911.26948        51.000
        46.000        1237.610         964.371
  23984292.206    23984285.702    -7025178.01005  -5463011.28746        42.000
        26.000       -2393.059       -1864.722
  23497838.083    23497833.777    -8891120.81506  -6919010.49247        44.000
        32.000       -2592.405       -2020.056
  20312384.197    20312380.017   -25396819.70307 -19784435.56048        51.000
        51.000        -710.369        -553.534
 10  3 18  1  4 30.0000000  0  9G30G21G16G14G24G31G02G12G29
  20869424.564    20869420.134   -23589273.42607 -18374670.26447        49.000
        43.000       -1770.072       -1379.277
  23511735.694    23511729.985    -9403537.43906  -7317451.76546        43.000
        29.000        3139.010        2445.982
  24513804.112    24513798.448    -3955514.64804  -3067721.56746        39.000
        21.000        2886.198        2248.985
  24206959.329    24206954.376    -6188870.37104  -4811299.85246        39.000
        22.000       -3156.068       -2459.274
  22751109.709    22751107.167   -11422167.87806  -8882127.13247        43.000
        32.000        3355.480        2614.660
  21136449.290    21136444.229   -22411340.12307 -17457649.81048        50.000
        46.000        1221.046         951.465
  23997992.594    23997985.612    -6953187.57806  -5406914.81346        44.000
        28.000       -2406.298       -1875.037
  23512650.130    23512645.561    -8813284.11006  -6858358.52747        45.000
        33.000       -2596.947       -2023.595
  20316477.473    20316473.327   -25375310.16907 -19767674.89548        51.000
        51.000        -723.856        -564.044
 10  3 18  1  5  0.0000000  0  9G30G21G16G14G24G31G02G12G29
  20879558.033    20879554.527   -23536019.83207 -18333173.96147        49.000
        43.000       -1780.120       -1387.106
  23493827.955    23493822.666    -9497644.57306  -7390781.98846        43.000
        30.000        3134.798        2442.699
  24497329.641    24497323.822    -4042091.42705  -3135183.94846        40.000
        21.000        2885.657        2248.564
  24224983.438    24224979.159    -6094152.78204  -4737493.96046        39.000
        22.000       -3158.352       -2461.053
  22731974.590    22731971.582   -11522726.10806  -8960484.19747        45.000
        33.000        3348.250        2609.026
  21129526.132    21129520.877   -22447722.81607 -17485999.95948        50.000
        46.000        1204.470         938.548
  24011766.071    24011760.125    -6880802.53305  -5350510.93546        42.000
        27.000       -2419.221       -1885.107
  23527487.789    23527482.474    -8735311.83906  -6797600.92847        45.000
        32.000       -2601.248       -2026.946
  20320647.867    20320643.918   -25353394.98807 -19750598.13148        50.000
        51.000        -737.161        -574.411
 10  3 18  1  5 30.0000000  0  9G30G21G16G14G24G31G02G12G29
  20889750.596    20889746.455   -23482458.72707 -18291438.04247        49.000
        43.000       -1790.561       -1395.242
  23475944.883    23475939.809    -9591617.75405  -7464007.81046        42.000
        29.000        3130.118        2439.053
  24480858.626    24480852.412    -4128648.29605  -3202630.78345        40.000
        20.000        2884.834        2247.923
  24243020.906    24243017.764    -5999362.34704  -4663631.34646        39.000
        22.000       -3160.864       -2463.010
  22712880.859    22712878.595   -11623061.68606  -9038667.73947        43.000
        32.000        3340.679        2603.127
  21122697.773    21122692.139   -22483605.83007 -17513960.74948        50.000
        46.000        1187.613         925.413
  24025615.336    24025608.235    -6808025.40806  -5293801.44146        43.000
        27.000       -2432.548       -1895.492
  23542350.810    23542345.150    -8657204.69106  -6736738.20947        44.000
        32.000       -2605.878       -2030.554
  20324894.691    20324890.287   -25331076.37007 -19733206.98948        51.000
        51.000        -750.786        -585.028
 10  3 18  1  6  0.0000000  0  9G30G21G16G14G24G31G02G12G29
  20900001.339    20899997.687   -23428590.00907 -18249462.42547        49.000
        42.000       -1800.609       -1403.072
  23458088.053    23458082.679    -9685454.44605  -7537127.31346        41.000
        30.000        3125.699        2435.610
  24464390.824    24464385.670    -4215184.79505  -3270061.80846        41.000
        23.000        2884.234        2247.455
  24261072.807    24261068.404    -5904501.86803  -4589714.13646        37.000
        21.000       -3162.870       -2464.574
  22693831.265    22693828.603   -11723171.19406  -9116675.14047        45.000
        32.000        3333.238        2597.328
  21115964.726    21115959.507   -22518986.95607 -17541530.46448        50.000
        46.000        1171.099         912.545
  24039538.880    24039532.454    -6734857.95305  -5236787.86446        42.000
        26.000       -2445.243       -1905.385
  23557239.574    23557235.261    -8578962.30006  -6675770.11747        44.000
        32.000       -2610.292       -2033.994
  20329218.452    20329214.285   -25308354.88407 -19715501.93948        51.000
        51.000        -764.071        -595.380
 10  3 18  1  6 30.0000000  0  9G30G21G16G14G24G31G02G12G29
  20910310.754    20910306.897   -23374414.75207 -18207247.95247        49.000
        43.000       -1810.958       -1411.136
  23440258.665    23440253.455    -9779153.08205  -7610139.21446        41.000
        30.000        3120.951        2431.910
  24447926.883    24447922.277    -4301700.68105  -3337476.73446        40.000
        24.000        2883.505        2246.887
  24279135.884    24279133.382    -5809574.88304  -4515745.09845        38.000
        20.000       -3165.347       -2466.504
  22674824.620    22674821.628   -11823052.21506  -9194504.50347        45.000
        32.000        3325.624        2591.395
  21109327.883    21109322.832   -22553865.08307 -17568708.21948        50.000
        46.000        1154.272         899.432
  24053535.487    24053529.125    -6661302.62105  -5179472.00746        42.000
        26.000       -2458.233       -1915.507
  23572154.304    23572150.810    -8500585.60906  -6614697.39147        45.000
        33.000       -2614.786       -2037.495
  20333618.645    20333614.576   -25285232.56707 -19697484.55648        50.000
        50.000        -777.374        -605.746
 10  3 18  1  7  0.0000000  0  9G30G21G16G14G24G31G02G12G29
  20920678.677    20920674.146   -23319932.63907 -18164794.36347        49.000
        42.000       -1821.181       -1419.102
  23422455.070    23422449.863    -9872710.11105  -7683040.77346        42.000
        30.000        3116.153        2428.171
  24431467.953    24431463.032    -4388194.85205  -3404874.74846        40.000
        23.000        2882.755        2246.302
  24297212.841    24297208.862    -5714584.34204  -4441726.58445        39.000
        20.000       -3167.528       -2468.204
  22655861.967    22655859.066   -11922701.35206  -9272153.16647        44.000
        33.000        3317.701        2585.222
  21102786.837    21102781.610   -22588237.87007 -17595492.21148        49.000
        46.000        1137.261         886.178
  24067606.301    24067599.474    -6587361.42105  -5121855.52446        42.000
        26.000       -2471.123       -1925.550
  23587095.310    23587090.071    -8422074.43706  -6553519.87447        45.000
        32.000       -2619.287       -2041.003
  20338094.672    20338090.549   -25261710.18707 -19679155.41248        50.000
        50.000        -790.849        -616.246
 10  3 18  1  7 30.0000000  0  9G30G21G16G14G24G31G02G12G29
  20931103.838    20931099.963   -23265145.16307 -18122102.82947        49.000
        43.000       -1831.480       -1427.128
  23404678.596    23404673.786    -9966124.39005  -7755831.10646        41.000
        30.000        3111.356        2424.433
  24415012.224    24415007.673    -4474667.69105  -3472256.14146        40.000
        22.000        2881.967        2245.688
  24315299.289    24315296.576    -5619534.25904  -4367661.62246        39.000
        22.000       -3169.444       -2469.697
  22636943.744    22636940.772   -12022116.49606  -9349619.51247        45.000
        32.000        3309.750        2579.026
  21096342.073    21096336.873   -22622105.13307 -17621882.28548        50.000
        46.000        1120.395         873.035
  24081749.932    24081743.928    -6513037.67006  -5063940.88346        43.000
        28.000       -2483.854       -1935.470
  23602060.563    23602054.599    -8343429.91406  -6492238.41246        45.000
        31.000       -2623.804       -2044.523
  20342646.321    20342642.652   -25237790.45107 -19660516.65948        51.000
        51.000        -804.068        -626.547
 10  3 18  1  8  0.0000000  0  9G30G21G16G14G24G31G02G12G29
  20941588.130    20941583.969   -23210051.43707 -18079172.66347        49.000
        42.000       -1841.558       -1434.980
  23386930.988    23386925.586   -10059392.50905  -7828507.54946        42.000
        30.000        3106.459        2420.618
  24398562.174    24398556.628    -4561118.00605  -3539619.98846        41.000
        22.000        2881.166        2245.065
  24333399.278    24333394.997    -5524426.67905  -4293551.84846        40.000
        21.000       -3171.231       -2471.089
  22618071.125    22618068.270   -12121293.39406  -9426900.19147        45.000
        33.000        3301.787        2572.821
  21089993.921    21089989.030   -22655464.04707 -17647876.25048        50.000
        46.000        1103.476         859.851
  24095964.786    24095959.791    -6438332.18705  -5005728.84646        42.000
        27.000       -2496.724       -1945.500
  23617051.142    23617046.557    -8264651.46806  -6430852.61147        45.000
        32.000       -2628.204       -2047.951
  20347273.902    20347269.914   -25213473.59807 -19641568.46648        51.000
        51.000        -817.183        -636.766
 10  3 18  1  8 30.0000000  0  9G30G21G16G14G24G31G02G12G29
  20952129.904    20952126.314   -23154652.95207 -18036005.01447        49.000
        42.000       -1851.610       -1442.813
  23369210.173    23369206.012   -10152512.50205  -7901068.55646        42.000
        31.000        3101.403        2416.678
  24382115.404    24382109.503    -4647545.86805  -3606966.36046        41.000
        21.000        2880.617        2244.636
  24351506.633    24351503.411    -5429265.27104  -4219400.12646        38.000
        21.000       -3172.860       -2472.358
  22599244.043    22599241.038   -12220229.75706  -9503993.43847        45.000
        33.000        3293.927        2566.696
  21083743.049    21083738.300   -22688313.51607 -17673473.23648        50.000
        46.000        1086.530         846.647
  24110253.136    24110246.954    -6363248.04406  -4947221.71646        43.000
        25.000       -2509.032       -1955.090
  23632067.660    23632063.406    -8185739.62306  -6369362.88547        45.000
        32.000       -2632.606       -2051.381
  20351976.449    20351972.208   -25188761.77907 -19622312.50448        51.000
        51.000        -830.252        -646.950
 10  3 18  1  9  0.0000000  0  9G30G21G16G14G24G31G02G12G29
  20962730.205    20962726.094   -23098949.24507 -17992599.53847        49.000
        42.000       -1861.861       -1450.801
  23351518.819    23351513.371   -10245481.91805  -7973512.25646        41.000
        30.000        3096.469        2412.833
  24365672.950    24365667.340    -4733950.12505  -3674294.33946        41.000
        21.000        2879.687        2243.912
  24369625.499    24369621.781    -5334052.57804  -4145208.53045        39.000
        20.000       -3174.649       -2473.753
  22580463.131    22580460.755   -12318922.27706  -9580896.69847        45.000
        33.000        3285.595        2560.204
  21077589.163    21077584.207   -22720652.08707 -17698672.12648        49.000
        46.000        1069.345         833.256
  24124613.897    24124607.082    -6287787.18806  -4888421.00246        43.000
        25.000       -2521.539       -1964.835
  23647109.517    23647104.894    -8106694.55806  -6307769.33747        46.000
        32.000       -2637.149       -2054.922
  20356754.100    20356749.541   -25163656.02307 -19602749.57548        50.000
        50.000        -843.497        -657.270
 10  3 18  1  9 30.0000000  0  9G30G21G16G14G24G31G02G12G29
  20973388.006    20973383.941   -23042941.03207 -17948956.78547        49.000
        43.000       -1872.102       -1458.781
  23333856.265    23333850.756   -10338298.72505  -8045836.98646        42.000
        30.000        3091.111        2408.658
  24349235.579    24349229.690    -4820330.44305  -3741603.64646        40.000
        21.000        2878.718        2243.157
  24387752.844    24387749.181    -5238792.74304  -4070980.14246        39.000
        21.000       -3176.223       -2474.979
  22561729.629    22561726.871   -12417368.44306  -9657607.99247        46.000
        34.000        3277.346        2553.776
  21071532.945    21071527.619   -22752478.41807 -17723471.86348        50.000
        46.000        1052.190         819.888
  24139044.407    24139039.322    -6211952.15205  -4829328.82546        42.000
        28.000       -2533.997       -1974.543
  23662176.227    23662171.860    -8027516.91506  -6246072.48447        46.000
        32.000       -2641.609       -2058.397
  20361605.807    20361601.208   -25138158.58907 -19582881.44248        51.000
        51.000        -856.589        -667.472
 10  3 18  1 10  0.0000000  0  9G30G21G16G14G24G31G02G12G29
  20984103.964    20984100.003   -22986628.71407 -17905077.07547        49.000
        42.000       -1882.215       -1466.661
  23316224.042    23316217.812   -10430960.02405  -8118040.62846        42.000
        31.000        3085.994        2404.670
  24332802.022    24332796.570    -4906686.34305  -3808893.98546        40.000
        21.000        2877.961        2242.567
  24405889.159    24405884.842    -5143488.28704  -3996717.00445        38.000
        20.000       -3177.605       -2476.056
  22543043.291    22543040.224   -12515564.86806  -9734124.67547        46.000
        33.000        3269.021        2547.289
  21065574.333    21065569.326   -22783790.42807 -17747870.83148        51.000
        46.000        1035.105         806.575
  24153546.590    24153539.116    -6135745.23906  -4769946.79946        45.000
        27.000       -2546.438       -1984.237
  23677269.225    23677264.225    -7948206.53106  -6184272.18646        46.000
        31.000       -2645.891       -2061.733
  20366532.166    20366528.026   -25112270.18707 -19562708.66648        51.000
        50.000        -869.470        -677.509
 10  3 18  1 10 30.0000000  0  9G30G21G16G14G24G31G02G12G29
  20994877.893    20994873.796   -22930012.38007 -17860960.46647        50.000
        43.000       -1892.240       -1474.473
  23298619.930    23298615.211   -10523463.72705  -8190121.40546        42.000
        31.000        3080.944        2400.735
  24316374.208    24316368.764    -4993017.03605  -3876164.60946        40.000
        21.000        2877.316        2242.064
  24424032.517    24424028.471    -5048142.12404  -3922421.37746        39.000
        21.000       -3178.831       -2477.011
  22524405.602    22524402.810   -12613508.67406  -9810444.52147        46.000
        33.000        3260.568        2540.702
  21059713.750    21059708.730   -22814586.93007 -17771868.11048        52.000
        46.000        1017.970         793.223
  24168117.679    24168111.653    -6059168.24305  -4710276.39246        42.000
        25.000       -2558.573       -1993.693
  23692385.877    23692381.738    -7868763.61506  -6122368.62646        45.000
        31.000       -2650.335       -2065.197
  20371532.734    20371528.659   -25085992.22607 -19542232.32648        52.000
        50.000        -882.323        -687.524
 10  3 18  1 11  0.0000000  0  9G30G21G16G14G24G31G02G12G29
  21005709.241    21005705.157   -22873092.37207 -17816607.21347        49.000
        42.000       -1902.503       -1482.470
  23281047.921    23281043.173   -10615806.78905  -8262076.98446        41.000
        31.000        3075.192        2396.254
  24299950.564    24299945.108    -5079322.04705  -3943415.26046        40.000
        22.000        2876.237        2241.224
  24442184.205    24442179.077    -4952757.75905  -3848095.95045        40.000
        20.000       -3180.125       -2478.020
  22505816.316    22505813.274   -12711196.77906  -9886565.10547        46.000
        34.000        3251.955        2533.991
  21053951.877    21053947.130   -22844866.22607 -17795462.37548        52.000
        46.000        1000.627         779.709
  24182760.367    24182754.203    -5982223.42706  -4650319.43146        43.000
        27.000       -2571.058       -2003.422
  23707528.186    23707524.601    -7789188.66906  -6060362.18746        45.000
        29.000       -2654.793       -2068.670
  20376607.209    20376602.975   -25059326.49707 -19521453.83848        50.000
        50.000        -895.384        -697.702
 10  3 18  1 11 30.0000000  0  9G30G21G16G14G24G31G02G12G29
  21016597.951    21016594.403   -22815869.44207 -17772017.93447        49.000
        42.000       -1912.454       -1490.224
  23263506.779    23263501.672   -10707987.45005  -8333906.08446        42.000
        31.000        3070.046        2392.243
  24283532.007    24283526.786    -5165601.12205  -4010645.69446        41.000
        22.000        2875.695        2240.801
  24460341.579    24460336.996    -4857338.38604  -3773743.24045        39.000
        20.000       -3181.331       -2478.959
  22487275.889    22487272.725   -12808626.45206  -9962484.33147        47.000
        34.000        3243.322        2527.264
  21048288.374    21048283.616   -22874627.45707 -17818652.94548        52.000
        46.000         983.371         766.263
  24197471.667    24197464.654    -5904913.74606  -4590078.11346        43.000
        25.000       -2583.006       -2012.732
  23722696.461    23722692.007    -7709482.26806  -5998253.32146        44.000
        31.000       -2659.105       -2072.030
  20381754.944    20381750.905   -25032274.40507 -19500374.27448        52.000
        50.000        -908.133        -707.636
 10  3 18  1 12  0.0000000  0  9G30G21G16G14G24G31G02G12G29
  21027544.837    21027541.134   -22758343.29707 -17727192.37847        50.000
        42.000       -1922.784       -1498.273
  23245996.342    23245991.523   -10800002.96705  -8405606.48646        42.000
        31.000        3064.330        2387.790
  24267119.468    24267114.093    -5251853.11705  -4077855.04746        40.000
        23.000        2874.452        2239.833
  24478506.512    24478501.253    -4761886.50404  -3699365.25345        38.000
        20.000       -3182.306       -2479.719
  22468785.394    22468782.553   -12905794.30706 -10038199.53547        46.000
        34.000        3234.404        2520.314
  21042724.175    21042718.861   -22903868.26008 -17841437.98148        53.000
        46.000         965.873         752.628
  24212252.481    24212245.505    -5827240.77806  -4529553.70946        43.000
        25.000       -2595.230       -2022.258
  23737889.004    23737884.699    -7629643.95506  -5936041.65446        44.000
        29.000       -2663.536       -2075.483
  20386976.040    20386971.819   -25004837.25007 -19478994.67548        51.000
        50.000        -921.100        -717.740
 10  3 18  1 12 30.0000000  0  9G30G21G16G14G24G31G02G12G29
  21038549.628    21038545.896   -22700514.93207 -17682131.33447        49.000
        42.000       -1932.757       -1506.044
  23228518.837    23228513.436   -10891850.86605  -8477176.26646        42.000
        31.000        3058.654        2383.367
  24250711.318    24250705.895    -5338077.81505  -4145043.07646        41.000
        25.000        2873.581        2239.154
  24496675.689    24496671.071    -4666405.55703  -3624964.60245        37.000
        19.000       -3183.270       -2480.470
  22450345.142    22450342.427   -13002697.64906 -10113708.61047        46.000
        35.000        3225.627        2513.475
  21037258.944    21037254.034   -22932587.62608 -17863816.71148        53.000
        46.000         948.498         739.089
  24227101.294    24227095.476    -5749207.14205  -4468748.27746        41.000
        25.000       -2607.244       -2031.619
  23753107.420    23753102.583    -7549674.40006  -5873727.69846        45.000
        30.000       -2667.865       -2078.855
  20392270.229    20392265.717   -24977016.74607 -19457316.35348        51.000
        50.000        -933.880        -727.699
 10  3 18  1 13  0.0000000  0  9G30G21G16G14G24G31G02G12G29
  21049611.290    21049606.946   -22642384.92407 -17636835.23847        49.000
        42.000       -1942.780       -1513.854
  23211073.201    23211067.502   -10983529.37605  -8548614.05746        42.000
        31.000        3053.226        2379.137
  24234308.479    24234303.197    -5424274.96004  -4212209.65046        39.000
        23.000        2872.831        2238.570
  24514849.536    24514844.549    -4570898.89604  -3550543.95345        38.000
        19.000       -3183.786       -2480.872
  22431956.041    22431952.940   -13099333.86406 -10189009.54647        46.000
        34.000        3216.703        2506.521
  21031893.187    21031888.412   -22960784.79607 -17885788.53548        52.000
        46.000         931.258         725.656
  24242018.793    24242013.278    -5670815.55305  -4407663.94246        42.000
        27.000       -2618.883       -2040.688
  23768349.118    23768344.658    -7469574.06806  -5811311.85846        44.000
        29.000       -2672.184       -2082.221
  20397636.661    20397632.575   -24948815.05907 -19435341.01448        52.000
        50.000        -946.398        -737.453
 10  3 18  1 13 30.0000000  0  9G30G21G16G14G24G31G02G12G29
  21060730.619    21060726.973   -22583953.37507 -17591304.17347        49.000
        42.000       -1952.703       -1521.587
  23193659.379    23193655.088   -11075035.82205  -8619917.77347        42.000
        32.000        3047.326        2374.540
  24217910.594    24217905.831    -5510443.41503  -4279353.89246        37.000
        22.000        2871.823        2237.784
  24533028.816    24533023.629    -4475369.08503  -3476105.25745        37.000
        18.000       -3184.666       -2481.558
  22413618.050    22413615.248   -13195699.65506 -10264099.76047        46.000
        35.000        3207.678        2499.489
  21026627.482    21026622.502   -22988457.78207 -17907351.90448        52.000
        46.000         913.771         712.030
  24257004.691    24256996.456    -5592067.65405  -4346302.00046        42.000
        22.000       -2630.736       -2049.924
  23783617.074    23783612.396    -7389342.79706  -5748794.00646        45.000
        29.000       -2676.370       -2085.483
  20403075.686    20403071.532   -24920233.01107 -19413069.29548        52.000
        50.000        -958.909        -747.202
 10  3 18  1 14  0.0000000  0  9G30G21G16G14G24G31G02G12G29
  21071907.069    21071903.065   -22525221.04807 -17545538.73047        49.000
        42.000       -1962.573       -1529.277
  23176279.971    23176274.816   -11166368.02006  -8691085.70646        43.000
        31.000        3041.651        2370.118
  24201518.887    24201514.039    -5596583.32704  -4346475.88346        39.000
        22.000        2870.909        2237.072
  24551210.393    24551206.041    -4379819.90604  -3401651.41945        39.000
        18.000       -3185.141       -2481.928
  22395332.300    22395329.917   -13291792.63606 -10338977.38947        47.000
        35.000        3198.765        2492.544
  21021461.165    21021456.341   -23015605.62507 -17928506.06848        52.000
        46.000         896.348         698.453
  24272058.183    24272051.054    -5512966.63706  -4284664.72946        44.000
        27.000       -2642.406       -2059.018
  23798909.268    23798905.074    -7308981.70506  -5686174.98446        45.000
        31.000       -2680.693       -2088.851
  20408586.745    20408582.453   -24891272.51707 -19390502.66948        51.000
        50.000        -971.493        -757.008
 10  3 18  1 14 30.0000000  0  9G30G21G16G14G24G31G02G12G29
  21083140.657    21083137.117   -22466187.03007 -17499538.21647        49.000
        42.000       -1972.609       -1537.098
  23158933.668    23158928.432   -11257522.22105  -8762114.93046        42.000
        31.000        3035.618        2365.417
  24185132.593    24185127.420    -5682692.29104  -4413573.76646        38.000
        23.000        2869.945        2236.321
  24569397.297    24569392.270    -4284252.79503  -3327183.61545        37.000
        18.000       -3185.617       -2482.299
  22377099.261    22377096.208   -13387608.11506 -10413638.79447        47.000
        34.000        3189.300        2485.169
  21016395.594    21016390.720   -23042225.58807 -17949248.89048        51.000
        46.000         878.714         684.712
  24287176.816    24287171.951    -5433513.27004  -4222753.13946        38.000
        22.000       -2654.074       -2068.109
  23814226.438    23814222.660    -7228489.74706  -5623453.98446        45.000
        30.000       -2685.177       -2092.346
  20414169.548    20414165.818   -24861933.41607 -19367641.03648        52.000
        50.000        -984.059        -766.799
 10  3 18  1 15  0.0000000  0  9G30G21G16G14G24G31G02G12G29
  21094431.535    21094427.459   -22406853.35907 -17453304.19747        49.000
        42.000       -1982.847       -1545.076
  23141622.077    23141616.502   -11348497.76006  -8833004.94747        43.000
        32.000        3029.394        2360.567
  24168752.684    24168746.977    -5768771.64504  -4480648.55546        38.000
        22.000        2868.667        2235.325
  24587585.169    24587580.713    -4188673.12403  -3252706.00145        36.000
        19.000       -3186.128       -2482.697
  22358919.263    22358915.873   -13483145.08506 -10488083.17247        47.000
        35.000        3179.853        2477.808
  21011430.343    21011425.511   -23068318.01307 -17969580.65048        51.000
        46.000         860.918         670.845
  24302363.164    24302355.022    -5353711.64706  -4160570.05346        44.000
        26.000       -2665.879       -2077.308
  23829568.040    23829563.442    -7147868.71006  -5560632.41346        44.000
        29.000       -2689.595       -2095.788
  20419823.970    20419819.747   -24832219.12507 -19344487.02848        52.000
        50.000        -996.787        -776.717
 10  3 18  1 15 30.0000000  0  9G30G21G16G14G24G31G02G12G29
  21105779.881    21105775.792   -22347219.03407 -17406835.90047        49.000
        42.000       -1992.876       -1552.891
  23124343.459    23124339.198   -11439291.37505  -8903753.21447        42.000
        32.000        3023.394        2355.891
  24152378.345    24152373.278    -5854819.48204  -4547698.84746        39.000
        23.000        2867.642        2234.526
  24605774.745    24605771.167    -4093082.12801  -3178219.61845        33.000
        18.000       -3186.724       -2483.161
  22340793.083    22340790.215   -13578399.18306 -10562307.13947        47.000
        35.000        3170.293        2470.358
  21006565.943    21006561.168   -23093880.05407 -17989499.13148        52.000
        46.000         843.159         657.007
  24317613.236    24317606.423    -5273562.68005  -4098116.18946        41.000
        23.000       -2677.378       -2086.269
  23844934.177    23844929.982    -7067117.12506  -5497709.08046        45.000
        29.000       -2693.887       -2099.133
  20425549.743    20425545.848   -24802130.08207 -19321041.02048        50.000
        50.000       -1009.248        -786.427
 10  3 18  1 16  0.0000000  0  9G30G21G16G14G24G31G02G12G29
  21117184.706    21117180.452   -22287285.17507 -17360134.20747        50.000
        42.000       -2002.874       -1560.681
  23107102.006    23107096.847   -11529900.62405  -8974357.81747        42.000
        32.000        3017.077        2350.969
  24136010.093    24136003.716    -5940835.72904  -4614724.47346        38.000
        22.000        2866.579        2233.698
  24623966.294    24623961.979     3879616.58601   3034272.78045        33.000
        19.000       -3186.678       -2483.125
  22322721.399    22322717.829   -13673367.97207 -10636308.78247        48.000
        35.000        3160.778        2462.944
  21001802.946    21001798.258   -23118911.07207 -18009003.81748        51.000
        47.000         825.373         643.148
  24332931.204    24332926.224    -5193069.15305  -4035394.06146        42.000
        27.000       -2688.928       -2095.269
  23860325.531    23860321.345    -6986236.29406  -5434685.07646        45.000
        30.000       -2698.235       -2102.521
  20431346.259    20431342.231   -24771668.27807 -19297304.54448        52.000
        50.000       -1021.702        -796.132
 10  3 18  1 16 30.0000000  0  9G30G21G16G14G24G31G02G12G29
  21128646.480    21128642.248   -22227052.78207 -17313199.87747        49.000
        42.000       -2012.795       -1568.412
  23089894.443    23089889.890   -11620323.53505  -9044817.22646        42.000
        31.000        3010.867        2346.130
  24119647.702    24119642.145    -6026820.08804  -4681725.26846        39.000
        23.000        2865.320        2232.717
  24642160.200    24642156.073     3975219.70402   3108768.66145        35.000
        18.000       -3187.224       -2483.551
  22304703.478    22304700.698   -13768049.24007 -10710086.38447        48.000
        35.000        3151.087        2455.392
  20997140.855    20997136.042   -23143410.59907 -18028094.35948        51.000
        46.000         807.693         629.371
  24348313.398    24348307.843    -5112234.16806  -3972405.74546        43.000
        23.000       -2700.315       -2104.142
  23875741.224    23875737.390    -6905226.71906  -5371560.74946        44.000
        31.000       -2702.644       -2105.956
  20437213.789    20437209.592   -24740835.71907 -19273279.17448        52.000
        50.000       -1034.109        -805.799
 10  3 18  1 17  0.0000000  0  9G30G21G16G14G24G31G02G12G29
  21140164.982    21140161.601   -22166521.46907 -17266032.62647        50.000
        42.000       -2022.719       -1576.145
  23072723.944    23072718.937   -11710557.96006  -9115129.76247        43.000
        32.000        3004.512        2341.178
  24103291.585    24103286.352    -6112771.37904  -4748700.24846        39.000
        23.000        2864.415        2232.011
  24660352.937    24660349.316     4070824.44202   3183265.69745        34.000
        19.000       -3187.036       -2483.404
  22286741.888    22286739.128   -13862439.42707 -10783637.16647        48.000
        36.000        3141.333        2447.792
  20992580.158    20992575.405   -23167376.46107 -18046769.05848        51.000
        47.000         789.849         615.467
  24363760.123    24363752.466    -5031059.14605  -3909152.47845        40.000
        20.000       -2711.596       -2112.932
  23891181.431    23891177.863    -6824088.33406  -5308336.06046        45.000
        31.000       -2706.831       -2109.219
  20443151.657    20443147.110   -24709633.33707 -19248965.63448        52.000
        50.000       -1046.279        -815.282
 10  3 18  1 17 30.0000000  0  9G30G21G16G14G24G31G02G12G29
  21151740.591    21151736.891   -22105692.79407 -17218633.66947        49.000
        42.000       -2032.745       -1583.957
  23055588.658    23055583.703   -11800601.64706  -9185293.66147        43.000
        32.000        2998.071        2336.159
  24086942.058    24086936.241    -6198690.06505  -4815649.88846        40.000
        23.000        2863.183        2231.052
  24678545.269    24678542.212     4166426.83102   3257760.95945        34.000
        20.000       -3186.802       -2483.223
  22268835.840    22268833.000   -13956536.57706 -10856959.60647        46.000
        36.000        3131.489        2440.121
  20988121.305    20988116.410   -23190808.51007 -18065027.80148        50.000
        46.000         771.992         601.552
  24379272.737    24379266.326    -4949547.92206  -3845637.22046        44.000
        28.000       -2722.696       -2121.581
  23906645.927    23906641.209    -6742822.47706  -5245012.02146        45.000
        29.000       -2711.138       -2112.575
  20449158.955    20449154.727   -24678063.71707 -19224365.92648        51.000
        50.000       -1058.526        -824.825
 10  3 18  1 18  0.0000000  0  9G30G21G16G14G24G31G02G12G29
  21163372.481    21163368.701   -22044566.31307 -17171002.64647        48.000
        42.000       -2042.289       -1591.394
  23038491.316    23038486.288   -11890451.55306  -9255306.56147        43.000
        32.000        2991.838        2331.302
  24070599.074    24070593.362    -6284574.45804  -4882572.77246        39.000
        26.000        2862.331        2230.387
  24696737.546    24696733.113     4262024.68003   3332252.74445        36.000
        20.000       -3186.424       -2482.928
  22250986.088    22250983.155   -14050336.56907 -10930050.49447        48.000
        36.000        3121.823        2432.589
  20983764.292    20983759.618   -23213704.51207 -18082868.84448        52.000
        46.000         754.352         587.807
  24394844.528    24394840.757    -4867701.50104  -3781860.80946        38.000
        23.000       -2733.763       -2130.205
  23922134.211    23922129.904    -6661428.27206  -5181587.95046        44.000
        29.000       -2715.213       -2115.751
  20455236.279    20455232.358   -24646127.40607 -19199480.49248        51.000
        50.000       -1070.565        -834.206
 10  3 18  1 18 30.0000000  0  9G30G21G16G14G24G31G02G12G29
  21175061.238    21175056.755   -21983142.78607 -17123140.17147        48.000
        42.000       -2052.354       -1599.237
  23021430.639    23021425.987   -11980105.77106  -9325166.97347        43.000
        33.000        2985.243        2326.164
  24054262.145    24054257.195    -6370424.39004  -4949468.78946        39.000
        27.000        2861.010        2229.358
  24714928.894    24714923.895     4357614.97903   3406738.57445        36.000
        19.000       -3186.080       -2482.660
  22233193.511    22233190.395   -14143836.93307 -11002907.92747        48.000
        37.000        3111.703        2424.704
  20979509.599    20979504.527   -23236063.66308 -18100291.56548        53.000
        46.000         736.415         573.830
  24410486.234    24410477.155    -4785522.68306  -3717825.35646        44.000
        22.000       -2744.669       -2138.703
  23937648.018    23937643.042    -6579906.45306  -5118064.48246        44.000
        28.000       -2719.459       -2119.059
  20461382.908    20461378.681   -24613826.40707 -19174310.87948        51.000
        49.000       -1082.794        -843.736
 10  3 18  1 19  0.0000000  0  9G30G21G16G14G24G31G02G12G29
  21186806.082    21186802.169   -21921422.37207 -17075046.34747        49.000
        42.000       -2062.375       -1607.046
  23004407.614    23004402.459   -12069562.12106  -9394873.22547        44.000
        33.000        2978.470        2320.885
  24037932.286    24037926.053    -6456238.99705  -5016337.32546        40.000
        26.000        2859.598        2228.258
  24733116.334    24733112.387     4453194.36103   3481215.90645        36.000
        19.000       -3185.959       -2482.565
  22215458.711    22215455.742   -14237034.72206 -11075529.55847        47.000
        37.000        3101.365        2416.648
  20975357.218    20975352.259   -23257884.73407 -18117294.99948        52.000
        46.000         718.304         559.717
  24426185.857    24426180.415    -4703014.27705  -3653533.03946        41.000
        26.000       -2755.891       -2147.447
  23953184.932    23953181.088    -6498257.28706  -5054441.76346        45.000
        31.000       -2723.850       -2122.480
  20467598.729    20467594.384   -24581162.04807 -19148858.13748        51.000
        50.000       -1094.939        -853.199
 10  3 18  1 19 30.0000000  0  9G30G21G16G14G24G31G02G12G29
  21198607.351    21198603.497   -21859404.96707 -17026721.11147        49.000
        41.000       -2072.211       -1614.710
  22987422.535    22987417.815   -12158817.32206  -9464422.71247        44.000
        33.000        2971.802        2315.690
  24021608.364    24021604.589    -6542017.03304  -5083177.33546        38.000
        25.000        2858.672        2227.537
  24751301.756    24751297.586     4548760.75903   3555683.11145        36.000
        19.000       -3185.327       -2482.073
  22197781.811    22197778.766   -14329926.45907 -11147912.71847        48.000
        36.000        3091.216        2408.740
  20971307.463    20971302.406   -23279165.58507 -18133877.48148        52.000
        46.000         700.313         545.698
  24441949.095    24441942.861    -4620177.52305  -3588985.06346        41.000
        23.000       -2766.640       -2155.823
  23968746.666    23968742.765    -6416480.49806  -4990719.58946        45.000
        29.000       -2727.959       -2125.682
  20473883.284    20473879.367   -24548135.54707 -19123123.19648        50.000
        49.000       -1106.918        -862.534
 10  3 18  1 20  0.0000000  0  9G30G21G16G14G24G31G02G12G29
  21210465.266    21210461.414   -21797091.52707 -16978165.18847        49.000
        41.000       -2082.047       -1622.374
  22970476.679    22970472.318   -12247869.50206  -9533814.02147        44.000
        34.000        2965.077        2310.449
  24005293.025    24005287.927    -6627758.34604  -5149988.73346        38.000
        24.000        2857.450        2226.584
  24769484.256    24769479.824     4644310.43901   3630137.27945        33.000
        19.000       -3184.493       -2481.423
  22180164.060    22180160.936   -14422509.54207 -11220055.38747        49.000
        36.000        3080.951        2400.741
  20967360.639    20967356.159   -23299905.82607 -18150038.71148        52.000
        46.000         682.333         531.688
  24457774.590    24457765.919    -4537015.38506  -3524183.28846        43.000
        23.000       -2777.521       -2164.302
  23984331.814    23984327.651    -6334576.86106  -4926898.62346        43.000
        27.000       -2732.257       -2129.032
  20480236.534    20480232.777   -24514748.67007 -19097107.44448        51.000
        49.000       -1118.810        -871.800
 10  3 18  1 20 30.0000000  0  9G30G21G16G14G24G31G02G12G29
  21222379.695    21222375.566   -21734481.99807 -16929378.54547        48.000
        41.000       -2091.718       -1629.910
  22953570.243    22953564.696   -12336715.73806  -9603044.83947        45.000
        33.000        2958.175        2305.071
  23988983.473    23988978.935    -6713461.91303  -5216770.68846        37.000
        25.000        2856.154        2225.574
  24787663.283    24787659.492     4739840.92702   3704576.50045        34.000
        18.000       -3183.769       -2480.859
  22162605.320    22162602.328   -14514780.90407 -11291955.13547        48.000
        37.000        3070.597        2392.673
  20963517.168    20963512.487   -23320104.02007 -18165777.55948        52.000
        47.000         664.366         517.688
  24473660.274    24473654.161    -4453529.92705  -3459129.71346        41.000
        23.000       -2787.904       -2172.393
  23999942.860    23999937.092    -6252546.54906  -4862978.91246        44.000
        27.000       -2736.298       -2132.180
  20486658.399    20486654.188   -24481002.67707 -19070811.86648        50.000
        49.000       -1130.682        -881.051
 10  3 18  1 21  0.0000000  0  9G30G21G16G14G24G31G02G12G29
  21234350.114    21234345.875   -21671577.79507 -16880362.28047        48.000
        41.000       -2101.806       -1637.771
  22936703.054    22936698.005   -12425354.90306  -9672114.31047        45.000
        33.000        2951.104        2299.562
  23972682.504    23972677.816    -6799127.60404  -5283523.15546        39.000
        24.000        2854.893        2224.592
  24805838.236    24805833.506     4835348.12702   3778997.47145        35.000
        19.000       -3183.109       -2480.345
  22145106.657    22145103.223   -14606738.51807 -11363610.41647        48.000
        36.000        3059.884        2384.325
  20959777.018    20959772.053   -23339759.82307 -18181093.76348        52.000
        47.000         646.031         503.401
  24489609.215    24489601.574    -4369724.46405  -3393826.75746        42.000
        23.000       -2798.837       -2180.912
  24015576.109    24015571.126    -6170390.17706  -4798960.96046        44.000
        28.000       -2740.829       -2135.711
  20493147.841    20493144.070   -24446899.76807 -19044238.17148        50.000
        49.000       -1142.709        -890.423
 10  3 18  1 21 30.0000000  0  9G30G21G16G14G24G31G02G12G29
  21246376.109    21246372.458   -21608378.64007 -16831116.19947        48.000
        41.000       -2111.683       -1645.467
  22919874.932    22919869.737   -12513783.92206  -9741020.02747        44.000
        34.000        2943.942        2293.981
  23956387.502    23956383.192    -6884754.53404  -5350245.41846        38.000
        23.000        2853.615        2223.596
  24824007.473    24824003.776     4930830.11902   3853398.83245        34.000
        18.000       -3182.357       -2479.759
  22127667.721    22127664.850   -14698379.07407 -11435018.64547        49.000
        36.000        3049.386        2376.145
  20956139.819    20956135.157   -23358871.37907 -18195985.89248        52.000
        47.000         627.892         489.267
  24505616.482    24505609.935    -4285600.79405  -3328275.83146        41.000
        23.000       -2809.461       -2189.190
  24031234.238    24031229.462    -6088107.58206  -4734844.65246        43.000
        27.000       -2744.945       -2138.918
  20499704.996    20499700.782   -24412441.28507 -19017387.40948        50.000
        49.000       -1154.617        -899.702
 10  3 18  1 22  0.0000000  0  9G30G21G16G14G24G31G02G12G29
  21258458.913    21258454.862   -21544885.28707 -16781640.86147        48.000
        41.000       -2121.344       -1652.995
  22903087.414    22903082.305   -12602000.65506  -9809760.32347        45.000
        33.000        2936.932        2288.519
  23940101.479    23940095.909    -6970341.70804  -5416936.71846        38.000
        23.000        2852.259        2222.540
  24842170.358    24842166.283     5026283.70302   3927778.10745        34.000
        17.000       -3181.144       -2478.813
  22110290.264    22110287.191   -14789699.36607 -11506177.30847        49.000
        37.000        3038.616        2367.753
  20952606.918    20952602.075   -23377437.73807 -18210453.18948        52.000
        46.000         609.691         475.084
  24521684.901    24521679.371    -4201161.38805  -3262478.92546        41.000
        24.000       -2820.026       -2197.423
  24046915.461    24046911.016    -6005699.21206  -4670630.34946        43.000
        28.000       -2749.108       -2142.162
  20506329.932    20506325.554   -24377628.68707 -18990260.70248        50.000
        49.000       -1166.422        -908.901
 10  3 18  1 22 30.0000000  0  9G30G21G16G14G24G31G02G12G29
  21270597.768    21270593.898   -21481094.51807 -16731933.78447        48.000
        41.000       -2131.240       -1660.707
  22886342.370    22886337.268   -12689998.96406  -9878330.43547        45.000
        34.000        2929.771        2282.938
  23923822.504    23923817.180    -7055885.22804  -5483594.02146        38.000
        24.000        2850.869        2221.457
  24860330.105    24860326.964            .00011   4002135.46345
        19.000       -3179.902       -2477.846
  22092974.189    22092971.359   -14880693.15507 -11577081.55347        49.000
        36.000        3027.813        2359.334
  20949178.375    20949173.501   -23395454.32108 -18224492.08148        53.000
        46.000         591.475         460.889
  24537813.476    24537808.095    -4116404.92105  -3196434.92146        40.000
        22.000       -2830.483       -2205.571
  24062622.116    24062617.510    -5923162.07506  -4606315.72246        44.000
        28.000       -2753.237       -2145.380
  20513022.298    20513018.174   -24342460.01207 -18962856.54648        50.000
        49.000       -1178.061        -917.970
 10  3 18  1 23  0.0000000  0  9G30G21G16G14G24G31G02G12G29
  21282791.007    21282787.228   -21417017.53606 -16682003.67947        47.000
        41.000       -2140.841       -1668.188
  22869636.797    22869631.514   -12777787.38106  -9946736.97647        45.000
        34.000        2922.489        2277.264
  23907550.701    23907545.513    -7141394.84804  -5550224.86346        39.000
        23.000        2849.554        2220.432
  24878479.845    24878476.008     5217092.97802   4076460.12945        34.000
        16.000       -3179.108       -2477.227
  22075719.682    22075716.778   -14971368.24407 -11647737.46247        48.000
        36.000        3016.883        2350.818
  20945852.862    20945847.784   -23412930.83208 -18238110.14348        53.000
        47.000         573.319         446.742
  24554000.607    24553994.065    -4031344.18305  -3130153.84746        41.000
        23.000       -2840.734       -2213.559
  24078350.652    24078346.669    -5840507.46706  -4541909.55046        44.000
        29.000       -2757.277       -2148.527
  20519779.852    20519775.761   -24306947.91007 -18935184.77648        50.000
        49.000       -1189.674        -927.019
 10  3 18  1 23 30.0000000  0  9G30G21G16G14G24G31G02G12G29
  21295041.095    21295037.743   -21352641.63307 -16631840.64247        48.000
        41.000       -2150.556       -1675.758
  22852974.214    22852968.998   -12865350.20406 -10014967.74847        46.000
        34.000        2915.176        2271.566
  23891288.344    23891283.742    -7226856.69404  -5616818.50246        38.000
        26.000        2848.174        2219.356
  24896624.581    24896621.437            .00010   4150760.50555
        18.000       -3177.715       -2476.141
  22058528.501    22058525.597   -15061708.68507 -11718132.60547        49.000
        37.000        3005.913        2342.270
  20942632.537    20942627.703   -23429852.80808 -18251296.09648        53.000
        47.000         555.069         432.521
  24570245.780    24570240.124    -3945969.23805  -3063627.88646        41.000
        22.000       -2850.898       -2221.479
  24094104.672    24094099.928    -5757721.82506  -4477401.27546        44.000
        28.000       -2761.396       -2151.737
  20526605.258    20526601.355   -24271080.48407 -18907236.14448        50.000
        49.000       -1201.289        -936.069
 10  3 18  1 24  0.0000000  0  9G30G21G16G14G24G31G02G12G29
  21307346.160    21307342.701   -21287979.50507 -16581454.57347        48.000
        41.000       -2160.378       -1683.411
  22836352.314    22836347.409   -12952697.16606 -10083030.31747        46.000
        35.000        2907.825        2265.838
  23875031.468    23875027.519    -7312282.51604  -5683384.04846        39.000
        27.000        2846.668        2218.183
  24914763.425    24914760.225     5407752.19701   4225025.15545        33.000
        17.000       -3176.149       -2474.922
  22041399.242    22041395.858   -15151723.88607 -11788274.30347        49.000
        37.000        2994.930        2333.712
  20939515.983    20939511.191   -23446231.76608 -18264058.92848        53.000
        46.000         536.815         418.297
  24586549.885    24586542.936    -3860294.31505  -2996868.21846        40.000
        23.000       -2860.905       -2229.277
  24109880.752    24109875.951    -5674817.44306  -4412800.45946        44.000
        28.000       -2765.554       -2154.977
  20533495.662    20533491.415   -24234870.90807 -18879020.88648        50.000
        49.000       -1212.736        -944.989
 10  3 18  1 24 30.0000000  0  9G30G21G16G14G24G31G02G12G29
  21319707.745    21319703.884   -21223019.05306 -16530836.04247        47.000
        40.000       -2170.047       -1690.945
  22819774.941    22819769.794   -13039813.64706 -10150913.27547        47.000
        35.000        2900.237        2259.925
  23858785.567    23858780.983    -7397658.66204  -5749910.88246        39.000
        26.000        2845.319        2217.132
  24932890.887    24932888.937            .00010   4299261.74245
        16.000       -3174.827       -2473.891
  22024334.715    22024331.494   -15241398.17207 -11858150.36447        49.000
        37.000        2983.659        2324.929
  20936505.272    20936500.307   -23462053.74808 -18276387.74848        53.000
        46.000         518.327         403.892
  24602911.976    24602905.674    -3774309.31405  -2929866.93646        42.000
        23.000       -2870.984       -2237.130
  24125681.348    24125677.083    -5591782.64606  -4348098.03146        43.000
        27.000       -2769.778       -2158.269
  20540453.515    20540449.561   -24198308.54307 -18850530.73348        50.000
        49.000       -1224.348        -954.038
 10  3 18  1 25  0.0000000  0  9G30G21G16G14G24G31G02G12G29
  21332123.508    21332119.981   -21157774.96406 -16479996.49647        47.000
        41.000       -2179.737       -1698.496
  22803238.745    22803234.084   -13126711.45606 -10218625.84847        46.000
        35.000        2892.651        2254.014
  23842545.930    23842540.758    -7482998.60805  -5816409.52946        40.000
        28.000        2843.828        2215.969
  24951012.705    24951009.306     5598237.92502   4373455.04045        35.000
        17.000       -3173.194       -2472.618
  22007333.050    22007329.924   -15330742.82507 -11927769.58147        49.000
        37.000        2972.407        2316.161
  20933597.618    20933592.786   -23477332.08008 -18288292.94648        53.000
        47.000         499.980         389.595
  24619330.822    24619323.628    -3688030.61205  -2862636.78746        40.000
        23.000       -2881.016       -2244.948
  24141504.888    24141499.922    -5508631.81806  -4283305.21146        44.000
        27.000       -2773.902       -2161.482
  20547475.200    20547470.738   -24161409.32107 -18821778.09148        51.000
        49.000       -1235.826        -962.981
 10  3 18  1 25 30.0000000  0  9G30G21G16G14G24G31G02G12G29
  21344595.068    21344590.981   -21092236.98106 -16428927.95247        47.000
        41.000       -2189.313       -1705.958
  22786746.745    22786741.743   -13213377.55506 -10286157.87247        46.000
        36.000        2885.175        2248.188
  23826315.644    23826310.111    -7568291.06705  -5882871.18646        40.000
        28.000        2842.533        2214.961
  24969122.275    24969119.225     5693407.40301   4447612.73745        33.000
        17.000       -3171.446       -2471.257
  21990397.027    21990393.723   -15419744.37307 -11997121.42547        49.000
        38.000        2961.142        2307.383
  20930795.266    20930790.969   -23492055.55008 -18299765.78048        53.000
        47.000         481.752         375.391
  24635806.127    24635799.852    -3601450.25605  -2795171.54746        40.000
        23.000       -2890.743       -2252.527
  24157351.126    24157347.953    -5425354.74106  -4218413.94946        43.000
        28.000       -2777.779       -2164.503
  20554562.617    20554558.510   -24124164.19807 -18792755.91848        51.000
        49.000       -1247.061        -971.736
 10  3 18  1 26  0.0000000  0  9G30G21G16G14G24G31G02G12G29
  21357121.802    21357118.145   -21026407.79106 -16377632.48347        47.000
        41.000       -2199.049       -1713.545
  22770298.524    22770293.903   -13299811.79506 -10353509.21247        45.000
        34.000        2877.343        2242.085
  23810093.486    23810088.887    -7653537.24905  -5949296.73846        40.000
        27.000        2840.692        2213.527
  24987223.656    24987220.620     5788525.83402   4521730.66945        34.000
        18.000       -3169.757       -2469.940
  21973525.327    21973522.393   -15508402.19907 -12066205.44547        48.000
        38.000        2949.540        2298.343
  20928099.552    20928094.260   -23506225.26508 -18310807.11348        53.000
        47.000         463.119         360.872
  24652338.193    24652332.514    -3514572.74704  -2727474.79146        39.000
        22.000       -2900.797       -2260.361
  24173223.221    24173218.425    -5341953.85906  -4153426.27746        44.000
        28.000       -2782.057       -2167.836
  20561715.107    20561711.020   -24086577.07507 -18763467.24748        50.000
        49.000       -1258.590        -980.719
 10  3 18  1 26 30.0000000  0  9G30G21G16G14G24G31G02G12G29
  21369703.783    21369699.710   -20960289.09006 -16326111.43147        47.000
        41.000       -2208.804       -1721.146
  22753895.112    22753890.063   -13386013.28906 -10420679.19047        46.000
        35.000        2869.590        2236.044
  23793880.391    23793875.446    -7738738.01404  -6015686.91246        39.000
        27.000        2839.341        2212.474
  25005313.928    25005310.520     5883589.12402   4595805.64445        34.000
        19.000       -3167.568       -2468.235
  21956720.501    21956717.231   -15596714.55207 -12135020.25547        50.000
        38.000        2937.989        2289.342
  20925508.487    20925503.202   -23519841.38408 -18321417.08448        53.000
        47.000         444.688         346.510
  24668926.629    24668920.846    -3427401.79705  -2659549.40746        41.000
        22.000       -2910.634       -2268.027
  24189116.578    24189112.577    -5258430.70006  -4088343.30946        44.000
        28.000       -2786.079       -2170.970
  20568932.098    20568928.015   -24048650.70607 -18733914.23448        50.000
        49.000       -1269.824        -989.473
 10  3 18  1 27  0.0000000  0  9G30G21G16G14G24G31G02G12G29
  21382340.561    21382336.978   -20893881.36706 -16274365.15747        47.000
        41.000       -2218.363       -1728.594
  22737536.489    22737531.217   -13471979.49606 -10487665.85047        46.000
        35.000        2861.569        2229.794
  23777675.711    23777670.508    -7823892.24904  -6082040.85846        39.000
        25.000        2837.673        2211.173
  25023392.953    25023389.246     5978594.43902   4669835.46645        35.000
        18.000       -3165.882       -2466.921
  21939981.504    21939978.200   -15684678.65807 -12203563.71247        50.000
        39.000        2926.340        2280.265
  20923022.813    20923017.904   -23532902.72608 -18331594.75248        53.000
        47.000         426.120         332.042
  24685570.583    24685563.601    -3339939.70905  -2591397.10846        41.000
        22.000       -2920.286       -2275.548
  24205033.005    24205028.986    -5174785.40706  -4023165.14846        43.000
        27.000       -2790.306       -2174.264
  20576213.737    20576209.516   -24010386.34007 -18704097.84148        50.000
        49.000       -1281.102        -998.261
 10  3 18  1 27 30.0000000  0 10G30G21G16G14G24G31G05G02G12G29
  21395032.237    21395029.158   -20827184.67407 -16222393.71647        48.000
        40.000       -2228.029       -1736.126
  22721222.836    22721218.277   -13557707.60006 -10554466.95447        45.000
        35.000        2853.671        2223.640
  23761480.650    23761475.084    -7908998.67405  -6148357.52946        41.000
        25.000        2836.215        2210.038
  25041458.808    25041455.565     6073539.27900   4743818.13845        31.000
        18.000       -3163.922       -2465.394
  21923309.185    21923306.052   -15772291.15207 -12271833.18647        48.000
        38.000        2914.467        2271.013
  20920643.014    20920638.471   -23545407.96208 -18341339.10648        53.000
        47.000         407.567         317.585
  25184271.563    25184269.000     -350762.18604   -269019.76146        38.000
        24.000        1553.251        1210.325
  24702268.887    24702261.668    -3252188.04005  -2523019.19046        41.000
        22.000       -2929.894       -2283.034
  24220973.591    24220970.264    -5091017.78406  -3957891.70846        43.000
        28.000       -2794.342       -2177.409
  20583559.228    20583555.166   -23971785.22507 -18674019.05548        51.000
        48.000       -1292.276       -1006.969
 10  3 18  1 28  0.0000000  0 10G30G21G16G14G24G31G05G02G12G29
  21407779.068    21407775.591   -20760200.69507 -16170198.41347        48.000
        40.000       -2237.519       -1743.521
  22704954.720    22704949.899   -13643196.43306 -10621081.62147        47.000
        35.000        2845.606        2217.355
  23745294.403    23745289.554    -7994057.59105  -6214637.20946        40.000
        24.000        2834.542        2208.734
  25059516.832    25059513.075     6168419.60402   4817750.56345        34.000
        19.000       -3161.552       -2463.547
  21906704.197    21906700.945   -15859550.58707 -12339827.54147        49.000
        38.000        2902.740        2261.875
  20918369.249    20918364.178   -23557357.76708 -18350650.64948        53.000
        47.000         389.054         303.159
  25175439.715    25175436.194     -397181.62805   -305190.69646        40.000
        24.000        1541.163        1200.906
  24719020.923    24719015.366    -3164150.92204  -2454418.86246        39.000
        22.000       -2939.360       -2290.410
  24236937.348    24236933.253    -5007129.86006  -3892524.51946        43.000
        28.000       -2798.197       -2180.414
  20590968.445    20590964.395   -23932850.03207 -18643679.94248        50.000
        48.000       -1303.432       -1015.661
 10  3 18  1 28 30.0000000  0 10G30G21G16G14G24G31G05G02G12G29
  21420580.558    21420576.816   -20692928.57707 -16117778.58747        48.000
        40.000       -2247.036       -1750.937
  22688733.142    22688727.964   -13728442.59206 -10687507.18747        47.000
        35.000        2837.535        2211.066
  23729117.397    23729111.667    -8079067.09904  -6280878.35446        39.000
        28.000        2833.004        2207.535
  25077555.403    25077555.115     6263233.82600   4891631.36645        32.000
        18.000       -3159.277       -2461.774
  21890167.182    21890164.481   -15946452.97507 -12407543.68947        49.000
        39.000        2890.923        2252.667
  20916201.359    20916196.480   -23568749.81108 -18359527.56748        53.000
        47.000         370.591         288.772
  25166675.963    25166671.876     -443231.28204   -341073.56446        38.000
        22.000        1528.960        1191.398
  24735828.785    24735822.601    -3075829.46505  -2385596.96146        41.000
        22.000       -2948.588       -2297.601
  24252923.380    24252919.587    -4923120.14006  -3827062.40946        43.000
        28.000       -2802.158       -2183.500
  20598441.107    20598436.854   -23893581.14407 -18613080.80648        50.000
        48.000       -1314.365       -1024.180
 10  3 18  1 29  0.0000000  0 10G30G21G16G14G24G31G05G02G12G29
  21433437.094    21433433.096   -20625368.19007 -16065134.13647        48.000
        40.000       -2256.823       -1758.564
  22672557.886    22672553.061   -13813443.09206 -10753741.34247        47.000
        36.000        2829.319        2204.664
  23712950.583    23712944.845    -8164025.78405  -6347079.90946        42.000
        27.000        2831.092        2206.045
  25095587.030    25095583.964     6357979.52601   4965458.88145        33.000
        17.000       -3156.960       -2459.969
  21873699.044    21873695.898   -16032994.83507 -12474978.89047        49.000
        38.000        2878.694        2243.138
  20914140.169    20914135.552   -23579582.75508 -18367968.82348        53.000
        47.000         351.775         274.111
  25157982.914    25157978.836     -488908.30803   -376666.08845        37.000
        19.000        1516.282        1181.519
  24752689.831    24752683.191    -2987225.32605  -2316554.74346        40.000
        22.000       -2958.167       -2305.065
  24268933.379    24268928.265    -4838988.60106  -3761505.35746        44.000
        28.000       -2806.360       -2186.774
  20605977.097    20605972.210   -23853979.51607 -18582222.40048        50.000
        49.000       -1325.554       -1032.899
 10  3 18  1 29 30.0000000  0  9G30G21G16G24G31G05G02G12G29
  21446349.008    21446345.466   -20557515.41907 -16012261.86447        48.000
        40.000       -2266.427       -1766.047
  22656431.095    22656425.857   -13898191.16906 -10819778.80247        45.000
        36.000        2820.990        2198.174
  23696794.426    23696789.149    -8248928.51405  -6413237.89046        40.000
        27.000        2829.203        2204.574
  21857300.188    21857297.743   -16119168.64106 -12542127.30747        46.000
        39.000        2866.420        2233.574
  20912185.887    20912180.852   -23589851.13408 -18375970.15848        53.000
        47.000         333.017         259.494
  25149364.358    25149360.322     -534205.45704   -411962.53846        38.000
        26.000        1503.735        1171.741
  24769603.725    24769597.983    -2898336.30705  -2247290.57946        40.000
        21.000       -2967.545       -2312.373
  24284967.271    24284963.028    -4754730.65805  -3695849.82846        42.000
        27.000       -2810.494       -2189.995
  20613577.024    20613573.108   -23814041.87407 -18551102.15848        51.000
        48.000       -1336.690       -1041.577
 10  3 18  1 30  0.0000000  0  9G30G21G16G24G31G05G02G12G29
  21459314.440    21459310.576   -20489382.59607 -15959171.37547        48.000
        41.000       -2275.790       -1773.343
  22640350.193    22640345.114   -13982696.32606 -10885626.97847        46.000
        36.000        2812.540        2191.589
  23680645.999    23680640.172    -8333785.68205  -6479360.33746        41.000
        27.000        2827.642        2203.357
  21840970.454    21840967.364   -16204983.76307 -12608996.22947        48.000
        38.000        2854.292        2224.124
  20910337.357    20910332.481   -23599566.28207 -18383540.41648        52.000
        47.000         314.410         244.995
  25140815.421    25140811.425     -579131.99605   -446970.19246        40.000
        23.000        1491.265        1162.025
  24786571.469    24786564.380    -2809177.00104  -2177815.80046        39.000
        21.000       -2976.659       -2319.475
  24301022.658    24301018.404    -4670358.73806  -3630105.49746        44.000
        28.000       -2814.404       -2193.042
  20621237.784    20621233.719   -23773782.28907 -18519731.05848        52.000
        48.000       -1347.558       -1050.045
 10  3 18  1 30 30.0000000  0  9G30G21G16G24G31G05G02G12G29
  21472333.828    21472329.983   -20420964.10807 -15905858.26647        48.000
        41.000       -2285.311       -1780.762
  22624317.249    22624311.898   -14066950.16306 -10951279.30947        47.000
        35.000        2804.333        2185.194
  23664508.397    23664502.879    -8418590.68005  -6545442.16146        42.000
        26.000        2826.066        2202.129
  21824710.409    21824707.228   -16290430.76707 -12675578.30547        49.000
        38.000        2842.228        2214.723
  20908595.413    20908590.423   -23608720.91707 -18390673.90348        52.000
        47.000         295.959         230.617
  25132338.222    25132333.606     -623679.58105   -481682.58746        40.000
        22.000        1478.649        1152.194
  24803589.612    24803582.153    -2719743.30005  -2108127.21046        40.000
        21.000       -2985.819       -2326.612
  24317100.829    24317096.102    -4585866.98906  -3564267.79646        43.000
        26.000       -2818.226       -2196.020
  20628961.448    20628957.107   -23733195.77507 -18488105.20648        50.000
        48.000       -1358.270       -1058.392
 10  3 18  1 31  0.0000000  0  9G30G21G16G24G31G05G02G12G29
  21485407.973    21485404.053   -20352260.05107 -15852322.65647        48.000
        40.000       -2294.925       -1788.253
  22608332.465    22608327.825   -14150949.84706 -11016733.60247        46.000
        36.000        2795.646        2178.426
  23648380.752    23648375.545    -8503342.20304  -6611482.28046        38.000
        26.000        2824.045        2200.554
  21808520.592    21808517.648   -16375506.70007 -12741871.23547        49.000
        39.000        2829.582        2204.869
  20906959.879    20906955.190   -23617314.09108 -18397369.88748        53.000
        47.000         276.921         215.782
  25123932.365    25123928.112     -667845.33103   -516097.44845        36.000
        19.000        1465.695        1142.100
  24820659.783    24820653.234    -2630037.53705  -2038226.60346        41.000
        21.000       -2994.720       -2333.548
  24333201.710    24333197.130    -4501255.53406  -3498336.78846        43.000
        27.000       -2822.528       -2199.372
  20636746.671    20636742.670   -23692283.52607 -18456225.53248        51.000
        48.000       -1369.188       -1066.900
 10  3 18  1 31 30.0000000  0  9G30G21G16G24G31G05G02G12G29
  21498536.069    21498532.268   -20283271.57207 -15798565.40247        48.000
        40.000       -2304.485       -1795.703
  22592396.155    22592391.004   -14234693.68907 -11081988.54147        48.000
        36.000        2787.004        2171.692
  23632263.330    23632257.985    -8588040.35205  -6677480.81546        42.000
        28.000        2822.229        2199.139
  21792402.950    21792399.518   -16460209.81507 -12807873.64647        50.000
        38.000        2817.077        2195.125
  20905431.709    20905427.192   -23625345.62208 -18403628.22448        53.000
        47.000         258.254         201.237
  25115600.968    25115596.023     -711627.75304   -550213.59945        38.000
        19.000        1453.029        1132.231
  24837781.913    24837775.452    -2540062.73605  -1968116.35246        42.000
        22.000       -3003.797       -2340.621
  24349325.698    24349321.485    -4416525.21206  -3432313.16946        43.000
        28.000       -2826.375       -2202.370
  20644593.653    20644589.779   -23651048.21607 -18424094.12848        51.000
        48.000       -1380.008       -1075.331
 10  3 18  1 32  0.0000000  0  9G30G21G16G24G31G05G02G12G29
  21511718.205    21511714.340   -20213999.41907 -15744587.11147        48.000
        40.000       -2313.866       -1803.012
  22576509.654    22576504.561   -14318179.33606 -11147042.28247        47.000
        36.000        2778.375        2164.968
  23616155.513    23616151.500    -8672683.93506  -6743436.83146        43.000
        28.000        2820.484        2197.780
  21776355.768    21776352.344   -16544537.02807 -12873583.16347        49.000
        39.000        2804.503        2185.327
  20904010.351    20904005.601   -23632814.50508 -18409448.14048        53.000
        47.000         239.503         186.626
  25107343.500    25107339.068     -755024.06605   -584028.91646        40.000
        22.000        1440.128        1122.178
  24854953.902    24854947.444    -2449821.29905  -1897798.34546        41.000
        22.000       -3012.426       -2347.345
  24365472.327    24365466.894    -4331676.36005  -3366197.19546        42.000
        27.000       -2830.287       -2205.419
  20652501.403    20652497.249   -23609490.73407 -18391711.68248        52.000
        48.000       -1390.751       -1083.702
 10  3 18  1 32 30.0000000  0  9G30G21G16G24G31G05G02G12G29
  21524954.079    21524950.480   -20144443.70707 -15690387.86547        48.000
        40.000       -2323.417       -1810.454
  22560672.677    22560667.683   -14401404.58106 -11211893.13147        47.000
        37.000        2769.659        2158.176
  23600059.303    23600054.873    -8757272.01004  -6809349.57646        39.000
        27.000        2818.595        2196.308
  21760380.806    21760377.252   -16628485.54507 -12938997.58247        49.000
        39.000        2791.803        2175.431
  20902696.253    20902691.187   -23639720.45408 -18414829.40248        53.000
        47.000         220.680         171.958
  25099160.643    25099155.646     -798031.77805   -617541.41846        40.000
        23.000        1426.867        1111.844
  24872176.323    24872170.536    -2359315.43605  -1827274.31246        40.000
        23.000       -3021.371       -2354.315
  24381640.852    24381636.300    -4246709.20705  -3299989.01346        42.000
        28.000       -2834.423       -2208.641
  20660470.858    20660466.793   -23567612.48307 -18359079.27548        50.000
        48.000       -1401.498       -1092.076
 10  3 18  1 33  0.0000000  0  9G30G21G16G24G31G05G02G12G29
  21538244.195    21538240.450   -20074605.00206 -15635968.10547        47.000
        40.000       -2332.716       -1817.701
  22544885.116    22544880.327   -14484367.20406 -11276539.31447        47.000
        37.000        2760.985        2151.417
  23583973.633    23583969.305    -8841803.67505  -6875218.37846        40.000
        29.000        2816.752        2194.872
  21744478.654    21744475.434   -16712052.51107 -13004114.69047        48.000
        39.000        2779.144        2165.567
  20901489.446    20901484.913   -23646062.58108 -18419771.32248        53.000
        47.000         202.001         157.403
  25091051.183    25091046.678     -840648.77404   -650749.39946        38.000
        22.000        1414.022        1101.835
  24889448.874    24889442.323    -2268547.55604  -1756546.12246        39.000
        21.000       -3029.879       -2360.945
  24397831.918    24397827.409    -4161624.22605  -3233689.02846        42.000
        27.000       -2838.063       -2211.478
  20668500.615    20668496.620   -23525415.41107 -18326198.43948        52.000
        48.000       -1411.920       -1100.198
 10  3 18  1 33 30.0000000  0  9G30G21G16G24G31G05G02G12G29
  21551587.649    21551583.758   -20004484.13607 -15581328.47347        48.000
        40.000       -2342.048       -1824.972
  22529148.439    22529143.166   -14567065.12007 -11340979.24647        48.000
        37.000        2752.166        2144.545
  23567898.485    23567893.616    -8926278.43705  -6941042.85646        42.000
        28.000        2814.920        2193.444
  21728649.103    21728645.730   -16795235.63307 -13068932.70347        49.000
        39.000        2766.365        2155.609
  20900389.938    20900384.924   -23651840.85008 -18424273.87748        53.000
        47.000         183.274         142.811
  25083014.656    25083011.088     -882873.12205   -683651.39946        40.000
        21.000        1401.063        1091.737
  24906771.037    24906763.520    -2177520.42704  -1685615.87245        39.000
        19.000       -3038.464       -2367.634
  24414045.247    24414041.363    -4076421.69405  -3167297.47246        40.000
        28.000       -2842.131       -2214.647
  20676590.709    20676586.640   -23482901.53907 -18293070.75548        52.000
        48.000       -1422.390       -1108.355
 10  3 18  1 34  0.0000000  0  9G30G21G16G24G31G05G02G12G29
  21564984.632    21564980.815   -19934081.74607 -15526469.47547        48.000
        39.000       -2351.373       -1832.239
  22513462.116    22513457.159   -14649496.36307 -11405211.37847        49.000
        37.000        2743.324        2137.655
  23551834.511    23551830.088    -9010695.42505  -7006822.30646        41.000
        28.000        2812.841        2191.824
  21712893.624    21712890.793   -16878032.16307 -13133449.47947        49.000
        39.000        2753.470        2145.561
  20899397.813    20899393.054   -23657054.35907 -18428336.36448        52.000
        47.000         164.471         128.159
  25075055.181    25075050.212     -924702.24506   -716245.57546        43.000
        22.000        1387.826        1081.423
  24924141.821    24924135.292    -2086236.79705  -1614485.74446        40.000
        23.000       -3046.827       -2374.151
  24430280.474    24430276.703    -3991102.29705  -3100814.82846        40.000
        26.000       -2845.773       -2217.485
  20684741.102    20684736.478   -23440072.30907 -18259697.32648        51.000
        47.000       -1432.824       -1116.486
 10  3 18  1 34 30.0000000  0  9G30G21G16G24G31G05G02G12G29
  21578434.850    21578431.310   -19863398.50207 -15471391.63147        48.000
        40.000       -2360.666       -1839.480
  22497827.580    22497822.752   -14731658.27407 -11469233.64547        48.000
        37.000        2734.324        2130.642
  23535781.756    23535776.614    -9095053.76905  -7072556.06846        42.000
        26.000        2811.014        2190.400
  21697211.999    21697209.065   -16960439.38607 -13197662.88947        49.000
        39.000        2740.438        2135.406
  20898513.321    20898508.129   -23661702.49708 -18431958.29348        53.000
        47.000         145.589         113.446
  25067170.448    25067166.962     -966133.91204   -748530.07746        39.000
        21.000        1374.490        1071.031
  24941561.006    24941554.642    -1994699.08504  -1543157.65745        39.000
        20.000       -3055.437       -2380.860
  24446539.169    24446534.703    -3905666.29204  -3034241.32946        39.000
        26.000       -2849.621       -2220.484
  20692950.742    20692946.866   -23396929.34207 -18226079.42948        51.000
        47.000       -1443.127       -1124.514
 10  3 18  1 35  0.0000000  0  9G30G21G16G24G31G05G02G12G29
  21591939.031    21591935.682   -19792434.47507 -15416094.99647        49.000
        40.000       -2370.095       -1846.828
  22482244.245    22482239.194   -14813548.47807 -11533044.19147        49.000
        37.000        2725.212        2123.542
  23519740.416    23519734.906    -9179352.18706  -7138243.15546        44.000
        27.000        2809.065        2188.882
  21681605.226    21681601.874   -17042454.12007 -13261570.46547        50.000
        40.000        2727.258        2125.136
  20897736.644    20897731.371   -23665784.14708 -18435138.80248        53.000
        47.000         126.667          98.702
  25059362.124    25059359.197    -1007165.38304   -780502.54546        38.000
        21.000        1361.145        1060.632
  24959026.572    24959022.459    -1902908.90004  -1471632.86145        38.000
        20.000       -3063.806       -2387.382
  24462819.088    24462815.474    -3820113.68104  -2967576.97346        38.000
        27.000       -2853.577       -2223.567
  20701220.195    20701215.901   -23353473.51908 -18192217.75448        53.000
        48.000       -1453.660       -1132.722
 10  3 18  1 35 30.0000000  0  9G30G21G16G24G31G05G02G12G29
  21605496.486    21605492.929   -19721190.27806 -15360580.04247        47.000
        39.000       -2379.430       -1854.101
  22466713.090    22466708.104   -14895165.12807 -11596641.57847        50.000
        38.000        2715.883        2116.272
  23503710.143    23503705.277    -9263589.96606  -7203882.95946        45.000
        28.000        2806.898        2187.193
  21666073.198    21666069.975   -17124073.76407 -13325170.19147        50.000
        40.000        2713.998        2114.803
  20897067.741    20897062.650   -23669299.25408 -18437877.85248        53.000
        47.000         107.684          83.910
  25051630.439    25051628.641    -1047794.46504   -812161.51946        39.000
        21.000        1347.582        1050.064
  24976542.083    24976536.786    -1810869.04804  -1399913.47346        39.000
        21.000       -3072.223       -2393.940
  24479121.356    24479117.904    -3734444.86404  -2900822.08046        39.000
        25.000       -2857.682       -2226.765
  20709548.774    20709544.502   -23309706.87207 -18158113.87348        51.000
        47.000       -1464.113       -1140.867
 10  3 18  1 36  0.0000000  0  9G30G21G16G24G31G05G02G12G29
  21619107.090    21619103.224   -19649667.20206 -15304847.78647        47.000
        39.000       -2388.648       -1861.284
  22451234.340    22451229.329   -14976506.04807 -11660024.10447        49.000
        38.000        2706.869        2109.249
  23487692.061    23487686.536    -9347766.71306  -7269475.23846        43.000
        27.000        2804.994        2185.710
  21650617.148    21650614.276   -17205296.37807 -13388460.52147        51.000
        40.000        2700.903        2104.600
  20896506.452    20896501.392   -23672247.85308 -18440175.47048        53.000
        47.000          88.940          69.304
  25043977.523    25043971.975    -1088019.49105   -843505.72246        42.000
        22.000        1334.277        1039.696
  24994104.129    24994097.376    -1718582.62304  -1328001.99745        38.000
        20.000       -3080.127       -2400.099
  24495445.169    24495441.062    -3648661.13304  -2833977.60346        39.000
        25.000       -2861.158       -2229.474
  20717936.110    20717932.382   -23265631.39007 -18123769.33748        52.000
        47.000       -1474.063       -1148.621
 10  3 18  1 36 30.0000000  0  9G30G21G16G24G31G05G02G12G29
  21632770.469    21632766.337   -19577865.04307 -15248898.05247        49.000
        40.000       -2398.000       -1868.571
  22435808.552    22435803.671   -15057568.73307 -11723189.82547        49.000
        37.000        2697.483        2101.935
  23471685.728    23471680.483    -9431880.82706  -7335018.68046        44.000
        28.000        2802.850        2184.039
  21635237.119    21635234.244   -17286118.73707 -13451438.97847        51.000
        40.000        2687.474        2094.135
  20896053.494    20896048.430   -23674628.52608 -18442030.54048        53.000
        47.000          69.964          54.517
  25036399.720    25036393.627    -1127837.68904   -874532.90845        39.000
        18.000        1320.594        1029.034
  25011712.032    25011705.767    -1626051.31804  -1255899.72445        39.000
        19.000       -3088.351       -2406.508
  24511791.523    24511788.093    -3562761.91705  -2767043.17746        40.000
        25.000       -2865.173       -2232.602
  20726382.121    20726378.110   -23221248.12207 -18089184.98148        52.000
        47.000       -1484.484       -1156.741
 10  3 18  1 37  0.0000000  0  9G30G21G16G24G31G05G02G12G29
  21646486.886    21646482.837   -19505785.02007 -15192731.80647        49.000
        39.000       -2407.375       -1875.877
  22420436.051    22420430.996   -15138351.49907 -11786137.42847        50.000
        37.000        2688.040        2094.576
  23455691.402    23455685.942    -9515932.07706  -7400513.16546        45.000
        29.000        2800.540        2182.239
  21619933.809    21619930.882   -17366538.93107 -13514104.05747        50.000
        41.000        2673.919        2083.573
  20895708.392    20895703.495   -23676441.80308 -18443443.48548        53.000
        47.000          50.901          39.663
  25028899.622    25028895.389    -1167247.68305   -905241.92646        40.000
        21.000        1306.809        1018.293
  25029365.791    25029358.854    -1533278.48405  -1183609.11845        41.000
        19.000       -3096.330       -2412.725
  24528159.411    24528155.340    -3476748.33405  -2700019.62446        42.000
        26.000       -2869.069       -2235.638
  20734885.880    20734881.434   -23176559.72807 -18054362.85548        52.000
        47.000       -1494.822       -1164.796
 10  3 18  1 37 30.0000000  0  9G30G21G16G24G31G05G02G12G29
  21660256.202    21660252.177   -19433426.96407 -15136348.91547        49.000
        39.000       -2416.517       -1883.000
  22405117.700    22405112.386   -15218851.86107 -11848864.98047        50.000
        37.000        2678.615        2087.233
  23439709.034    23439703.967    -9599919.11506  -7465957.58746        44.000
        29.000        2798.566        2180.701
  21604707.100    21604704.223   -17446553.56007 -13576453.11147        50.000
        40.000        2660.339        2072.991
  20895471.588    20895466.422   -23677686.34408 -18444413.26148        53.000
        47.000          31.965          24.908
  25021479.194    25021473.118    -1206246.36705   -935630.47446        41.000
        21.000        1293.127        1007.631
  25047066.186    25047058.678    -1440265.83304  -1111131.69245        39.000
        19.000       -3104.422       -2419.030
  24544548.864    24544544.573    -3390620.34605  -2632906.92346        41.000
        26.000       -2872.874       -2238.603
  20743447.533    20743443.351   -23131566.45807 -18019303.16648        52.000
        47.000       -1504.793       -1172.566
 10  3 18  1 38  0.0000000  0  9G30G21G16G24G31G05G02G12G29
  21674078.232    21674074.230   -19360791.56707 -15079749.91647        49.000
        39.000       -2425.779       -1890.217
  22389852.943    22389848.307   -15299067.26407 -11911370.47747        49.000
        38.000        2669.011        2079.749
  23423738.896    23423734.162    -9683841.16706  -7531351.36546        44.000
        29.000        2796.311        2178.943
  21589558.894    21589555.549   -17526159.95807 -13638484.07247        50.000
        40.000        2646.677        2062.346
  20895342.980    20895337.640   -23678361.80508 -18444939.60048        53.000
        47.000          12.937          10.080
  25014135.590    25014131.587    -1244831.38805   -965696.70745        41.000
        20.000        1279.240         996.811
  25064810.496    25064803.472    -1347015.56603  -1038469.18845        37.000
        19.000       -3112.269       -2425.144
  24560960.557    24560955.252    -3304377.86505  -2565704.99346        42.000
        25.000       -2876.790       -2241.655
  20752067.485    20752063.367   -23086270.13907 -17984007.34048        52.000
        48.000       -1515.013       -1180.529
 10  3 18  1 38 30.0000000  0  9G30G21G16G24G31G05G02G12G29
  21687952.961    21687949.329   -19287879.78707 -15022935.55247        48.000
        39.000       -2435.227       -1897.579
  22374642.869    22374637.833   -15378996.14307 -11973652.72047        50.000
        37.000        2659.231        2072.128
  23407782.613    23407776.955    -9767697.36306  -7596693.84246        45.000
        30.000        2793.879        2177.049
  21574488.355    21574485.453   -17605356.17507 -13700195.39947        50.000
        41.000        2632.727        2051.476
  20895322.943    20895318.030   -23678468.25408 -18445022.54748        53.000
        46.000          -6.189          -4.822
  25006871.971    25006867.073    -1283001.35905   -995439.56345        40.000
        20.000        1265.242         985.903
  25082600.129    25082593.821    -1253530.69804   -965623.82046        39.000
        21.000       -3120.183       -2431.311
  24577393.032    24577387.770    -3218022.11005  -2498414.79546        41.000
        24.000       -2880.647       -2244.660
  20760744.302    20760740.226   -23040672.93707 -17948477.05348        52.000
        47.000       -1525.158       -1188.435
 10  3 18  1 39  0.0000000  0  8G30G21G16G24G31G05G12G29
  21701879.877    21701876.300   -19214692.45707 -14965906.47447        49.000
        39.000       -2444.184       -1904.559
  22359488.387    22359482.853   -15458635.84407 -12035709.62347        50.000
        37.000        2649.834        2064.806
  23391837.961    23391831.791    -9851486.85006  -7661984.33846        45.000
        29.000        2791.836        2175.457
  21559496.294    21559493.120   -17684139.49507 -13761584.99247        49.000
        40.000        2619.229        2040.957
  20895410.970    20895405.903   -23678005.22007 -18444661.74448        52.000
        46.000         -24.912         -19.412
  24999687.775    24999684.473    -1320753.68205  -1024856.92346        41.000
        22.000        1251.489         975.187
  24593847.688    24593842.956    -3131553.40005  -2431036.57546        41.000
        25.000       -2884.160       -2247.397
  20769477.894    20769473.838   -22994776.49807 -17912713.59048        52.000
        47.000       -1534.951       -1196.066
 10  3 18  1 39 30.0000000  0  8G30G21G16G24G31G05G12G29
  21715859.505    21715855.489   -19141230.04106 -14908663.04047        47.000
        39.000       -2453.378       -1911.723
  22344388.834    22344383.652   -15537984.49007 -12097539.72947        49.000
        38.000        2639.996        2057.139
  23375905.675    23375900.936    -9935208.50406  -7727221.97946        44.000
        31.000        2789.492        2173.630
  21544583.538    21544580.536   -17762507.12007 -13822650.66747        48.000
        41.000        2605.279        2030.087
  20895607.418    20895602.565   -23676972.44208 -18443856.98948        53.000
        47.000         -43.950         -34.247
  24992583.728    24992579.738    -1358086.48905  -1053947.40546        40.000
        22.000        1237.461         964.256
  24610323.916    24610319.151    -3044972.00505  -2363570.56946        42.000
        26.000       -2887.920       -2250.327
  20778268.501    20778264.374   -22948582.07507 -17876717.93248        52.000
        47.000       -1544.833       -1203.766
 10  3 18  1 40  0.0000000  0  8G30G21G16G24G31G05G12G29
  21729890.874    21729887.486   -19067493.14907 -14851205.72647        48.000
        39.000       -2462.447       -1918.790
  22329344.568    22329339.347   -15617040.17207 -12159141.54947        49.000
        38.000        2630.307        2049.590
  23359987.311    23359982.628   -10018861.67506  -7792406.25546        45.000
        29.000        2787.328        2171.944
  21529750.122    21529746.677   -17840456.40807 -13883390.36747        49.000
        40.000        2591.283        2019.182
  20895912.525    20895907.499   -23675369.26308 -18442607.76248        53.000
        47.000         -62.940         -49.044
  24985560.735    24985556.777    -1394997.55405  -1082709.22546        40.000
        21.000        1223.251         953.183
  24626821.363    24626815.815    -2958278.24005  -2296017.02346        40.000
        23.000       -2891.725       -2253.292
  20787115.349    20787110.987   -22902091.16707 -17840491.24548        52.000
        47.000       -1554.664       -1211.427
 10  3 18  1 40 30.0000000  0  8G30G21G16G24G31G05G12G29
  21743974.953    21743970.977   -18993482.41307 -14793535.03547        48.000
        39.000       -2471.632       -1925.947
  22314357.064    22314352.340   -15695800.59107 -12220513.30447        49.000
        38.000        2620.423        2041.888
  23344081.160    23344076.583   -10102445.11106  -7857536.19046        44.000
        29.000        2784.857        2170.018
  21514997.057    21514993.771   -17917985.26707 -13943802.45747        48.000
        41.000        2577.279        2008.269
  20896326.350    20896321.189   -23673195.69308 -18440914.07348        53.000
        47.000         -81.969         -63.872
  24978617.068    24978614.092    -1431484.87304  -1111140.87146        38.000
        22.000        1209.207         942.240
  24643338.842    24643334.320    -2871472.81905  -2228376.42546        41.000
        23.000       -2895.436       -2256.184
  20796018.190    20796014.138   -22855305.72807 -17804035.06848        52.000
        47.000       -1564.440       -1219.044
 10  3 18  1 41  0.0000000  0  8G30G21G16G24G31G05G12G29
  21758110.804    21758106.835   -18919198.48407 -14735651.46047        48.000
        38.000       -2480.666       -1932.986
  22299425.755    22299420.977   -15774263.96206 -12281653.58247        46.000
        38.000        2610.481        2034.141
  23328190.038    23328183.344   -10185958.09606  -7922611.27246        45.000
        28.000        2782.664        2168.310
  21500324.349    21500321.579   -17995091.01106 -14003884.85047        47.000
        41.000        2563.143        1997.254
  20896848.300    20896843.622   -23670451.65707 -18438775.87248        52.000
        47.000        -100.978         -78.685
  24971754.808    24971750.303    -1467546.26405  -1139240.66045        40.000
        20.000        1194.818         931.027
  24659879.498    24659874.425    -2784555.99805  -2160649.05246        41.000
        23.000       -2898.957       -2258.927
  20804977.080    20804972.912   -22808227.42407 -17767350.67248        51.000
        47.000       -1574.113       -1226.582
 10  3 18  1 41 30.0000000  0  8G30G21G16G24G31G05G12G29
  21772298.171    21772294.820   -18844642.04206 -14677555.53547        47.000
        38.000       -2493.750       -1943.182
  22284552.151    22284547.262   -15852427.44607 -12342560.19347        50.000
        38.000        2600.402        2026.287
  23312310.983    23312305.308   -10269399.76806  -7987630.75946        45.000
        29.000        2780.104        2166.315
  21485732.411    21485729.402   -18071771.13607 -14063635.59247        48.000
        41.000        2548.854        1986.120
  20897479.046    20897474.274   -23667136.75107 -18436192.83548        52.000
        47.000        -120.121         -93.601
  24964974.036    24964971.241    -1503179.82205  -1167007.06146        41.000
        23.000        1180.597         919.946
  24676440.581    24676435.914    -2697528.49205  -2092835.38846        41.000
        26.000       -2902.733       -2261.870
  20813991.190    20813987.027   -22760857.75207 -17730439.24548        51.000
        47.000       -1583.822       -1234.147
 10  3 18  1 42  0.0000000  0  8G30G21G16G24G31G05G12G29
  21786537.847    21786534.117   -18769813.06507 -14619247.25547        48.000
        39.000       -2498.795       -1947.113
  22269735.611    22269730.093   -15930288.76907 -12403231.34047        50.000
        39.000        2590.379        2018.477
  23296446.985    23296441.491   -10352768.63606  -8052593.51946        44.000
        29.000        2777.708        2164.448
  21471222.285    21471219.102   -18148022.44207 -14123052.17847        49.000
        41.000        2534.461        1974.905
  20898218.844    20898213.827   -23663250.23708 -18433164.38948        53.000
        46.000        -139.142        -108.422
  24958274.409    24958270.981    -1538382.56104  -1194437.70746        39.000
        21.000        1166.327         908.826
  24693021.904    24693018.613    -2610389.94105  -2024935.27946        41.000
        24.000       -2906.549       -2264.844
  20823060.647    20823056.489   -22713197.72507 -17693301.57348        51.000
        47.000       -1593.532       -1241.713
 10  3 18  1 42 30.0000000  0  8G30G21G16G24G31G05G12G29
  21800828.999    21800825.150   -18694712.73107 -14560727.51747        49.000
        39.000       -2507.910       -1954.216
  22254976.718    22254972.167   -16007846.81707 -12463666.18447        49.000
        39.000        2580.161        2010.515
  23280595.828    23280590.096   -10436064.26706  -8117499.19646        44.000
        29.000        2775.264        2162.544
  21456794.112    21456791.087   -18223843.16207 -14182133.25947        48.000
        41.000        2520.132        1963.740
  20899067.092    20899062.348   -23658792.23607 -18429690.62548        51.000
        47.000        -158.090        -123.187
  24951657.651    24951653.365    -1573153.42104  -1221531.84946        39.000
        21.000        1151.773         897.485
  24709624.598    24709621.562    -2523141.91705  -1956949.81746        42.000
        24.000       -2910.215       -2267.700
  20832185.048    20832180.796   -22665249.63707 -17655939.41948        52.000
        47.000       -1603.071       -1249.146
 10  3 18  1 43  0.0000000  0  8G30G21G16G24G31G05G12G29
  21815171.427    21815168.129   -18619341.73107 -14501996.88447        48.000
        39.000       -2516.824       -1961.162
  22240275.656    22240270.909   -16085098.98407 -12523862.66147        48.000
        39.000        2574.031        2005.738
  23264759.245    23264755.015   -10519285.55006  -8182346.94346        43.000
        29.000        2772.765        2160.596
  21442448.091    21442445.137   -18299230.81907 -14240876.88347        48.000
        41.000        2505.646        1952.452
  20900024.282    20900019.083   -23653762.89308 -18425771.66148        53.000
        46.000        -177.166        -138.052
  24945123.999    24945119.711    -1607490.35505  -1248287.91646        40.000
        21.000        1137.458         886.331
  24726248.323    24726243.556    -2435784.01005  -1888878.68846        42.000
        24.000       -2913.865       -2270.544
  20841363.296    20841358.847   -22617015.03207 -17618354.01548        50.000
        47.000       -1612.601       -1256.572
 10  3 18  1 43 30.0000000  0  8G30G21G16G24G31G05G12G29
  21829565.304    21829561.495   -18543700.86206 -14443055.95047        47.000
        39.000       -2525.738       -1968.108
  22225634.139    22225628.973   -16162043.45507 -12583819.39847        50.000
        39.000        2559.726        1994.592
  23248936.502    23248932.763   -10602431.69405  -8247136.11846        42.000
        30.000        2770.229        2158.620
  21428185.220    21428182.078   -18374182.95307 -14299281.13547        49.000
        41.000        2491.171        1941.172
  20901089.774    20901084.710   -23648161.85607 -18421407.21748        52.000
        47.000        -196.143        -152.839
  24938672.797    24938667.815    -1641391.39104  -1274704.24846        39.000
        21.000        1122.763         874.880
  24742892.691    24742888.118    -2348317.01305  -1820722.58146        42.000
        25.000       -2917.266       -2273.195
  20850596.582    20850592.292   -22568495.33007 -17580546.45848        50.000
        47.000       -1622.012       -1263.906
 10  3 18  1 44  0.0000000  0  8G30G21G16G24G31G05G12G29
  21844010.838    21844006.800   -18467790.19107 -14383904.78347        49.000
        38.000       -2534.654       -1975.055
  22211051.040    22211045.524   -16238678.09707 -12643534.68547        50.000
        39.000        2549.423        1986.563
  23233129.531    23233123.970   -10685501.19406  -8311865.58346        44.000
        30.000        2767.782        2156.713
  21414005.854    21414002.847   -18448696.83507 -14357343.89347        50.000
        41.000        2476.625        1929.838
  20902264.818    20902259.538   -23641988.80907 -18416597.05848        52.000
        46.000        -215.172        -167.666
  24932305.498    24932300.402    -1674853.80704  -1300778.89846        39.000
        21.000        1108.280         863.595
  24759557.677    24759553.272    -2260741.00005  -1752481.53846        40.000
        23.000       -2920.850       -2275.987
  20859883.558    20859878.823   -22519691.80807 -17542517.75448        49.000
        47.000       -1631.349       -1271.181
 10  3 18  1 44 30.0000000  0  8G30G21G16G24G31G05G12G29
  21858506.996    21858503.362   -18391611.81307 -14324545.01747        49.000
        39.000       -2543.881       -1982.245
  22196527.026    22196521.733   -16315000.90207 -12703007.00047        49.000
        39.000        2538.668        1978.183
  23217336.825    23217331.058   -10768494.23906  -8376535.48246        43.000
        31.000        2765.045        2154.581
  21399910.287    21399907.066   -18522770.96607 -14415063.99347        49.000
        41.000        2461.749        1918.246
  20903548.235    20903542.915   -23635244.45607 -18411341.72348        52.000
        47.000        -234.432        -182.675
  24926020.888    24926015.975    -1707876.76505  -1326511.07146        41.000
        21.000        1093.214         851.855
  24776244.401    24776238.642    -2173057.52505  -1684156.78346        41.000
        24.000       -2924.627       -2278.930
  20869223.994    20869219.935   -22470607.56307 -17504270.28448        49.000
        47.000       -1640.927       -1278.644
 10  3 18  1 45  0.0000000  0  8G30G21G16G24G31G05G12G29
  21873053.992    21873050.681   -18315165.56807 -14264976.53347        49.000
        38.000       -2552.685       -1989.105
  22182063.133    22182058.338   -16391009.66507 -12762234.60347        49.000
        39.000        2528.418        1970.196
  23201558.703    23201554.337   -10851409.09106  -8441144.44447        45.000
        32.000        2762.461        2152.567
  21385897.940    21385895.246   -18596402.63707 -14472439.30847        49.000
        41.000        2446.968        1906.728
  20904940.382    20904935.139   -23627928.29208 -18405640.82948        53.000
        47.000        -253.408        -197.461
  24919821.524    24919816.805    -1740458.03305  -1351899.01346        40.000
        21.000        1078.614         840.478
  24792949.965    24792944.278    -2085266.69605  -1615748.34546        41.000
        23.000       -2928.188       -2281.705
  20878617.738    20878613.649   -22421243.10807 -17465804.47848        51.000
        47.000       -1650.190       -1285.862
 10  3 18  1 45 30.0000000  0  8G30G21G16G24G31G05G12G29
  21887652.646    21887648.328   -18238451.62806 -14205199.45047        47.000
        38.000       -2561.675       -1996.110
  22167659.248    22167654.338   -16466702.04707 -12821215.68247        51.000
        39.000        2517.749        1961.883
  23185795.721    23185790.444   -10934244.65106  -8505691.62446        43.000
        31.000        2759.649        2150.375
  21371971.691    21371968.660   -18669588.73807 -14529467.43647        50.000
        40.000        2431.968        1895.040
  20906441.529    20906436.571   -23620039.74107 -18399493.90448        51.000
        47.000        -272.563        -212.387
  24913705.848    24913701.445    -1772595.17705  -1376940.93946        41.000
        22.000        1063.741         828.889
  24809677.051    24809671.192    -1997368.22805  -1547256.00446        41.000
        22.000       -2931.841       -2284.551
  20888064.669    20888060.564   -22371599.61007 -17427121.23848        50.000
        46.000       -1659.448       -1293.076
 10  3 18  1 46  0.0000000  0  8G30G21G16G24G31G05G12G29
  21902301.227    21902297.494   -18161471.46107 -14145214.90747        48.000
        38.000       -2570.408       -2002.915
  22153316.255    22153311.111   -16542076.43407 -12879948.96147        51.000
        39.000        2507.253        1953.704
  23170047.595    23170041.747   -11016999.71306  -8570176.07346        44.000
        31.000        2757.170        2148.444
  21358129.931    21358126.465   -18742326.97507 -14586146.57547        50.000
        41.000        2417.224        1883.551
  20908051.550    20908046.431   -23611579.05208 -18392901.16648        53.000
        47.000        -291.506        -227.148
  24907675.172    24907670.714    -1804286.51805  -1401635.47546        40.000
        21.000        1048.957         817.369
  24826422.686    24826418.744    -1909363.09705  -1478680.60546        41.000
        25.000       -2935.217       -2287.182
  20897564.245    20897559.819   -22321678.89607 -17388221.97948        49.000
        47.000       -1668.552       -1300.171
 10  3 18  1 46 30.0000000  0  8G30G21G16G24G31G05G12G29
  21917000.549    21916996.956   -18084225.25207 -14085023.06047        48.000
        38.000       -2579.304       -2009.847
  22139033.823    22139028.774   -16617130.51507 -12938432.65547        50.000
        40.000        2496.507        1945.330
  23154315.438    23154310.417   -11099673.51806  -8634597.21547        45.000
        32.000        2754.480        2146.348
  21344374.191    21344370.912   -18814615.12207 -14642475.01247        50.000
        41.000        2402.098        1871.764
  20909770.324    20909765.537   -23602546.11107 -18385862.51448        52.000
        46.000        -310.676        -242.085
  24901729.831    24901726.077    -1835529.74305  -1425980.84746        41.000
        21.000        1033.890         805.628
  24843190.026    24843185.899    -1821251.36305  -1410022.14846        41.000
        25.000       -2938.996       -2290.127
  20907116.158    20907112.012   -22271482.80507 -17349108.14248        50.000
        46.000       -1677.854       -1307.418
 10  3 18  1 47  0.0000000  0  8G30G21G16G24G31G05G12G29
  21931750.426    21931746.695   -18006713.54806 -14024624.34847        47.000
        38.000       -2588.185       -2016.767
  22124812.582    22124808.251   -16691862.28807 -12996665.19947        50.000
        40.000        2485.644        1936.865
  23138599.296    23138594.297   -11182265.13806  -8698954.31246        45.000
        31.000        2751.640        2144.135
  21330704.355    21330701.013   -18886450.96307 -14698450.98247        50.000
        42.000        2386.981        1859.986
  20911598.369    20911593.262   -23592941.19807 -18378378.16948        52.000
        46.000        -329.723        -256.927
  24895869.628    24895865.752    -1866323.60604  -1449976.01846        39.000
        22.000        1018.988         794.017
  24859978.033    24859973.631    -1733034.04406  -1341281.34646        43.000
        26.000       -2942.262       -2292.671
  20916720.170    20916716.087   -22221013.05907 -17309781.06648        49.000
        46.000       -1686.837       -1314.418
 10  3 18  1 47 30.0000000  0  8G30G21G16G24G31G05G12G29
  21946551.446    21946547.452   -17928936.57506 -13964018.92147        46.000
        37.000       -2597.155       -2023.757
  22110653.448    22110648.903   -16766268.98807 -13054644.44547        50.000
        40.000        2474.554        1928.224
  23122898.329    23122892.228   -11264772.68506  -8763245.89846        45.000
        30.000        2748.671        2141.821
  21317120.865    21317117.639   -18957831.12107 -14754071.87447        48.000
        42.000        2371.498        1847.920
  20913534.987    20913529.979   -23582763.52408 -18370447.52848        53.000
        46.000        -349.044        -271.983
  24890096.036    24890091.796    -1896665.20405  -1473618.79546        41.000
        23.000        1003.597         782.024
  24876783.995    24876781.110    -1644710.56205  -1272457.82546        41.000
        22.000       -2946.061       -2295.632
  20926376.213    20926371.937   -22170270.14107 -17270241.14148        49.000
        46.000       -1696.159       -1321.682
 10  3 18  1 48  0.0000000  0  8G30G21G16G24G31G05G12G29
  21961401.835    21961398.623   -17850895.79106 -13903207.93647        46.000
        38.000       -2605.738       -2030.445
  22096556.377    22096551.797   -16840349.50807 -13112369.51647        49.000
        40.000        2463.901        1919.923
  23107213.064    23107207.158   -11347196.04406  -8827471.91046        45.000
        30.000        2746.010        2139.748
  21303624.807    21303621.541   -19028754.13807 -14809336.55847        48.000
        42.000        2356.430        1836.179
  20915580.615    20915575.535   -23572013.83408 -18362071.14748        53.000
        47.000        -367.891        -286.669
  24884408.547    24884404.759    -1926553.44805  -1496908.35346        40.000
        25.000         988.593         770.332
  24893611.115    24893608.226    -1556282.08505  -1203552.51146        40.000
        21.000       -2949.371       -2298.211
  20936084.055    20936079.544   -22119256.53307 -17230490.27648        49.000
        47.000       -1704.893       -1328.488
 10  3 18  1 48 30.0000000  0  8G30G21G16G24G31G05G12G29
  21976302.708    21976299.142   -17772591.66906 -13842191.73747        47.000
        38.000       -2614.510       -2037.280
  22082521.966    22082517.355   -16914101.78107 -13169838.80747        49.000
        40.000        2452.937        1911.379
  23091544.571    23091539.498   -11429533.73506  -8891631.14646        45.000
        30.000        2743.122        2137.498
  21290216.130    21290212.716   -19099218.02907 -14864243.48347        48.000
        41.000        2341.208        1824.318
  20917735.030    20917729.836   -23560692.15108 -18353249.06548        53.000
        47.000        -386.897        -301.478
  24878807.139    24878802.447    -1955986.25205  -1519842.98246        40.000
        22.000         973.547         758.608
  24910459.468    24910454.834    -1467749.16105  -1134565.83546        41.000
        25.000       -2952.820       -2300.899
  20945842.499    20945838.148   -22067973.98207 -17190529.84948        50.000
        46.000       -1713.899       -1335.506
 10  3 18  1 49  0.0000000  0  8G30G21G16G24G31G05G12G29
  21991253.251    21991249.704   -17694025.91106 -13780971.67247        46.000
        38.000       -2623.169       -2044.028
  22068549.912    22068544.928   -16987524.61307 -13227051.40047        50.000
        40.000        2442.089        1902.927
  23075892.381    23075887.923   -11511785.72706  -8955723.59046        45.000
        31.000        2740.385        2135.365
  21276894.633    21276891.586   -19169220.83907 -14918791.12047        48.000
        42.000        2325.879        1812.373
  20919998.083    20919993.057   -23548799.39008 -18343981.97748        53.000
        47.000        -405.830        -316.232
  24873293.003    24873289.269    -1984962.69705  -1542421.98846        40.000
        23.000         958.340         746.758
  24927326.227    24927321.971    -1379113.32305  -1065498.96546        41.000
        26.000       -2956.118       -2303.469
  20955652.164    20955647.620   -22016424.58407 -17150361.49048        49.000
        46.000       -1722.598       -1342.284
 10  3 18  1 49 30.0000000  0  8G30G21G16G24G31G05G12G29
  22006253.940    22006250.314   -17615197.76106 -13719547.14247        47.000
        37.000       -2631.982       -2050.895
  22054641.836    22054636.564   -17060614.57707 -13284004.61447        49.000
        40.000        2430.748        1894.089
  23060256.897    23060252.106   -11593949.41306  -9019747.24146        44.000
        31.000        2737.276        2132.943
  21263661.988    21263658.968   -19238758.89307 -14972976.61547        48.000
        42.000        2310.167        1800.130
  20922370.315    20922365.551   -23536334.11208 -18334268.78248        53.000
        47.000        -424.985        -331.157
  24867867.317    24867861.739    -2013479.69605  -1564643.00146        41.000
        23.000         942.838         734.679
  24944213.210    24944208.221    -1290373.21505   -996350.82246        40.000
        23.000       -2959.750       -2306.299
  20965512.619    20965508.231   -21964608.24307 -17109985.12648        50.000
        46.000       -1731.659       -1349.345
 10  3 18  1 50  0.0000000  0  8G30G21G16G24G31G05G12G29
  22021304.057    22021300.526   -17536108.50106 -13657919.16247        46.000
        37.000       -2640.552       -2057.573
  22040796.464    22040791.408   -17133370.45907 -13340697.50347        49.000
        40.000        2419.649        1885.441
  23044639.027    23044633.975   -11676024.68806  -9083701.99447        45.000
        32.000        2734.454        2130.743
  21250518.002    21250514.644   -19307830.75207 -15026798.83347        48.000
        42.000        2294.620        1788.015
  20924850.802    20924845.676   -23523297.41607 -18324110.32948        52.000
        47.000        -444.047        -346.011
  24862527.649    24862523.606    -2041536.22105  -1586505.19746        41.000
        23.000         927.706         722.887
  24961119.248    24961113.714    -1201530.18104   -927122.53046        38.000
        21.000       -2963.051       -2308.871
  20975423.062    20975418.867   -21912527.33607 -17069402.59148        49.000
        46.000       -1740.385       -1356.144
 10  3 18  1 50 30.0000000  0  8G30G21G16G24G31G05G12G29
  22036403.637    22036400.172   -17456758.67106 -13596088.12347        46.000
        37.000       -2649.244       -2064.346
  22027015.794    22027010.518   -17205789.87507 -13397128.20847        49.000
        40.000        2408.315        1876.609
  23029038.069    23029033.059   -11758010.05806  -9147586.65946        45.000
        31.000        2731.313        2128.296
  21237463.295    21237460.253   -19376433.86407 -15080255.79247        49.000
        42.000        2278.925        1775.786
  20927440.769    20927435.955   -23509688.89507 -18313506.28548        52.000
        47.000        -463.125        -360.877
  24857276.858    24857272.640    -2069130.13005  -1608006.96746        42.000
        23.000         912.050         710.689
  24978045.696    24978038.825    -1112584.75205   -857814.38546        42.000
        22.000       -2966.524       -2311.577
  20985384.102    20985379.732   -21860183.30707 -17028615.04248        50.000
        46.000       -1749.161       -1362.982
 10  3 18  1 51  0.0000000  0  8G30G21G16G24G31G05G12G29
  22051552.598    22051549.325   -17377149.68206 -13534055.14447        47.000
        37.000       -2657.899       -2071.090
  22013298.948    22013293.792   -17277871.97607 -13453296.08247        50.000
        40.000        2397.165        1867.921
  23013453.569    23013448.730   -11839904.93306  -9211400.82647        46.000
        32.000        2728.385        2126.014
  21224498.096    21224494.680   -19444566.63407 -15133346.26047        49.000
        42.000        2263.376        1763.669
  20930138.706    20930133.900   -23495509.51507 -18302457.42648        52.000
        47.000        -482.083        -375.649
  24852114.259    24852110.304    -2096260.37905  -1629147.36646        41.000
        23.000         896.745         698.762
  24994990.381    24994984.737    -1023537.68406   -788426.98446        44.000
        25.000       -2969.886       -2314.197
  20995394.534    20995389.619   -21807578.43907 -16987624.24548        49.000
        46.000       -1757.772       -1369.692
 10  3 18  1 51 30.0000000  0  8G30G21G16G24G31G05G12G29
  22066751.094    22066747.215   -17297282.28806 -13471820.81847        46.000
        37.000       -2666.532       -2077.817
  21999646.699    21999642.121   -17349613.87907 -13509198.85547        49.000
        40.000        2385.807        1859.070
  22997887.405    22997881.688   -11921708.14006  -9275143.58047        47.000
        33.000        2725.353        2123.652
  21211623.055    21211619.906   -19512226.49807 -15186068.22147        50.000
        42.000        2247.481        1751.284
  20932945.931    20932940.742   -23480759.50407 -18290963.91148        52.000
        46.000        -501.190        -390.538
  24847040.088    24847034.646    -2122924.96504  -1649924.95846        39.000
        23.000         881.109         686.579
  25011954.544    25011950.360     -934389.43005   -718960.83846        41.000
        26.000       -2973.275       -2316.838
  21005453.867    21005449.559   -21754714.23707 -16946431.34748        50.000
        46.000       -1766.420       -1376.431
 10  3 18  1 52  0.0000000  0  8G30G21G16G24G31G05G12G29
  22081998.768    22081994.703   -17217156.18906 -13409384.89747        47.000
        37.000       -2675.142       -2084.526
  21986059.970    21986055.138   -17421013.58207 -13564834.98347        50.000
        41.000        2374.331        1850.128
  22982338.656    22982333.143   -12003418.19906  -9338813.76647        47.000
        33.000        2722.144        2121.151
  21198837.929    21198835.298   -19579410.77507 -15238419.60647        50.000
        42.000        2231.582        1738.895
  20935861.496    20935856.468   -23465438.28807 -18279025.31348        52.000
        46.000        -520.224        -405.370
  24842055.268    24842050.782    -2149121.64705  -1670337.95546        40.000
        22.000         865.483         674.403
  25028937.121    25028933.755     -845140.19003   -649416.01946        37.000
        22.000       -2976.636       -2319.457
  21015562.827    21015558.853   -21701591.72507 -16905037.19048        50.000
        46.000       -1774.971       -1383.094
 10  3 18  1 52 30.0000000  0  9G30G21G16G06G24G31G05G12G29
  22097294.905    22097291.439   -17136772.39406 -13346748.17247        46.000
        36.000       -2683.654       -2091.159
  21972538.520    21972533.478   -17492069.48607 -13620203.21747        48.000
        40.000        2362.879        1841.204
  22966807.754    22966802.350   -12085033.92306  -9402410.43447        47.000
        33.000        2718.997        2118.699
  24916530.438    24916527.038      445625.61403    360438.00045        36.000
        18.000        3010.394        2345.761
  21186144.165    21186141.017   -19646117.23407 -15290398.65347        50.000
        42.000        2215.647        1726.478
  20938885.415    20938880.532   -23449546.11308 -18266641.80648        53.000
        46.000        -539.201        -420.157
  24837159.775    24837154.850    -2174848.84705  -1690385.11746        40.000
        22.000         849.808         662.188
  25045940.029    25045936.083     -755790.05804   -579792.58445        38.000
        20.000       -2980.021       -2322.095
  21025720.435    21025716.412   -21648212.17207 -16863442.74248        50.000
        46.000       -1783.542       -1389.773
 10  3 18  1 53  0.0000000  0  9G30G21G16G06G24G31G05G12G29
  22112638.956    22112635.512   -17056138.52006 -13283916.58847        46.000
        37.000       -2692.358       -2097.941
  21959081.959    21959076.977   -17562785.29907 -13675306.44347        49.000
        41.000        2351.192        1832.098
  22951293.442    22951288.368   -12166560.77606  -9465937.84847        47.000
        33.000        2715.640        2116.083
  24899354.464    24899349.723      355358.84004    290100.24045        38.000
        18.000        3006.964        2343.089
  21173540.536    21173537.542   -19712350.51607 -15342008.99747        50.000
        43.000        2199.512        1713.906
  20942016.875    20942011.877   -23433090.60208 -18253819.33748        53.000
        46.000        -558.242        -434.993
  24832351.569    24832346.797    -2200111.59805  -1710070.34146        40.000
        23.000         833.985         649.858
  25062961.845    25062956.717     -666346.72205   -510096.45046        40.000
        22.000       -2983.393       -2324.722
  21035925.628    21035921.415   -21594583.86007 -16821654.44648        51.000
        46.000       -1792.109       -1396.448
 10  3 18  1 53 30.0000000  0  9G30G21G16G06G24G31G05G12G29
  22128032.959    22128029.525   -16975242.76706 -13220880.93647        46.000
        37.000       -2700.760       -2104.489
  21945692.168    21945687.293   -17633147.08207 -13730133.79747        49.000
        41.000        2339.601        1823.066
  22935798.465    22935793.603   -12247985.36506  -9529385.57747        47.000
        32.000        2712.638        2113.744
  24882196.375    24882192.935      265199.01903    219845.87645        37.000
        19.000        3003.649        2340.506
  21161029.442    21161026.480   -19778095.91607 -15393239.18247        48.000
        43.000        2183.454        1701.393
  20945257.372    20945252.591   -23416059.24707 -18240548.15648        52.000
        46.000        -577.176        -449.748
  24827635.981    24827630.880    -2224895.82505  -1729382.73246        41.000
        24.000         818.244         637.592
  25080002.259    25079997.715     -576797.93005   -440318.11946        41.000
        23.000       -2986.532       -2327.167
  21046180.405    21046176.307   -21540695.97507 -16779663.88648        51.000
        46.000       -1800.418       -1402.923
 10  3 18  1 54  0.0000000  0  9G30G21G16G06G24G31G05G12G29
  22143475.591    22143471.821   -16894091.34006 -13157646.06647        46.000
        36.000       -2709.383       -2111.207
  21932369.423    21932364.474   -17703159.36707 -13784688.83147        48.000
        40.000        2328.005        1814.030
  22920322.273    22920316.654   -12329312.19306  -9592757.11647        46.000
        32.000        2709.211        2111.073
  24865058.964    24865055.063      175141.01204    149670.81245        38.000
        19.000        3000.256        2337.862
  21148610.819    21148607.663   -19843356.92307 -15444091.90047        48.000
        43.000        2167.331        1688.830
  20948607.196    20948602.249   -23398457.72607 -18226832.69048        52.000
        46.000        -596.160        -464.540
  24823009.041    24823004.902    -2249205.36205  -1748325.20146        41.000
        24.000         802.443         625.281
  25097061.855    25097056.877     -487149.73004   -370462.37446        38.000
        22.000       -2990.042       -2329.903
  21056482.970    21056479.055   -21486555.59607 -16737476.58148        49.000
        46.000       -1808.914       -1409.543
 10  3 18  1 54 30.0000000  0  9G30G21G16G06G24G31G05G12G29
  22158966.902    22158962.727   -16812685.34406 -13094212.82347        46.000
        36.000       -2717.811       -2117.775
  21919113.445    21919108.291   -17772820.05807 -13838969.87447        48.000
        40.000        2316.148        1804.791
  22904865.921    22904860.180   -12410540.26406  -9656051.73147        46.000
        32.000        2705.963        2108.542
  24847941.343    24847937.152       85185.09503     79575.33245        36.000
        19.000        2996.671        2335.068
  21136284.504    21136281.236   -19908131.73507 -15494565.77148        49.000
        44.000        2151.021        1676.121
  20952064.882    20952059.917   -23380286.77907 -18212673.51948        52.000
        46.000        -615.097        -479.296
  24818474.353    24818470.579    -2273038.77105  -1766896.66446        42.000
        25.000         786.524         612.876
  25114137.048    25114135.146     -397403.07302   -300529.99546        35.000
        21.000       -2993.109       -2332.293
  21066832.975    21066828.844   -21432164.56407 -16695093.96248        49.000
        46.000       -1817.177       -1415.982
 10  3 18  1 55  0.0000000  0  9G30G21G16G06G24G31G05G12G29
  22174506.191    22174502.687   -16731025.53106 -13030581.80147        46.000
        36.000       -2726.176       -2124.293
  21905924.626    21905919.768   -17842126.96807 -13892975.25247        48.000
        40.000        2304.239        1795.511
  22889426.995    22889422.250   -12491668.58506  -9719268.61346        46.000
        31.000        2702.628        2105.944
  24830842.273    24830839.078       -4668.04603      9559.90045        36.000
        18.000        2993.536        2332.625
  21124051.209    21124048.412   -19972418.14107 -15544659.07147        48.000
        43.000        2134.693        1663.397
  20955630.921    20955626.191   -23361546.82007 -18198070.96048        51.000
        46.000        -634.149        -494.142
  24814029.472    24814025.820    -2296394.59005  -1785096.02146        40.000
        23.000         770.533         600.415
  25131236.510    25131231.831     -307558.68905   -230521.42046        41.000
        25.000       -2996.317       -2334.793
  21077230.504    21077226.344   -21377524.46307 -16652517.25848        50.000
        46.000       -1825.531       -1422.492
 10  3 18  1 55 30.0000000  0  9G30G21G16G06G24G31G05G12G29
  22190093.505    22190090.056   -16649113.28006 -12966754.07647        46.000
        37.000       -2734.685       -2130.923
  21892803.562    21892798.490   -17911078.97407 -13946704.08347        48.000
        40.000        2292.376        1786.267
  22874007.745    22874003.104   -12572696.49906  -9782407.20347        45.000
        32.000        2699.172        2103.251
  24813763.823    24813759.710      -94418.27903    -60375.34845        36.000
        19.000        2989.978        2329.853
  21111910.948    21111908.080   -20036214.46707 -15594370.47648        48.000
        44.000        2118.260        1650.592
  20959305.285    20959300.179   -23342238.56407 -18183025.57248        51.000
        46.000        -653.279        -509.048
  24809676.122    24809672.416    -2319271.90805  -1802922.48646        41.000
        25.000         754.451         587.884
  25148351.648    25148345.011     -217617.46605   -160437.29746        40.000
        21.000       -2999.773       -2337.485
  21087675.293    21087671.244   -21322637.17707 -16609747.95048        50.000
        46.000       -1833.801       -1428.936
 10  3 18  1 56  0.0000000  0  9G30G21G16G06G24G31G05G12G29
  22205728.762    22205724.728   -16566949.23406 -12902730.14847        46.000
        37.000       -2742.891       -2137.317
  21879750.184    21879744.937   -17979674.18607 -14000154.89147        48.000
        40.000        2280.542        1777.046
  22858607.823    22858602.670   -12653622.44706  -9845466.38747        46.000
        32.000        2695.952        2100.742
  24796704.866    24796699.847     -184065.08102   -130230.02645        35.000
        18.000        2986.626        2327.241
  21099864.584    21099861.618   -20099518.69107 -15643698.43247        49.000
        43.000        2101.988        1637.912
  20963087.618    20963082.315   -23322362.67607 -18167537.86948        50.000
        46.000        -671.958        -523.603
  24805414.752    24805410.033    -2341668.65005  -1820374.47946        41.000
        26.000         738.570         575.509
  25165485.049    25165479.540     -127579.88804    -90278.10845        38.000
        20.000       -3002.783       -2339.831
  21098166.832    21098162.556   -21267504.50607 -16566787.42748        49.000
        46.000       -1841.797       -1435.166
 10  3 18  1 56 30.0000000  0  9G30G21G16G06G24G31G05G12G29
  22221411.640    22221408.144   -16484533.59306 -12838510.18447        45.000
        36.000       -2751.260       -2143.839
  21866765.401    21866760.438   -18047910.14807 -14053325.77247        48.000
        40.000        2268.711        1767.827
  22843228.673    22843223.442   -12734445.16006  -9908445.11847        47.000
        33.000        2692.480        2098.037
  24779665.010    24779661.379     -273607.55803   -200003.36845        36.000
        19.000        2983.301        2324.650
  21087912.418    21087909.689   -20162328.44507 -15692641.08247        49.000
        43.000        2085.488        1625.056
  20966977.942    20966973.018   -23301919.16707 -18151607.87948        50.000
        46.000        -690.835        -538.313
  24801245.108    24801240.248    -2363583.43405  -1837450.91746        42.000
        25.000         722.637         563.094
  25182637.049    25182632.855      -37445.85801    -20043.78645        33.000
        20.000       -3006.045       -2342.373
  21108704.751    21108700.534   -21212126.98807 -16523636.12248        50.000
        46.000       -1849.839       -1441.433
 10  3 18  1 57  0.0000000  0  9G30G21G16G06G24G31G05G12G29
  22237142.942    22237139.283   -16401866.65806 -12774094.39147        45.000
        36.000       -2759.655       -2150.380
  21853849.412    21853844.139   -18115784.81407 -14106215.12147        48.000
        41.000        2256.332        1758.180
  22827868.894    22827863.491   -12815162.82106  -9971341.97247        47.000
        34.000        2688.744        2095.125
  24762646.323    24762642.077     -363044.59603   -269694.56445        36.000
        19.000        2979.369        2321.586
  21076054.780    21076051.703   -20224641.08307 -15741196.38447        49.000
        43.000        2068.709        1611.981
  20970976.335    20970971.708   -23280907.99207 -18135235.53248        49.000
        46.000        -709.943        -553.202
  24797166.015    24797161.795    -2385014.09905  -1854150.10346        41.000
        25.000         706.229         550.308
  25199807.349    25199803.885       52784.30702     50265.34245        34.000
        20.000       -3009.391       -2344.980
  21119289.192    21119285.172   -21156506.18207 -16480295.22948        52.000
        45.000       -1858.161       -1447.917
 10  3 18  1 57 30.0000000  0  9G30G21G16G06G24G31G05G12G29
  22252921.487    22252917.714   -16318950.77706 -12709484.62347        45.000
        36.000       -2768.015       -2156.895
  21841001.983    21840997.076   -18183297.66007 -14158822.53447        50.000
        41.000        2244.280        1748.790
  22812528.823    22812522.761   -12895775.82007 -10034157.30847        48.000
        35.000        2685.267        2092.416
  24745647.640    24745642.641     -452376.93102   -339304.18045        34.000
        19.000        2975.794        2318.801
  21064291.619    21064288.875   -20286456.22507 -15789364.02747        49.000
        43.000        2052.117        1599.052
  20975082.330    20975077.194   -23259330.90207 -18118422.22248        51.000
        46.000        -728.732        -567.843
  24793178.895    24793175.423    -2405960.13904  -1870471.67046        39.000
        23.000         690.106         537.745
  25216995.572    25216991.895      143108.46903    120647.76546        36.000
        23.000       -3012.389       -2347.316
  21129919.307    21129914.839   -21100644.80107 -16436766.89048        52.000
        45.000       -1866.164       -1454.154
 10  3 18  1 58  0.0000000  0  9G30G21G16G06G24G31G05G12G29
  22268747.246    22268744.005   -16235785.98706 -12644680.90647        45.000
        36.000       -2776.326       -2163.371
  21828224.399    21828219.134   -18250446.15407 -14211146.02947        50.000
        41.000        2232.096        1739.296
  22797208.402    22797202.559   -12976282.40307 -10096889.70747        48.000
        35.000        2681.652        2089.599
  24728667.736    24728663.597     -541603.44602   -408831.30045        35.000
        19.000        2972.224        2316.018
  21052624.297    21052620.755   -20347770.98407 -15837141.75247        50.000
        43.000        2035.358        1585.993
  20979296.013    20979291.141   -23237187.31607 -18101167.49048        50.000
        46.000        -747.557        -582.512
  24789285.893    24789282.762    -2426419.90904  -1886414.33846        39.000
        24.000         673.791         525.032
  25234200.434    25234196.317      233527.12604    191103.89946        38.000
        22.000       -3015.799       -2349.973
  21140595.124    21140590.583   -21044543.57807 -16393051.64448        52.000
        46.000       -1874.036       -1460.288
 10  3 18  1 58 30.0000000  0  9G30G21G16G06G24G31G05G12G29
  22284620.181    22284616.133   -16152372.85206 -12579683.65447        45.000
        36.000       -2784.506       -2169.745
  21815516.060    21815511.113   -18317228.15607 -14263183.95447        50.000
        41.000        2219.923        1729.810
  22781909.075    22781903.600   -13056680.54007 -10159537.60647        48.000
        34.000        2678.106        2086.836
  24711708.072    24711704.214     -630722.99202   -478275.11945        34.000
        18.000        2968.893        2313.423
  21041051.875    21041048.650   -20408582.92307 -15884527.66847        49.000
        43.000        2018.702        1573.015
  20983617.159    20983612.268   -23214478.46807 -18083472.29348        51.000
        46.000        -766.356        -597.161
  24785486.471    24785481.810    -2446391.37805  -1901976.49846        40.000
        25.000         657.574         512.396
  25251424.756    25251421.132      324040.18602    261633.58045        35.000
        20.000       -3018.642       -2352.188
  21151316.050    21151311.928   -20988203.72407 -16349150.46448        51.000
        45.000       -1881.991       -1466.486
 10  3 18  1 59  0.0000000  0  9G30G21G16G06G24G31G05G12G29
  22300540.271    22300536.987   -16068712.22006 -12514493.56847        47.000
        36.000       -2792.893       -2176.280
  21802877.979    21802872.779   -18383641.76607 -14314934.80747        51.000
        41.000        2207.424        1720.071
  22766630.743    22766625.779   -13136969.33607 -10222100.29747        48.000
        35.000        2674.353        2083.911
  24694769.371    24694765.823     -719735.16901   -547635.17546        33.000
        21.000        2965.164        2310.517
  21029575.653    21029572.680   -20468889.95407 -15931520.16147        49.000
        43.000        2001.648        1559.726
  20988046.133    20988041.336   -23191204.52107 -18065336.75948        51.000
        46.000        -785.334        -611.949
  24781778.895    24781775.261    -2465873.25205  -1917157.16246        40.000
        26.000         641.145         499.594
  25268667.224    25268662.426      414646.77103    332236.08945        36.000
        20.000       -3021.726       -2354.592
  21162082.233    21162078.234   -20931627.12407 -16305064.79948        51.000
        46.000       -1889.963       -1472.699
 10  3 18  1 59 30.0000000  0  9G30G21G16G06G24G31G05G12G29
  22316507.297    22316503.647   -15984805.12007 -12449111.42947        48.000
        36.000       -2800.770       -2182.418
  21790310.016    21790305.227   -18449685.79407 -14366397.68547        51.000
        41.000        2195.402        1710.703
  22751372.779    22751368.625   -13217148.17507 -10284577.30147        48.000
        34.000        2670.939        2081.251
  24677850.895    24677847.691     -808640.14802   -616911.79145        35.000
        19.000        2962.052        2308.093
  21018195.924    21018192.675   -20528690.85207 -15978118.24547        51.000
        43.000        1985.065        1546.804
  20992582.410    20992577.533   -23167366.30407 -18046761.52648        52.000
        46.000        -803.861        -626.385
  24778164.453    24778161.072    -2484864.45805  -1931955.52846        41.000
        25.000         624.879         486.919
  25285926.787    25285921.184    13108705.87802  10223710.72445        35.000
        20.000       -3024.633       -2356.856
  21172893.179    21172889.362   -20874815.27807 -16260795.83048        52.000
        45.000       -1897.455       -1478.536
 10  3 18  2  0  0.0000000  0  9G30G21G16G06G24G31G05G12G29
  22332521.060    22332517.548   -15900651.83206 -12383537.42547        46.000
        36.000       -2809.302       -2189.066
  21777813.219    21777808.278   -18515357.59607 -14417570.50647        50.000
        41.000        2182.759        1700.851
  22736136.460    22736131.946   -13297215.10406 -10346967.10647        47.000
        33.000        2666.910        2078.111
  24660952.508    24660949.187     -897436.18102   -686103.49645        34.000
        20.000        2957.593        2304.618
  21006913.106    21006909.878   -20587982.74307 -16024319.71847        51.000
        43.000        1967.759        1533.319
  20997226.277    20997221.462   -23142963.68507 -18027746.50348        51.000
        46.000        -822.900        -641.221
  24774644.657    24774641.136    -2503362.62905  -1946369.66046        40.000
        23.000         608.311         474.009
  25303203.174    25303198.730    13199497.73203  10294457.63245        36.000
        20.000       -3027.754       -2359.289
  21183748.826    21183744.455   -20817769.03707 -16216344.21648        51.000
        45.000       -1905.532       -1484.830
 10  3 18  2  0 30.0000000  0  9G30G21G16G06G24G31G05G12G29
  22348581.047    22348577.626   -15816255.09606 -12317773.74847        45.000
        36.000       -2817.218       -2195.235
  21765387.027    21765382.059   -18580657.50807 -14468453.55747        50.000
        41.000        2170.408        1691.227
  22720921.824    22720916.415   -13377170.80106 -10409270.22147        46.000
        33.000        2663.367        2075.351
  24644078.048    24644073.418     -986124.84903   -755211.55046        36.000
        21.000        2954.881        2302.505
  20995727.023    20995723.980   -20646765.78307 -16070124.67847        52.000
        43.000        1950.970        1520.236
  21001976.472    21001971.766   -23117999.50807 -18008293.91248        50.000
        46.000        -841.520        -655.730
  24771218.226    24771214.168    -2521368.69205  -1960400.35646        41.000
        26.000         592.059         461.345
  25320496.917    25320492.622    13290379.74702  10365274.76546        35.000
        22.000       -3030.959       -2361.786
  21194648.226    21194643.665   -20760491.99007 -16171712.75248        51.000
        45.000       -1913.024       -1490.668
 10  3 18  2  1  0.0000000  0  9G30G21G16G06G24G31G05G12G29
  22364688.112    22364684.087   -15731613.29006 -12251819.10647        45.000
        35.000       -2825.443       -2201.644
  21753032.490    21753027.220   -18645581.22907 -14519043.46347        50.000
        41.000        2157.775        1681.383
  22705728.003    22705723.230   -13457011.21206 -10471483.52047        47.000
        33.000        2659.318        2072.196
  24627221.378    24627217.657    -1074703.47802   -824233.81646        35.000
        21.000        2950.978        2299.463
  20984638.857    20984635.842   -20705035.36507 -16115529.54448        52.000
        44.000        1933.703        1506.781
  21006834.418    21006829.529   -23092471.86607 -17988402.25048        49.000
        46.000        -860.380        -670.426
  24767885.982    24767881.945    -2538878.98804  -1974044.71646        39.000
        23.000         575.314         448.296
  25337809.612    25337806.083    13381353.98202  10436163.67846        34.000
        21.000       -3033.983       -2364.143
  21205591.544    21205586.967   -20702983.14107 -16126900.67548        49.000
        45.000       -1920.868       -1496.780
 10  3 18  2  1 30.0000000  0  8G30G21G16G06G24G31G05G29
  22380840.812    22380837.378   -15646729.23806 -12185675.68747        45.000
        35.000       -2833.382       -2207.830
  21740749.270    21740743.954   -18710129.50807 -14569340.81047        49.000
        41.000        2145.466        1671.792
  22690556.642    22690551.814   -13536737.53706 -10533607.90947        46.000
        33.000        2655.769        2069.430
  24610386.818    24610382.380    -1163173.04803   -893171.14145        36.000
        20.000        2947.229        2296.542
  20973648.148    20973644.800   -20762791.83107 -16160534.57848        51.000
        44.000        1916.804        1493.614
  21011798.820    21011794.067   -23066383.19307 -17968073.42448        50.000
        46.000        -878.880        -684.841
  24764648.723    24764644.509    -2555893.78905  -1987302.98646        40.000
        25.000         559.094         435.658
  21216578.910    21216574.915   -20645245.86607 -16081910.59448        49.000
        45.000       -1928.201       -1502.494
 10  3 18  2  2  0.0000000  0  8G30G21G16G06G24G31G05G29
  22397040.021    22397036.679   -15561602.34406 -12119343.05547        45.000
        35.000       -2841.591       -2214.226
  21728538.232    21728533.201   -18774299.04707 -14619343.04647        48.000
        41.000        2132.692        1661.838
  22675408.232    22675402.919   -13616347.17707 -10595641.37847        48.000
        35.000        2651.759        2066.306
  24593572.851    24593568.235    -1251532.12802   -962022.36645        34.000
        19.000        2943.615        2293.726
  20962755.651    20962752.870   -20820032.10307 -16205137.37547        52.000
        43.000        1899.435        1480.079
  21016870.274    21016865.414   -23039733.11607 -17947307.13648        50.000
        45.000        -897.699        -699.506
  24761505.365    24761501.892    -2572410.49705  -2000173.14946        41.000
        23.000         542.145         422.450
  21227609.350    21227605.256   -20587280.30107 -16036742.62148        49.000
        45.000       -1935.956       -1508.537
 10  3 18  2  2 30.0000000  0  8G30G21G16G06G24G31G05G29
  22413285.356    22413281.271   -15476234.14306 -12052822.39347        46.000
        35.000       -2849.544       -2220.424
  21716399.418    21716394.660   -18838088.42807 -14669049.04547        48.000
        42.000        2120.051        1651.987
  22660281.488    22660275.682   -13695839.35507 -10657583.33247        48.000
        36.000        2647.893        2063.293
  24576779.063    24576774.576    -1339780.33502  -1030787.21345        34.000
        20.000        2939.885        2290.819
  20951961.427    20951958.437   -20876754.75207 -16249336.83048        50.000
        44.000        1882.214        1466.660
  21022048.151    21022043.425   -23012523.11007 -17926104.54348        49.000
        46.000        -916.224        -713.940
  24758457.168    24758453.412    -2588428.40705  -2012654.63746        41.000
        26.000         525.759         409.682
  21238682.666    21238678.567   -20529088.64707 -15991398.47348        49.000
        45.000       -1943.299       -1514.259
 10  3 18  2  3  0.0000000  0  8G30G21G16G06G24G31G05G29
  22429576.372    22429572.365   -15390624.97006 -11986113.95247        44.000
        35.000       -2857.761       -2226.827
  21704333.565    21704328.486   -18901495.60907 -14718457.23847        48.000
        42.000        2107.142        1641.928
  22645177.046    22645171.768   -13775212.11007 -10719432.23947        48.000
        36.000        2643.675        2060.006
  24560007.196    24560002.745    -1427916.95302  -1099465.06445        35.000
        19.000        2935.965        2287.765
  20941266.606    20941263.793   -20932957.22107 -16293130.95548        49.000
        44.000        1864.651        1452.975
  21027332.553    21027327.876   -22984753.06107 -17904465.54848        50.000
        46.000        -935.124        -728.668
  24755504.458    24755501.350    -2603945.89906  -2024746.12846        43.000
        25.000         508.787         396.457
  21249799.213    21249794.265   -20470671.52907 -15945878.65248        49.000
        45.000       -1951.130       -1520.361
 10  3 18  2  3 30.0000000  0  8G30G21G16G06G24G31G05G29
  22445912.911    22445908.736   -15304776.08806 -11919218.73547        44.000
        34.000       -2865.840       -2233.122
  21692340.318    21692335.456   -18964519.24307 -14767566.55347        49.000
        42.000        2094.145        1631.802
  22630095.922    22630090.833   -13854465.00107 -10781187.72947        49.000
        35.000        2639.487        2056.743
  24543257.031    24543252.623    -1515941.84203  -1168055.89545        37.000
        19.000        2931.943        2284.631
  20930670.809    20930668.018   -20988638.71607 -16336519.12848        50.000
        44.000        1847.089        1439.291
  21032723.600    21032718.542   -22956424.30407 -17882391.20048        51.000
        45.000        -953.780        -743.205
  24752647.057    24752643.781    -2618962.37006  -2036447.26346        43.000
        26.000         491.875         383.279
  21260958.130    21260953.511   -20412031.39007 -15900185.03948        49.000
        44.000       -1958.565       -1526.154
 10  3 18  2  4  0.0000000  0  8G30G21G16G06G24G31G05G29
  22462294.634    22462290.839   -15218687.93506 -11852137.05647        44.000
        34.000       -2873.584       -2239.157
  21680420.850    21680416.058   -19027157.44407 -14816375.53947        48.000
        42.000        2081.586        1622.015
  22615037.421    22615032.330   -13933596.76507 -10842848.83947        48.000
        35.000        2635.732        2053.817
  24526527.142    24526523.674    -1603854.15602  -1236558.96045        35.000
        20.000        2928.686        2282.093
  20920174.654    20920171.211   -21043797.07607 -16379499.66048        50.000
        44.000        1829.941        1425.928
  21038220.687    21038215.502   -22927537.42407 -17859881.94648        50.000
        46.000        -972.120        -757.496
  24749885.101    24749880.910    -2633476.20105  -2047756.71146        42.000
        27.000         475.453         370.483
  21272159.037    21272154.817   -20353169.09307 -15854318.31948        49.000
        45.000       -1965.606       -1531.641
 10  3 18  2  4 30.0000000  0  8G30G21G16G06G24G31G05G29
  22478721.897    22478717.835   -15132361.27606 -11784869.54347        45.000
        35.000       -2881.379       -2245.231
  21668574.850    21668569.762   -19089408.34307 -14864882.73347        48.000
        42.000        2068.513        1611.828
  22600002.965    22599996.943   -14012605.22307 -10904413.86547        48.000
        35.000        2631.516        2050.532
  24509819.379    24509815.089    -1691653.45202  -1304973.99645        35.000
        19.000        2925.021        2279.238
  20909778.355    20909775.166   -21098429.92607 -16422070.70448        50.000
        45.000        1812.380        1412.244
  21043823.581    21043818.364   -22898093.20607 -17836938.40448        49.000
        46.000        -990.706        -771.979
  24747219.160    24747214.643    -2647485.79705  -2058673.27346        41.000
        25.000         458.654         357.393
  21283402.164    21283398.388   -20294085.87207 -15808279.44948        49.000
        44.000       -1973.015       -1537.414
 10  3 18  2  5  0.0000000  0  8G30G21G16G06G24G31G05G29
  22495194.158    22495190.765   -15045797.30906 -11717417.10547        45.000
        33.000       -2889.201       -2251.325
  21656802.689    21656797.846   -19151270.73407 -14913087.17947        48.000
        43.000        2055.726        1601.865
  22584991.177    22584985.520   -14091489.61807 -10965882.21347        49.000
        35.000        2627.460        2047.371
  24493134.085    24493130.107    -1779339.27203  -1373300.55345        36.000
        20.000        2921.053        2276.146
  20899482.489    20899479.017   -21152536.16207 -16464231.41848        51.000
        45.000        1794.857        1398.590
  21049532.614    21049527.319   -22868092.72507 -17813561.41548        49.000
        46.000       -1009.142        -786.344
  24744648.252    24744645.307    -2660990.34905  -2069196.27846        41.000
        24.000         441.776         344.241
  21294687.222    21294683.254   -20234783.68207 -15762069.95248        48.000
        45.000       -1980.216       -1543.026
 10  3 18  2  5 30.0000000  0  8G30G21G16G06G24G31G05G29
  22511711.943    22511708.460   -14958996.42806 -11649780.06047        44.000
        34.000       -2897.316       -2257.649
  21645104.935    21645099.702   -19212742.98507 -14960987.63047        49.000
        42.000        2042.581        1591.621
  22570003.876    22569998.709   -14170248.48307 -11027252.76147        48.000
        34.000        2623.220        2044.068
  24476469.841    24476465.712    -1866910.83103  -1441538.13946        36.000
        22.000        2917.176        2273.124
  20889286.888    20889283.555   -21206113.63407 -16505980.08748        51.000
        45.000        1777.107        1384.759
  21055347.152    21055342.203   -22837536.32007 -17789751.23648        50.000
        46.000       -1027.810        -800.891
  24742176.065    24742171.227    -2673988.53105  -2079324.69946        41.000
        23.000         424.876         331.072
  21306013.522    21306008.965   -20175263.62707 -15715690.69548        48.000
        44.000       -1987.551       -1548.741
 10  3 18  2  6  0.0000000  0  8G30G21G16G06G24G31G05G29
  22528274.104    22528271.054   -14871960.63006 -11581959.96847        45.000
        34.000       -2905.224       -2263.811
  21633481.822    21633476.542   -19273823.94007 -15008583.17247        50.000
        42.000        2029.414        1581.362
  22555040.523    22555035.681   -14248881.55106 -11088525.26347        46.000
        34.000        2618.930        2040.725
  24459827.137    24459823.219    -1954368.70703  -1509687.07346        36.000
        21.000        2913.003        2269.873
  20879192.216    20879188.754   -21259161.84807 -16547316.35048        51.000
        45.000        1759.346        1370.919
  21061267.248    21061262.324   -22806426.03207 -17765509.45548        50.000
        46.000       -1046.289        -815.290
  24739797.999    24739794.790    -2686480.18605  -2089058.40946        41.000
        25.000         407.817         317.780
  21317380.502    21317375.893   -20115528.25107 -15669143.64548        49.000
        44.000       -1994.839       -1554.420
 10  3 18  2  6 30.0000000  0  8G30G21G16G06G24G31G05G29
  22544881.453    22544877.429   -14784690.22406 -11513957.06347        45.000
        33.000       -2913.014       -2269.881
  21621933.136    21621928.141   -19334511.50507 -15055872.18147        50.000
        43.000        2016.263        1571.114
  22540101.204    22540096.836   -14327386.73906 -11149698.12047        47.000
        35.000        2614.579        2037.334
  24443206.105    24443202.026    -2041711.73303  -1577746.56046        37.000
        23.000        2909.242        2266.942
  20869198.439    20869195.205   -21311678.19707 -16588238.17748        51.000
        45.000        1741.512        1357.023
  21067292.797    21067287.689   -22774762.13607 -17740836.29848        51.000
        46.000       -1064.913        -829.803
  24737518.757    24737514.125    -2698463.48705  -2098396.05546        42.000
        26.000         390.936         304.626
  21328788.433    21328783.918   -20055578.20807 -15622429.34348        49.000
        44.000       -2002.038       -1560.029
 10  3 18  2  7  0.0000000  0  8G30G21G16G06G24G31G05G29
  22561533.127    22561528.945   -14697185.44506 -11445771.52247        45.000
        34.000       -2921.014       -2276.115
  21610460.009    21610454.876   -19394804.33007 -15102853.59347        50.000
        43.000        2002.907        1560.707
  22525186.817    22525182.346   -14405762.23606 -11210769.92347        46.000
        34.000        2610.217        2033.935
  24426607.593    24426603.835    -2128938.90503  -1645715.77946        36.000
        22.000        2905.251        2263.832
  20859306.624    20859303.509   -21363660.41807 -16628743.80348        51.000
        45.000        1723.654        1343.107
  21073423.380    21073418.483   -22742545.01907 -17715732.05648        52.000
        46.000       -1083.377        -844.190
  24735335.155    24735330.445    -2709936.75405  -2107336.24946        42.000
        25.000         373.781         291.258
  21340237.708    21340233.086   -19995414.28507 -15575548.36747        49.000
        43.000       -2009.241       -1565.643
 10  3 18  2  7 30.0000000  0  8G30G21G16G06G24G31G05G29
  22578229.602    22578225.418   -14609448.81506 -11377405.32147        47.000
        33.000       -2928.317       -2281.806
  21599062.123    21599057.033   -19454700.73707 -15149526.11947        51.000
        43.000        1989.964        1550.621
  22510297.456    22510292.337   -14484008.38307 -11271740.92547        48.000
        35.000        2606.131        2030.751
  24410030.929    24410026.065    -2216050.97204  -1713595.31146        38.000
        21.000        2902.015        2261.310
  20849516.462    20849512.961   -21415108.28407 -16668833.04148        52.000
        44.000        1706.136        1329.457
  21079658.942    21079653.981   -22709776.96507 -17690198.51748        52.000
        45.000       -1101.349        -858.194
  24733249.209    24733244.933    -2720900.40505  -2115879.33746        41.000
        25.000         357.044         278.216
  21351726.513    21351722.105   -19935039.35507 -15528502.97348        52.000
        44.000       -2015.847       -1570.790
 10  3 18  2  8  0.0000000  0  8G30G21G16G06G24G31G05G29
  22594969.148    22594965.558   -14521479.48706 -11308857.79847        46.000
        33.000       -2936.228       -2287.970
  21587740.533    21587734.652   -19514197.91907 -15195887.55447        52.000
        43.000        1976.594        1540.203
  22495432.626    22495427.270   -14562121.82107 -11332608.54347        48.000
        36.000        2601.516        2027.155
  24393475.663    24393471.655    -2303045.80703  -1781383.47045        37.000
        20.000        2897.839        2258.057
  20839828.318    20839825.023   -21466018.63208 -16708503.43148        53.000
        44.000        1688.020        1315.340
  21085999.073    21085994.658   -22676457.42007 -17664235.23448        52.000
        45.000       -1119.880        -872.634
  24731260.135    24731256.063    -2731351.43106  -2124022.99146        43.000
        26.000         339.729         264.724
  21363255.947    21363251.605   -19874453.18307 -15481292.98148        52.000
        44.000       -2023.108       -1576.448
 10  3 18  2  8 30.0000000  0  8G30G21G16G06G24G31G05G29
  22611753.176    22611749.306   -14433279.51306 -11240130.54547        46.000
        33.000       -2943.683       -2293.779
  21576494.330    21576488.753   -19573296.06507 -15241938.05447        51.000
        43.000        1963.324        1529.863
  22480593.549    22480588.467   -14640102.47106 -11393372.68947        47.000
        36.000        2597.176        2023.774
  24376943.772    24376939.103    -2389924.26102  -1849080.98145        35.000
        20.000        2894.144        2255.177
  20830242.986    20830239.590   -21516391.10307 -16747754.70048        52.000
        44.000        1670.165        1301.427
  21092444.698    21092439.755   -22642588.45107 -17637843.83848        52.000
        45.000       -1138.048        -886.791
  24729368.611    24729364.462    -2741290.18306  -2131767.44546        43.000
        26.000         322.840         251.564
  21374824.438    21374820.499   -19813658.57307 -15433920.56648        50.000
        44.000       -2029.865       -1581.713
 10  3 18  2  9  0.0000000  0  8G30G21G16G06G24G31G05G29
  22628581.074    22628577.096   -14344848.81106 -11171223.51347        45.000
        33.000       -2951.541       -2299.902
  21565324.477    21565319.547   -19631992.66207 -15287675.65947        51.000
        43.000        1949.836        1519.353
  22465780.141    22465774.220   -14717948.35206 -11454031.82547        46.000
        36.000        2592.566        2020.181
  24360432.999    24360429.786    -2476684.96502  -1916686.67446        35.000
        21.000        2889.954        2251.912
  20820760.052    20820757.067   -21566223.42007 -16786585.06748        52.000
        44.000        1652.063        1287.322
  21098993.958    21098988.984   -22608170.39107 -17611024.58048        52.000
        45.000       -1156.345        -901.048
  24727575.712    24727571.986    -2750714.89806  -2139111.35446        44.000
        26.000         305.500         238.052
  21386433.158    21386429.203   -19752655.79007 -15386385.93948        50.000
        44.000       -2036.824       -1587.135
 10  3 18  2  9 30.0000000  0  8G30G21G16G06G24G31G05G29
  22645452.571    22645448.573   -14256188.68406 -11102137.70847        46.000
        34.000       -2959.203       -2305.873
  21554231.660    21554226.690   -19690286.45507 -15333099.38547        50.000
        43.000        1936.373        1508.862
  22450992.534    22450986.952   -14795658.49406 -11514585.18147        47.000
        36.000        2588.028        2016.645
  24343945.261    24343941.957    -2563327.96903  -1984200.71645        36.000
        20.000        2886.007        2248.836
  20811380.215    20811377.392   -21615514.29607 -16824993.53448        52.000
        45.000        1633.927        1273.190
  21105647.709    21105643.222   -22573204.52607 -17583778.45248        51.000
        46.000       -1174.672        -915.329
  24725879.907    24725875.386    -2759625.07805  -2146054.34646        42.000
        26.000         288.331         224.673
  21398080.870    21398076.948   -19691446.83907 -15338690.65248        49.000
        44.000       -2043.779       -1592.555
 10  3 18  2 10  0.0000000  0  8G30G21G16G06G24G31G05G29
  22662367.550    22662363.608   -14167299.58706 -11032873.48647        47.000
        33.000       -2966.759       -2311.760
  21543215.798    21543210.514   -19748175.24207 -15378207.53047        51.000
        43.000        1922.943        1498.397
  22436230.973    22436225.119   -14873230.75206 -11575031.09647        45.000
        36.000        2583.475        2013.098
  24327480.228    24327476.501    -2649852.26902  -2051622.20745        35.000
        19.000        2882.186        2245.859
  20802104.170    20802100.827   -21664261.92907 -16862978.70048        52.000
        45.000        1615.872        1259.121
  21112405.857    21112400.510   -22537691.68007 -17556106.11048        52.000
        45.000       -1192.809        -929.462
  24724282.596    24724277.753    -2768019.11605  -2152595.17846        41.000
        26.000         271.239         211.355
  21409767.536    21409763.917   -19630032.85207 -15290835.60448        49.000
        44.000       -2050.558       -1597.838
