     2              OBSERVATION DATA    G (GPS)             RINEX VERSION / TYPE
RGRINEXO V2.4.1 UX  AUSLIG              10-JAN-97 10:19     PGM / RUN BY / DATE 
Australian Regional GPS Network (ARGN)  - COCOS ISLAND      COMMENT             
BIT 2 OF LLI (+4) FLAGS DATA COLLECTED UNDER "AS" CONDITION COMMENT             
     -0.000000000103          HARDWARE CALIBRATION (S)      COMMENT             
     -0.000000054663          CLOCK OFFSET (S)              COMMENT             
COCO                                                        MARKER NAME         
AU18                                                        MARKER NUMBER       
mrh                 auslig                                  OBSERVER / AGENCY   
126                 ROGUE SNR-8100      93.05.25 / 2.8.33.2 REC # / TYPE / VERS 
327                 DORNE MARGOLIN T                        ANT # / TYPE        
  -741950.3241  6190961.9624 -1337769.9813                  APPROX POSITION XYZ 
        0.0040        0.0000        0.0000                  ANTENNA: DELTA H/E/N
     1     1                                                WAVELENGTH FACT L1/2
     5    C1    L1    L2    P2    P1                        # / TYPES OF OBSERV 
    30                                                      INTERVAL            
  1997     1     9     0     7   30.000000                  TIME OF FIRST OBS   
  1997     1     9    23    59   30.0000000                 TIME OF LAST OBS
                                                            END OF HEADER
 97  1  9  0  7 30.0000000  0  7  1 25  9  5 23 17  6
  22127685.105   -14268715.899 8 -11118481.28445  22127685.4014                 
  22672158.746   -11510817.892 7  -8969469.30045  22672158.5184                 
  22594902.367   -12949753.825 7 -10090708.53945  22594903.7394                 
  22731128.796   -11621184.951 7  -9055464.16945  22731130.0094                 
  24610920.702     -924108.174 6   -720085.67045  24610920.0404                 
  20718775.074   -18605935.474 9 -14498133.97346  20718775.6074                 
  20842713.610   -19083282.892 9 -14870090.55546  20842713.4814                 
 97  1  9  0  8  0.0000000  0  7  1 25  9  5 23 17  6
  22133910.078   -14236004.699 8 -11092992.05945  22133910.3834                 
  22655271.274   -11599563.608 7  -9038621.81245  22655271.4994                 
  22612558.689   -12856969.398 7 -10018409.02845  22612559.6234                 
  22734737.216   -11602224.451 7  -9040689.79045  22734738.4484                 
  24604536.459     -957654.791 6   -746225.94245  24604534.7294                 
  20705341.319   -18676530.135 9 -14553142.81046  20705341.9424                 
  20853116.611   -19028615.135 9 -14827492.32746  20853116.7804                 
 97  1  9  0  8 30.0000000  0  7  1 25  9  5 23 17  6
  22140190.352   -14203001.317 8 -11067275.16945  22140191.1924                 
  22638420.202   -11688115.262 7  -9107623.10345  22638419.4574                 
  22630271.840   -12763886.669 7  -9945877.07545  22630271.8724                 
  22738365.024   -11583159.458 7  -9025833.98645  22738365.9064                 
  24598097.384     -991492.176 6   -772592.83444  24598100.2324                 
  20691984.567   -18746719.862 9 -14607836.11046  20691985.4654                 
  20863557.500   -18973748.285 9 -14784738.95746  20863557.4954                 
 97  1  9  0  9  0.0000000  0  7  1 25  9  5 23 17  6
  22146526.951   -14169701.279 8 -11041327.11445  22146527.5304                 
  22621606.389   -11776472.030 7  -9176472.54045  22621606.8474                 
  22648042.973   -12670497.862 7  -9873106.61845  22648043.6374                 
  22742016.469   -11563970.704 7  -9010881.73845  22742016.6584                 
  24591597.272    -1025646.185 6   -799206.33544  24591594.5804                 
  20678706.890   -18816495.429 9 -14662206.69246  20678707.5394                 
  20874035.969   -18918684.519 9 -14741832.14746  20874035.7524                 
 97  1  9  0  9 30.0000000  0  7  1 25  9  5 23 17  6
  22152921.720   -14136097.868 8 -11015142.67345  22152921.6494                 
  22604828.609   -11864639.752 7  -9245174.66445  22604827.5914                 
  22665871.477   -12576808.201 7  -9800101.74145  22665872.7034                 
  22745691.231   -11544660.528 7  -8995834.87645  22745692.0024                 
  24585038.581    -1060119.299 6   -826068.60945  24585039.1824                 
  20665506.392   -18885864.301 9 -14716260.36646  20665507.0984                 
  20884549.018   -18863437.674 9 -14698782.68246  20884548.8874                 
 97  1  9  0 10  0.0000000  0  7  1 25  9  5 23 17  6
  22159373.567   -14102193.580 8 -10988723.78045  22159373.8244                 
  22588088.439   -11952611.118 7  -9313723.78145  22588088.5444                 
  22683753.458   -12482839.157 7  -9726879.14845  22683754.0704                 
  22749387.894   -11525235.370 8  -8980698.42445  22749389.0324                 
  24578415.418    -1094923.012 6   -853188.41645  24578419.8264                 
  20652385.614   -18954814.157 9 -14769987.53546  20652386.3484                 
  20895095.155   -18808018.011 9 -14655598.54946  20895095.2134                 
 97  1  9  0 10 30.0000000  0  7  1 25  9  5 23 17  6
  22165884.002   -14067980.590 8 -10962064.33445  22165884.4044                 
  22571388.818   -12040368.408 7  -9382106.08445  22571388.7364                 
  22701683.656   -12388615.779 7  -9653458.38545  22701684.7734                 
  22753105.458   -11505699.496 8  -8965475.70345  22753106.2804                 
  24571726.212    -1130073.111 6   -880578.16645  24571727.7374                 
  20639348.219   -19023326.105 9 -14823373.47546  20639349.0484                 
  20905672.917   -18752430.823 9 -14612283.87946  20905672.7084                 
 97  1  9  0 11  0.0000000  0  7  1 25  9  5 23 17  6
  22172453.038   -14033460.679 8 -10935165.74045  22172453.1654                 
  22554730.170   -12127909.454 7  -9450319.88545  22554729.9834                 
  22719659.425   -12294151.681 7  -9579850.04545  22719659.7144                 
  22756842.963   -11486059.580 8  -8950171.91545  22756844.5554                 
  24564972.177    -1165566.454 6   -908235.35545  24564971.2744                 
  20626392.874   -19091406.818 9 -14876423.39246  20626393.7484                 
  20916282.049   -18696678.896 9 -14568840.84346  20916281.9014                 
 97  1  9  0 11 30.0000000  0  7  1 25  9  5 23 17  6
  22179079.311   -13998639.682 8 -10908032.52645  22179079.3274                 
  22538113.318   -12215229.555 7  -9518361.52145  22538112.3934                 
  22737680.943   -12199449.686 7  -9506056.32545  22737681.0584                 
  22760598.463   -11466324.281 8  -8934793.78245  22760598.5984                 
  24558155.934    -1201387.424 6   -936147.77445  24558157.6264                 
  20613518.494   -19159062.241 9 -14929141.90946  20613519.2734                 
  20926923.365   -18640759.112 9 -14525267.00846  20926923.1574                 
 97  1  9  0 12  0.0000000  0  7  1 25  9  5 23 17  6
  22185759.159   -13963536.262 8 -10880679.23745  22185760.2504                 
  22521541.925   -12302314.481 7  -9586219.90445  22521541.3314                 
  22755747.680   -12104507.805 7  -9432075.68345  22755747.9904                 
  22764373.613   -11446486.006 8  -8919335.40045  22764373.9364                 
  24551276.570    -1237533.713 6   -964313.82045  24551279.0844                 
  20600727.767   -19226278.444 9 -14981518.17746  20600728.3914                 
  20937598.268   -18584661.954 9 -14481554.96046  20937598.2554                 
 97  1  9  0 12 30.0000000  0  7  1 25  9  5 23 17  6
  22192492.512   -13928152.865 8 -10853107.79545  22192493.5954                 
  22505015.755   -12389161.197 8  -9653892.67745  22505015.3724                 
  22773864.113   -12009305.224 7  -9357891.90945  22773865.1304                 
  22768172.158   -11426524.241 8  -8903780.80045  22768172.6194                 
  24544341.376    -1273982.937 6   -992715.88445  24544338.9994                 
  20588018.895   -19293064.283 9 -15033559.09946  20588019.5164                 
  20948306.285   -18528391.384 9 -14437707.78346  20948305.9964                 
 97  1  9  0 13  0.0000000  0  7  1 25  9  5 23 17  6
  22199276.720   -13892501.587 8 -10825327.60945  22199277.5414                 
  22488535.686   -12475764.140 8  -9721375.50545  22488535.2344                 
  22792033.841   -11913822.740 7  -9283490.01445  22792034.5934                 
  22771994.921   -11406435.769 8  -8888127.48645  22771995.9014                 
  24537351.044    -1310717.973 6  -1021340.57445  24537349.6744                 
  20575390.598   -19359425.902 9 -15085269.45946  20575391.3654                 
  20959043.563   -18471967.515 9 -14393741.15546  20959043.3854                 
 97  1  9  0 13 30.0000000  0  7  1 25  9  5 23 17  6
  22206109.024   -13856596.943 8 -10797349.99445  22206110.0864                 
  22472104.539   -12562109.771 8  -9788657.81545  22472103.5274                 
  22810257.439   -11818057.342 7  -9208867.68845  22810257.6004                 
  22775840.839   -11386224.779 8  -8872378.70045  22775841.5054                 
  24530305.875    -1347737.268 6  -1050186.81645  24530307.6654                 
  20562844.688   -19425355.447 9 -15136643.13746  20562845.7264                 
  20969806.494   -18415407.250 9 -14349668.24046  20969806.5264                 
 97  1  9  0 14  0.0000000  0  7  6  1 25  9  5 23 17
  20980592.576   -18358726.146 9 -14305501.16946  20980592.6634                 
  22212989.379   -13820440.468 8 -10769176.15545  22212989.9884                 
  22455721.796   -12648200.649 8  -9855741.62645  22455721.0294                 
  22828535.355   -11722007.981 7  -9134024.06845  22828536.5314                 
  22779712.078   -11365881.559 8  -8856526.86845  22779712.7014                 
  24523207.279    -1385043.730 6  -1079256.85545  24523208.1724                 
  20550378.996   -19490863.140 9 -15187688.10546  20550379.5684                 
 97  1  9  0 14 30.0000000  0  7  6  1 25  9  5 23 17
  20991400.666   -18301929.150 9 -14261243.79546  20991400.5224                 
  22219920.842   -13784016.580 8 -10740793.93445  22219921.4544                 
  22439387.428   -12734038.728 8  -9922628.44145  22439387.1894                 
  22846867.318   -11625672.558 7  -9058957.56745  22846868.4594                 
  22783607.235   -11345413.062 8  -8840577.42445  22783608.7254                 
  24516051.738    -1422646.664 6  -1108557.83345  24516054.0854                 
  20537990.204   -19555966.261 9 -15238417.81746  20537990.9814                 
 97  1  9  0 15  0.0000000  0  7  6  1 25  9  5 23 17
  21002233.911   -18245000.188 9 -14216883.58446  21002233.5594                 
  22226901.113   -13747335.565 8 -10712211.36145  22226901.7334                 
  22423100.244   -12819629.552 8  -9989322.59645  22423100.3534                 
  22865250.218   -11529068.347 7  -8983681.59445  22865250.4364                 
  22787524.070   -11324829.800 8  -8824538.54945  22787524.3704                 
  24508835.161    -1460570.532 6  -1138108.95945  24508834.6234                 
  20525677.979   -19620667.238 9 -15288834.17346  20525678.6184                 
 97  1  9  0 15 30.0000000  0  7  6  1 25  9  5 23 17
  21013095.612   -18187921.139 9 -14172406.43046  21013095.4094                 
  22233930.194   -13710396.808 8 -10683427.94845  22233930.7074                 
  22406856.525   -12904989.976 8 -10055837.22245  22406856.6474                 
  22883684.477   -11432197.503 7  -8908197.87045  22883685.7794                 
  22791464.880   -11304119.898 8  -8808400.99445  22791465.5384                 
  24501553.027    -1498835.611 6  -1167925.86445  24501555.2104                 
  20513442.381   -19684966.640 9 -15338937.61046  20513443.1234                 
 97  1  9  0 16  0.0000000  0  7  6  1 25  9  5 23 17
  21023988.158   -18130680.540 9 -14127803.38946  21023987.8604                 
  22241010.043   -13673193.055 8 -10654438.03645  22241010.2534                 
  22390656.320   -12990123.601 8 -10122175.12645  22390655.2774                 
  22902168.463   -11335063.006 7  -8832508.70245  22902168.9134                 
  22795431.421   -11283277.650 8  -8792160.31645  22795431.4434                 
  24494206.828    -1537442.614 6  -1198009.36545  24494205.0444                 
  20501284.946   -19748854.244 9 -15388720.17046  20501285.8814                 
 97  1  9  0 16 30.0000000  0  7  6  1 25  9  5 23 17
  21034913.900   -18073266.258 9 -14083065.01046  21034914.1254                 
  22248138.998   -13635729.623 8 -10625245.79245  22248139.5464                 
  22374498.995   -13075031.551 8 -10188337.16445  22374499.1904                 
  22920701.721   -11237670.223 7  -8756618.25945  22920702.5474                 
  22799421.558   -11262310.060 8  -8775821.96145  22799422.0594                 
  24486795.403    -1576391.393 6  -1228359.10945  24486795.4874                 
  20489211.478   -19812300.336 9 -15438158.69346  20489212.3084                 
 97  1  9  0 17  0.0000000  0  7  6  1 25  9  5 23 17
  21045869.858   -18015691.449 9 -14038201.54346  21045869.8904                 
  22255314.905   -13598019.825 8 -10595861.54945  22255315.4334                 
  22358383.796   -13159716.788 8 -10254325.66945  22358382.9894                 
  22939282.740   -11140025.352 7  -8680531.40145  22939283.4234                 
  22803435.426   -11241216.340 8  -8759385.33645  22803435.7514                 
  24479320.059    -1615675.074 6  -1258969.82045  24479321.3224                 
  20477226.579   -19875282.542 9 -15487235.74446  20477227.2424                 
 97  1  9  0 17 30.0000000  0  7  6  1 25  9  5 23 17
  21056852.079   -17957980.132 9 -13993231.71046  21056852.2584                 
  22262539.694   -13560053.171 8 -10566277.17745  22262540.3464                 
  22342311.631   -13244177.359 8 -10320139.11445  22342311.6604                 
  22957911.869   -11042129.333 7  -8604248.83545  22957911.5024                 
  22807474.142   -11219992.383 8  -8742847.23745  22807474.5654                 
  24471785.151    -1655269.897 6  -1289823.00545  24471789.2874                 
  20465332.295   -19937785.990 9 -15535939.73846  20465333.0834                 
 97  1  9  0 18  0.0000000  0  7  6  1 25  9  5 23 17
  21067859.098   -17900138.129 9 -13948160.04646  21067859.0724                 
  22269812.231   -13521835.254 8 -10536497.01345  22269813.2944                 
  22326283.887   -13328402.536 8 -10385769.11945  22326283.0024                 
  22976585.268   -10943999.827 7  -8527784.32945  22976586.0744                 
  22811536.720   -11198643.317 8  -8726211.62945  22811536.3994                 
  24464194.988    -1695156.755 6  -1320903.70645  24464197.8614                 
  20453530.655   -19999804.772 9 -15584266.06646  20453531.4334                 
 97  1  9  0 18 30.0000000  0  7  6  1 25  9  5 23 17
  21078890.296   -17842168.721 9 -13902989.10146  21078890.2364                 
  22277131.173   -13483374.372 8 -10506527.52445  22277131.8614                 
  22310301.017   -13412394.671 8 -10451217.54045  22310301.0324                 
  22995302.246   -10845642.738 7  -8451142.49545  22995303.3964                 
  22815623.222   -11177169.229 8  -8709478.59445  22815623.2994                 
  24456550.787    -1735328.877 6  -1352206.71745  24456551.6984                 
  20441818.801   -20061350.769 9 -15632223.99246  20441819.6684                 
 97  1  9  0 19  0.0000000  0  7  6  1 25  9  5 23 17
  21089942.818   -17784088.029 9 -13857731.44246  21089942.6244                 
  22284496.152   -13444672.214 8 -10476370.02645  22284496.8954                 
  22294364.591   -13496140.898 8 -10516474.34445  22294364.1034                 
  23014060.823   -10747066.382 7  -8374329.79745  23014062.1294                 
  22819733.862   -11155567.931 8  -8692646.44245  22819734.2304                 
  24448854.556    -1775769.208 6  -1383718.66245  24448856.6694                 
  20430193.542   -20122441.739 9 -15679827.34746  20430194.1274                 
 97  1  9  0 19 30.0000000  0  7  6  1 25  9  5 23 17
  21101017.805   -17725887.209 9 -13812380.17746  21101017.4924                 
  22291906.659   -13405729.490 8 -10446025.07845  22291907.7424                 
  22278475.272   -13579639.674 8 -10581538.33445  22278474.5324                 
  23032861.915   -10648266.122 7  -8297342.62045  23032862.7194                 
  22823870.844   -11133828.027 8  -8675706.29045  22823871.1194                 
  24441109.815    -1816469.883 6  -1415433.48045  24441110.8664                 
  20418653.614   -20183085.207 9 -15727082.00747  20418654.3564                 
 97  1  9  0 20  0.0000000  0  7  6  1 25  9  5 23 17
  21112115.980   -17667566.874 9 -13766935.78746  21112115.9284                 
  22299361.594   -13366555.144 8 -10415499.64245  22299362.9214                 
  22262633.494   -13662887.903 8 -10646407.08445  22262632.8464                 
  23051706.552   -10549233.753 7  -8220174.60545  23051708.7104                 
  22828032.931   -11111956.221 8  -8658663.34545  22828033.7084                 
  24433312.771    -1857442.680 6  -1447360.35245  24433313.0314                 
  20407200.297   -20243272.624 9 -15773981.30447  20407201.0834                 
 97  1  9  0 20 30.0000000  0  7  6  1 25  9  5 23 17
  21123234.241   -17609139.915 9 -13721408.30746  21123234.3974                 
  22306862.640   -13327136.818 8 -10384784.09545  22306863.9194                 
  22246840.744   -13745879.709 8 -10711076.02945  22246840.5914                 
  23070597.086   -10449965.912 7  -8142823.08845  23070597.1074                 
  22832219.849   -11089953.798 8  -8641518.63745  22832220.3184                 
  24425464.257    -1898688.628 6  -1479500.11645  24425467.4984                 
  20395835.032   -20302996.721 9 -15820519.56947  20395835.9894                 
 97  1  9  0 21  0.0000000  0  7  6  1 25  9  5 23 17
  21134371.397   -17550613.981 9 -13675803.71046  21134371.2674                 
  22314410.745   -13287469.547 8 -10353874.55545  22314412.3694                 
  22231097.325   -13828611.728 8 -10775542.54545  22231096.6054                 
  23089532.834   -10350458.495 7  -8065284.88045  23089532.9684                 
  22836433.883   -11067809.264 8  -8624263.19145  22836434.4494                 
  24417560.904    -1940221.605 6  -1511863.51345  24417562.0054                 
  20384560.995   -20362242.027 9 -15866684.75147  20384561.6964                 
 97  1  9  0 21 30.0000000  0  7  6  1 25  5  9 23 17
  21145528.113   -17491985.109 9 -13630118.89446  21145528.0694                 
  22322006.420   -13247553.588 8 -10322771.23845  22322007.7454                 
  22215403.255   -13911083.434 8 -10839806.21845  22215403.0964                 
  22840675.241   -11045520.913 8  -8606895.68345  22840675.4304                 
  23108515.062   -10250706.351 7  -7987555.99145  23108517.0294                 
  24409598.594    -1982063.269 6  -1544467.46345  24409600.7034                 
  20373381.050   -20420993.480 9 -15912465.10947  20373381.8104                 
 97  1  9  0 22  0.0000000  0  7  6  1 25  9  5 23 17
  21156704.621   -17433251.996 9 -13584352.86146  21156704.5514                 
  22329650.419   -13207384.843 8 -10291470.94845  22329651.7684                 
  22199764.103   -13993269.604 8 -10903847.39645  22199763.7984                 
  23127542.036   -10150719.592 7  -7909644.29145  23127542.2814                 
  22844942.716   -11023094.157 7  -8589420.32845  22844942.7724                 
  24401574.713    -2024230.521 6  -1577325.14945  24401577.2104                 
  20362296.046   -20479246.265 9 -15957856.89647  20362296.7694                 
 97  1  9  0 22 30.0000000  0  7  6  1 25  5  9 23 17
  21167902.547   -17374407.344 9 -13538499.90746  21167902.4684                 
  22337340.831   -13166972.239 8 -10259980.63445  22337342.0704                 
  22184183.080   -14075148.579 8 -10967649.20445  22184182.8064                 
  22849240.390   -11000509.426 7  -8571821.87445  22849241.7594                 
  23146612.309   -10050504.986 7  -7831555.02845  23146613.2614                 
  24393489.401    -2066717.282 6  -1610431.76245  24393490.6814                 
  20351303.606   -20537011.631 9 -16002868.87347  20351304.6264                 
 97  1  9  0 23  0.0000000  0  7  6  1 25  5  9 23 17
  21179121.886   -17315449.674 9 -13492558.89346  21179122.1204                 
  22345072.269   -13126344.037 8 -10228322.31845  22345072.3224                 
  22168661.611   -14156714.195 8 -11031206.84245  22168661.7304                 
  22853570.054   -10977756.001 7  -8554091.96745  22853571.6604                 
  23165727.152    -9950055.446 7  -7753282.72045  23165727.1594                 
  24385342.745    -2109530.049 6  -1643792.36245  24385342.8004                 
  20340403.177   -20594294.165 9 -16047504.62047  20340404.0634                 
 97  1  9  0 23 30.0000000  0  7  6  1 25  5  9 23 17
  21190362.963   -17256377.520 9 -13446528.66446  21190362.7584                 
  22352843.038   -13085506.410 8 -10196500.82145  22352844.3824                 
  22153201.130   -14237958.121 8 -11094513.80845  22153201.1284                 
  22857929.771   -10954847.733 7  -8536241.40745  22857930.0574                 
  23184884.799    -9849382.449 7  -7674836.27845  23184885.7824                 
  24377135.013    -2152663.278 6  -1677402.73845  24377135.9254                 
  20329593.149   -20651100.783 9 -16091769.52447  20329593.9344                 
 97  1  9  0 24  0.0000000  0  7  6 25  1  5  9 23 17
  21201625.386   -17197192.936 9 -13400410.83246  21201625.4764                 
  22137801.968   -14318881.410 8 -11157570.92245  22137802.3444                 
  22360651.443   -13044473.259 8 -10164526.96545  22360652.5454                 
  22862318.753   -10931782.235 7  -8518268.32545  22862319.3734                 
  23204081.735    -9748500.061 7  -7596226.68345  23204082.9664                 
  24368868.755    -2196097.405 6  -1711247.54645  24368872.1984                 
  20318874.139   -20707429.880 9 -16135662.33347  20318874.8574                 
 97  1  9  0 24 30.0000000  0  7  6 25  1  5  9 23 17
  21212906.814   -17137907.913 9 -13354214.73146  21212906.8464                 
  22122459.339   -14399508.155 8 -11220396.96845  22122458.9004                 
  22368496.470   -13003249.587 8 -10132404.64045  22368496.9354                 
  22866737.937   -10908559.655 7  -8500172.82945  22866738.7804                 
  23223315.740    -9647425.084 7  -7517466.99045  23223316.7004                 
  24360550.693    -2239811.538 6  -1745310.55045  24360551.0174                 
  20308245.893   -20763282.155 9 -16179183.59247  20308246.6694                 
 97  1  9  0 25  0.0000000  0  7  6 25  1  5  9 23 17
  21224207.235   -17078524.431 9 -13307941.91446  21224207.4274                 
  22107168.286   -14479863.543 8 -11283011.56545  22107168.2724                 
  22376378.487   -12961829.579 8 -10100129.34045  22376379.2234                 
  22871182.548   -10885203.442 7  -8481973.22845  22871183.7464                 
  23242583.509    -9546173.376 7  -7438569.62145  23242584.0854                 
  24352177.648    -2283815.822 6  -1779599.62245  24352178.1364                 
  20297708.976   -20818653.135 9 -16222329.81747  20297709.7894                 
 97  1  9  0 25 30.0000000  0  7  6 25  1  5  9 23 17
  21235527.004   -17019039.079 9 -13261589.71646  21235526.8754                 
  22091929.354   -14559944.563 8 -11345412.38046  22091929.2514                 
  22384300.230   -12920198.901 7 -10067689.88445  22384300.7814                 
  22875650.635   -10861723.501 7  -8463677.22845  22875652.3114                 
  23261882.424    -9444758.206 7  -7359544.87145  23261882.0094                 
  24343749.487    -2328104.777 6  -1814110.53445  24343751.5554                 
  20287263.915   -20873543.108 9 -16265101.22947  20287264.6634                 
 97  1  9  0 26  0.0000000  0  7  6 25  1  5  9 23 17
  21246864.707   -16959458.255 9 -13215163.12846  21246865.0014                 
  22076743.116   -14639749.938 8 -11407598.39746  22076742.5514                 
  22392260.357   -12878368.017 7 -10035094.42745  22392261.0914                 
  22880144.251   -10838108.675 7  -8445276.11645  22880145.3224                 
  23281214.002    -9343168.363 7  -7280384.00445  23281215.9864                 
  24335270.737    -2372661.766 6  -1848830.30645  24335271.9134                 
  20276909.511   -20927956.129 9 -16307500.99047  20276910.4194                 
 97  1  9  0 26 30.0000000  0  7  6 25  1  5  9 23 17
  21258221.165   -16899780.681 9 -13168661.14846  21258221.2164                 
  22061610.609   -14719272.950 8 -11469564.39046  22061610.3234                 
  22400260.103   -12836330.002 7 -10002337.55545  22400261.2554                 
  22884664.196   -10814356.643 7  -8426768.09745  22884664.2734                 
  23300583.385    -9241381.719 7  -7201069.79045  23300585.1764                 
  24326738.741    -2417497.416 6  -1883767.21845  24326738.8394                 
  20266644.681   -20981897.640 9 -16349533.34247  20266645.5654                 
 97  1  9  0 27  0.0000000  0  7  6 25  1  5  9 23 17
  21269595.601   -16840006.898 9 -13122084.20346  21269595.5424                 
  22046534.545   -14798497.357 8 -11531297.70646  22046534.2814                 
  22408297.711   -12794092.882 8  -9969425.53345  22408298.6564                 
  22889210.932   -10790465.203 7  -8408151.44245  22889211.4884                 
  23319995.379    -9139369.711 7  -7121579.96845  23319994.9534                 
  24318153.569    -2462613.172 6  -1918922.41645  24318155.4044                 
  20256471.711   -21035357.031 9 -16391190.01547  20256472.3974                 
 97  1  9  0 27 30.0000000  0  7  6 25  1  5  9 23 17
  21280985.629   -16780152.398 9 -13075444.35946  21280985.5604                 
  22031516.217   -14877418.334 8 -11592794.59146  22031516.2304                 
  22416371.254   -12751665.220 7  -9936365.04745  22416372.8834                 
  22893786.382   -10766420.399 7  -8389415.24945  22893788.0774                 
  23339453.459    -9037120.111 7  -7041905.00845  23339455.6864                 
  24309517.562    -2507992.783 6  -1954283.18845  24309518.8124                 
  20246391.752   -21088327.580 9 -16432465.77247  20246392.6374                 
 97  1  9  0 28  0.0000000  0  7  6 25  1  5  9 23 17
  21292389.247   -16720226.560 9 -13028748.93046  21292389.2144                 
  22016552.734   -14956051.190 8 -11654066.95446  22016552.4984                 
  22424479.726   -12709053.701 7  -9903161.28545  22424481.0624                 
  22898390.207   -10742225.435 7  -8370562.08045  22898390.9534                 
  23358956.203    -8934631.387 7  -6962043.72745  23358955.7874                 
  24300832.403    -2553635.187 6  -1989848.65345  24300833.9334                 
  20236409.003   -21140786.916 9 -16473343.17947  20236409.6914                 
 97  1  9  0 28 30.0000000  0  7  6 25  1  5  9 23 17
  21303806.183   -16660230.091 9 -12981998.46246  21303806.2744                 
  22001642.409   -15034406.387 8 -11715122.96746  22001642.2874                 
  22432625.356   -12666249.408 7  -9869807.31945  22432626.0504                 
  22903022.261   -10717884.619 7  -8351595.24645  22903023.0544                 
  23378501.172    -8831924.674 7  -6882012.57745  23378502.3134                 
  24292093.655    -2599558.051 6  -2025632.75645  24292092.9134                 
  20226529.088   -21192706.611 9 -16513800.09047  20226529.9654                 
 97  1  9  0 29  0.0000000  0  7  6 25  1  5  9 23 17
  21315235.154   -16600170.313 9 -12935198.66246  21315235.2554                 
  21986784.047   -15112486.864 8 -11775964.90946  21986784.2014                 
  22440807.467   -12623253.523 7  -9836304.06745  22440808.8774                 
  22907684.452   -10693385.975 7  -8332505.43145  22907685.3394                 
  23398082.605    -8729024.673 7  -6801830.81845  23398083.7484                 
  24283302.782    -2645755.543 6  -2061630.86145  24283303.1254                 
  20216754.173   -21244074.700 9 -16553827.17747  20216754.9614                 
 97  1  9  0 29 30.0000000  0  7  6 25  1  5  9 23 17
  21326676.412   -16540046.338 9 -12888348.84446  21326676.5914                 
  21971977.229   -15190297.562 8 -11836596.63946  21971977.1724                 
  22449026.650   -12580060.602 7  -9802647.27445  22449027.5204                 
  22912378.042   -10668718.902 7  -8313284.38845  22912378.9684                 
  23417696.699    -8625950.455 7  -6721513.28445  23417697.4724                 
  24274457.074    -2692235.851 6  -2097849.29945  24274458.5524                 
  20207084.268   -21294889.226 9 -16593422.91647  20207085.2694                 
 97  1  9  0 30  0.0000000  0  7  6 25  1  5  9 23 17
  21338131.477   -16479849.638 9 -12841442.35346  21338131.4774                 
  21957224.736   -15267822.719 8 -11897005.86346  21957224.4934                 
  22457281.625   -12536679.685 7  -9768843.98245  22457282.6994                 
  22917105.825   -10643874.662 7  -8293925.29345  22917106.6564                 
  23437343.828    -8522705.370 7  -6641062.62745  23437344.1594                 
  24265556.949    -2739009.570 6  -2134296.37745  24265559.0044                 
  20197520.403   -21345148.915 9 -16632586.31447  20197521.1734                 
 97  1  9  0 30 30.0000000  0  7  6 25  1  5  9 23 17
  21349600.068   -16419581.928 9 -12794480.53146  21349600.1904                 
  21942529.839   -15345044.890 8 -11957178.99646  21942529.3684                 
  22465571.236   -12493117.276 7  -9734899.26145  22465572.1674                 
  22921872.999   -10618824.928 7  -8274406.05445  22921874.2074                 
  23457022.369    -8419294.380 7  -6560482.69045  23457023.4524                 
  24256600.062    -2786078.334 6  -2170973.33245  24256601.3054                 
  20188057.606   -21394875.206 9 -16671334.07747  20188058.4294                 
 97  1  9  0 31  0.0000000  0  7  6 25  1  5  9 23 17
  21361079.871   -16359255.243 9 -12747472.74846  21361080.0324                 
  21927897.385   -15421940.473 8 -12017097.64146  21927896.7444                 
  22473893.931   -12449381.574 7  -9700819.52845  22473894.5964                 
  22926678.737   -10593569.050 7  -8254726.18845  22926679.4494                 
  23476733.704    -8315711.396 7  -6479768.73245  23476734.2194                 
  24247589.012    -2833433.505 6  -2207873.49045  24247591.1404                 
  20178692.736   -21444087.777 9 -16709681.53947  20178693.4364                 
 97  1  9  0 31 30.0000000  0  7  6 25  1  5  9 23 17
  21372571.055   -16298869.473 9 -12700418.93146  21372571.3164                 
  21913328.796   -15498499.476 8 -12076754.01546  21913328.1964                 
  22482248.789   -12405477.541 7  -9666608.63045  22482249.1104                 
  22931521.052   -10568123.071 7  -8234898.18345  22931521.6134                 
  23496479.097    -8211947.141 7  -6398913.53245  23496480.9554                 
  24238522.848    -2881075.398 6  -2244997.11145  24238525.4054                 
  20169423.967   -21492795.376 9 -16747635.51547  20169424.9094                 
 97  1  9  0 32  0.0000000  0  7  6 25  1  5  9 23 17
  21384071.453   -16238434.391 9 -12653326.69046  21384071.9374                 
  21898827.670   -15574703.551 8 -12136133.83246  21898827.3114                 
  22490635.557   -12361404.046 7  -9632265.66945  22490637.6394                 
  22936399.950   -10542484.954 7  -8214920.47145  22936401.2594                 
  23516259.261    -8108002.384 6  -6317917.69545  23516260.9874                 
  24229404.186    -2928991.549 6  -2282334.46145  24229406.9104                 
  20160250.652   -21541002.565 9 -16785199.56547  20160251.5344                 
 97  1  9  0 32 30.0000000  0  7  6 25  1  5  9 23 17
  21395580.720   -16177952.305 9 -12606197.82646  21395580.7454                 
  21884394.024   -15650551.414 8 -12195236.07546  21884393.9024                 
  22499057.774   -12317146.527 7  -9597779.32645  22499058.4034                 
  22941313.203   -10516666.115 7  -8194801.93945  22941314.4714                 
  23536072.641    -8003882.389 7  -6236785.29645  23536074.2534                 
  24220234.723    -2977182.520 6  -2319885.81745  24220233.9154                 
  20151170.985   -21588716.425 9 -16822379.19947  20151171.8134                 
 97  1  9  0 33  0.0000000  0  7  6 25  1  5  9 23 17
  21407102.681   -16117404.642 9 -12559017.85846  21407102.9554                 
  21870029.037   -15726040.365 8 -12254058.64746  21870029.0024                 
  22507515.005   -12272703.541 7  -9563148.45745  22507515.7124                 
  22946256.676   -10490688.405 7  -8174559.63045  22946258.0574                 
  23555920.348    -7899581.536 6  -6155511.97445  23555922.7064                 
  24211011.745    -3025646.991 6  -2357650.36945  24211014.1704                 
  20142187.949   -21635922.603 9 -16859163.24047  20142188.7054                 
 97  1  9  0 33 30.0000000  0  7  6 25  1  5  9 23 17
  21418642.540   -16056762.404 9 -12511764.19646  21418642.5384                 
  21855728.261   -15801190.407 8 -12312617.13246  21855727.5714                 
  22516006.645   -12228079.477 7  -9528376.49445  22516007.8544                 
  22951231.216   -10464546.710 7  -8154189.52445  22951233.8874                 
  23575801.753    -7795104.799 6  -6074101.55845  23575800.8904                 
  24201737.534    -3074385.247 6  -2395628.22345  24201737.5984                 
  20133302.917   -21682613.423 9 -16895545.69947  20133303.6564                 
 97  1  9  0 34  0.0000000  0  7  6 25  1  5  9 23 17
  21430200.364   -15996024.896 9 -12464436.29546  21430200.7564                 
  21841491.424   -15876004.524 8 -12370913.86446  21841491.0344                 
  22524530.900   -12183283.584 7  -9493470.63945  22524531.6414                 
  22956237.875   -10438236.875 7  -8133688.40145  22956239.2574                 
  23595712.136    -7690473.704 6  -5992570.90545  23595712.9434                 
  24192408.578    -3123408.475 6  -2433828.18945  24192412.3484                 
  20124518.626   -21728775.892 9 -16931516.45947  20124519.3984                 
 97  1  9  0 34 30.0000000  0  7  6 25  1  5  9 23 17
  21441779.670   -15935176.298 9 -12417021.83746  21441780.0764                 
  21827316.697   -15950495.016 8 -12428958.42046  21827316.4834                 
  22533083.666   -12138339.174 7  -9458449.04945  22533084.1884                 
  22961274.099   -10411773.046 7  -8113067.27145  22961275.5184                 
  23615651.837    -7585690.500 6  -5910921.74345  23615653.5514                 
  24183024.187    -3172719.999 6  -2472252.74845  24183026.1214                 
  20115836.183   -21774401.800 9 -16967069.11947  20115836.9114                 
 97  1  9  0 35  0.0000000  0  7  6 25  1  5  9 23 17
  21453377.966   -15874225.180 9 -12369527.49146  21453378.2514                 
  21813202.477   -16024665.516 8 -12486753.62846  21813202.4404                 
  22541662.516   -12093256.595 7  -9423319.78345  22541663.0164                 
  22966339.879   -10385150.751 7  -8092322.68245  22966341.6934                 
  23635619.397    -7480763.788 6  -5829160.74245  23635618.9964                 
  24173588.595    -3222307.144 6  -2510892.12445  24173588.0134                 
  20107257.843   -21819481.610 9 -17002196.24647  20107258.7014                 
 97  1  9  0 35 30.0000000  0  7  6 25  1  5  9 23 17
  21464988.223   -15813213.850 9 -12321986.23046  21464988.4744                 
  21799148.509   -16098520.186 8 -12544302.73346  21799148.1754                 
  22550266.545   -12048041.615 7  -9388087.34545  22550267.3524                 
  22971437.806   -10358362.534 7  -8071448.78345  22971438.7594                 
  23655610.798    -7375705.410 6  -5747297.13145  23655611.4564                 
  24164101.149    -3272165.763 6  -2549743.02745  24164103.0534                 
  20098783.175   -21864016.155 9 -17036898.49447  20098784.1584                 
 97  1  9  0 36  0.0000000  0  7  6 25  1  5  9 23 17
  21476603.934   -15752173.623 9 -12274422.44746  21476603.9484                 
  21785158.107   -16172038.944 8 -12601590.09546  21785158.0014                 
  22558896.175   -12002693.740 7  -9352751.38245  22558897.2824                 
  22976566.952   -10331408.401 7  -8050445.60945  22976568.1804                 
  23675629.942    -7270501.077 6  -5665319.77945  23675631.0614                 
  24154563.013    -3322287.373 6  -2588798.86845  24154566.1874                 
  20090412.055   -21908006.335 9 -17071176.55847  20090412.9764                 
 97  1  9  0 36 30.0000000  0  7  6 25  1  5  9 23 17
  21488224.140   -15691108.717 9 -12226839.43046  21488224.3724                 
  21771233.225   -16245215.456 9 -12658610.76546  21771232.8964                 
  22567552.664   -11957203.855 7  -9317304.72245  22567554.0664                 
  22981728.470   -10304282.725 7  -8029308.75245  22981729.4064                 
  23695681.618    -7165131.545 6  -5583213.75545  23695684.0974                 
  24144979.190    -3372653.366 6  -2628045.05745  24144981.1664                 
  20082142.857   -21951461.249 9 -17105037.53547  20082143.7064                 
 97  1  9  0 37  0.0000000  0  7  6 25  1  5  9 23 17
  21499846.867   -15630030.129 9 -12179245.75646  21499847.2784                 
  21757373.640   -16318048.130 9 -12715363.51046  21757373.3034                 
  22576239.282   -11911556.159 7  -9281735.12245  22576240.2144                 
  22986925.699   -10276972.319 7  -8008027.95245  22986927.4494                 
  23715763.134    -7059603.618 6  -5500984.27845  23715761.8004                 
  24135349.443    -3423258.206 6  -2667477.45145  24135353.6364                 
  20073974.157   -21994388.487 9 -17138487.33347  20073974.9804                 
 97  1  9  0 37 30.0000000  0  7 25  6  1  5  9 23 17
  21743578.265   -16390542.034 9 -12771852.28246  21743578.0184                 
  21511474.390   -15568927.588 9 -12131633.41946  21511474.8764                 
  22584953.381   -11865763.223 7  -9246052.34545  22584954.5684                 
  22992158.884   -10249470.103 7  -7986597.69745  22992159.9224                 
  23735876.780    -6953908.824 6  -5418624.76845  23735876.4764                 
  24125673.448    -3474103.395 6  -2707097.08945  24125675.4414                 
  20065907.049   -22036781.379 9 -17171520.75747  20065907.9494                 
 97  1  9  0 38  0.0000000  0  7 25  6  1  5  9 23 17
  21729849.181   -16462688.775 9 -12828070.53646  21729849.1014                 
  21523111.139   -15507775.016 9 -12083982.09246  21523111.4204                 
  22593695.319   -11819822.801 7  -9210254.64045  22593696.2834                 
  22997430.584   -10221768.316 7  -7965011.93045  22997432.9674                 
  23756020.617    -6848049.584 6  -5336137.12145  23756022.4224                 
  24115952.652    -3525186.667 6  -2746902.24045  24115956.7934                 
  20057942.433   -22078635.677 9 -17204134.49847  20057943.3734                 
 97  1  9  0 38 30.0000000  0  7 25  6  1  5  9 23 17
  21716183.619   -16534503.444 9 -12884030.03546  21716183.6124                 
  21534758.139   -15446571.566 9 -12036291.12246  21534758.3904                 
  22602465.360   -11773736.295 7  -9174343.10345  22602466.3924                 
  23002740.563   -10193866.543 7  -7943270.32845  23002742.2494                 
  23776190.424    -6742051.760 6  -5253541.46945  23776191.8924                 
  24106186.329    -3576510.928 6  -2786895.20845  24106189.5604                 
  20050081.919   -22119942.700 9 -17236321.79147  20050082.7994                 
 97  1  9  0 39  0.0000000  0  7 25  6  1  5  9 23 17
  21702580.013   -16605990.475 9 -12939734.22846  21702580.0174                 
  21546413.439   -15385322.489 9 -11988564.59546  21546413.6744                 
  22611262.257   -11727508.017 7  -9138321.09145  22611262.9514                 
  23008087.985   -10165763.414 7  -7921371.81245  23008089.3574                 
  23796384.870    -6635928.744 6  -5170848.29545  23796385.9334                 
  24096372.484    -3628079.400 6  -2827078.46345  24096371.9024                 
  20042328.671   -22160686.401 9 -17268070.13047  20042329.5974                 
 97  1  9  0 39 30.0000000  0  7 25  6  1  5  9 23 17
  21689039.970   -16677144.329 9 -12995178.79546  21689039.7474                 
  21558074.517   -15324043.014 9 -11940814.39146  21558074.8694                 
  22620083.891   -11681149.909 7  -9102197.92345  22620085.0434                 
  23013474.924   -10137454.951 7  -7899313.31345  23013475.8924                 
  23816605.126    -6529674.994 6  -5088053.27045  23816607.4564                 
  24086512.866    -3679894.591 6  -2867453.95745  24086515.4084                 
  20034685.729   -22200849.414 9 -17299365.98747  20034686.7724                 
 97  1  9  0 40  0.0000000  0  7 25  6  1  5  9 23 17
  21675567.307   -16747944.389 9 -13050347.69046  21675566.7934                 
  21569738.396   -15262748.372 9 -11893052.36546  21569738.5404                 
  22628932.430   -11634651.638 7  -9065965.52145  22628933.5134                 
  23018898.794   -10108953.477 7  -7877104.40945  23018900.1744                 
  23836847.119    -6423305.230 6  -5005167.80345  23836848.2884                 
  24076605.429    -3731958.251 6  -2908023.02645  24076605.2004                 
  20027151.731   -22240441.489 9 -17330216.95347  20027152.5304                 
 97  1  9  0 40 30.0000000  0  7 25  6  1  5  9 23 17
  21662162.604   -16818386.840 9 -13105237.92146  21662162.4244                 
  21581404.634   -15201443.039 9 -11845282.00546  21581404.5414                 
  22637806.793   -11588017.431 7  -9029627.21145  22637808.3244                 
  23024356.438   -10080272.797 7  -7854755.87345  23024357.9354                 
  23857111.179    -6316820.160 6  -4922192.50345  23857113.3324                 
  24066650.277    -3784273.426 6  -2948788.14745  24066654.8464                 
  20019726.171   -22279463.776 9 -17360623.93347  20019727.0124                 
 97  1  9  0 41  0.0000000  0  7 25  6  1  5  9 23 17
  21648829.908   -16888450.480 9 -13159832.97446  21648829.4754                 
  21593075.654   -15140111.516 8 -11797491.23846  21593075.7904                 
  22646704.889   -11541257.086 7  -8993190.60045  22646706.0964                 
  23029849.826   -10051405.683 7  -7832262.05245  23029851.3004                 
  23877398.738    -6210205.327 6  -4839116.09545  23877401.1034                 
  24056646.703    -3836843.005 6  -2989751.49845  24056649.6174                 
  20012407.606   -22317923.012 9 -17390592.17247  20012408.6414                 
 97  1  9  0 41 30.0000000  0  7 25  6  1  5  9 23 17
  21635572.980   -16958116.579 9 -13214118.25246  21635572.8104                 
  21604752.306   -15078750.564 9 -11749677.54446  21604752.6154                 
  22655625.258   -11494381.147 7  -8956663.92345  22655626.2784                 
  23035377.089   -10022361.615 7  -7809630.35245  23035378.4154                 
  23897711.994    -6103455.699 6  -4755934.66745  23897714.5094                 
  24046594.759    -3889666.682 6  -3030912.80545  24046597.2234                 
  20005194.171   -22355830.031 9 -17420130.11047  20005194.9724                 
 97  1  9  0 42  0.0000000  0  7 25  6  1  5  9 23 17
  21622392.524   -17027380.449 9 -13268090.11046  21622392.4874                 
  21616436.094   -15017351.672 8 -11701834.28146  21616436.6234                 
  22664567.851   -11447386.844 7  -8920045.00745  22664568.3714                 
  23040935.690    -9993148.435 7  -7786866.86645  23040938.2374                 
  23918049.671    -5996581.306 6  -4672655.97445  23918050.5314                 
  24036493.299    -3942750.610 6  -3072276.94045  24036494.9094                 
  19998085.064   -22393188.816 9 -17449240.85347  19998085.7864                 
 97  1  9  0 42 30.0000000  0  7 25  6  1  5  9 23 17
  21609285.102   -17096259.166 9 -13321761.84646  21609284.8394                 
  21628127.728   -14955911.342 8 -11653958.73346  21628128.0644                 
  22673532.403   -11400277.540 7  -8883336.48545  22673532.9924                 
  23046530.176    -9963750.127 7  -7763959.13245  23046531.2634                 
  23938414.125    -5889569.061 6  -4589269.88745  23938416.0234                 
  24026343.882    -3996084.412 6  -3113835.77445  24026343.4654                 
  19991083.131   -22429983.732 9 -17477912.22247  19991083.8814                 
 97  1  9  0 43  0.0000000  0  7 25  6  1  5  9 23 17
  21596249.703   -17164760.853 9 -13375139.79346  21596249.5004                 
  21639825.486   -14894440.052 8 -11606059.05646  21639825.5734                 
  22682517.356   -11353061.583 7  -8846544.85045  22682518.4704                 
  23052161.274    -9934159.379 7  -7740901.43245  23052162.9444                 
  23958805.636    -5782412.938 6  -4505771.70345  23958807.9494                 
  24016149.361    -4049657.409 6  -3155580.95745  24016152.2964                 
  19984191.393   -22466200.305 9 -17506132.93047  19984192.1724                 
 97  1  9  0 43 30.0000000  0  7 25  6  1  5  9 23 17
  21583282.560   -17232904.871 9 -13428239.03146  21583282.0794                 
  21651525.572   -14832956.095 8 -11558149.50746  21651525.8664                 
  22691522.695   -11305737.654 7  -8809669.08245  22691523.2064                 
  23057828.888    -9904375.595 7  -7717693.33045  23057830.4454                 
  23979220.568    -5675132.262 6  -4422176.47445  23979223.7874                 
  24005910.115    -4103466.727 6  -3197510.33145  24005910.7824                 
  19977411.421   -22501829.046 9 -17533895.59247  19977412.3214                 
 97  1  9  0 44  0.0000000  0  7 25  6  1  5  9 23 17
  21570379.921   -17300708.043 9 -13481072.67546  21570379.6264                 
  21663228.039   -14771459.001 8 -11510229.72946  21663228.5664                 
  22700549.496   -11258301.691 7  -8772706.02145  22700550.1154                 
  23063537.401    -9874377.970 7  -7694318.58445  23063538.7884                 
  23999656.789    -5567738.902 6  -4338493.43145  23999657.9714                 
  23995626.080    -4157509.706 6  -3239621.74445  23995629.5854                 
  19970744.081   -22536865.762 9 -17561196.93347  19970744.9284                 
 97  1  9  0 44 30.0000000  0  7 25  6  1  5  9 23 17
  21557543.374   -17368163.090 9 -13533635.05746  21557543.1054                 
  21674934.561   -14709940.516 8 -11462293.28246  21674935.3414                 
  22709595.490   -11210765.098 7  -8735664.54045  22709596.3834                 
  23069286.175    -9844167.417 7  -7670777.93345  23069287.0424                 
  24020114.668    -5460230.849 7  -4254721.00945  24020115.4614                 
  23985298.775    -4211778.662 6  -3281909.24745  23985298.6694                 
  19964187.771   -22571319.709 9 -17588044.16847  19964188.5384                 
 97  1  9  0 45  0.0000000  0  7 25  6  1  5  9 23 17
  21544776.544   -17435253.705 9 -13585913.46346  21544776.3384                 
  21686645.913   -14648397.295 8 -11414337.56346  21686646.3534                 
  22718659.323   -11163134.995 7  -8698550.21045  22718661.2454                 
  23075075.334    -9813744.704 7  -7647071.95845  23075077.1804                 
  24040591.061    -5352623.576 6  -4170871.27245  24040592.0974                 
  23974926.901    -4266280.923 6  -3324378.59145  23974926.2364                 
  19957738.563   -22605211.115 9 -17614453.06047  19957739.4434                 
 97  1  9  0 45 30.0000000  0  7 25  6  1  5  9 23 17
  21532082.886   -17501959.650 9 -13637892.12646  21532082.2884                 
  21698361.930   -14586829.641 8 -11366362.79446  21698362.7554                 
  22727740.604   -11115411.598 7  -8661363.16645  22727741.7924                 
  23080906.131    -9783103.443 7  -7623195.68745  23080908.3304                 
  24061084.894    -5244929.641 6  -4086954.00045  24061086.7884                 
  23964511.126    -4321020.203 6  -3367032.62645  23964512.9224                 
  19951393.245   -22638555.436 9 -17640435.65047  19951394.1624                 
 97  1  9  0 46  0.0000000  0  7 25  6  1  5  9 23 17
  21519464.820   -17568267.445 9 -13689560.54446  21519464.7704                 
  21710082.892   -14525234.830 8 -11318366.87046  21710083.1024                 
  22736839.090   -11067599.755 7  -8624107.22045  22736839.9064                 
  23086775.437    -9752260.093 7  -7599161.93645  23086778.0924                 
  24081598.379    -5137131.627 6  -4002955.63945  24081599.8384                 
  23954049.668    -4375995.129 6  -3409870.24145  23954049.6054                 
  19945151.596   -22671355.273 9 -17665993.96947  19945152.5624                 
 97  1  9  0 46 30.0000000  0  7 25  6  1  5  9 23 17
  21506924.191   -17634169.800 9 -13740913.02746  21506923.7794                 
  21721807.243   -14463624.089 8 -11270358.52846  21721807.9464                 
  22745953.583   -11019702.449 7  -8586784.66545  22745955.2044                 
  23092680.930    -9721226.678 7  -7574980.07245  23092684.5224                 
  24102134.634    -5029214.580 6  -3918864.52645  24102134.5904                 
  23943543.070    -4431208.748 6  -3452893.82745  23943542.1844                 
  19939013.928   -22703609.288 9 -17691126.96947  19939014.8214                 
 97  1  9  0 47  0.0000000  0  7 25  6  1  5  9 23 17
  21494458.359   -17699677.669 9 -13791958.12946  21494458.1554                 
  21733529.943   -14402020.989 8 -11222356.14646  21733530.8344                 
  22755083.428   -10971725.127 7  -8549399.77645  22755084.3694                 
  23098623.890    -9689996.080 7  -7550644.58745  23098625.6004                 
  24122692.201    -4921184.156 6  -3834685.05945  24122692.9644                 
  23932990.441    -4486662.290 6  -3496104.39645  23932990.9304                 
  19932982.935   -22735302.748 9 -17715823.17447  19932983.8194                 
 97  1  9  0 47 30.0000000  0  7 25  6  1  5 23  9 17
  21482067.370   -17764791.725 9 -13842696.35646  21482067.3864                 
  21745250.528   -14340428.791 8 -11174362.25646  21745250.5304                 
  22764227.788   -10923672.029 7  -8511955.82845  22764228.6774                 
  23104603.669    -9658573.099 7  -7526159.19145  23104605.4894                 
  23922393.735    -4542348.697 6  -3539496.43245  23922394.8834                 
  24143272.631    -4813033.614 6  -3750412.02445  24143274.4844                 
  19927063.037   -22766411.843 9 -17740064.03247  19927063.8924                 
 97  1  9  0 48  0.0000000  0  7 25  6  1  5 23  9 17
  21469749.577   -17829524.023 9 -13893137.11246  21469749.5054                 
  21756968.844   -14278848.428 8 -11126377.59546  21756969.7414                 
  22773386.081   -10875544.131 7  -8474453.58445  22773387.2004                 
  23110619.795    -9626957.296 7  -7501523.52345  23110620.7904                 
  23911753.599    -4598262.184 6  -3583065.42745  23911755.4654                 
  24163875.140    -4704768.807 6  -3666049.89545  24163878.4144                 
  19921255.222   -22796931.620 9 -17763845.67947  19921256.0984                 
 97  1  9  0 48 30.0000000  0  7 25  6  1  5 23  9 17
  21457503.997   -17893874.127 9 -13943280.05446  21457503.9724                 
  21768684.886   -14217282.398 8 -11078404.09646  21768685.2914                 
  22782557.673   -10827348.863 7  -8436898.86745  22782559.1924                 
  23116677.079    -9595127.225 7  -7476720.90045  23116679.4694                 
  23901073.253    -4654386.191 6  -3626798.40245  23901074.6404                 
  24184494.362    -4596414.099 6  -3581617.77845  24184495.4914                 
  19915561.475   -22826853.369 9 -17787161.33247  19915562.3644                 
 97  1  9  0 49  0.0000000  0  7 25  6  1  5 23  9 17
  21445333.350   -17957831.255 9 -13993116.78446  21445333.3754                 
  21780398.650   -14155725.024 8 -11030437.35046  21780398.8794                 
  22791740.385   -10779092.681 7  -8399296.67845  22791741.1754                 
  23122777.374    -9563071.112 7  -7451742.14445  23122777.8644                 
  23890357.980    -4710696.567 6  -3670676.64045  23890360.5784                 
  24205126.439    -4487988.284 6  -3497130.27245  24205131.6534                 
  19909982.424   -22856170.560 9 -17810005.90047  19909983.3284                 
 97  1  9  0 49 30.0000000  0  7 25  6  1  5 23  9 17
  21433239.938   -18021383.883 9 -14042638.31746  21433239.6614                 
  21792113.083   -14094164.309 8 -10982467.98546  21792113.7914                 
  22800936.889   -10730763.685 7  -8361637.74045  22800938.8294                 
  23128919.601    -9530792.537 7  -7426590.04545  23128921.4704                 
  23879606.691    -4767196.491 6  -3714702.54945  23879609.1214                 
  24225772.303    -4379494.567 6  -3412589.76843  24225775.3894                 
  19904516.098   -22884897.088 9 -17832390.21147  19904516.9344                 
 97  1  9  0 50  0.0000000  0  7 25  6  1  5 23  9 17
  21421223.069   -18084531.775 9 -14091844.47646  21421222.7874                 
  21803826.485   -14032610.755 8 -10934504.21546  21803827.0164                 
  22810149.705   -10682351.291 7  -8323913.82945  22810150.7554                 
  23135105.643    -9498283.055 7  -7401258.01145  23135108.1564                 
  23868818.225    -4823888.628 6  -3758878.25745  23868818.5194                 
  24246431.141    -4270935.050 6  -3327998.00145  24246437.1784                 
  19899159.772   -22913044.409 9 -17854323.19347  19899160.6584                 
 97  1  9  0 50 30.0000000  0  7 25  6  1  5 23  9 17
  21409285.285   -18147265.779 9 -14140728.12846  21409285.2954                 
  21815538.599   -13971063.230 8 -10886545.13746  21815539.5744                 
  22819378.006   -10633855.533 7  -8286124.97045  22819379.7284                 
  23141335.388    -9465548.057 7  -7375750.25345  23141337.1134                 
  23857991.921    -4880782.994 6  -3803211.53845  23857994.7074                 
  24267103.160    -4162302.971 5  -3243349.78344  24267102.1224                 
  19893913.916   -22940612.098 9 -17875804.51247  19893914.8514                 
 97  1  9  0 51  0.0000000  0  7 25  6  1  5 23  9 17
  21397428.312   -18209575.479 9 -14189281.14746  21397428.2974                 
  21827250.211   -13909518.747 8 -10838588.42946  21827251.0344                 
  22828625.114   -10585262.850 7  -8248260.55345  22828625.9394                 
  23147604.700    -9432602.062 7  -7350078.07845  23147606.3364                 
  23847121.181    -4937905.958 6  -3847722.93945  23847124.0994                 
  24287791.344    -4053589.545 5  -3158638.18943  24287791.7524                 
  19888778.794   -22967596.409 9 -17896831.25147  19888779.7214                 
 97  1  9  0 51 30.0000000  0  7 25  6  1  5 23  9 17
  21385649.983   -18271470.214 9 -14237510.82146  21385650.0424                 
  21838959.705   -13847984.108 8 -10790639.39146  21838959.9414                 
  22837890.992   -10536569.601 7  -8210317.79945  22837891.4744                 
  23153912.993    -9399452.667 7  -7324247.39745  23153915.5154                 
  23836202.361    -4995288.067 6  -3892436.28045  23836203.5744                 
  24308495.087    -3944794.653 5  -3073862.81343  24308497.6174                 
  19883754.983   -22993997.212 9 -17917403.30947  19883755.8634                 
 97  1  9  0 52  0.0000000  0  6 25  6  1  5 23 17
  21373948.240   -18332963.465 9 -14285427.64346  21373948.0314                 
  21850667.002   -13786463.134 8 -10742700.99646  21850667.6654                 
  22847172.506   -10487795.624 7  -8172312.13645  22847173.9244                 
  23160260.306    -9366098.436 7  -7298257.12945  23160262.3444                 
  23825235.975    -5052914.581 6  -3937340.07245  23825238.5034                 
  19878844.602   -23019801.347 9 -17937510.43147  19878845.4634                 
 97  1  9  0 52 30.0000000  0  6 25  6  1  5 23 17
  21362323.513   -18394051.765 9 -14333028.92546  21362323.2974                 
  21862373.124   -13724946.608 8 -10694766.06946  21862373.5614                 
  22856466.362   -10438956.604 7  -8134255.77945  22856467.0314                 
  23166644.467    -9332549.492 7  -7272115.11445  23166646.9364                 
  23814223.697    -5110785.776 6  -3982434.51945  23814224.9144                 
  19874049.922   -23044997.635 9 -17957143.90347  19874050.7204                 
 97  1  9  0 53  0.0000000  0  7 25  6  1  5 23 21 17
  21350774.255   -18454743.918 9 -14380321.51546  21350773.9104                 
  21874075.361   -13663450.022 8 -10646846.68046  21874076.2774                 
  22865771.695   -10390054.689 7  -8096150.42845  22865773.4144                 
  23173067.340    -9298796.388 7  -7245814.03445  23173069.1754                 
  23803166.997    -5168888.285 6  -4027709.20845  23803167.9954                 
  24895551.593          -0.91816         0.01355  24895553.0624                 
  19869372.157   -23069579.739 9 -17976298.79447  19869372.9154                 
 97  1  9  0 53 30.0000000  0  7 25  6  1  5 23 21 17
  21339297.994   -18515051.946 9 -14427314.78946  21339297.8574                 
  21885772.558   -13601981.475 8 -10598949.13846  21885773.2484                 
  22875087.739   -10341100.129 7  -8058004.04545  22875089.3864                 
  23179531.592    -9264826.153 7  -7219343.75945  23179533.0024                 
  23792071.154    -5227197.492 6  -4073144.92745  23792075.1934                 
  24884392.374      -58640.486 6    -45693.21145  24884394.6004                 
  19864807.778   -23093566.043 9 -17994989.42347  19864808.6884                 
 97  1  9  0 54  0.0000000  0  7 25  6  1  5 23 21 17
  21327897.658   -18574961.720 9 -14473997.73946  21327897.4754                 
  21897463.973   -13540543.525 8 -10551075.44046  21897464.6384                 
  22884413.121   -10292094.165 7  -8019817.62145  22884415.2044                 
  23186036.653    -9230641.654 7  -7192706.52745  23186038.0704                 
  23780940.992    -5285686.297 6  -4118720.65645  23780943.3774                 
  24873179.959     -117565.768 6    -91609.07145  24873181.9074                 
  19860357.081   -23116954.148 9 -18013213.92147  19860358.0084                 
 97  1  9  0 54 30.0000000  0  7 25  6  1  5 23 21 17
  21316576.034   -18634455.954 9 -14520356.88546  21316576.0014                 
  21909148.530   -13479139.949 8 -10503228.52946  21909149.1524                 
  22893750.031   -10243027.205 7  -7981583.65145  22893751.6554                 
  23192584.296    -9196234.438 7  -7165895.75245  23192584.5304                 
  23769778.098    -5344351.277 6  -4164433.62145  23769779.4684                 
  24861909.438     -176791.996 6   -137759.56445  24861914.4004                 
  19856020.957   -23139740.465 9 -18030969.49747  19856021.9654                 
 97  1  9  0 55  0.0000000  0  7 25  6  1  5 23 21 17
  21305333.225   -18693537.788 9 -14566394.68346  21305333.1824                 
  21920824.599   -13417782.848 8 -10455417.82846  21920824.9894                 
  22903097.786   -10193906.236 7  -7943307.61245  22903099.2644                 
  23199177.791    -9161585.880 7  -7138896.91545  23199179.5744                 
  23758582.737    -5403181.527 6  -4210275.35045  23758582.7074                 
  24850578.441     -236334.049 6   -184155.88645  24850582.3784                 
  19851796.699   -23161938.859 9 -18048266.95147  19851797.6184                 
 97  1  9  0 55 30.0000000  0  7 25  6  1  5 23 21 17
  21294172.187   -18752189.676 9 -14612097.45646  21294171.8234                 
  21932493.989   -13356458.183 8 -10407632.40346  21932494.6064                 
  22912452.273   -10144747.021 7  -7905001.75645  22912453.0124                 
  23205817.217    -9126695.689 7  -7111709.79345  23205818.7384                 
  23747355.472    -5462180.111 6  -4256248.31345  23747356.5304                 
  24839187.482     -296199.259 6   -230804.13045  24839189.5404                 
  19847683.591   -23183553.879 9 -18065109.82747  19847684.3884                 
 97  1  9  0 56  0.0000000  0  7 25  6  1  5 23 21 17
  21283095.381   -18810398.817 9 -14657455.22946  21283095.2964                 
  21944158.490   -13295162.865 8 -10359869.84446  21944158.7044                 
  22921811.598   -10095565.130 7  -7866678.23745  22921812.8714                 
  23212501.242    -9091571.246 7  -7084340.13345  23212502.5894                 
  23736093.921    -5521359.041 6  -4302361.78645  23736096.1944                 
  24827732.554     -356388.646 6   -277704.99745  24827734.0064                 
  19843686.486   -23204559.109 9 -18081477.54147  19843687.2614                 
 97  1  9  0 56 30.0000000  0  7 25  6  1  5 23 21 17
  21272101.028   -18868174.282 9 -14702475.07646  21272101.0014                 
  21955817.925   -13233891.238 8 -10312125.75046  21955818.8034                 
  22931172.872   -10046371.037 7  -7828345.20545  22931173.5354                 
  23219230.699    -9056206.706 7  -7056783.38845  23219232.0174                 
  23724795.454    -5580734.192 6  -4348628.12445  23724797.1764                 
  24816217.640     -416908.456 6   -324863.31745  24816224.7024                 
  19839804.582   -23224958.269 9 -18097372.99347  19839805.4114                 
 97  1  9  0 57  0.0000000  0  7 25  6  1  5 23 21 17
  21261189.810   -18925512.884 9 -14747154.51046  21261189.6814                 
  21967474.348   -13172636.179 8 -10264394.56845  21967475.0884                 
  22940534.856    -9997173.388 7  -7790009.39445  22940536.1434                 
  23226002.308    -9020621.501 7  -7029054.68645  23226004.1324                 
  23713456.331    -5640321.028 6  -4395059.41045  23713458.2814                 
  24804640.893     -477746.603 5   -372269.78844  24804644.0354                 
  19836036.970   -23244757.862 9 -18112801.25247  19836037.8434                 
 97  1  9  0 57 30.0000000  0  7 25  6  1  5 23 21 17
  21250364.325   -18982401.634 9 -14791483.41346  21250364.3854                 
  21979129.865   -13111387.186 8 -10216668.10446  21979130.5604                 
  22949900.195    -9947958.241 7  -7751659.96445  22949901.3344                 
  23232811.743    -8984837.319 7  -7001170.94045  23232814.0294                 
  23702076.122    -5700127.436 6  -4441661.82245  23702077.1164                 
  24793002.746     -538895.304 5   -419918.06744  24793006.0614                 
  19832386.873   -23263938.470 9 -18127747.18547  19832387.8774                 
 97  1  9  0 58  0.0000000  0  7 25  6  1  5 23 21 17
  21239622.258   -19038852.087 9 -14835470.78246  21239622.1714                 
  21990784.026   -13050143.612 8 -10168945.87546  21990784.4974                 
  22959272.685    -9898704.551 7  -7713280.49445  22959273.6774                 
  23239659.324    -8948853.862 7  -6973131.94345  23239660.1164                 
  23690652.720    -5760155.309 6  -4488436.76145  23690655.3024                 
  24781308.050     -600350.533 5   -467805.28744  24781307.1244                 
  19828855.848   -23282494.565 9 -18142206.48347  19828856.6524                 
 97  1  9  0 58 30.0000000  0  7 25  6  1  5 23 21 17
  21228961.641   -19094873.585 9 -14879123.90246  21228961.6404                 
  22002436.037   -12988912.177 8 -10121233.09345  22002436.4974                 
  22968656.029    -9849395.079 7  -7674857.57845  22968658.0434                 
  23246547.393    -8912657.612 7  -6944927.10945  23246549.1664                 
  23679190.431    -5820389.597 6  -4535372.60345  23679192.8794                 
  24769556.724     -662113.759 5   -515932.59044  24769560.3824                 
  19825440.110   -23300443.503 9 -18156192.67247  19825441.0094                 
 97  1  9  0 59  0.0000000  0  7 25  6  1  5 23 21 17
  21218384.743   -19150455.466 9 -14922434.46446  21218384.5804                 
  22014082.653   -12927708.979 8 -10073542.32445  22014083.3564                 
  22978051.146    -9800024.433 7  -7636386.97645  22978053.2514                 
  23253477.881    -8876235.587 7  -6916546.33745  23253479.3324                 
  23667692.266    -5880813.641 6  -4582456.25045  23667693.5764                 
  24757742.916     -724188.047 5   -564302.16645  24757746.9374                 
  19822140.606   -23317782.661 9 -18169703.70847  19822141.3914                 
 97  1  9  0 59 30.0000000  0  6 25  6  1  5 23 17
  21207889.597   -19205607.539 9 -14965410.10846  21207889.3074                 
  22025721.036   -12866550.389 8 -10025886.30745  22025721.9214                 
  22987457.710    -9750592.056 7  -7597868.26645  22987459.3234                 
  23260456.187    -8839565.138 7  -6887972.00045  23260457.4824                 
  23656161.480    -5941408.718 6  -4629673.21645  23656163.7844                 
  19818957.318   -23334511.122 9 -18182738.87347  19818958.1294                 
 97  1  9  1  0  0.0000000  0  6 25  6  1  5 23 17
  21197473.632   -19260344.243 9 -15008062.09346  21197473.5804                 
  22037349.108   -12805442.927 8  -9978270.13345  22037350.3604                 
  22996872.975    -9701115.845 7  -7559315.41345  22996873.7664                 
  23267484.237    -8802634.038 7  -6859194.56045  23267486.6894                 
  23644601.184    -6002160.486 7  -4677012.24345  23644602.7414                 
  19815887.237   -23350644.417 9 -18195310.27347  19815888.0854                 
 97  1  9  1  0 30.0000000  0  6 25  6  1  5 23 17
  21187138.933   -19314653.535 9 -15050381.02546  21187138.7554                 
  22048966.227   -12744395.323 8  -9930700.59845  22048966.6994                 
  23006292.041    -9651617.303 7  -7520745.14645  23006293.3534                 
  23274560.447    -8765448.535 7  -6830218.87245  23274560.9314                 
  23633012.781    -6063055.813 6  -4724463.17945  23633014.1124                 
  19812930.447   -23366183.142 9 -18207418.37247  19812931.3764                 
 97  1  9  1  1  0.0000000  0  6 25  6  1  5 23 17
  21176886.180   -19368532.016 9 -15092364.26046  21176886.1484                 
  22060572.629   -12683402.532 8  -9883173.78345  22060572.9514                 
  23015710.699    -9602122.582 7  -7482177.86045  23015713.6374                 
  23281682.760    -8728020.519 7  -6801054.21645  23281684.9774                 
  23621393.576    -6124114.316 6  -4772041.20945  23621394.5634                 
  19810087.162   -23381124.587 9 -18219061.05647  19810088.0284                 
 97  1  9  1  1 30.0000000  0  7 25  6  1 23  5 21 17
  21166713.662   -19421988.986 9 -15134019.04746  21166713.5334                 
  22072171.833   -12622448.347 8  -9835677.04045  22072172.8134                 
  23025126.536    -9552643.026 7  -7443622.38945  23025127.8814                 
  23609740.740    -6185351.836 7  -4819758.76845  23609742.5594                 
  23288849.107    -8690361.500 7  -6771709.56745  23288850.7944                 
  24697795.861          -0.37015         0.15854  24697795.6144                 
  19807358.220   -23395465.290 9 -18230235.63547  19807359.0874                 
 97  1  9  1  2  0.0000000  0  7 25  6  1 23  5 21 17
  21156624.188   -19475009.219 9 -15175333.51446  21156624.1024                 
  22083764.617   -12561529.374 8  -9788207.74145  22083765.4594                 
  23034538.208    -9503185.615 7  -7405084.19345  23034539.0794                 
  23598050.830    -6246781.534 6  -4867626.03645  23598052.5734                 
  23296058.651    -8652474.868 7  -6742187.55645  23296061.1284                 
  24685639.237      -63890.208 5    -49784.20643  24685643.7004                 
  19804745.050   -23409197.178 9 -18240935.81047  19804745.8574                 
 97  1  9  1  2 30.0000000  0  7 25  6  1 23  5 21 17
  21146619.698   -19527583.388 9 -15216300.40446  21146619.7144                 
  22095349.512   -12500649.215 8  -9740768.68645  22095350.3674                 
  23043945.744    -9453746.320 7  -7366560.09645  23043947.0474                 
  23586323.220    -6308410.468 6  -4915648.61045  23586325.2794                 
  23303312.895    -8614353.719 7  -6712482.80345  23303314.4794                 
  24673428.266     -128056.372 5    -99783.85642  24673414.9614                 
  19802249.947   -23422308.883 9 -18251152.72747  19802250.8354                 
 97  1  9  1  3  0.0000000  0  6 25  6  1 23  5 17
  21136698.890   -19579717.619 9 -15256924.48146  21136698.5834                 
  22106927.860   -12439804.344 8  -9693357.13345  22106928.9544                 
  23053350.667    -9404323.584 7  -7328048.90345  23053351.5164                 
  23574559.179    -6370231.611 7  -4963820.92245  23574562.2384                 
  23310613.526    -8575990.105 7  -6682589.08845  23310615.5454                 
  19799872.100   -23434804.793 9 -18260889.80447  19799872.9614                 
 97  1  9  1  3 30.0000000  0  6 25  6  1 23  5 17
  21126863.836   -19631401.303 9 -15297197.48446  21126863.6554                 
  22118497.710   -12379005.401 8  -9645981.36445  22118497.9064                 
  23062755.975    -9354900.051 7  -7289537.10045  23062757.3934                 
  23562763.257    -6432219.939 7  -5012123.49845  23562764.4464                 
  23317960.268    -8537381.367 7  -6652504.39645  23317962.5744                 
  19797613.476   -23446673.487 9 -18270138.14147  19797614.2984                 
 97  1  9  1  4  0.0000000  0  6 25  6  1 23  5 17
  21117116.117   -19682625.962 9 -15337112.80846  21117115.9044                 
  22130055.786   -12318267.803 8  -9598653.40045  22130056.9164                 
  23072162.371    -9305469.426 7  -7251019.74745  23072164.1014                 
  23550938.324    -6494359.200 7  -5060543.73245  23550939.0114                 
  23325354.225    -8498525.231 7  -6622226.94145  23325358.0984                 
  19795472.817   -23457923.477 9 -18278904.37047  19795473.7174                 
 97  1  9  1  4 30.0000000  0  6 25  6  1 23  5 17
  21107456.114   -19733388.754 9 -15376668.23746  21107455.9874                 
  22141601.210   -12257595.056 8  -9551375.96045  22141601.7594                 
  23081568.837    -9256037.465 7  -7212501.38745  23081569.7904                 
  23539087.611    -6556635.313 7  -5109070.58745  23539089.2154                 
  23332794.375    -8459429.703 7  -6591762.91345  23332795.7584                 
  19793447.946   -23468564.134 9 -18287195.79247  19793448.7474                 
 97  1  9  1  5  0.0000000  0  6 25  6  1 23  5 17
  21097885.491   -19783683.240 9 -15415858.74946  21097885.2484                 
  22153133.638   -12196992.315 8  -9504153.07345  22153133.5414                 
  23090974.827    -9206608.690 7  -7173985.47945  23090976.7854                 
  23527210.806    -6619049.845 7  -5157705.29045  23527212.7424                 
  23340276.069    -8420111.502 7  -6561125.39645  23340278.7934                 
  19791539.228   -23478594.584 9 -18295011.73047  19791539.9804                 
 97  1  9  1  5 30.0000000  0  6 25  6  1 23  5 17
  21088405.315   -19833501.708 9 -15454678.34046  21088405.1784                 
  22164651.732   -12136464.529 8  -9456988.60145  22164652.3684                 
  23100383.437    -9157167.151 7  -7135459.65145  23100384.5264                 
  23515305.176    -6681613.463 7  -5206456.16345  23515307.1644                 
  23347800.997    -8380568.087 7  -6530312.40745  23347803.1004                 
  19789747.845   -23488008.084 9 -18302346.93047  19789748.7184                 
 97  1  9  1  6  0.0000000  0  6 25  6  1 23  5 17
  21079016.565   -19882840.314 9 -15493124.01646  21079016.4144                 
  22176158.041   -12075998.994 8  -9409872.63645  22176158.7294                 
  23109792.099    -9107723.380 7  -7096932.07045  23109792.8024                 
  23503370.347    -6744329.952 7  -5255326.16045  23503372.6844                 
  23355368.857    -8340799.716 7  -6499324.11545  23355370.4274                 
  19788071.735   -23496816.625 9 -18309210.73047  19788072.5964                 
 97  1  9  1  6 30.0000000  0  6 25  6  1 23  5 17
  21069717.506   -19931707.401 9 -15531202.27546  21069717.6114                 
  22187655.642   -12015578.793 8  -9362791.98845  22187656.3564                 
  23119201.638    -9058277.778 7  -7058403.05845  23119204.1204                 
  23491408.731    -6807190.765 7  -5304308.62845  23491408.5714                 
  23362978.369    -8300811.330 7  -6468164.33245  23362979.2774                 
  19786511.259   -23505016.586 9 -18315600.31547  19786512.1444                 
 97  1  9  1  7  0.0000000  0  6 25  6  1 23  5 17
  21060505.733   -19980115.253 9 -15568922.68146  21060506.0224                 
  22199145.586   -11955199.226 8  -9315743.00545  22199146.0484                 
  23128614.612    -9008811.700 7  -7019858.08845  23128616.5484                 
  23479418.461    -6870198.944 7  -5353405.91245  23479420.1844                 
  23370632.273    -8260590.116 7  -6436823.16245  23370633.9034                 
  19785067.051   -23512606.326 9 -18321514.40247  19785068.0434                 
 97  1  9  1  7 30.0000000  0  6 25  6  1 23  5 17
  21051381.868   -20028062.393 9 -15606284.09746  21051381.7154                 
  22210628.063   -11894856.805 8  -9268722.97245  22210628.8854                 
  23138029.811    -8959333.126 7  -6981303.40045  23138032.3584                 
  23467401.356    -6933349.986 7  -5402614.51845  23467402.5394                 
  23378334.425    -8220113.477 7  -6405282.97245  23378336.4714                 
  19783737.708   -23519591.954 9 -18326957.75147  19783738.6394                 
 97  1  9  1  8  0.0000000  0  6 25  6  1 23  5 17
  21042345.147   -20075550.016 9 -15643287.44746  21042345.1434                 
  22222102.776   -11834558.325 8  -9221737.17145  22222103.2264                 
  23147441.087    -8909875.645 7  -6942765.13745  23147442.7574                 
  23455356.635    -6996643.025 6  -5451933.78645  23455358.2334                 
  23386086.188    -8179379.207 7  -6373542.03845  23386087.6784                 
  19782523.624   -23525971.366 9 -18331928.72647  19782524.5414                 
 97  1  9  1  8 30.0000000  0  6 25  6  1 23  5 17
  21033394.450   -20122586.633 9 -15679939.36046  21033394.4124                 
  22233565.922   -11774319.590 8  -9174797.92845  22233567.4724                 
  23156847.614    -8860445.376 7  -6904248.08545  23156849.9074                 
  23443284.616    -7060084.136 7  -5501368.39745  23443287.3824                 
  23393887.929    -8138380.147 7  -6341594.73345  23393889.8494                 
  19781426.868   -23531735.109 9 -18336419.96047  19781427.8144                 
 97  1  9  1  9  0.0000000  0  6 25  6  1 23  5 17
  21024533.361   -20169151.650 9 -15716223.79946  21024533.3174                 
  22245015.252   -11714151.535 8  -9127913.75945  22245015.3804                 
  23166246.453    -8811053.832 7  -6865761.19945  23166247.3224                 
  23431181.060    -7123688.506 7  -5550930.26245  23431182.8674                 
  23401742.996    -8097101.683 7  -6309429.72645  23401744.4794                 
  19780449.593   -23536870.896 9 -18340421.87747  19780450.5574                 
 97  1  9  1  9 30.0000000  0  6 25  6  1 23  5 17
  21015764.474   -20215232.006 9 -15752130.57846  21015764.3674                 
  22256452.318   -11654049.684 8  -9081081.17445  22256453.6564                 
  23175632.990    -8761727.290 7  -6827324.95745  23175633.7824                 
  23419046.683    -7187455.619 7  -5600618.93145  23419049.3884                 
  23409649.170    -8055555.393 7  -6277056.03545  23409649.8434                 
  19779592.974   -23541372.387 9 -18343929.53947  19779593.9324                 
 97  1  9  1 10  0.0000000  0  7 25  6  1 23  5 21 17
  21007086.883   -20260833.277 9 -15787664.04246  21007086.9534                 
  22267877.330   -11594012.002 8  -9034298.60045  22267878.4104                 
  23185010.023    -8712450.710 7  -6788927.66245  23185011.0434                 
  23406883.671    -7251370.719 7  -5650422.90145  23406886.7964                 
  23417601.667    -8013764.375 7  -6244491.62645  23417604.8444                 
  24483743.786          -0.39215        -0.01754  24483741.2904                 
  19778856.316   -23545243.417 9 -18346945.93347  19778857.2294                 
 97  1  9  1 10 30.0000000  0  7 25  6  1 23  5 21 17
  20998499.899   -20305958.375 9 -15822826.46646  20998499.5094                 
  22279291.365   -11534030.914 8  -8987560.12545  22279292.7564                 
  23194383.093    -8663197.095 7  -6750548.25745  23194383.7004                 
  23394693.829    -7315429.676 6  -5700338.96745  23394695.2374                 
  23425600.416    -7971732.170 7  -6211739.30845  23425602.2874                 
  24470674.919      -68675.776 5    -53513.45543  24470672.1244                 
  19778237.541   -23548495.640 9 -18349480.14147  19778238.4384                 
 97  1  9  1 11  0.0000000  0  7 25  6  1 23  5 21 17
  20990003.174   -20350608.602 9 -15857618.86146  20990003.0194                 
  22290693.622   -11474111.513 8  -8940869.71445  22290694.7944                 
  23203750.194    -8613972.489 7  -6712191.46445  23203750.8354                 
  23382477.479    -7379627.703 7  -5750363.38845  23382478.7684                 
  23433642.358    -7929469.037 7  -6178807.05045  23433645.2384                 
  24457554.565     -137617.824 5   -107234.71643  24457559.7974                 
  19777735.265   -23551134.971 9 -18351536.76847  19777736.1604                 
 97  1  9  1 11 30.0000000  0  7  6  1 23  5 21 17 25
  22302081.444   -11414267.727 8  -8894238.22945  22302082.3394                 
  23213111.699    -8564777.558 7  -6673857.78745  23213114.3524                 
  23370238.432    -7443943.338 7  -5800479.48045  23370241.6664                 
  23441727.248    -7886983.677 7  -6145701.57045  23441729.5694                 
  24444385.998     -206823.667 5   -161161.22443  24444384.6894                 
  19777347.594   -23553171.696 9 -18353123.83247  19777348.5054                 
  20981593.048   -20394804.001 9 -15892056.84646  20981593.0784                 
 97  1  9  1 12  0.0000000  0  7  6  1 23  5 21 17 25
  22313453.067   -11354509.701 8  -8847673.55845  22313453.7594                 
  23222468.724    -8515606.218 7  -6635542.49445  23222470.2664                 
  23357977.421    -7508376.041 7  -5850686.78645  23357980.1954                 
  23449857.452    -7844258.774 6  -6112409.48845  23449859.1174                 
  24431162.327     -276307.274 5   -215304.15942  24431157.5844                 
  19777073.067   -23554614.589 9 -18354248.16947  19777073.9234                 
  20973267.375   -20438556.141 9 -15926149.43046  20973267.1414                 
 97  1  9  1 12 30.0000000  0  7  6  1 23  5 21 17 25
  22324806.978   -11294844.193 8  -8801180.98945  22324807.9914                 
  23231814.730    -8466492.557 7  -6597272.15245  23231815.3234                 
  23345690.761    -7572942.958 7  -5900998.65345  23345692.0804                 
  23458036.589    -7801278.595 7  -6078918.46745  23458040.5934                 
  24417885.073     -346085.707 6   -269677.08943  24417893.3134                 
  19776913.415   -23555453.325 9 -18354901.73547  19776914.3164                 
  20965026.393   -20481862.290 9 -15959894.49446  20965026.3484                 
 97  1  9  1 13  0.0000000  0  7  6  1 23  5 21 17 25
  22336142.658   -11235276.554 8  -8754764.65545  22336143.2314                 
  23241145.392    -8417459.650 7  -6559064.72145  23241147.0414                 
  23333381.653    -7637628.891 7  -5951403.27845  23333384.2134                 
  23466262.383    -7758051.426 7  -6045234.98545  23466263.7214                 
  24404551.502     -416154.866 6   -324276.50843  24404559.2284                 
  19776871.715   -23555672.307 9 -18355072.37647  19776872.7414                 
  20956872.867   -20524710.176 9 -15993282.46746  20956872.9584                 
 97  1  9  1 13 30.0000000  0  7  6  1 23  5 21 17 25
  22347462.679   -11175789.296 7  -8708410.98545  22347463.6824                 
  23250462.976    -8368495.555 7  -6520910.93045  23250465.1094                 
  23321050.937    -7702425.298 6  -6001893.99445  23321055.3364                 
  23474538.855    -7714559.000 7  -6011344.82445  23474540.4154                 
  24391161.727     -486516.270 5   -379103.54142  24391163.7944                 
  19776949.325   -23555265.637 9 -18354755.49447  19776950.2414                 
  20948810.029   -20567080.092 9 -16026297.99446  20948810.0014                 
 97  1  9  1 14  0.0000000  0  7  6  1 23  5 21 17 25
  22358770.104   -11116368.136 8  -8662108.81445  22358770.3094                 
  23259767.345    -8319601.799 7  -6482811.93145  23259768.1764                 
  23308698.201    -7767340.737 7  -6052477.44645  23308699.8444                 
  23482864.608    -7670805.737 6  -5977251.39645  23482866.3394                 
  24377718.090     -557164.933 6   -434154.56843  24377723.9884                 
  19777146.447   -23554229.414 9 -18353948.05347  19777147.3014                 
  20940841.435   -20608955.630 9 -16058928.29346  20940841.5104                 
 97  1  9  1 14 30.0000000  0  7  6  1 23  5 21 17 25
  22370064.184   -11057016.980 7  -8615861.17845  22370064.9084                 
  23269057.953    -8270776.970 7  -6444766.62645  23269059.3894                 
  23296325.752    -7832358.753 7  -6103140.83445  23296326.5194                 
  23491237.100    -7626808.089 6  -5942967.53345  23491238.6744                 
  24364223.196     -628079.039 5   -489412.20943  24364230.8154                 
  19777465.696   -23552551.961 9 -18352640.94947  19777466.5734                 
  20932970.041   -20650320.013 9 -16091160.28746  20932969.8684                 
 97  1  9  1 15  0.0000000  0  7  6  1 23  5 21 17 25
  22381346.514   -10997728.299 7  -8569662.23445  22381346.9794                 
  23278342.129    -8221986.423 7  -6406748.07745  23278343.5474                 
  23283936.543    -7897464.711 7  -6153872.76245  23283939.0274                 
  23499656.233    -7582563.815 6  -5908491.53545  23499658.8714                 
  24350681.930     -699243.412 6   -544865.00043  24350683.9334                 
  19777905.716   -23550239.275 9 -18350838.86147  19777906.6404                 
  20925196.004   -20691173.273 9 -16122994.00546  20925195.8704                 
 97  1  9  1 15 30.0000000  0  7  6  1 23  5 21 17 25
  22392616.880   -10938502.212 7  -8523512.07245  22392617.2784                 
  23287622.682    -8173216.718 7  -6368745.73745  23287624.2534                 
  23271527.973    -7962669.821 7  -6204681.94545  23271529.4354                 
  23508125.266    -7538060.701 6  -5873813.83045  23508126.6964                 
  24337091.470     -770657.710 6   -600512.60842  24337092.7634                 
  19778463.594   -23547307.561 9 -18348554.41247  19778464.5394                 
  20917516.948   -20731527.260 9 -16154438.67546  20917516.8644                 
 97  1  9  1 16  0.0000000  0  7  6  1 23  5 21 17 25
  22403872.073   -10879356.612 7  -8477424.61945  22403872.8614                 
  23296896.443    -8124483.288 7  -6330771.66545  23296897.7984                 
  23259099.430    -8027983.047 7  -6255575.37545  23259102.5014                 
  23516639.325    -7493319.414 6  -5838950.51345  23516640.1314                 
  24323454.213     -842318.414 6   -656352.09243  24323446.7774                 
  19779136.154   -23543773.545 9 -18345800.64247  19779137.0724                 
  20909929.501   -20771399.509 9 -16185507.96446  20909929.4364                 
 97  1  9  1 16 30.0000000  0  7  6  1 23  5 21 17 25
  22415109.442   -10820302.340 7  -8431408.34245  22415110.1734                 
  23306165.263    -8075776.072 7  -6292818.03245  23306166.2074                 
  23246650.862    -8093401.738 7  -6306550.96845  23246653.6854                 
  23525200.316    -7448331.340 6  -5803894.90045  23525201.2014                 
  24309770.635     -914233.154 6   -712389.59343  24309772.2284                 
  19779920.427   -23539651.858 9 -18342588.93847  19779921.4814                 
  20902433.283   -20810792.915 9 -16216204.13246  20902433.3714                 
 97  1  9  1 17  0.0000000  0  7  6  1 23  5 21 17 25
  22426329.785   -10761340.241 7  -8385463.87645  22426331.1964                 
  23315428.024    -8027101.635 7  -6254889.94045  23315428.6544                 
  23234180.338    -8158933.510 7  -6357614.71545  23234182.2164                 
  23533811.020    -7403082.707 6  -5768636.25345  23533811.8254                 
  24296032.698     -986418.032 5   -768637.60543  24296028.8384                 
  19780814.078   -23534956.330 9 -18338930.09147  19780815.1794                 
  20895027.051   -20849713.022 9 -16246531.49346  20895026.8524                 
 97  1  9  1 17 30.0000000  0  7  6  1 23  5 21 17 25
  22437530.833   -10702477.974 7  -8339597.19845  22437531.6864                 
  23324680.371    -7978481.413 7  -6217004.08145  23324681.8704                 
  23221688.418    -8224580.017 7  -6408767.81345  23221689.6574                 
  23542470.644    -7357574.729 6  -5733175.51645  23542471.5424                 
  24282247.241    -1058867.703 6   -825091.92443  24282247.3524                 
  19781816.730   -23529686.849 9 -18334824.00847  19781817.7084                 
  20887712.591   -20888150.009 9 -16276482.39946  20887712.4304                 
 97  1  9  1 18  0.0000000  0  7  6  1 23  5 21 17 25
  22448714.211   -10643708.948 7  -8293803.19245  22448715.2504                 
  23333922.225    -7929917.583 7  -6179162.17345  23333924.2104                 
  23209175.367    -8290335.094 6  -6460005.54545  23209177.2104                 
  23551180.770    -7311802.865 6  -5697509.17345  23551181.9904                 
  24268412.430    -1131572.749 6   -881745.17245  24268414.2184                 
  19782931.888   -23523826.677 9 -18330257.64847  19782932.9414                 
  20880491.607   -20926096.923 9 -16306051.43146  20880491.6304                 
 97  1  9  1 18 30.0000000  0  7  6  1 23  5 21 17 25
  22459881.843   -10585023.025 7  -8248073.92945  22459882.8014                 
  23343153.211    -7881407.340 7  -6141362.02045  23343154.1154                 
  23196644.284    -8356187.104 7  -6511318.79245  23196645.9474                 
  23559945.086    -7265745.084 6  -5661620.05345  23559948.2634                 
  24254529.876    -1204522.569 6   -938589.14345  24254529.0834                 
  19784164.272   -23517350.267 9 -18325211.10147  19784165.0884                 
  20873365.219   -20963545.884 9 -16335232.44646  20873365.1734                 
 97  1  9  1 19  0.0000000  0  7  6  1 23  5 21 17 25
  22471035.310   -10526412.570 7  -8202403.47745  22471035.4404                 
  23352368.300    -7832980.498 7  -6103626.85045  23352370.0744                 
  23184092.976    -8422145.183 7  -6562714.73045  23184094.5994                 
  23568764.104    -7219402.824 6  -5625509.24445  23568767.6234                 
  24240602.544    -1277711.323 6   -995619.36944  24240602.9104                 
  19785518.211   -23510235.290 9 -18319666.97047  19785519.0644                 
  20866334.549   -21000492.512 9 -16364022.03546  20866334.6154                 
 97  1  9  1 19 30.0000000  0  7  6  1 23  5 21 17 25
  22482174.319   -10467875.313 7  -8156790.05545  22482175.1884                 
  23361566.919    -7784641.725 7  -6065960.32345  23361568.6234                 
  23171521.892    -8488207.705 7  -6614192.00645  23171524.3414                 
  23577635.129    -7172785.276 6  -5589183.91045  23577639.0234                 
  24226630.790    -1351133.795 6  -1052831.71044  24226635.3094                 
  19786996.990   -23502464.381 9 -18313611.72147  19786997.9804                 
  20859399.056   -21036939.021 9 -16392421.92046  20859399.0714                 
 97  1  9  1 20  0.0000000  0  7  6  1 23  5 21 17 25
  22493298.146   -10409420.090 7  -8111240.56745  22493299.3344                 
  23370743.811    -7736412.623 6  -6028379.25245  23370744.6884                 
  23158931.780    -8554366.177 7  -6665744.06645  23158933.4724                 
  23586560.051    -7125883.983 6  -5552637.49745  23586563.4914                 
  24212612.039    -1424802.780 6  -1110236.15445  24212614.2284                 
  19788600.404   -23494038.270 9 -18307045.92647  19788601.4294                 
  20852557.843   -21072889.861 9 -16420435.56946  20852557.7244                 
 97  1  9  1 20 30.0000000  0  7  6  1 23  5 21 17 25
  22504402.338   -10351065.833 7  -8065769.74045  22504403.9464                 
  23379897.004    -7688313.253 6  -5990899.25745  23379899.0914                 
  23146325.256    -8620618.081 7  -6717368.93345  23146326.6574                 
  23595536.645    -7078711.844 6  -5515880.02745  23595537.2284                 
  24198541.787    -1498742.187 6  -1167851.23645  24198548.1744                 
  19790326.691   -23484966.823 9 -18299977.27247  19790327.6634                 
  20845811.831   -21108339.984 9 -16448059.05246  20845811.9154                 
 97  1  9  1 21  0.0000000  0  7  6  1 23  5 21 17 25
  22515486.789   -10292818.544 7  -8020382.27945  22515488.6254                 
  23389026.047    -7640341.592 7  -5953518.77045  23389028.2324                 
  23133701.799    -8686952.630 7  -6769058.19545  23133704.4984                 
  23604563.757    -7031274.297 6  -5478915.75045  23604565.9104                 
  24184418.778    -1572962.207 6  -1225685.05345  24184420.2474                 
  19792174.051   -23475259.181 9 -18292412.87847  19792175.0494                 
  20839160.505   -21143293.137 9 -16475295.28846  20839160.5084                 
 97  1  9  1 21 30.0000000  0  7  6  1 23  5 21 17 25
  22526550.066   -10234679.454 7  -7975079.11945  22526550.8804                 
  23398134.735    -7592476.472 7  -5916221.30345  23398139.6244                 
  23121067.891    -8753343.751 7  -6820791.53045  23121070.4184                 
  23613642.739    -6983565.351 6  -5441740.00245  23613643.4724                 
  24170243.055    -1647452.349 6  -1283729.32745  24170242.5284                 
  19794139.110   -23464932.208 9 -18284365.89147  19794140.0334                 
  20832602.981   -21177753.471 9 -16502147.50846  20832603.0304                 
 97  1  9  1 22  0.0000000  0  7  6  1 23  5 21 17 25
  22537591.819   -10176654.460 7  -7929864.86545  22537592.6304                 
  23407225.524    -7544708.944 7  -5878999.89245  23407226.8234                 
  23108423.154    -8819793.479 7  -6872570.53845  23108425.6224                 
  23622770.260    -6935598.432 6  -5404363.21945  23622772.4374                 
  24156019.388    -1722195.908 6  -1341971.07945  24156021.5044                 
  19796219.399   -23454001.066 9 -18275848.11947  19796220.3834                 
  20826139.983   -21211716.196 9 -16528611.97946  20826139.9584                 
 97  1  9  1 22 30.0000000  0  7  6 23  1  5 21 17 25
  22548614.064   -10118733.065 7  -7884731.34445  22548615.3774                 
  23095766.251    -8886304.715 7  -6924397.48845  23095767.8844                 
  23416302.678    -7497002.791 6  -5841826.31945  23416305.5044                 
  23631943.038    -6887396.771 6  -5366803.53445  23631944.4774                 
  24141752.693    -1797172.171 6  -1400394.13645  24141756.0194                 
  19798415.042   -23442462.555 9 -18266857.07647  19798415.9744                 
  20819770.944   -21245186.694 9 -16554692.90046  20819770.9594                 
 97  1  9  1 23  0.0000000  0  7  6 23  1  5 21 17 25
  22559619.465   -10060898.810 7  -7839665.73045  22559621.5234                 
  23083098.116    -8952875.386 7  -6976270.72045  23083100.5224                 
  23425371.013    -7449350.298 7  -5804694.55245  23425371.5904                 
  23641159.203    -6838964.252 6  -5329063.95745  23641163.7974                 
  24127448.036    -1872344.767 6  -1458970.15245  24127451.2914                 
  19800725.802   -23430319.605 9 -18257395.04247  19800726.7014                 
  20813494.310   -21278169.781 9 -16580394.02046  20813494.4694                 
 97  1  9  1 23 30.0000000  0  7  6 23  1  5 21 17 25
  22570607.393   -10003157.170 7  -7794672.26945  22570608.2214                 
  23070416.211    -9019521.325 7  -7028202.64745  23070417.7894                 
  23434427.467    -7401755.970 6  -5767608.13045  23434430.7824                 
  23650416.582    -6790317.992 6  -5291157.79145  23650420.1004                 
  24113106.939    -1947703.685 6  -1517691.39245  24113110.4334                 
  19803148.514   -23417587.644 9 -18247474.03547  19803149.4164                 
  20807312.401   -21310656.284 9 -16605708.18646  20807312.4254                 
 97  1  9  1 24  0.0000000  0  7  6 23  1  5 21 17 25
  22581576.760    -9945515.727 7  -7749756.89245  22581577.4094                 
  23057717.736    -9086251.532 7  -7080200.20245  23057721.3004                 
  23443472.455    -7354227.829 7  -5730573.22845  23443473.8944                 
  23659712.843    -6741463.958 6  -5253089.76145  23659714.1834                 
  24098728.309    -2023268.855 6  -1576573.34945  24098729.8724                 
  19805684.190   -23404262.002 9 -18237090.42247  19805685.1594                 
  20801225.890   -21342641.534 9 -16630631.76846  20801226.0364                 
 97  1  9  1 24 30.0000000  0  7  6 23  1  5 21 17 25
  22592527.033    -9887968.595 7  -7704915.00345  22592528.6594                 
  23045006.472    -9153050.888 7  -7132251.64045  23045008.8924                 
  23452499.911    -7306784.242 6  -5693604.25445  23452502.7074                 
  23669054.945    -6692374.093 6  -5214837.97245  23669058.0464                 
  24084306.520    -2099051.345 6  -1635624.61645  24084307.2484                 
  19808332.803   -23390343.377 9 -18226244.74447  19808333.8104                 
  20795235.585   -21374120.093 9 -16655160.52546  20795235.6174                 
 97  1  9  1 25  0.0000000  0  7  6 23  1  5 21 17 25
  22603459.723    -9830518.438 7  -7660148.67945  22603459.9034                 
  23032280.527    -9219924.283 7  -7184360.78345  23032283.0444                 
  23461506.893    -7259452.685 6  -5656722.57045  23461508.4444                 
  23678446.284    -6643020.873 6  -5176380.95545  23678448.9124                 
  24069843.016    -2175061.163 6  -1694853.06545  24069846.0654                 
  19811093.166   -23375837.795 9 -18214941.69947  19811094.1924                 
  20789344.396   -21405078.989 9 -16679284.35246  20789344.6864                 
 97  1  9  1 25 30.0000000  0  7  6 23  1 21  5 17 25
  22614371.186    -9773178.630 7  -7615468.34645  22614372.3404                 
  23019540.762    -9286873.794 7  -7236529.23045  23019542.1444                 
  23470492.783    -7212236.079 7  -5619930.43645  23470492.4844                 
  24055331.416    -2251319.072 6  -1754274.79245  24055335.4594                 
  23687892.765    -6593381.646 6  -5137701.07345  23687893.9984                 
  19813967.135   -23360735.020 9 -18203173.30747  19813968.2754                 
  20783551.633   -21435520.171 9 -16703004.76646  20783551.5904                 
 97  1  9  1 26  0.0000000  0  7  6 23  1 21  5 17 25
  22625262.749    -9715942.096 7  -7570868.48645  22625263.6244                 
  23006787.562    -9353890.920 7  -7288750.36545  23006789.8384                 
  23479454.454    -7165141.698 7  -5583233.56545  23479455.9174                 
  24040769.124    -2327839.763 6  -1813901.31245  24040772.8734                 
  23697395.642    -6543440.823 6  -5098786.20745  23697399.1184                 
  19816956.541   -23345025.581 9 -18190932.18847  19816957.5874                 
  20777856.957   -21465446.260 9 -16726323.80946  20777857.0844                 
 97  1  9  1 26 30.0000000  0  7  6 23  1 21  5 17 25
  22636135.202    -9658807.343 7  -7526347.93345  22636136.1434                 
  22994021.181    -9420978.923 7  -7341026.72245  22994022.3254                 
  23488390.261    -7118182.113 6  -5546641.74045  23488392.2274                 
  24026161.400    -2404610.972 6  -1873723.00245  24026164.5194                 
  23706956.884    -6493197.285 6  -5059635.44645  23706958.4854                 
  19820062.106   -23328706.361 9 -18178215.91847  19820063.1244                 
  20772259.636   -21494860.150 9 -16749243.73646  20772259.5894                 
 97  1  9  1 27  0.0000000  0  7  6 23  1 21  5 17 25
  22646988.485    -9601772.094 7  -7481904.91645  22646989.5264                 
  22981240.997    -9488139.759 7  -7393359.85045  22981243.4104                 
  23497301.987    -7071347.802 6  -5510147.50445  23497304.2724                 
  24011503.729    -2481634.046 6  -1933740.98645  24011508.2704                 
  23716573.463    -6442662.395 6  -5020257.68845  23716574.4844                 
  19823284.395   -23311772.796 9 -18165020.93347  19823285.3834                 
  20766757.477   -21523774.391 9 -16771774.32646  20766757.7074                 
 97  1  9  1 27 30.0000000  0  7  6 23  1 21  5 17 25
  22657822.661    -9544839.057 7  -7437541.54645  22657822.8264                 
  22968450.558    -9555353.067 7  -7445733.84845  22968452.8124                 
  23506191.418    -7024637.976 7  -5473750.28145  23506193.3034                 
  23996797.831    -2558911.931 6  -1993957.51345  23996802.8104                 
  23726241.100    -6391857.540 6  -4980669.53045  23726241.7474                 
  19826622.295   -23294232.857 9 -18151353.45247  19826623.2194                 
  20761351.154   -21552184.096 9 -16793911.76946  20761351.2664                 
 97  1  9  1 28  0.0000000  0  7  6 23  1 21  5 17 25
  22668639.500    -9487995.873 7  -7393248.19345  22668640.6934                 
  22955652.536    -9622608.668 7  -7498140.80845  22955654.3154                 
  23515056.482    -6978051.461 6  -5437449.12945  23515058.1314                 
  23982046.260    -2636434.217 6  -2054364.47545  23982048.9554                 
  23735957.193    -6340802.197 6  -4940886.23845  23735958.8674                 
  19830071.823   -23276104.507 9 -18137227.46847  19830072.7404                 
  20756043.968   -21580074.204 9 -16815644.32946  20756044.0714                 
 97  1  9  1 28 30.0000000  0  7  6 23  1 21  5 17 25
  22679439.628    -9431242.164 7  -7349024.54745  22679440.2474                 
  22942847.632    -9689896.653 7  -7550572.99345  22942850.4324                 
  23523898.166    -6931589.359 6  -5401244.94545  23523898.8574                 
  23967253.127    -2714168.962 6  -2114936.97545  23967257.9634                 
  23745719.421    -6289500.484 6  -4900910.90045  23745720.0274                 
  19833633.981   -23257386.260 9 -18122641.82447  19833635.0294                 
  20750833.972   -21607453.211 9 -16836978.63146  20750833.8424                 
 97  1  9  1 29  0.0000000  0  7  6 23  1 21  5 17 25
  22690221.512    -9374581.057 7  -7304873.07645  22690223.9184                 
  22930039.334    -9757205.466 7  -7603021.42245  22930041.6164                 
  23532719.119    -6885234.114 6  -5365124.04845  23532722.7814                 
  23952421.869    -2792110.206 6  -2175670.42045  23952425.3984                 
  23755528.492    -6237952.816 6  -4860743.94945  23755530.6604                 
  19837305.762   -23238090.793 9 -18107606.39747  19837306.6794                 
  20745720.090   -21634326.114 9 -16857918.56646  20745720.0224                 
 97  1  9  1 29 30.0000000  0  7 23  6  1 21  5 17 25
  22917226.213    -9824540.052 7  -7655489.92345  22917228.4294                 
  22700983.082    -9318030.813 7  -7260807.98445  22700984.8084                 
  23541520.212    -6838985.349 6  -5329086.10245  23541522.5224                 
  23937553.399    -2870247.443 6  -2236556.55945  23937555.2694                 
  23765383.007    -6186166.582 6  -4820391.11845  23765387.7474                 
  19841088.238   -23218213.663 9 -18092117.72847  19841089.2244                 
  20740704.115   -21660685.281 9 -16878458.18646  20740704.1374                 
 97  1  9  1 30  0.0000000  0  7 23  6  1 21  5 17 25
  22904406.650    -9891906.573 7  -7707983.31045  22904408.6274                 
  22711723.703    -9261587.511 7  -7216826.22445  22711725.4424                 
  23550301.502    -6792836.182 6  -5293125.75545  23550305.4294                 
  23922647.484    -2948576.132 6  -2297591.88945  23922650.1174                 
  23775287.074    -6134121.851 6  -4779836.80045  23775285.6314                 
  19844985.143   -23197735.257 9 -18076160.53147  19844986.1214                 
  20735780.560   -21686557.938 9 -16898618.70946  20735780.4834                 
 97  1  9  1 30 30.0000000  0  7 23  6  1 21  5 17 25
  22891580.957    -9959306.345 7  -7760502.61545  22891583.2624                 
  22722441.738    -9205265.053 7  -7172938.62645  22722443.0174                 
  23559063.789    -6746789.899 6  -5257245.59145  23559068.0754                 
  23907706.128    -3027093.253 6  -2358774.06745  23907709.8064                 
  23785242.358    -6081804.188 6  -4739069.86845  23785243.6944                 
  19849000.114   -23176636.102 9 -18059719.63447  19849001.0454                 
  20730946.341   -21711962.966 9 -16918414.84346  20730946.2814                 
 97  1  9  1 31  0.0000000  0  7 23  6  1 21  5 17 25
  22878747.020   -10026748.308 7  -7813054.77745  22878749.6024                 
  22733135.880    -9149065.770 7  -7129147.02145  22733137.3934                 
  23567807.746    -6700846.210 6  -5221445.30745  23567809.3134                 
  23892725.968    -3105818.539 6  -2420118.42345  23892728.2204                 
  23795250.649    -6029211.220 6  -4698088.39045  23795252.8424                 
  19853133.026   -23154917.130 9 -18042795.76647  19853134.0474                 
  20726203.435   -21736887.431 9 -16937836.51546  20726203.3804                 
 97  1  9  1 31 30.0000000  0  7 23  6  1 21  5 17 25
  22865905.414   -10094231.342 7  -7865638.95445  22865906.9674                 
  22743808.827    -9092979.806 7  -7085443.69345  22743810.1234                 
  23576527.056    -6655022.929 6  -5185738.92545  23576529.6694                 
  23877704.687    -3184753.287 6  -2481625.99745  23877707.1764                 
  23805312.264    -5976336.657 6  -4656887.47345  23805315.3574                 
  19857384.219   -23132577.134 9 -18025387.98347  19857385.1514                 
  20721553.287   -21761323.333 9 -16956877.48447  20721553.3594                 
 97  1  9  1 32  0.0000000  0  7 23  6  1 21  5 17 25
  22853058.313   -10161744.923 7  -7918246.93945  22853059.7234                 
  22754463.234    -9036990.332 7  -7041815.56445  22754464.0884                 
  23585221.983    -6609326.649 6  -5150131.48645  23585223.9374                 
  23862643.877    -3263898.476 6  -2543297.51245  23862646.6194                 
  23815430.002    -5923170.336 6  -4615459.22045  23815429.3654                 
  19861751.307   -23109628.137 9 -18007505.65247  19861752.3944                 
  20716998.321   -21785260.602 9 -16975529.91046  20716998.3994                 
 97  1  9  1 32 30.0000000  0  7 23  6  1 21  5 17 25
  22840204.986   -10229287.651 7  -7970877.63845  22840206.7314                 
  22765095.818    -8981116.407 7  -6998277.47945  22765097.2684                 
  23593893.468    -6563763.388 6  -5114627.68445  23593895.9164                 
  23847543.836    -3343248.429 6  -2605128.62645  23847547.3914                 
  23825600.303    -5869725.921 6  -4573814.29845  23825601.7944                 
  19866230.987   -23086087.765 9 -17989162.51247  19866231.8674                 
  20712542.701   -21808675.568 9 -16993775.35046  20712542.6934                 
 97  1  9  1 33  0.0000000  0  7 23  6  1 21  5 17 25
  22827348.182   -10296852.453 7  -8023525.51745  22827350.6844                 
  22775705.675    -8925361.955 7  -6954832.48045  22775706.1284                 
  23602537.296    -6518340.733 6  -5079233.45345  23602539.2614                 
  23832402.897    -3422815.127 6  -2667128.62445  23832406.1684                 
  23835822.036    -5816008.329 6  -4531956.51045  23835825.4454                 
  19870818.630   -23061979.439 9 -17970376.81147  19870819.6954                 
  20708188.564   -21831556.480 9 -17011604.64047  20708188.5104                 
 97  1  9  1 33 30.0000000  0  7 23  6  1 21  5 17 25
  22814489.362   -10364425.167 7  -8076179.58745  22814491.4264                 
  22786291.853    -8869731.286 7  -6911483.94945  22786293.7354                 
  23611154.961    -6473053.847 6  -5043945.00645  23611156.2804                 
  23817220.783    -3502598.350 6  -2729297.39745  23817222.5004                 
  23846097.272    -5762012.300 6  -4489881.72745  23846100.9744                 
  19875514.225   -23037303.791 9 -17951149.04047  19875515.2284                 
  20703937.403   -21853896.670 9 -17029012.59246  20703937.4704                 
 97  1  9  1 34  0.0000000  0  7 23  6  1 21  5 17 25
  22801628.349   -10432010.387 7  -8128843.36345  22801629.8404                 
  22796851.201    -8814240.600 7  -6868244.48145  22796852.8554                 
  23619746.023    -6427902.258 6  -5008761.99145  23619749.3784                 
  23801996.453    -3582601.648 6  -2791637.59345  23801997.7064                 
  23856424.183    -5707744.910 6  -4447595.51345  23856425.8784                 
  19880319.847   -23012050.382 9 -17931471.06547  19880320.9104                 
  20699789.223   -21875695.464 9 -17045998.67347  20699789.3024                 
 97  1  9  1 34 30.0000000  0  7 23  6  1 21  5 17 25
  22788765.113   -10499607.612 7  -8181516.53745  22788766.1664                 
  22807383.659    -8758892.232 7  -6825115.91145  22807386.0134                 
  23628310.618    -6382898.729 6  -4973694.34445  23628312.5994                 
  23786731.444    -3662817.523 6  -2854143.43345  23786734.6274                 
  23866801.556    -5653211.702 6  -4405102.17445  23866802.9754                 
  19885235.437   -22986219.031 9 -17911342.74547  19885236.4614                 
  20695741.909   -21896963.934 9 -17062571.51947  20695742.0444                 
 97  1  9  1 35  0.0000000  0  7 23  6  1 21  5 17 25
  22775898.657   -10567219.908 7  -8234201.42545  22775899.9654                 
  22817895.171    -8703656.708 7  -6782075.27945  22817896.4024                 
  23636847.477    -6338041.679 6  -4938740.84345  23636849.1604                 
  23771427.196    -3743241.955 6  -2916811.81745  23771429.5214                 
  23877230.917    -5598405.228 6  -4362395.89345  23877231.6694                 
  19890260.694   -22959810.630 9 -17890764.77647  19890261.7874                 
  20691794.803   -21917706.141 9 -17078734.28947  20691794.8274                 
 97  1  9  1 35 30.0000000  0  7 23  6  1 21  5 17 25
  22763028.553   -10634852.907 7  -8286902.45845  22763030.7094                 
  22828385.411    -8648528.392 7  -6739118.17245  22828387.0644                 
  23645355.101    -6293325.776 6  -4903897.34145  23645357.2204                 
  23756086.695    -3823859.433 6  -2979630.59045  23756089.7444                 
  23887710.147    -5543335.756 6  -4319484.69745  23887714.2014                 
  19895398.149   -22932813.137 9 -17869727.77647  19895399.1034                 
  20687947.643   -21937923.568 9 -17094488.14147  20687947.6144                 
 97  1  9  1 36  0.0000000  0  7 23  6  1 21  5 17 25
  22750152.577   -10702516.915 7  -8339627.65245  22750153.6174                 
  22838855.367    -8593507.231 7  -6696244.57245  22838857.3274                 
  23653835.669    -6248764.807 6  -4869174.56645  23653838.7224                 
  23740712.063    -3904651.114 6  -3042585.14545  23740715.4584                 
  23898236.909    -5488018.998 6  -4276380.73245  23898238.9284                 
  19900646.177   -22905234.022 9 -17848237.56147  19900647.2074                 
  20684199.051   -21957622.578 9 -17109838.03047  20684198.8994                 
 97  1  9  1 36 30.0000000  0  7 23  6  1 21  5 17 25
  22737274.982   -10770189.267 7  -8392359.34245  22737276.5374                 
  22849305.755    -8538591.825 7  -6653453.39645  22849307.0244                 
  23662286.609    -6204354.966 6  -4834569.51245  23662288.6884                 
  23725309.511    -3985598.024 6  -3105660.63945  23725314.2124                 
  23908810.666    -5432454.357 6  -4233083.68445  23908812.7434                 
  19906002.911   -22877084.591 9 -17826302.94547  19906004.0384                 
  20680548.741   -21976805.292 9 -17124785.60947  20680548.6864                 
 97  1  9  1 37  0.0000000  0  7 23  6  1 21  5 17 25
  22724397.609   -10837859.951 7  -8445089.75445  22724399.2044                 
  22859733.111    -8483796.077 7  -6610755.43845  22859734.3794                 
  23670710.380    -6160088.145 6  -4800075.94145  23670714.7894                 
  23709873.384    -4066709.916 6  -3168864.68845  23709875.9274                 
  23919431.750    -5376637.988 6  -4189590.49345  23919435.7874                 
  19911469.462   -22848357.566 9 -17803918.25447  19911470.5114                 
  20676998.513   -21995461.618 9 -17139323.01647  20676998.6794                 
 97  1  9  1 37 30.0000000  0  7 23  6  1 21  5 17 25
  22711525.016   -10905507.769 7  -8497802.33145  22711527.3104                 
  22870134.793    -8429134.367 7  -6568161.94445  22870135.7074                 
  23679103.436    -6115981.699 6  -4765707.36845  23679106.0104                 
  23694408.302    -4147982.221 6  -3232193.77545  23694413.1214                 
  23930099.488    -5320580.973 6  -4145909.76845  23930100.8524                 
  19917047.868   -22819043.503 9 -17781076.13147  19917048.7704                 
  20673549.068   -22013588.661 9 -17153447.99947  20673549.3224                 
 97  1  9  1 38  0.0000000  0  7 23  6  1 21  5 17 25
  22698658.256   -10973120.698 7  -8550487.73745  22698660.2914                 
  22880513.089    -8374596.618 7  -6525665.02645  22880514.3674                 
  23687465.003    -6072042.505 6  -4731469.08245  23687466.8694                 
  23678909.021    -4229423.888 6  -3295654.77945  23678910.3274                 
  23940814.240    -5264272.330 6  -4102032.96245  23940817.2754                 
  19922737.535   -22789143.880 9 -17757777.72947  19922738.5744                 
  20670198.510   -22031195.867 9 -17167167.91247  20670198.6984                 
 97  1  9  1 38 30.0000000  0  7 23  6  1 21  5 17 25
  22685802.274   -11040680.430 7  -8603131.66545  22685804.0544                 
  22890869.426    -8320173.296 7  -6483257.28945  22890871.2824                 
  23695796.051    -6028261.537 6  -4697354.07445  23695797.5814                 
  23663376.185    -4311055.346 6  -3359263.67845  23663379.5034                 
  23951580.477    -5207697.826 6  -4057948.99845  23951583.2754                 
  19928539.888   -22758652.487 9 -17734018.20547  19928540.8514                 
  20666945.785   -22048289.465 9 -17180487.60947  20666945.8044                 
 97  1  9  1 39  0.0000000  0  7 23  6  1 21  5 17 25
  22672952.016   -11108209.146 7  -8655751.44745  22672952.9714                 
  22901206.726    -8265849.565 7  -6440927.14045  22901208.1934                 
  23704095.973    -5984646.506 6  -4663368.41245  23704099.8654                 
  23647803.903    -4392888.082 6  -3423029.45045  23647808.7084                 
  23962397.087    -5150855.347 6  -4013656.21545  23962397.3404                 
  19934453.875   -22727574.289 9 -17709801.43447  19934454.8074                 
  20663790.485   -22064870.564 9 -17193407.95747  20663790.5464                 
 97  1  9  1 39 30.0000000  0  7 23  6  1 21  5 17 25
  22660104.288   -11175722.528 7  -8708359.28845  22660106.1284                 
  22911527.356    -8211614.379 7  -6398665.98945  22911528.6634                 
  23712362.896    -5941203.963 6  -4629517.11545  23712365.8394                 
  23632193.911    -4474920.458 6  -3486950.76045  23632196.6334                 
  23973265.365    -5093742.879 6  -3969153.06045  23973269.4694                 
  19940477.266   -22695921.225 9 -17685136.71447  19940478.2384                 
  20660730.807   -22080949.004 9 -17205936.62047  20660730.7784                 
 97  1  9  1 40  0.0000000  0  7 23  6  1 21  5 17 25
  22647259.672   -11243222.893 7  -8760956.96245  22647262.4514                 
  22921829.206    -8157478.834 7  -6356482.48145  22921831.1774                 
  23720598.906    -5897921.191 6  -4595790.33645  23720599.9734                 
  23616544.303    -4557157.133 6  -3551031.29545  23616547.6704                 
  23984187.291    -5036348.840 6  -3924430.48045  23984188.2874                 
  19946607.007   -22663709.247 9 -17660036.47747  19946608.0944                 
  20657767.616   -22096520.309 9 -17218070.11847  20657767.7874                 
 97  1  9  1 40 30.0000000  0  7 23  6  1 21  5 17 25
  22634417.557   -11310707.955 7  -8813542.72545  22634419.2144                 
  22932107.867    -8103463.885 7  -6314392.94545  22932109.2864                 
  23728803.075    -5854806.568 6  -4562194.59845  23728804.3644                 
  23600860.380    -4639581.160 6  -3615257.77445  23600862.1994                 
  23995162.040    -4978674.159 6  -3879489.27345  23995165.5614                 
  19952840.536   -22630951.157 9 -17634510.69847  19952841.5484                 
  20654901.795   -22111580.344 9 -17229805.21947  20654902.0724                 
 97  1  9  1 41  0.0000000  0  7 23  6  1 21  5 17 25
  22621577.148   -11378184.835 7  -8866122.11945  22621579.0594                 
  22942360.561    -8049586.835 7  -6272410.86345  22942362.0884                 
  23736974.519    -5811869.320 6  -4528737.06045  23736978.0074                 
  23585141.674    -4722177.285 6  -3679618.35845  23585144.4014                 
  24006191.600    -4920715.053 6  -3834326.36045  24006195.4784                 
  19959177.596   -22597650.057 9 -17608561.79447  19959178.6564                 
  20652134.197   -22126124.130 9 -17241138.05347  20652134.3784                 
 97  1  9  1 41 30.0000000  0  7 23  6  1 21  5 17 25
  22608742.173   -11445632.568 7  -8918678.78345  22608744.8244                 
  22952583.425    -7995865.909 7  -6230550.43845  22952584.7274                 
  23745114.416    -5769094.770 6  -4495406.28145  23745116.1064                 
  23569392.165    -4804945.429 6  -3744113.01645  23569396.1444                 
  24017274.486    -4862474.026 6  -3788943.79145  24017277.8374                 
  19965620.078   -22563794.194 9 -17582180.61147  19965621.0354                 
  20649466.578   -22140143.323 9 -17252062.10847  20649466.5664                 
 97  1  9  1 42  0.0000000  0  7 23  6  1 21  5 17 25
  22595917.031   -11513029.648 7  -8971195.98745  22595919.2054                 
  22962773.247    -7942316.049 7  -6188823.32445  22962775.6904                 
  23753225.387    -5726471.818 6  -4462193.68045  23753229.3894                 
  23553609.868    -4887878.779 6  -3808736.39045  23553613.7654                 
  24028409.786    -4803959.094 6  -3743347.80345  24028411.6564                 
  19972168.484   -22529382.159 9 -17555366.04647  19972169.5464                 
  20646900.093   -22153630.524 9 -17262571.63047  20646900.3234                 
 97  1  9  1 42 30.0000000  0  7 23  6 21  1  5 17 25
  22583097.951   -11580393.956 7  -9023687.65445  22583099.5644                 
  22972934.350    -7888921.028 7  -6147216.83345  22972935.0934                 
  23537798.709    -4970969.693 6  -3873482.51545  23537801.9404                 
  23761305.552    -5684010.201 6  -4429106.74445  23761307.6434                 
  24039596.362    -4745172.932 6  -3697540.47745  24039599.6354                 
  19978825.382   -22494400.374 9 -17528107.52247  19978826.5544                 
  20644432.448   -22166597.531 9 -17272675.80347  20644432.5174                 
 97  1  9  1 43  0.0000000  0  7 23  6 21  1  5 17 25
  22570284.402   -11647729.397 7  -9076156.82645  22570286.4364                 
  22983067.569    -7835671.007 7  -6105723.34345  22983069.5604                 
  23521954.772    -5054228.783 6  -3938359.70345  23521955.4684                 
  23769355.788    -5641702.907 6  -4396140.09345  23769359.7774                 
  24050833.850    -4686120.784 6  -3651525.90045  24050835.7234                 
  19985594.381   -22458829.098 9 -17500389.65347  19985595.4494                 
  20642065.390   -22179036.318 9 -17282368.37447  20642065.4654                 
 97  1  9  1 43 30.0000000  0  7 23  6 21  1  5 17 25
  22557477.403   -11715031.552 7  -9128600.04845  22557480.4554                 
  22993173.937    -7782561.333 7  -6064339.21645  22993175.1814                 
  23506079.206    -5137655.378 6  -4003367.41645  23506080.7344                 
  23777376.886    -5599553.879 6  -4363296.74145  23777379.4334                 
  24062120.693    -4626805.949 6  -3605306.61145  24062124.5974                 
  19992474.991   -22422671.086 9 -17472214.59047  19992476.0234                 
  20639798.476   -22190950.234 9 -17291651.95547  20639798.6004                 
 97  1  9  1 44  0.0000000  0  7 23  6 21  1  5 17 25
  22544674.687   -11782311.151 7  -9181025.71545  22544676.4634                 
  23003256.695    -7729574.407 7  -6023050.75445  23003259.4664                 
  23490177.133    -5221222.712 6  -4068484.79445  23490178.6434                 
  23785362.535    -5557590.299 6  -4330597.92245  23785363.9244                 
  24073460.646    -4567215.153 6  -3558872.25545  24073461.7154                 
  19999465.391   -22385936.497 9 -17443590.24547  19999466.4564                 
  20637628.267   -22202354.592 9 -17300538.47647  20637628.4284                 
 97  1  9  1 44 30.0000000  0  7 23  6 21  1  5 17 25
  22531874.741   -11849574.736 7  -9233438.88545  22531876.8124                 
  23013321.127    -7676686.122 7  -5981839.13545  23013322.5224                 
  23474248.768    -5304927.707 6  -4133709.47745  23474249.7584                 
  23793308.350    -5515833.529 6  -4298060.23945  23793311.1104                 
  24084854.408    -4507339.831 6  -3512216.25245  24084859.3994                 
  20006565.901   -22348622.831 9 -17414514.67247  20006567.0174                 
  20635553.157   -22213259.417 9 -17309035.75147  20635553.4684                 
 97  1  9  1 45  0.0000000  0  7 23  6 21  1  5 17 25
  22519081.630   -11916803.241 7  -9285824.72645  22519083.4184                 
  23023364.535    -7623908.972 7  -5940714.10645  23023365.8004                 
  23458294.037    -5388763.439 6  -4199035.98345  23458298.3164                 
  23801216.909    -5474275.719 6  -4265677.59345  23801219.8934                 
  24096302.291    -4447182.419 6  -3465340.42345  24096302.1734                 
  20013773.099   -22310748.811 9 -17385002.45847  20013774.2744                 
  20633574.899   -22223655.490 9 -17317136.59647  20633575.0014                 
 97  1  9  1 45 30.0000000  0  7 23  6 21  1  5 17 25
  22506294.910   -11983997.106 7  -9338183.57445  22506296.2374                 
  23033387.963    -7571235.723 7  -5899670.06045  23033389.0164                 
  23442318.822    -5472723.678 7  -4264459.50945  23442320.2164                 
  23809087.170    -5432917.658 6  -4233450.58345  23809090.0094                 
  24107803.783    -4386741.312 6  -3418243.50445  24107807.6594                 
  20021081.125   -22272345.044 9 -17355077.45447  20021082.1474                 
  20631692.275   -22233547.869 9 -17324844.95347  20631692.5244                 
 97  1  9  1 46  0.0000000  0  7 23  6 21  1  5 17 25
  22493515.220   -12051155.725 7  -9390514.96445  22493516.9774                 
  23043392.875    -7518659.602 7  -5858701.66945  23043394.7224                 
  23426316.334    -5556810.151 6  -4329981.44945  23426319.3394                 
  23816920.199    -5391753.053 6  -4201374.32745  23816920.1484                 
  24119356.811    -4326031.777 6  -3370937.43445  24119359.8724                 
  20028488.621   -22233418.452 9 -17324745.05247  20028489.7304                 
  20629906.917   -22242930.833 9 -17332156.36747  20629906.9964                 
 97  1  9  1 46 30.0000000  0  7 23  6 21  1  5 17 25
  22480744.088   -12118267.742 7  -9442810.03345  22480745.0154                 
  23053375.977    -7466197.566 7  -5817822.21945  23053377.9394                 
  23410287.392    -5641043.172 6  -4395617.54945  23410292.8604                 
  23824721.351    -5350758.872 6  -4169430.86645  23824725.1174                 
  24130956.712    -4265073.192 6  -3323437.31645  24130958.5004                 
  20035995.627   -22193968.757 9 -17294005.03847  20035996.6734                 
  20628220.999   -22251790.024 9 -17339059.64047  20628221.2054                 
 97  1  9  1 47  0.0000000  0  7 23 21  6  1  5 17 25
  22467984.416   -12185319.876 7  -9495058.44145  22467986.8784                 
  23394230.655    -5725422.423 6  -4461367.57245  23394234.6534                 
  23063334.874    -7413862.560 7  -5777041.72045  23063336.0274                 
  23832495.504    -5309908.683 6  -4137599.60345  23832499.1024                 
  24142602.765    -4203872.059 6  -3275748.19645  24142606.4854                 
  20043603.026   -22153991.681 9 -17262854.07747  20043604.0744                 
  20626636.594   -22260116.797 9 -17345548.04647  20626636.6814                 
 97  1  9  1 47 30.0000000  0  7 23 21  6  1  5 17 25
  22455237.853   -12252304.231 7  -9547254.02845  22455239.6294                 
  23378143.370    -5809962.980 7  -4527243.33145  23378143.2264                 
  23073270.851    -7361649.904 7  -5736356.56545  23073273.1144                 
  23840239.566    -5269208.872 6  -4105885.51545  23840241.5674                 
  24154295.222    -4142428.595 6  -3227870.24445  24154298.2574                 
  20051313.540   -22113472.311 9 -17231280.55147  20051314.5854                 
  20625152.626   -22267914.962 9 -17351624.54947  20625152.8474                 
 97  1  9  1 48  0.0000000  0  7 23  6 21  1  5 17 25
  22442507.011   -12319204.242 7  -9599383.90545  22442509.2054                 
  23083180.917    -7309571.998 7  -5695776.41145  23083182.5684                 
  23362026.260    -5894657.737 6  -4593239.22245  23362028.4314                 
  23847955.229    -5228665.085 6  -4074293.04145  23847957.0484                 
  24166033.456    -4080745.938 6  -3179805.91845  24166036.7864                 
  20059130.960   -22072391.739 9 -17199269.72347  20059131.9574                 
  20623768.918   -22275186.093 9 -17357290.37747  20623769.1864                 
 97  1  9  1 48 30.0000000  0  7 23 21  6  1  5 17 25
  22429794.033   -12386012.860 7  -9651442.55545  22429796.3314                 
  23345880.031    -5979507.229 6  -4659355.69745  23345882.4704                 
  23093064.181    -7257635.343 7  -5655306.33245  23093065.5344                 
  23855637.720    -5188292.088 6  -4042833.63045  23855639.2924                 
  24177818.779    -4018812.290 6  -3131546.00445  24177825.7684                 
  20067055.685   -22030746.935 9 -17166819.23347  20067056.7964                 
  20622484.844   -22281933.744 9 -17362548.29747  20622484.9334                 
 97  1  9  1 49  0.0000000  0  7 23 21  6  1  5 17 25
  22417097.650   -12452732.514 7  -9703431.89045  22417099.2224                 
  23329704.078    -6064511.617 6  -4725592.86145  23329706.9564                 
  23102921.433    -7205834.704 7  -5614942.21845  23102923.4224                 
  23863282.482    -5148120.166 6  -4011530.91845  23863284.8894                 
  24189654.902    -3956612.829 6  -3083078.92945  24189657.3754                 
  20075086.583   -21988544.213 9 -17133934.00247  20075087.6744                 
  20621299.699   -22288162.139 9 -17367401.60447  20621299.8744                 
 97  1  9  1 49 30.0000000  0  7 23 21  6  1  5 17 25
  22404416.763   -12519370.881 7  -9755357.89145  22404419.6394                 
  23313500.124    -6149664.901 6  -4791946.06845  23313501.0844                 
  23112752.115    -7154173.924 7  -5574687.11545  23112753.8154                 
  23870881.598    -5108187.377 6  -3980414.51545  23870885.8544                 
  24201542.450    -3894143.881 6  -3034401.92345  24201546.2994                 
  20083219.822   -21945804.125 9 -17100630.04347  20083220.9644                 
  20620213.840   -22293867.768 9 -17371847.56047  20620214.0324                 
 97  1  9  1 50  0.0000000  0  7 23 21  6  1  5 17 25
  22391750.075   -12585932.774 7  -9807224.30345  22391752.2734                 
  23297269.594    -6234954.468 6  -4858405.44845  23297274.1814                 
  23122556.424    -7102652.776 7  -5534540.79445  23122557.8194                 
  23878432.460    -5068506.219 6  -3949494.19545  23878436.3754                 
  24213481.372    -3831404.463 6  -2985514.10845  24213484.2434                 
  20091452.270   -21902542.157 9 -17066919.42447  20091453.3734                 
  20619226.981   -22299053.551 9 -17375888.44247  20619227.2434                 
 97  1  9  1 50 30.0000000  0  7 23 21  6  1  5 17 25
  22379097.772   -12652422.549 7  -9859034.50245  22379099.4444                 
  23281014.014    -6320380.816 6  -4924971.38645  23281014.8664                 
  23132336.123    -7051259.899 7  -5494494.42845  23132337.2254                 
  23885936.727    -5029072.567 6  -3918766.73945  23885940.3394                 
  24225473.333    -3768386.010 6  -2936408.89145  24225473.0754                 
  20099783.088   -21858763.459 9 -17032806.16047  20099784.2874                 
  20618339.792   -22303715.930 9 -17379521.47447  20618339.9844                 
 97  1  9  1 51  0.0000000  0  7 23 21  6  1  5 17 25
  22366459.562   -12718836.388 7  -9910785.53945  22366462.1554                 
  23264733.732    -6405932.403 6  -4991634.94945  23264735.9424                 
  23142092.155    -6999991.021 7  -5454544.69345  23142093.0844                 
  23893395.859    -4989874.714 6  -3888223.02345  23893394.9744                 
  24237519.875    -3705083.854 6  -2887082.65745  24237526.3774                 
  20108212.093   -21814469.019 9 -16998291.01947  20108213.1014                 
  20617551.875   -22307856.939 9 -17382748.24847  20617552.0674                 
 97  1  9  1 51 30.0000000  0  7 23 21  6  1  5 17 25
  22353838.655   -12785160.734 7  -9962466.84445  22353840.5924                 
  23248433.156    -6491593.249 6  -5058383.66245  23248435.1574                 
  23151824.953    -6948844.861 7  -5414690.58845  23151826.6064                 
  23900813.868    -4950890.797 6  -3857846.01345  23900819.4644                 
  24249617.200    -3641509.273 6  -2837544.05245  24249621.8384                 
  20116740.162   -21769653.591 9 -16963369.91347  20116741.1794                 
  20616861.408   -22311485.623 9 -17385575.80947  20616861.4494                 
 97  1  9  1 52  0.0000000  0  7 23 21  6  1  5 17 25
  22341234.795   -12851393.215 7 -10014076.56045  22341237.6004                 
  23232111.882    -6577362.174 6  -5125216.55645  23232113.4964                 
  23161533.562    -6897827.335 7  -5374936.69245  23161535.3314                 
  23908196.599    -4912096.586 6  -3827616.85845  23908200.6254                 
  24261767.026    -3577664.156 6  -2787794.68945  24261769.7364                 
  20125369.408   -21724306.342 9 -16928034.40247  20125370.5314                 
  20616264.688   -22314620.655 9 -17388018.70547  20616264.9024                 
 97  1  9  1 52 30.0000000  0  7 23 21  6  1  5 17 25
  22328649.985   -12917527.597 7 -10065609.83445  22328651.4194                 
  23215770.093    -6663238.321 7  -5192133.00745  23215772.2354                 
  23171216.244    -6846945.334 7  -5335288.41845  23171218.3214                 
  23915544.816    -4873482.361 6  -3797527.88945  23915546.0894                 
  24273968.859    -3513540.540 6  -2737828.31345  24273974.7914                 
  20134100.904   -21678422.770 9 -16892280.97847  20134102.0304                 
  20615760.766   -22317269.280 9 -17390082.58347  20615760.8834                 
 97  1  9  1 53  0.0000000  0  7 23  1 21  5  6 17 25
  22316084.645   -12983556.652 7 -10117061.03045  22316086.9684                 
  23922856.473    -4835058.454 6  -3767587.26845  23922858.5324                 
  23199408.006    -6749221.166 6  -5259132.60845  23199408.5604                 
  24286221.399    -3449156.262 6  -2687658.85545  24286221.3834                 
  23180871.487    -6796204.603 7  -5295750.23545  23180873.4074                 
  20142932.713   -21632010.794 9 -16856115.81147  20142934.0414                 
  20615348.112   -22319438.288 9 -17391772.73047  20615348.2434                 
 97  1  9  1 53 30.0000000  0  7 23 21  6  1  5 17 25
  22303540.233   -13049480.766 7 -10168430.46545  22303542.0164                 
  23183024.814    -6835314.791 7  -5326218.52445  23183027.6894                 
  23190498.189    -6745618.426 7  -5256332.45445  23190499.4794                 
  23930131.340    -4796828.459 6  -3737797.74545  23930133.9064                 
  24298521.408    -3384518.880 6  -2637292.14645  24298527.4274                 
  20151863.820   -21585077.620 9 -16819544.51847  20151864.9854                 
  20615026.968   -22321125.834 9 -17393087.71247  20615027.1224                 
 97  1  9  1 54  0.0000000  0  7 23 21  6  1  5 17 25
  22291013.488   -13115308.213 7 -10219724.57345  22291015.0884                 
  23166620.500    -6921521.264 7  -5393392.37045  23166624.1864                 
  23200094.951    -6695187.621 7  -5217035.75445  23200096.4044                 
  23937367.737    -4758799.765 6  -3708165.08545  23937371.1644                 
  24310869.519    -3319629.381 6  -2586729.01845  24310874.0074                 
  20160892.738   -21537629.734 9 -16782572.14947  20160893.9794                 
  20614798.515   -22322326.414 9 -17394023.24047  20614798.6284                 
 97  1  9  1 54 30.0000000  0  7 23 21  6  1  5 17 25
  22278507.308   -13181028.861 7 -10270935.45345  22278508.8824                 
  23150195.106    -7007836.961 7  -5460651.32945  23150197.0734                 
  23209665.212    -6644894.774 7  -5177846.55945  23209666.5104                 
  23944565.137    -4720983.078 6  -3678697.60145  23944566.7524                 
  24323264.704    -3254493.199 6  -2535973.58345  24323267.7084                 
  20170019.656   -21489668.563 9 -16745199.81947  20170020.7594                 
  20614667.090   -22323017.076 9 -17394561.42947  20614667.2084                 
 97  1  9  1 55  0.0000000  0  7 23 21  6  1  5 17 25
  22266020.805   -13246644.383 7 -10322064.42345  22266023.1664                 
  23133749.279    -7094258.818 6  -5527993.00845  23133751.4014                 
  23219209.727    -6594737.170 7  -5138762.72945  23219210.6894                 
  23951721.400    -4683374.539 6  -3649392.32645  23951725.4774                 
  24335705.073    -3189118.909 6  -2485032.68545  24335706.1064                 
  20179243.233   -21441197.792 9 -16707430.40147  20179244.4764                 
  20614636.462   -22323177.584 9 -17394686.51747  20614636.6264                 
 97  1  9  1 55 30.0000000  0  7 23 21  6  1  5 17 25
  22253553.845   -13312161.406 8 -10373116.64045  22253554.6434                 
  23117285.648    -7180779.545 7  -5595411.75545  23117286.7624                 
  23228726.756    -6544724.913 7  -5099792.18245  23228727.9494                 
  23958839.749    -4645965.906 6  -3620242.80145  23958842.5294                 
  24348195.106    -3123483.976 6  -2433888.70445  24348199.3564                 
  20188565.050   -21392211.609 9 -16669259.36247  20188566.1214                 
  20614710.006   -22322791.806 9 -17394385.92447  20614710.2174                 
 97  1  9  1 56  0.0000000  0  7 23 21  6  1  5 17 25
  22241105.107   -13377577.916 7 -10424090.52845  22241107.4294                 
  23100803.424    -7267387.027 6  -5662898.08045  23100807.4234                 
  23238219.082    -6494843.025 7  -5060923.17845  23238219.8424                 
  23965918.562    -4608770.194 6  -3591259.17745  23965921.0854                 
  24360732.583    -3057595.990 6  -2382547.54244  24360733.6684                 
  20197983.987   -21342714.379 9 -16630690.10947  20197985.2074                 
  20614887.558   -22321858.847 9 -17393658.95647  20614887.7764                 
 97  1  9  1 56 30.0000000  0  7 23 21  6  1  5 17 25
  22228677.152   -13442888.316 8 -10474981.73545  22228679.2904                 
  23084305.715    -7354089.416 6  -5730458.35845  23084306.8924                 
  23247687.665    -6445086.892 7  -5022152.23045  23247688.5154                 
  23972954.797    -4571792.801 6  -3562445.71945  23972957.2124                 
  24373320.993    -2991446.623 6  -2331002.61944  24373320.5614                 
  20207499.334   -21292711.277 9 -16591726.66647  20207500.5944                 
  20615170.264   -22320373.131 9 -17392501.27147  20615170.5764                 
 97  1  9  1 57  0.0000000  0  7 23 21  6  1  5 17 25
  22216267.344   -13508101.594 8 -10525797.26645  22216269.3124                 
  23067787.343    -7440890.838 6  -5798095.80045  23067790.7604                 
  23257129.897    -6395466.279 7  -4983486.85245  23257130.9584                 
  23979950.798    -4535028.683 6  -3533798.46545  23979954.5754                 
  24385959.706    -2925031.374 6  -2279250.45544  24385964.9424                 
  20217110.549   -21242204.057 9 -16552370.40547  20217111.7464                 
  20615556.605   -22318343.236 9 -17390919.55147  20615556.8104                 
 97  1  9  1 57 30.0000000  0  7 23 21  6  1  5 17 25
  22203876.978   -13573213.778 8 -10576534.01645  22203878.9114                 
  23051251.820    -7527784.831 6  -5865805.38945  23051254.6534                 
  23266547.178    -6345977.498 7  -4944924.20645  23266548.6284                 
  23986903.481    -4498492.644 6  -3505328.88545  23986904.3324                 
  24398646.842    -2858358.818 6  -2227298.02845  24398647.2424                 
  20226817.188   -21191195.720 9 -16512623.66347  20226818.3824                 
  20616042.754   -22315787.845 9 -17388928.35247  20616042.8694                 
 97  1  9  1 58  0.0000000  0  7 23 21  6  1  5 17 25
  22191507.846   -13638213.026 8 -10627182.78345  22191510.0184                 
  23034699.130    -7614770.548 7  -5933586.46745  23034701.8984                 
  23275942.836    -6296604.401 7  -4906451.71845  23275944.4354                 
  23993811.891    -4462188.843 6  -3477040.30345  23993813.3104                 
  24411381.018    -2791439.656 6  -2175153.26945  24411382.8354                 
  20236617.506   -21139694.467 9 -16472492.83447  20236618.7104                 
  20616626.028   -22312723.129 9 -17386540.27747  20616626.4634                 
 97  1  9  1 58 30.0000000  0  7 23 21  6  1  5 17 25
  22179159.670   -13703103.459 8 -10677746.74045  22179161.3714                 
  23018127.132    -7701857.086 7  -6001446.07545  23018129.1814                 
  23285314.097    -6247357.639 7  -4868077.62045  23285317.2374                 
  24000678.901    -4426102.681 6  -3448921.26445  24000680.2464                 
  24424165.077    -2724261.489 6  -2122806.80645  24424170.8834                 
  20246512.544   -21087695.235 9 -16431973.96647  20246513.8154                 
  20617305.086   -22309154.928 9 -17383759.87547  20617305.3344                 
 97  1  9  1 59  0.0000000  0  7 23 21  6  1  5 17 25
  22166833.584   -13767877.582 8 -10728220.06845  22166835.4134                 
  23001540.738    -7789020.749 7  -6069365.77445  23001542.4324                 
  23294660.255    -6198242.304 7  -4829805.95245  23294661.7944                 
  24007504.298    -4390235.857 6  -3420973.20845  24007507.0254                 
  24436996.662    -2656831.161 6  -2070263.78345  24436999.1964                 
  20256501.847   -21035201.142 9 -16391069.49447  20256503.0724                 
  20618077.404   -22305096.025 9 -17380597.10847  20618077.7784                 
 97  1  9  1 59 30.0000000  0  7 23 21  6  1  5 17 25
  22154533.833   -13832513.295 8 -10778585.56145  22154536.2354                 
  22984941.545    -7876251.155 7  -6137337.53245  22984944.1684                 
  23303981.435    -6149259.797 7  -4791637.79745  23303982.4854                 
  24014286.459    -4354596.601 6  -3393202.44845  24014290.1584                 
  24449876.114    -2589146.858 6  -2017522.87344  24449882.8214                 
  20266581.227   -20982233.614 9 -16349796.11147  20266582.4924                 
  20618941.564   -22300555.985 9 -17377059.42947  20618941.9414                 
 97  1  9  2  0  0.0000000  0  7 23 21  6  1  5 17 25
  22142263.324   -13896995.033 8 -10828831.05345  22142265.7294                 
  22968326.063    -7963563.362 7  -6205372.97245  22968329.8224                 
  23313277.353    -6100409.268 7  -4753572.49145  23313280.5504                 
  24021025.013    -4319185.596 6  -3365609.53145  24021027.4404                 
  24462807.257    -2521197.815 6  -1964575.63744  24462808.0844                 
  20276751.999   -20928786.774 9 -16308149.23547  20276753.1884                 
  20619897.480   -22295532.557 9 -17373145.08347  20619897.5044                 
 97  1  9  2  0 30.0000000  0  7 23 21  6  1  5 17 25
  22130024.812   -13961309.283 8 -10878946.04945  22130026.7754                 
  22951696.525    -8050954.098 7  -6273469.64145  22951699.8354                 
  23322548.706    -6051690.838 7  -4715610.11245  23322550.7144                 
  24027718.018    -4284012.436 6  -3338201.94045  24027720.5974                 
  24475786.707    -2452987.775 6  -1911425.12344  24475792.7164                 
  20287015.234   -20874853.329 9 -16266123.18847  20287016.4904                 
  20620946.362   -22290020.665 9 -17368850.11747  20620946.4614                 
 97  1  9  2  1  0.0000000  0  7 23 21  6  1  5 17 25
  22117822.187   -14025434.168 8 -10928913.47945  22117824.0264                 
  22935053.045    -8138415.922 7  -6341621.70845  22935055.8144                 
  23331795.314    -6003098.989 7  -4677746.36745  23331796.4464                 
  24034361.110    -4249099.989 6  -3310997.55445  24034364.3954                 
  24488816.646    -2384515.122 6  -1858069.88944  24488824.0324                 
  20297368.810   -20820444.332 9 -16223726.58047  20297370.1384                 
  20622090.563   -22284007.666 9 -17364164.67847  20622090.9074                 
 97  1  9  2  1 30.0000000  0  7 23 21  6  1  5 17 25
  22105655.690   -14089369.137 8 -10978732.93145  22105657.8704                 
  22918390.738    -8225975.808 7  -6409850.15645  22918392.9824                 
  23341018.340    -5954631.605 7  -4639979.59545  23341020.1734                 
  24040955.804    -4214450.760 6  -3283998.19645  24040957.7184                 
  24501897.748    -2315775.438 6  -1804506.56944  24501905.7034                 
  20307814.137   -20765553.686 9 -16180954.66347  20307815.4504                 
  20623333.033   -22277478.029 9 -17359076.66547  20623333.4134                 
 97  1  9  2  2  0.0000000  0  7 23 21  6  1  5 17 25
  22093524.056   -14153122.124 8 -11028410.58145  22093525.6814                 
  22901710.133    -8313633.325 7  -6478154.71245  22901713.5484                 
  23350218.099    -5906285.834 7  -4602307.60945  23350220.7534                 
  24047498.810    -4180064.593 6  -3257203.90845  24047503.4524                 
  24515028.021    -2246773.447 6  -1750739.05844  24515023.0404                 
  20318353.760   -20710168.146 9 -16137797.11247  20318354.9944                 
  20624674.794   -22270427.140 9 -17353582.48247  20624675.0214                 
 97  1  9  2  2 30.0000000  0  7 23 21  6  1  5 17 25
  22081423.114   -14216711.490 8 -11077960.73045  22081424.9524                 
  22885015.067    -8401366.826 7  -6546518.45745  22885017.4764                 
  23359393.188    -5858068.811 7  -4564735.95345  23359395.9374                 
  24053993.684    -4145934.525 6  -3230609.13645  24053996.0204                 
  24528209.844    -2177507.579 6  -1696765.58243  24528202.9554                 
  20328983.647   -20654307.329 9 -16094269.21547  20328984.8434                 
  20626115.812   -22262854.453 9 -17347681.70347  20626116.0954                 
 97  1  9  2  3  0.0000000  0  7 23 21  6  1  5 17 25
  22069350.743   -14280154.853 8 -11127397.11545  22069352.4894                 
  22868303.880    -8489182.556 7  -6614946.27545  22868306.4754                 
  23368543.573    -5809986.754 7  -4527269.45545  23368546.1854                 
  24060443.630    -4112042.425 6  -3204199.81045  24060446.6504                 
  24541440.076    -2107976.183 5  -1642585.51644  24541442.9234                 
  20339700.960   -20597987.764 9 -16050383.85147  20339702.2644                 
  20627653.089   -22254776.336 9 -17341387.08147  20627653.3234                 
 97  1  9  2  3 30.0000000  0  7 23 21  6  1  5 17 25
  22057304.822   -14343455.114 8 -11176721.98645  22057306.6764                 
  22851579.879    -8577072.553 7  -6683431.97645  22851581.3144                 
  23377665.705    -5762047.631 7  -4489914.31345  23377667.3184                 
  24066851.780    -4078365.533 6  -3177958.11945  24066854.3934                 
  24554720.521    -2038193.207 5  -1588209.34044  24554723.5234                 
  20350506.016   -20541207.212 9 -16006139.27847  20350507.3294                 
  20629282.344   -22246214.750 9 -17334715.72747  20629282.6124                 
 97  1  9  2  4  0.0000000  0  7 23 21  6  1  5 17 25
  22045285.958   -14406613.652 8 -11225936.42345  22045287.4844                 
  22834846.404    -8665003.775 7  -6751949.78445  22834850.2284                 
  23386759.945    -5714259.067 7  -4452676.53245  23386763.1524                 
  24073219.449    -4044901.588 6  -3151882.36645  24073220.0884                 
  24568046.722    -1968159.647 5  -1533637.84744  24568054.7054                 
  20361398.192   -20483968.326 9 -15961537.56147  20361399.3934                 
  20631000.737   -22237184.532 9 -17327679.20947  20631000.9954                 
 97  1  9  2  4 30.0000000  0  7 23 21  6  1  5 17 25
  22033295.325   -14469625.622 8 -11275036.65445  22033297.3014                 
  22818108.812    -8752961.938 7  -6820488.58945  22818110.2014                 
  23395824.824    -5666621.724 7  -4415556.56945  23395827.5564                 
  24079546.051    -4011656.280 6  -3125977.13445  24079547.9154                 
  24581421.932    -1897874.446 5  -1478870.35743  24581432.9064                 
  20372378.666   -20426265.903 9 -15916574.65047  20372379.9414                 
  20632808.375   -22227684.939 9 -17320276.94347  20632808.6324                 
 97  1  9  2  5  0.0000000  0  7 23 21  6  1  5 17 25
  22021336.772   -14532468.550 8 -11324005.16845  22021338.4324                 
  22801365.711    -8840945.651 7  -6889047.33045  22801368.7784                 
  23404860.941    -5619134.340 6  -4378553.43145  23404862.3114                 
  24085831.173    -3978630.280 6  -3100242.58845  24085832.9834                 
  24594842.211    -1827354.781 5  -1423920.02643  24594837.8674                 
  20383450.042   -20368085.489 9 -15871239.27647  20383451.2324                 
  20634706.307   -22217710.842 9 -17312504.93447  20634706.5644                 
 97  1  9  2  5 30.0000000  0  7 23 21  6  1  5 17 25
  22009412.525   -14595129.983 8 -11372832.25045  22009414.5504                 
  22784620.416    -8928942.831 7  -6957616.52745  22784623.0684                 
  23413867.673    -5571805.493 6  -4341673.85245  23413869.0824                 
  24092070.342    -3945841.501 6  -3074693.00745  24092072.9054                 
  24608305.851    -1756596.570 5  -1368783.91643  24608309.2594                 
  20394614.444   -20309415.649 9 -15825522.53547  20394615.7354                 
  20636698.871   -22207240.726 9 -17304346.41847  20636699.1394                 
 97  1  9  2  6  0.0000000  0  7 23 21  6  1  5 17 25
  21997522.207   -14657615.517 8 -11421522.27845  21997523.9834                 
  22767872.584    -9016953.003 7  -7026195.86045  22767874.1904                 
  23422846.408    -5524622.759 6  -4304908.12245  23422846.5784                 
  24098263.549    -3913300.934 6  -3049336.78445  24098266.4934                 
  24621816.595    -1685605.665 5  -1313466.49544  24621822.3364                 
  20405872.697   -20250253.070 9 -15779421.83747  20405874.0594                 
  20638789.557   -22196253.986 9 -17295785.33747  20638789.8364                 
 97  1  9  2  6 30.0000000  0  7 23 21  6  1  5 17 25
  21985666.399   -14719917.648 8 -11470069.38445  21985668.4394                 
  22751118.008    -9104998.579 7  -7094802.78945  22751120.6994                 
  23431799.802    -5477572.487 6  -4268245.61445  23431800.0274                 
  24104408.390    -3881006.399 6  -3024172.32645  24104412.3034                 
  24635367.053    -1614392.788 5  -1257976.08043  24635370.5494                 
  20417224.413   -20190598.806 9 -15732938.01047  20417225.6224                 
  20640979.340   -22184746.432 9 -17286818.42847  20640979.5584                 
 97  1  9  2  7  0.0000000  0  7 23 21  6  1  5 17 25
  21973843.884   -14782044.719 8 -11518480.08945  21973846.0914                 
  22734351.441    -9193108.080 7  -7163459.51245  22734354.2824                 
  23440727.277    -5430657.945 6  -4231688.85945  23440729.8194                 
  24110509.072    -3848947.302 6  -2999191.34445  24110513.0244                 
  24648963.157    -1542948.018 5  -1202305.05444  24648960.4344                 
  20428665.688   -20130475.020 9 -15686088.32447  20428666.8904                 
  20643267.733   -22172720.836 9 -17277447.85147  20643268.0634                 
 97  1  9  2  7 30.0000000  0  7 23 21  6  1  5 17 25
  21962052.215   -14844010.149 8 -11566764.83245  21962053.9704                 
  22717572.257    -9281282.604 7  -7232166.90645  22717573.8934                 
  23449630.236    -5383873.422 6  -4195233.43445  23449631.7114                 
  24116561.072    -3817141.071 6  -2974407.32245  24116565.6314                 
  24662606.146    -1471255.447 6  -1146440.84844  24662610.2784                 
  20440193.374   -20069897.133 9 -15638884.79247  20440194.6044                 
  20645653.149   -22160185.854 9 -17267680.34847  20645653.5024                 
 97  1  9  2  8  0.0000000  0  7 23 21  6  1  5 17 25
  21950292.480   -14905808.750 8 -11614919.58545  21950294.1434                 
  22700781.069    -9369523.423 7  -7300925.96745  22700783.2934                 
  23458511.755    -5337199.998 6  -4158864.56545  23458514.3124                 
  24122565.918    -3785589.286 6  -2949821.63745  24122568.7614                 
  24676294.943    -1399318.853 5  -1090386.48944  24676295.1064                 
  20451802.813   -20008889.613 9 -15591346.48547  20451804.2394                 
  20648131.847   -22147159.741 9 -17257530.14747  20648132.2114                 
 97  1  9  2  8 30.0000000  0  7 23 21  6  1  5 17 25
  21938565.392   -14967434.711 8 -11662939.80545  21938567.1124                 
  22683976.152    -9457832.231 7  -7369738.00745  22683978.9054                 
  23467369.983    -5290649.694 6  -4122591.65645  23467370.0334                 
  24128520.470    -3754296.374 6  -2925437.64745  24128523.9144                 
  24690035.235    -1327115.836 5  -1034124.66443  24690032.0544                 
  20463487.877   -19947484.092 9 -15543498.04247  20463489.3184                 
  20650699.899   -22133664.985 9 -17247014.77247  20650700.1374                 
 97  1  9  2  9  0.0000000  0  7 23 21  6  1  5 17 25
  21926872.452   -15028881.038 8 -11710820.05145  21926874.3374                 
  22667165.852    -9546171.183 7  -7438573.53545  22667167.6984                 
  23476202.813    -5244232.698 6  -4086422.59445  23476203.8704                 
  24134422.932    -3723282.105 6  -2901270.80145  24134426.3984                 
  24703825.756    -1254641.535 5   -977651.38044  24703825.3954                 
  20475245.856   -19885695.471 9 -15495351.08547  20475247.2644                 
  20653356.388   -22119705.137 9 -17236136.98447  20653356.4724                 
 97  1  9  2  9 30.0000000  0  7 23 21  6  1  5 17 25
  21915218.772   -15090121.383 8 -11758539.80245  21915221.1154                 
  22650355.589    -9634509.161 7  -7507408.29645  22650358.2804                 
  23485010.011    -5197952.582 6  -4050360.19345  23485011.5534                 
  24140269.694    -3692556.131 6  -2877328.54145  24140272.6404                 
  24717665.363    -1181918.769 5   -920984.47145  24717671.3114                 
  20487078.575   -19823513.891 9 -15446897.92347  20487079.8714                 
  20656101.444   -22105279.681 9 -17224896.38447  20656101.9394                 
 97  1  9  2 10  0.0000000  0  7 23 21  6  1  5 17 25
  21903607.859   -15151137.635 8 -11806084.92445  21903609.7324                 
  22633545.826    -9722844.534 7  -7576241.03845  22633547.6604                 
  23493787.960    -5151823.669 6  -4014415.62845  23493791.1254                 
  24146065.366    -3662099.218 6  -2853595.98845  24146071.7164                 
  24731550.199    -1108953.519 5   -864128.55245  24731554.9094                 
  20498990.386   -19760917.188 9 -15398121.29147  20498991.6984                 
  20658935.700   -22090385.701 9 -17213290.70247  20658936.0454                 
 97  1  9  2 10 30.0000000  0  7 23 21  6  1  5 17 25
  21892039.437   -15211930.049 8 -11853455.62546  21892041.2974                 
  22616737.889    -9811171.167 7  -7645066.97145  22616739.8984                 
  23502535.233    -5105856.072 6  -3978596.75945  23502537.4494                 
  24151811.778    -3631901.953 6  -2830065.76945  24151814.8094                 
  24745481.838    -1035744.185 5   -807082.54245  24745483.7074                 
  20510987.080   -19697874.177 9 -15348996.88947  20510988.3904                 
  20661861.121   -22075013.246 9 -17201312.17947  20661861.4234                 
 97  1  9  2 11  0.0000000  0  7 23 21  6  1  5 17 25
  21880515.492   -15272488.897 8 -11900644.32946  21880517.5304                 
  22599929.590    -9899498.661 7  -7713893.56245  22599932.5754                 
  23511253.639    -5060040.061 6  -3942896.02645  23511257.0084                 
  24157511.165    -3601952.615 6  -2806728.73045  24157514.4314                 
  24759456.584     -962306.153 6   -749858.33045  24759462.2734                 
  20523074.408   -19634354.437 9 -15299501.00747  20523075.6244                 
  20664880.229   -22059147.653 9 -17188949.39747  20664880.6104                 
 97  1  9  2 11 30.0000000  0  7 23 21  6  1  5 17 25
  21869035.643   -15332815.449 8 -11947652.02545  21869037.6504                 
  22583115.408    -9987858.461 7  -7782745.33145  22583117.9154                 
  23519944.615    -5014369.076 6  -3907308.25645  23519944.8404                 
  24163167.892    -3572225.358 6  -2783564.75545  24163169.7764                 
  24773476.546     -888630.839 6   -692449.12345  24773479.4314                 
  20535253.902   -19570350.823 9 -15249628.08247  20535255.2194                 
  20667992.985   -22042790.058 9 -17176203.23447  20667993.5374                 
 97  1  9  2 12  0.0000000  0  7 23 21  6  1  5 17 25
  21857597.441   -15392923.926 8 -11994489.78846  21857599.0934                 
  22566291.524   -10076267.177 7  -7851635.22245  22566294.7114                 
  23528611.238    -4968826.496 6  -3871820.59245  23528612.5164                 
  24168780.972    -3542730.975 6  -2760582.18645  24168781.3324                 
  24787544.247     -814706.201 6   -634845.67445  24787548.7904                 
  20547523.329   -19505874.772 9 -15199387.02647  20547524.7464                 
  20671198.471   -22025945.033 9 -17163077.25647  20671198.7074                 
 97  1  9  2 12 30.0000000  0  7 23 21  1  6  5 17 25
  21846199.357   -15452820.547 8 -12041162.47445  21846201.4084                 
  22549458.277   -10164728.641 7  -7920566.21645  22549461.1084                 
  24174346.533    -3513485.208 6  -2737793.37545  24174352.4574                 
  23537258.091    -4923388.322 6  -3836414.23045  23537259.5344                 
  24801659.080     -740532.849 6   -577048.50745  24801659.9114                 
  20559875.463   -19440963.942 9 -15148807.17947  20559876.7984                 
  20674496.054   -22008616.207 9 -17149574.28747  20674496.3564                 
 97  1  9  2 13  0.0000000  0  7 23 21  6  1  5 17 25
  21834843.081   -15512499.971 8 -12087665.91946  21834845.1684                 
  22532613.982   -10253241.845 7  -7989537.51845  22532617.3444                 
  23545885.755    -4878049.486 6  -3801085.30745  23545887.4504                 
  24179860.956    -3484506.026 6  -2715212.29445  24179863.0754                 
  24815820.620     -666111.470 6   -519057.99044  24815823.6474                 
  20572306.899   -19375636.521 9 -15097902.71247  20572308.1214                 
  20677885.784   -21990803.702 9 -17135694.43247  20677886.2484                 
 97  1  9  2 13 30.0000000  0  7 23 21  6  1  5 17 25
  21823527.166   -15571963.703 8 -12134001.28646  21823529.0854                 
  22515765.379   -10341785.256 7  -8058532.37245  22515768.0854                 
  23554494.237    -4832811.026 6  -3765834.57345  23554494.7064                 
  24185321.508    -3455810.099 6  -2692851.96645  24185324.2754                 
  24830031.379     -591437.926 6   -460870.96245  24830035.9984                 
  20584814.917   -19309907.146 9 -15046685.03847  20584816.2354                 
  20681365.415   -21972517.451 9 -17121445.42147  20681365.7294                 
 97  1  9  2 14  0.0000000  0  7 23 21  6  1  5 17 25
  21812251.936   -15631216.298 8 -12180172.13146  21812253.8904                 
  22498915.909   -10430328.084 7  -8127526.78445  22498918.0564                 
  23563083.354    -4787674.927 6  -3730663.64145  23563084.8754                 
  24190726.058    -3427410.758 6  -2670722.71645  24190728.7844                 
  24844287.732     -516520.272 6   -402493.74345  24844292.5184                 
  20597398.658   -19243778.853 9 -14995156.51847  20597399.9634                 
  20684934.075   -21953763.481 9 -17106831.95447  20684934.3414                 
 97  1  9  2 14 30.0000000  0  7 23 21  6  1  5 17 25
  21801016.399   -15690257.958 8 -12226178.60746  21801018.6134                 
  22482071.363   -10518848.816 7  -8196503.94945  22482073.4384                 
  23571649.443    -4742660.006 6  -3695587.11645  23571652.8694                 
  24196077.123    -3399285.609 6  -2648807.09345  24196082.9134                 
  24858590.482     -441356.373 6   -343924.64345  24858591.5744                 
  20610059.395   -19177246.040 9 -14943312.79047  20610060.8104                 
  20688590.587   -21934548.614 9 -17091859.34547  20688590.9164                 
 97  1  9  2 15  0.0000000  0  7 23 21  6  1  5 17 25
  21789822.957   -15749081.181 8 -12272014.88246  21789825.1854                 
  22465233.868   -10607329.570 7  -8265449.96945  22465235.8174                 
  23580188.121    -4697789.317 6  -3660622.97045  23580188.9284                 
  24201379.482    -3371427.279 6  -2627099.40045  24201384.1424                 
  24872940.044     -365953.495 6   -285169.42545  24872945.0734                 
  20622799.382   -19110296.757 9 -14891144.53647  20622800.8344                 
  20692332.254   -21914886.214 9 -17076538.01247  20692332.8024                 
 97  1  9  2 15 30.0000000  0  7 23 21  6  1  5 17 25
  21778671.372   -15807682.123 8 -12317677.94246  21778673.0864                 
  22448405.414   -10695763.919 7  -8334359.84445  22448406.7864                 
  23588697.908    -4653070.646 6  -3625777.29545  23588700.6494                 
  24206632.274    -3343823.783 6  -2605590.28045  24206636.8694                 
  24887331.687     -290323.164 6   -226236.88845  24887336.5064                 
  20635615.338   -19042948.849 9 -14838665.66847  20635616.6994                 
  20696156.813   -21894787.715 9 -17060876.85847  20696157.1274                 
 97  1  9  2 16  0.0000000  0  7 23 21  6  1  5 17 25
  21767562.619   -15866059.387 8 -12363166.71246  21767564.0854                 
  22431582.314   -10784168.477 7  -8403246.50345  22431585.4384                 
  23597176.420    -4608514.578 6  -3591058.29945  23597178.2504                 
  24211837.111    -3316470.362 6  -2584276.04445  24211840.1314                 
  24901764.630     -214480.195 6   -167138.68945  24901768.6574                 
  20648505.030   -18975212.889 9 -14785884.42347  20648506.4154                 
  20700066.171   -21874244.432 9 -17044869.12247  20700066.3714                 
 97  1  9  2 16 30.0000000  0  7 23 21  6  1  5 17 25
  21756500.469   -15924191.818 8 -12408464.70146  21756502.3284                 
  22414761.717   -10872563.071 7  -8472125.37345  22414763.5514                 
  23605625.124    -4564117.611 6  -3556463.30945  23605630.2584                 
  24216995.192    -3289367.892 6  -2563157.35145  24216997.9074                 
  24916235.318     -138436.643 6   -107884.17345  24916239.2814                 
  20661467.291   -18907096.145 9 -14732806.46147  20661468.6164                 
  20704063.047   -21853241.603 9 -17028503.29747  20704063.5184                 
 97  1  9  2 17  0.0000000  0  7 23 21  6  1  5 17 25
  21745487.685   -15982063.454 8 -12453559.47746  21745489.6004                 
  22397940.226   -10960960.068 7  -8541006.14145  22397942.1774                 
  23614046.195    -4519864.436 6  -3521980.34045  23614048.7954                 
  24222101.089    -3262534.655 6  -2542248.46345  24222104.1074                 
  24930742.081      -62204.152 6    -48482.35645  24930745.8814                 
  20674500.868   -18838603.570 9 -14679435.64547  20674502.2004                 
  20708150.887   -21831758.976 9 -17011763.60647  20708151.3774                 
 97  1  9  2 17 30.0000000  0  7 23 21  6  1  5 17 25
  21734522.931   -16039683.818 8 -12498458.44946  21734524.8224                 
  22381116.470   -11049368.379 7  -8609895.71645  22381119.4024                 
  23622441.549    -4475746.037 6  -3487602.39345  23622443.3344                 
  24227155.893    -3235972.388 6  -2521550.67245  24227162.2564                 
  24945285.955       14222.731 6     11070.86745  24945289.2734                 
  20687607.174   -18769730.338 9 -14625768.21147  20687608.3534                 
  20712333.685   -21809778.508 9 -16994635.98647  20712333.9514                 
 97  1  9  2 18  0.0000000  0  7 23 21  6  1  5 17 25
  21723605.837   -16097054.136 8 -12543162.58746  21723607.8034                 
  22364292.674   -11137779.141 7  -8678787.20545  22364294.8144                 
  23630813.075    -4431755.939 6  -3453324.41945  23630813.9794                 
  24232157.848    -3209687.294 6  -2501068.88245  24232161.9844                 
  24959867.268       90849.958 6     70780.17845  24959871.5154                 
  20700789.397   -18700456.429 9 -14571788.56246  20700790.6784                 
  20716612.213   -21787294.518 9 -16977116.00947  20716612.7774                 
 97  1  9  2 18 30.0000000  0  7 23 21  6  1  5 17 25
  21712736.278   -16154173.745 8 -12587671.36746  21712738.0284                 
  22347472.197   -11226170.318 7  -8747663.43145  22347474.2564                 
  23639160.458    -4387888.897 6  -3419142.32445  23639163.3264                 
  24237105.273    -3183688.332 6  -2480810.04645  24237111.1114                 
  24974490.328      167691.538 6    130656.53345  24974493.0324                 
  20714050.384   -18630770.318 9 -14517487.71446  20714051.7264                 
  20720985.406   -21764313.892 9 -16959209.04647  20720985.7674                 
 97  1  9  2 19  0.0000000  0  7 23 21  6  1  5 17 25
  21701913.290   -16211049.353 8 -12631990.01546  21701914.8114                 
  22330659.223   -11314524.246 7  -8816510.61645  22330661.7214                 
  23647483.398    -4344152.200 6  -3385061.87745  23647484.4484                 
  24241997.726    -3157977.495 6  -2460775.74845  24242002.7574                 
  24989156.896      244766.051 6    190714.40645  24989162.4104                 
  20727388.972   -18560675.527 9 -14462868.41746  20727390.4634                 
  20725450.880   -21740847.185 9 -16940923.31847  20725451.0884                 
 97  1  9  2 19 30.0000000  0  7 23 21  6  1  5 17 25
  21691136.579   -16267680.339 8 -12676118.04746  21691138.4614                 
  22313855.466   -11402825.598 7  -8885316.85545  22313858.7284                 
  23655780.380    -4300549.116 6  -3351085.46945  23655783.3914                 
  24246835.801    -3132557.130 6  -2440967.77245  24246841.2434                 
  25003868.921      322076.951 6    250956.49745  25003874.4934                 
  20740804.294   -18490177.228 9 -14407934.69646  20740805.8364                 
  20730006.009   -21716909.765 9 -16922270.80347  20730006.4984                 
 97  1  9  2 20  0.0000000  0  7 23 21  6  1  5 17 25
  21680410.206   -16324048.645 8 -12720041.39846  21680412.3264                 
  22297063.220   -11491072.506 7  -8954080.66145  22297065.1554                 
  23664052.351    -4257078.218 6  -3317212.05445  23664052.3314                 
  24251616.256    -3107435.222 6  -2421392.39945  24251622.5314                 
  25018627.455      399632.305 6    311389.01345  25018632.7604                 
  20754294.386   -18419287.179 9 -14352695.71646  20754295.9844                 
  20734649.051   -21692510.646 9 -16903258.51847  20734649.6464                 
 97  1  9  2 20 30.0000000  0  7 23 21  6  1  5 17 25
  21669733.912   -16380151.813 8 -12763758.14646  21669735.8654                 
  22280278.595   -11579274.026 7  -9022809.10345  22280281.3354                 
  23672301.707    -4213729.961 6  -3283434.22545  23672306.3024                 
  24256340.837    -3082605.399 6  -2402044.65645  24256341.4084                 
  25033434.415      477443.040 6    372020.57045  25033438.4864                 
  20767855.978   -18348020.672 9 -14297163.39546  20767857.5684                 
  20739378.629   -21667656.700 9 -16883891.82747  20739379.0524                 
 97  1  9  2 21  0.0000000  0  7 23 21  6  1  5 17 25
  21659110.665   -16435977.667 8 -12807258.80846  21659112.6384                 
  22263502.140   -11667436.979 7  -9091507.49145  22263505.0694                 
  23680527.738    -4170499.112 6  -3249747.89145  23680529.3004                 
  24261011.717    -3058062.302 6  -2382920.20045  24261014.8984                 
  25048289.008      555503.077 6    432846.43745  25048295.8584                 
  20781486.498   -18276392.206 9 -14241349.02646  20781488.1024                 
  20744191.536   -21642364.758 9 -16864183.83947  20744192.1424                 
 97  1  9  2 21 30.0000000  0  7 23 21  6  1  5 17 25
  21648541.176   -16491521.838 8 -12850539.98046  21648542.7634                 
  22246730.134   -11755574.273 7  -9160185.87945  22246731.9694                 
  23688732.050    -4127386.699 6  -3216153.85445  23688735.0624                 
  24265627.283    -3033806.682 6  -2364019.81545  24265630.9264                 
  25063188.554      633800.603 6    493857.30645  25063193.5894                 
  20795187.199   -18204394.001 9 -14185246.55146  20795188.7864                 
  20749085.997   -21616644.119 9 -16844141.80047  20749086.4394                 
 97  1  9  2 22  0.0000000  0  7 23 21  6  1  5 17 25
  21638025.429   -16546781.739 8 -12893599.63946  21638027.2604                 
  22229961.456   -11843692.780 7  -9228849.64845  22229964.2014                 
  23696913.020    -4084395.807 6  -3182654.48545  23696917.0464                 
  24270191.521    -3009824.110 6  -2345332.22645  24270197.8064                 
  25078133.796      712338.276 6    555055.32645  25078140.3444                 
  20808957.168   -18132032.580 9 -14128861.05046  20808958.7844                 
  20754060.941   -21590499.739 9 -16823769.57646  20754061.4634                 
 97  1  9  2 22 30.0000000  0  7 23 21  6  1  5 17 25
  21627564.650   -16601754.022 8 -12936435.18546  21627566.3174                 
  22213199.493   -11931778.198 7  -9297487.62045  22213201.2324                 
  23705071.876    -4041524.657 6  -3149248.42445  23705073.1034                 
  24274703.948    -2986110.674 6  -2326854.30445  24274709.1444                 
  25093120.743      791094.346 6    616423.52745  25093125.3664                 
  20822795.896   -18059309.072 9 -14072193.40246  20822797.3584                 
  20759115.468   -21563938.884 9 -16803072.82347  20759115.8874                 
 97  1  9  2 23  0.0000000  0  7 23 21  6  1  5 17 25
  21617161.364   -16656424.431 8 -12979035.49946  21617162.8284                 
  22196446.366   -12019817.000 7  -9366089.26845  22196449.8744                 
  23713205.119    -3998784.373 6  -3115944.34745  23713207.3524                 
  24279162.924    -2962677.537 6  -2308594.81945  24279169.0844                 
  25108145.309      870048.164 6    677945.74745  25108150.2594                 
  20836704.689   -17986218.119 9 -14015239.43746  20836706.2694                 
  20764250.713   -21536952.943 9 -16782044.83747  20764251.2154                 
 97  1  9  2 23 30.0000000  0  7 23 21  6  1  5 17 25
  21606813.982   -16710799.518 8 -13021405.69546  21606816.1084                 
  22179703.503   -12107799.450 7  -9434647.00845  22179705.6004                 
  23721314.854    -3956168.127 6  -3082736.93145  23721315.2684                 
  24283569.918    -2939520.276 6  -2290550.30644  24283577.3374                 
  25123206.764      949194.564 6    739618.12045  25123215.2454                 
  20850685.183   -17912750.272 9 -13957991.78746  20850686.7234                 
  20769470.445   -21509523.941 9 -16760671.60847  20769470.7994                 
 97  1  9  2 24  0.0000000  0  7 23 21  6  1  5 17 25
  21596524.124   -16764873.106 8 -13063540.95646  21596526.2644                 
  22162975.709   -12195706.371 7  -9503145.89945  22162978.2344                 
  23729403.615    -3913660.322 6  -3049613.98945  23729405.0454                 
  24287923.419    -2916639.137 6  -2272720.95045  24287928.7534                 
  25138305.224     1028538.908 6    801444.68744  25138309.8384                 
  20864734.474   -17838920.744 9 -13900462.30746  20864735.8954                 
  20774774.381   -21481651.300 9 -16738952.68846  20774774.9394                 
 97  1  9  2 24 30.0000000  0  7 23 21  6  1  5 17 25
  21586291.440   -16818645.413 8 -13105441.45646  21586293.6284                 
  22146262.826   -12283531.983 7  -9571581.44045  22146265.0404                 
  23737472.777    -3871255.537 6  -3016571.34245  23737476.0274                 
  24292224.412    -2894042.841 6  -2255113.59245  24292231.2064                 
  25153441.351     1108076.673 6    863422.04745  25153439.7164                 
  20878853.637   -17764723.569 9 -13842646.34946  20878855.0864                 
  20780164.931   -21453323.657 9 -16716879.21946  20780165.6124                 
 97  1  9  2 25  0.0000000  0  7 23 21  6  1  5 17 25
  21576115.934   -16872118.853 8 -13147109.07446  21576117.4204                 
  22129563.692   -12371287.416 7  -9639962.27245  22129565.9764                 
  23745521.881    -3828955.200 6  -2983610.03645  23745521.4114                 
  24296471.624    -2871721.904 6  -2237720.71445  24296475.0174                 
  25168616.658     1187825.185 6    925563.56244  25168623.8494                 
  20893042.891   -17690159.091 9 -13784544.18446  20893044.5544                 
  20785643.003   -21424536.003 9 -16694447.30446  20785643.6484                 
 97  1  9  2 25 30.0000000  0  7 23 21  6  1  5 17 25
  21565996.284   -16925298.294 8 -13188547.59246  21565998.0224                 
  22112876.985   -12458975.855 7  -9708290.90645  22112878.8054                 
  23753551.668    -3786758.752 6  -2950729.72545  23753553.7074                 
  24300667.492    -2849673.069 6  -2220539.93845  24300672.3374                 
  25183835.756     1267800.569 6    987881.84844  25183835.9374                 
  20907298.288   -17615247.743 9 -13726171.73146  20907299.8714                 
  20791207.779   -21395293.454 9 -16671660.92446  20791208.1124                 
 97  1  9  2 26  0.0000000  0  7 23 21  6  1  5 17 25
  21555933.029   -16978180.002 8 -13229754.11946  21555935.0734                 
  22096202.375   -12546602.116 7  -9776571.11345  22096204.8964                 
  23761557.706    -3744686.618 6  -2917946.27945  23761559.2714                 
  24304809.902    -2827903.813 6  -2203577.01745  24304818.2674                 
  25199100.093     1348014.459 6   1050386.01444  25199101.1414                 
  20921615.446   -17540009.994 9 -13667544.94046  20921617.2214                 
  20796856.467   -21365608.826 9 -16648530.06746  20796857.0704                 
 97  1  9  2 26 30.0000000  0  7 23 21  6  1  5 17 25
  21545925.618   -17030768.850 8 -13270732.43446  21545927.6364                 
  22079537.952   -12634172.930 7  -9844808.08645  22079539.8144                 
  23769536.286    -3702760.644 6  -2885276.74045  23769539.6774                 
  24308898.086    -2806420.751 6  -2186837.05145  24308900.5624                 
  25214406.730     1428449.827 5   1113062.79042  25214410.2874                 
  20935996.487   -17464437.274 9 -13608657.13046  20935997.9554                 
  20802588.962   -21335484.866 9 -16625056.87146  20802589.6004                 
 97  1  9  2 27  0.0000000  0  7 23 21  6  1  5 17 25
  21535976.022   -17083055.236 8 -13311475.07446  21535978.6154                 
  22062887.037   -12721675.369 7  -9912991.80345  22062889.4824                 
  23777484.960    -3660989.702 6  -2852727.98245  23777487.7314                 
  24312929.825    -2785235.690 6  -2170329.33345  24312935.3454                 
  25229757.239     1509114.267 5   1175917.99643  25229757.4074                 
  20950438.794   -17388541.812 9 -13549517.83646  20950440.4544                 
  20808399.925   -21304947.409 9 -16601261.47246  20808400.4454                 
 97  1  9  2 27 30.0000000  0  6 23 21  6  1 17 25
  21526085.536   -17135029.605 8 -13351974.57846  21526087.9824                 
  22046251.575   -12809094.299 7  -9981110.43745  22046253.8114                 
  23785402.909    -3619381.198 6  -2820305.80745  23785404.9304                 
  24316900.745    -2764368.242 6  -2154069.04645  24316902.4804                 
  20964941.749   -17312329.312 9 -13490131.49646  20964943.3504                 
  20814287.717   -21274006.743 9 -16577151.88446  20814288.3404                 
 97  1  9  2 28  0.0000000  0  6 17 23 21  6  1 25
  20979507.721   -17235784.224 9 -13430486.00246  20979509.4384                 
  21516253.568   -17186697.083 8 -13392234.94746  21516255.3834                 
  22029632.913   -12896427.182 8 -10049162.02045  22029635.4264                 
  23793291.005    -3577930.145 6  -2788006.32745  23793293.0684                 
  24320813.322    -2743810.278 6  -2138050.00245  24320816.4274                 
  20820251.374   -21242668.698 9 -16552732.65246  20820252.0234                 
 97  1  9  2 28 30.0000000  0  6 17 23 21  6  1 25
  20994138.317   -17158899.960 9 -13370576.21446  20994139.9514                 
  21506480.979   -17238053.534 8 -13432252.95546  21506482.7434                 
  22013032.576   -12983660.904 8 -10117136.33945  22013035.1654                 
  23801151.819    -3536621.141 6  -2755817.55445  23801156.0874                 
  24324666.755    -2723556.080 6  -2122267.56745  24324672.1034                 
  20826292.826   -21210920.944 9 -16527994.16646  20826293.4194                 
 97  1  9  2 29  0.0000000  0  6 17 23 21  6  1 25
  21008829.862   -17081695.615 9 -13310417.01546  21008831.3754                 
  21496768.018   -17289094.737 8 -13472025.31846  21496769.8124                 
  21996452.351   -13070792.404 8 -10185030.99845  21996454.5194                 
  23808989.154    -3495435.247 6  -2723724.68645  23808990.0324                 
  24328466.082    -2703595.616 6  -2106714.10145  24328468.3104                 
  20832415.294   -21178746.521 9 -16502923.21446  20832415.9144                 
 97  1  9  2 29 30.0000000  0  6 17 23 21  6  1 25
  21023582.710   -17004168.542 9 -13250006.33846  21023584.3924                 
  21487113.135   -17339831.495 8 -13511560.45446  21487115.4584                 
  21979889.263   -13157829.993 8 -10252852.48445  21979891.6694                 
  23816805.037    -3454363.528 6  -2691720.79445  23816805.8844                 
  24332211.008    -2683911.819 6  -2091376.21045  24332213.2564                 
  20838622.729   -21146126.968 9 -16477505.40346  20838623.3434                 
 97  1  9  2 30  0.0000000  0  7 17 23 21  3  6  1 25
  21038395.625   -16926326.658 9 -13189350.35146  21038396.9794                 
  21477513.934   -17390275.564 8 -13550867.52046  21477516.3314                 
  21963344.886   -13244772.068 8 -10320599.53645  21963347.2424                 
  23682960.172           0.04716         0.42455  23682962.3854                 
  23824600.618    -3413397.207 6  -2659799.00645  23824602.0944                 
  24335907.095    -2664492.883 6  -2076244.63345  24335911.9304                 
  20844915.966   -21113055.497 9 -16451735.45246  20844916.4504                 
 97  1  9  2 30 30.0000000  0  7 17 23 21  3  6  1 25
  21053266.646   -16848179.301 9 -13128456.33546  21053268.3994                 
  21467974.033   -17440407.366 8 -13589931.25946  21467976.3314                 
  21946819.621   -13331611.702 8 -10388266.76545  21946822.2274                 
  23678052.120      -25790.798 6    -20096.34745  23678055.2704                 
  23832377.042    -3372532.739 6  -2627956.61345  23832379.9864                 
  24339548.041    -2645357.672 6  -2061334.23545  24339552.6574                 
  20851294.203   -21079537.335 9 -16425617.42946  20851294.8234                 
 97  1  9  2 31  0.0000000  0  7 17 23 21  3  6  1 25
  21068198.081   -16769714.036 9 -13067314.59746  21068199.9224                 
  21458495.032   -17490220.881 9 -13628746.98446  21458496.8644                 
  21930315.181   -13418344.008 8 -10455850.35845  21930317.3244                 
  23673145.943      -51574.144 6    -40187.28045  23673149.3424                 
  23840135.068    -3331763.011 6  -2596188.02245  23840138.7444                 
  24343134.029    -2626515.381 6  -2046652.00645  24343137.0874                 
  20857752.756   -21045598.494 9 -16399171.60746  20857753.4924                 
 97  1  9  2 31 30.0000000  0  7 17 23 21  3  6  1 25
  21083193.291   -16690914.189 9 -13005912.14946  21083194.8784                 
  21449077.143   -17539711.555 9 -13667311.14346  21449078.8394                 
  21913833.091   -13504957.550 8 -10523341.42545  21913836.1644                 
  23668238.806      -77361.056 6    -60280.98345  23668242.0964                 
  23847872.614    -3291100.365 6  -2564502.92645  23847876.4064                 
  24346662.055    -2607974.159 6  -2032204.38945  24346667.6794                 
  20864286.791   -21011262.024 9 -16372415.94346  20864287.4894                 
 97  1  9  2 32  0.0000000  0  7 17 23 21  3  6  1 25
  21098253.654   -16611771.727 9 -12944242.72646  21098255.4254                 
  21439723.350   -17588865.972 9 -13705613.28646  21439725.1784                 
  21897373.576   -13591454.204 8 -10590741.39145  21897376.0704                 
  23663329.933     -103156.660 6    -80381.46045  23663333.0264                 
  23855589.609    -3250548.644 6  -2532904.20745  23855593.1664                 
  24350130.506    -2589750.117 6  -2018003.96645  24350134.2564                 
  20870895.382   -20976533.508 9 -16345354.78846  20870895.9694                 
 97  1  9  2 32 30.0000000  0  7 17 23 21  3  6  1 25
  21113381.661   -16532272.975 9 -12882295.67546  21113383.5794                 
  21430437.871   -17637661.323 9 -13743635.63846  21430440.0124                 
  21880935.581   -13677834.909 8 -10658051.02045  21880938.6874                 
  23658419.614     -128958.815 6   -100487.03945  23658421.9374                 
  23863285.505    -3210106.064 6  -2501390.58645  23863287.7454                 
  24353537.977    -2571841.358 6  -2004049.18845  24353538.8414                 
  20877576.141   -20941425.823 9 -16317998.17546  20877576.5054                 
 97  1  9  2 33  0.0000000  0  7 17 23 21  3  6  1 25
  21128574.811   -16452432.652 9 -12820082.46646  21128576.4654                 
  21421220.109   -17686100.635 9 -13781380.55746  21421222.1224                 
  21864519.281   -13764104.723 8 -10725274.23645  21864520.8974                 
  23653510.049     -154762.838 6   -120594.08245  23653513.5914                 
  23870957.888    -3169786.735 6  -2469972.97745  23870960.4554                 
  24356889.186    -2554232.087 6  -1990327.82545  24356893.3664                 
  20884329.947   -20905934.519 9 -16290342.64246  20884330.5254                 
 97  1  9  2 33 30.0000000  0  7 17 23 21  3  6  1 25
  21143827.330   -16372279.959 9 -12757625.84546  21143829.0964                 
  21412070.627   -17734182.866 9 -13818847.22746  21412072.5034                 
  21848120.881   -13850276.524 8 -10792421.07345  21848123.8734                 
  23648601.113     -180555.734 6   -140692.46645  23648603.9434                 
  23878604.693    -3129605.391 6  -2438662.85345  23878606.5784                 
  24360184.844    -2536913.585 6  -1976832.96244  24360194.2294                 
  20891160.481   -20870040.090 9 -16262372.98046  20891160.8274                 
 97  1  9  2 34  0.0000000  0  7 17 23 21  3  6  1 25
  21159134.496   -16291840.956 9 -12694946.13146  21159136.1034                 
  21402988.691   -17781907.379 9 -13856035.16446  21402990.4234                 
  21831743.061   -13936344.811 8 -10859487.25745  21831744.8554                 
  23643696.233     -206335.404 6   -160780.50245  23643698.8784                 
  23886227.791    -3089545.277 6  -2407447.23145  23886228.7444                 
  24363426.556    -2519881.421 7  -1963561.30845  24363430.9784                 
  20898069.891   -20833731.245 9 -16234080.40146  20898070.6584                 
 97  1  9  2 34 30.0000000  0  7 17 23 21  3  6  1 25
  21174491.545   -16211139.055 9 -12632061.55946  21174493.4194                 
  21393975.559   -17829272.684 9 -13892943.18846  21393977.2244                 
  21815386.690   -14022295.199 8 -10926461.57245  21815389.7534                 
  23638792.623     -232101.866 6   -180858.29045  23638794.0454                 
  23893829.960    -3049596.878 6  -2376318.65345  23893833.1884                 
  24366613.677    -2503130.183 6  -1950508.42645  24366620.6484                 
  20905056.204   -20797017.806 9 -16205472.55646  20905056.8904                 
 97  1  9  2 35  0.0000000  0  7 17 23 21  3  6  1 25
  21189895.297   -16130192.396 9 -12568986.27046  21189897.0734                 
  21385027.265   -17876296.122 9 -13929584.82546  21385029.3814                 
  21799056.792   -14108112.100 8 -10993331.86545  21799058.2904                 
  23633890.703     -257861.654 6   -200930.85245  23633892.5684                 
  23901411.504    -3009756.238 6  -2345274.06745  23901413.2604                 
  24369746.424    -2486669.557 6  -1937682.08545  24369751.8824                 
  20912123.077   -20759880.746 9 -16176534.61546  20912123.8644                 
 97  1  9  2 35 30.0000000  0  7 17 23 21  3  6  1 25
  21205346.235   -16048995.991 9 -12505716.37046  21205348.1654                 
  21376144.442   -17922975.374 9 -13965958.27046  21376146.4184                 
  21782754.875   -14193778.306 8 -11060084.74145  21782757.4494                 
  23628988.358     -283624.303 6   -221005.67045  23628990.8944                 
  23908974.387    -2970012.421 6  -2314304.91145  23908976.3094                 
  24372822.955    -2470503.689 7  -1925085.42945  24372829.5884                 
  20919270.239   -20722322.856 9 -16147268.75146  20919270.9024                 
 97  1  9  2 36  0.0000000  0  7 17 23 21  3  6  1 25
  21220847.921   -15967534.577 9 -12442239.96946  21220849.8894                 
  21367328.228   -17969305.621 9 -14002059.75646  21367330.1674                 
  21766484.403   -14279279.473 8 -11126709.01445  21766486.7104                 
  23624080.534     -309412.875 6   -241100.67345  23624083.8174                 
  23916520.628    -2930356.810 6  -2283404.45945  23916520.5454                 
  24375841.288    -2454641.887 6  -1912725.69745  24375845.4104                 
  20926495.038   -20684356.596 9 -16117684.68146  20926495.9084                 
 97  1  9  2 36 30.0000000  0  7 17 21 23  3  6  1 25
  21236401.753   -15885799.248 9 -12378550.13346  21236403.5114                 
  21750244.158   -14364621.717 8 -11193209.45245  21750246.8304                 
  21358580.059   -18015276.830 9 -14037881.47746  21358581.9084                 
  23619169.466     -335223.811 6   -261213.08845  23619171.9844                 
  23924046.671    -2890806.362 6  -2252585.95545  23924050.1894                 
  24378801.846    -2439082.495 6  -1900601.53845  24378804.2644                 
  20933795.032   -20645994.926 9 -16087792.49646  20933795.6674                 
 97  1  9  2 37  0.0000000  0  7 17 21 23  3  6  1 25
  21252007.142   -15803791.162 9 -12314647.75146  21252008.9924                 
  21734033.639   -14449810.134 8 -11259590.01845  21734036.1064                 
  21349901.438   -18060883.672 9 -14073419.27846  21349903.0394                 
  23614254.862     -361047.074 6   -281335.12645  23614256.4214                 
  23931549.536    -2851379.929 6  -2221864.12245  23931551.5764                 
  24381704.835    -2423828.368 6  -1888715.31945  24381708.6274                 
  20941170.790   -20607235.708 9 -16057590.53346  20941171.3414                 
 97  1  9  2 37 30.0000000  0  7 17 21 23  3  6  1 25
  21267667.169   -15721498.006 9 -12250523.24746  21267668.8574                 
  21717848.730   -14534862.327 8 -11325864.45245  21717851.0514                 
  21341294.659   -18106112.641 9 -14108662.63146  21341296.5874                 
  23609340.045     -386877.081 6   -301462.41545  23609343.1074                 
  23939026.533    -2812087.713 6  -2191246.78145  23939026.7274                 
  24384549.541    -2408879.836 6  -1877067.24945  24384554.3584                 
  20948618.577   -20568096.512 9 -16027092.48846  20948619.1624                 
 97  1  9  2 38  0.0000000  0  7 17 21 23  3  6  1 25
  21283382.077   -15638915.705 9 -12186173.43246  21283383.9744                 
  21701688.491   -14619783.973 8 -11392037.14745  21701689.9774                 
  21332759.828   -18150962.921 9 -14143610.89746  21332761.6904                 
  23604424.944     -412705.957 6   -321588.80645  23604427.1134                 
  23946478.246    -2772929.223 6  -2160733.80345  23946479.7974                 
  24387334.884    -2394244.102 6  -1865662.86345  24387338.8544                 
  20956136.046   -20528591.669 9 -15996309.51946  20956136.7544                 
 97  1  9  2 38 30.0000000  0  7 17 21 23  3  6  1 25
  21299150.738   -15556050.934 9 -12121603.51146  21299152.4354                 
  21685552.605   -14704578.907 8 -11458111.11045  21685554.8254                 
  21324297.359   -18195434.396 9 -14178263.99546  21324299.2164                 
  23599511.393     -438526.859 6   -341709.00745  23599513.3334                 
  23953904.015    -2733905.820 6  -2130326.01145  23953909.9554                 
  24390060.544    -2379916.695 6  -1854498.80945  24390063.6234                 
  20963722.609   -20488724.637 9 -15965244.32746  20963723.1804                 
 97  1  9  2 39  0.0000000  0  7 17 21 23  3  6  1 25
  21314975.316   -15472892.412 9 -12056804.69346  21314977.1954                 
  21669443.125   -14789236.377 8 -11524077.96245  21669445.3654                 
  21315907.272   -18239523.762 9 -14212619.35046  21315909.9004                 
  23594596.260     -464357.060 6   -361836.46045  23594599.0334                 
  23961305.618    -2695010.418 6  -2100017.95045  23961308.4734                 
  24392727.042    -2365909.256 6  -1843583.94245  24392729.2054                 
  20971378.157   -20448494.584 9 -15933896.26446  20971378.8234                 
 97  1  9  2 39 30.0000000  0  7 17 21 23  3  6  1 25
  21330857.708   -15389429.677 9 -11991768.81946  21330859.4314                 
  21653362.047   -14873741.081 8 -11589925.77745  21653364.3044                 
  21307590.936   -18283227.060 9 -14246673.87046  21307592.9894                 
  23589675.764     -490213.649 6   -381984.46345  23589677.9794                 
  23968686.351    -2656225.987 6  -2069796.37645  23968688.1024                 
  24395332.964    -2352215.615 6  -1832913.66645  24395338.8414                 
  20979102.420   -20407902.921 9 -15902266.42846  20979103.2504                 
 97  1  9  2 40  0.0000000  0  7 25 17 21 23  3  6  1
  20986896.262   -20366946.727 9 -15870352.54146  20986896.9094                 
  21346794.206   -15305683.298 9 -11926511.92746  21346796.3034                 
  21637312.757   -14958081.003 8 -11655645.19245  21637314.9044                 
  21299348.048   -18326543.434 9 -14280426.89646  21299349.3974                 
  23584750.179     -516096.258 6   -402152.71845  23584752.4844                 
  23976047.875    -2617540.522 6  -2039651.89245  23976048.7514                 
  24397880.577    -2338828.713 6  -1822482.44845  24397887.3474                 
 97  1  9  2 40 30.0000000  0  7 25 17 21 23  3  6  1
  20994763.257   -20325605.744 9 -15838138.81946  20994763.9874                 
  21362783.343   -15221660.487 9 -11861039.64346  21362785.1374                 
  21621295.852   -15042250.308 8 -11721231.64745  21621298.6574                 
  21291180.143   -18369465.598 9 -14313872.73446  21291181.9174                 
  23579819.775     -542004.936 6   -422341.30945  23579823.6164                 
  23983390.592    -2578954.248 6  -2009584.74045  23983390.2524                 
  24400368.217    -2325753.262 6  -1812293.86845  24400372.6094                 
 97  1  9  2 41  0.0000000  0  7 25 17 21 23  3  6  1
  21002704.095   -20283876.214 9 -15805622.33446  21002704.8054                 
  21378822.041   -15137375.845 9 -11795363.32746  21378823.8994                 
  21605312.861   -15126240.879 8 -11786678.83545  21605315.0384                 
  21283087.246   -18411994.335 9 -14347012.01446  21283089.5734                 
  23574887.215     -567929.017 6   -442541.90945  23574891.5914                 
  23990716.064    -2540458.675 6  -1979588.24245  23990720.8274                 
  24402796.288    -2312995.494 6  -1802352.83145  24402799.2444                 
 97  1  9  2 41 30.0000000  0  7 25 17 21 23  3  6  1
  21010719.822   -20241753.512 9 -15772799.48046  21010720.4754                 
  21394904.934   -15052859.866 9 -11729506.75146  21394906.7174                 
  21589364.318   -15210052.861 8 -11851986.86945  21589366.3444                 
  21275066.923   -18454141.264 9 -14379853.78046  21275069.3434                 
  23569952.112     -593860.836 6   -462748.51445  23569954.7804                 
  23998025.800    -2502047.065 6  -1949657.16845  23998029.8514                 
  24405167.584    -2300537.889 6  -1792645.71245  24405175.8314                 
 97  1  9  2 42  0.0000000  0  7 25 17 21 23  3  6  1
  21018809.325   -20199242.870 9 -15739674.33946  21018810.0844                 
  21411029.370   -14968125.755 9 -11663480.20046  21411031.1754                 
  21573447.625   -15293693.442 8 -11917161.33445  21573450.3674                 
  21267118.804   -18495909.094 9 -14412400.14246  21267120.7284                 
  23565016.685     -619798.615 6   -482959.78345  23565019.2224                 
  24005318.694    -2463723.039 6  -1919794.37645  24005322.1274                 
  24407478.875    -2288390.919 6  -1783180.61445  24407483.5064                 
 97  1  9  2 42 30.0000000  0  7 25 17 21 23  3  6  1
  21026971.793   -20156349.591 9 -15706251.03646  21026972.5894                 
  21427196.044   -14883170.356 9 -11597281.21246  21427197.7704                 
  21557565.254   -15377157.667 8 -11982198.38645  21557567.1244                 
  21259244.600   -18537287.990 9 -14444643.44546  21259247.0314                 
  23560078.020     -645749.663 6   -503181.38545  23560081.7684                 
  24012594.758    -2425486.747 6  -1889999.92845  24012596.7694                 
  24409731.164    -2276551.479 6  -1773955.16645  24409736.6564                 
 97  1  9  2 43  0.0000000  0  7 25 17 21 23  3  6  1
  21035204.556   -20113085.348 9 -15672538.67146  21035205.4884                 
  21443403.198   -14798000.785 9 -11530915.34646  21443405.2704                 
  21541716.455   -15460442.405 8 -12047095.57846  21541718.5944                 
  21251444.298   -18578279.606 9 -14476584.96346  21251446.1274                 
  23555135.101     -671724.356 6   -523421.40245  23555135.8604                 
  24019854.158    -2387338.019 6  -1860273.69745  24019855.7784                 
  24411930.387    -2264995.614 6  -1764950.68744  24411935.3964                 
 97  1  9  2 43 30.0000000  0  7 17 25 21 23  3  6  1
  21459652.893   -14712607.199 9 -11464374.91946  21459654.3794                 
  21043507.647   -20069452.072 9 -15638538.75246  21043508.4104                 
  21525901.957   -15543548.804 8 -12111853.79946  21525904.0354                 
  21243719.540   -18618872.388 9 -14508215.70446  21243721.8244                 
  23550185.916     -697733.446 6   -543688.23245  23550189.1244                 
  24027095.288    -2349285.995 6  -1830622.79545  24027098.7054                 
  24414075.750    -2253722.914 6  -1756166.87944  24414080.1004                 
 97  1  9  2 44  0.0000000  0  7 17 25 21 23  3  6  1
  21475948.749   -14626973.170 9 -11397647.13546  21475950.5004                 
  21051879.809   -20025456.858 9 -15604256.79946  21051880.3454                 
  21510121.680   -15626474.445 8 -12176471.18246  21510123.7224                 
  21236073.743   -18659052.482 9 -14539524.87046  21236075.8214                 
  23545231.369     -723770.286 6   -563976.66945  23545235.2324                 
  24034318.575    -2311328.101 6  -1801045.29345  24034321.2574                 
  24416163.939    -2242750.741 6  -1747617.15745  24416168.4774                 
 97  1  9  2 44 30.0000000  0  7 25 17 21 23  3  6  1
  21060320.438   -19981101.357 9 -15569694.10746  21060321.4084                 
  21492290.403   -14541096.578 9 -11330730.34146  21492292.0144                 
  21494377.526   -15709211.199 8 -12240941.36946  21494379.5174                 
  21228507.132   -18698815.057 9 -14570508.70246  21228509.0334                 
  23540272.155     -749830.762 6   -584283.54345  23540275.2674                 
  24041523.469    -2273465.915 6  -1771542.33545  24041524.4484                 
  24418194.759    -2232078.358 6  -1739301.09945  24418198.4994                 
 97  1  9  2 45  0.0000000  0  7 25 17 21 23  3  6  1
  21068828.349   -19936391.569 9 -15534855.34646  21068829.1324                 
  21508678.895   -14454975.236 9 -11263622.83546  21508680.9774                 
  21478669.441   -15791757.201 8 -12305262.92046  21478672.1724                 
  21221016.799   -18738176.330 9 -14601179.82946  21221018.9424                 
  23535309.116     -775911.815 6   -604606.40745  23535312.9624                 
  24048707.754    -2235711.602 6  -1742123.47445  24048710.4594                 
  24420165.631    -2221721.702 6  -1731231.09045  24420169.9764                 
 97  1  9  2 45 30.0000000  0  7 17 25 21 23  3  6  1
  21525113.590   -14368610.373 9 -11196325.57046  21525115.2964                 
  21077402.273   -19891335.741 9 -15499746.94546  21077403.0944                 
  21462998.211   -15874109.360 8 -12369433.43046  21463000.2804                 
  21213602.952   -18777136.250 9 -14631538.21146  21213605.1524                 
  23530343.118     -802007.655 6   -624940.83945  23530345.6664                 
  24055872.637    -2198059.854 6  -1712784.51045  24055876.8314                 
  24422072.314    -2211702.431 6  -1723423.88945  24422077.4604                 
 97  1  9  2 46  0.0000000  0  7 17 25 21 23  3  6  1
  21541593.305   -14282008.349 9 -11128843.50146  21541595.1194                 
  21086039.934   -19845945.352 9 -15464377.84246  21086040.8394                 
  21447365.615   -15956260.615 8 -12433447.38546  21447368.2074                 
  21206266.284   -18815691.122 9 -14661580.97046  21206268.2374                 
  23525373.669     -828123.506 6   -645290.86445  23525377.6284                 
  24063018.433    -2160507.169 6  -1683522.72845  24063020.4934                 
  24423915.295    -2202016.587 6  -1715876.55545  24423919.6194                 
 97  1  9  2 46 30.0000000  0  7 17 25 21 23  3  6  1
  21558116.537   -14195179.277 9 -11061184.52146  21558118.4454                 
  21094737.943   -19800236.270 9 -15428760.41146  21094738.7114                 
  21431773.632   -16038195.877 8 -12497293.03746  21431775.9504                 
  21199007.195   -18853838.056 9 -14691305.85446  21199009.0084                 
  23520397.886     -854269.838 6   -665664.60545  23520401.3304                 
  24070142.276    -2123071.298 6  -1654351.97845  24070146.0854                 
  24425696.199    -2192659.010 6  -1708584.99745  24425699.2844                 
 97  1  9  2 47  0.0000000  0  7 17 25 21 23  3  6  1
  21574682.701   -14108123.416 9 -10993348.81846  21574684.4784                 
  21103496.712   -19754208.732 9 -15392894.82946  21103497.6894                 
  21416223.403   -16119914.107 8 -12560969.57446  21416225.2064                 
  21191825.692   -18891576.723 9 -14720712.61046  21191827.6974                 
  23515416.774     -880446.762 6   -686062.22045  23515418.8114                 
  24077244.917    -2085748.912 6  -1625269.66545  24077249.3264                 
  24427415.729    -2183623.278 6  -1701544.26045  24427422.6444                 
 97  1  9  2 47 30.0000000  0  7 17 25 21 23  3  6  1
  21591291.913   -14020841.284 9 -10925336.80246  21591293.5724                 
  21112315.920   -19707863.957 9 -15356782.04946  21112316.7384                 
  21400716.493   -16201402.879 8 -12624467.31046  21400718.8084                 
  21184726.664   -18928881.850 9 -14749781.54846  21184728.7994                 
  23510428.435     -906659.820 6   -706487.97245  23510429.1124                 
  24084328.676    -2048523.879 6  -1596263.20545  24084331.7544                 
  24429075.479    -2174902.901 6  -1694749.24345  24429080.3954                 
 97  1  9  2 48  0.0000000  0  7 17 25 21 23  3  6  1
  21607944.601   -13933330.940 9 -10857146.95746  21607946.6544                 
  21121195.569   -19661201.355 9 -15320421.61446  21121196.5824                 
  21385255.737   -16282648.704 8 -12687775.73746  21385258.5104                 
  21177712.397   -18965742.247 9 -14778503.94246  21177714.1124                 
  23505433.441     -932910.214 6   -726942.81845  23505435.1824                 
  24091393.372    -2011399.366 6  -1567335.07745  24091397.1824                 
  24430677.033    -2166486.539 6  -1688191.14045  24430679.0274                 
 97  1  9  2 48 30.0000000  0  7 17 25 21 23  3  6  1
  21624640.617   -13845592.609 9 -10788779.46146  21624642.5894                 
  21130137.370   -19614211.263 9 -15283805.99446  21130138.3744                 
  21369841.360   -16363653.754 8 -12750896.54846  21369843.3034                 
  21170780.854   -19002167.279 9 -14806887.08846  21170783.0634                 
  23500432.303     -959190.059 6   -747420.61245  23500435.2304                 
  24098440.221    -1974368.252 6  -1538479.75345  24098442.8344                 
  24432221.098    -2158368.273 6  -1681865.25845  24432228.5564                 
 97  1  9  2 49  0.0000000  0  7 17 25 21 23  3  6  1
  21641378.783   -13757633.632 9 -10720240.03146  21641380.5554                 
  21139145.521   -19566873.698 9 -15246919.61546  21139146.4834                 
  21354470.546   -16444425.943 8 -12813835.91046  21354472.8384                 
  21163931.736   -19038160.475 9 -14834933.73546  21163933.8724                 
  23495426.646     -985495.872 6   -767918.65945  23495430.3304                 
  24105474.883    -1937401.486 6  -1509674.53245  24105476.8414                 
  24433710.502    -2150546.644 6  -1675770.57945  24433713.5924                 
 97  1  9  2 49 30.0000000  0  7 17 25 21 23  3  6  1
  21658154.451   -13669476.961 9 -10651546.55546  21658156.3424                 
  21148219.841   -19519188.560 9 -15209762.40146  21148220.7754                 
  21339143.925   -16524968.659 8 -12876596.46246  21339146.4994                 
  21157167.053   -19073709.919 9 -14862634.60946  21157168.7184                 
  23490415.178    -1011831.807 6   -788440.17445  23490417.2834                 
  24112495.721    -1900506.928 6  -1480925.56945  24112498.7804                 
  24435143.154    -2143018.879 6  -1669904.81645  24435145.8944                 
 97  1  9  2 50  0.0000000  0  7 17 25 21 23  3  6  1
  21674964.554   -13581138.693 9 -10582711.58346  21674966.1394                 
  21157359.937   -19471156.693 9 -15172335.00346  21157360.7784                 
  21323857.066   -16605301.187 8 -12939193.23146  21323859.1014                 
  21150485.208   -19108822.970 9 -14889995.43146  21150487.2274                 
  23485397.364    -1038200.191 6   -808986.95145  23485400.2604                 
  24119501.369    -1863692.496 6  -1452239.04545  24119503.8464                 
  24436519.363    -2135785.041 6  -1664268.09945  24436523.4244                 
 97  1  9  2 50 30.0000000  0  7 25 17 21 23  3  6  1
  21166567.453   -19422771.092 9 -15134631.97146  21166568.1224                 
  21691807.430   -13492628.740 9 -10513742.82246  21691809.3644                 
  21308606.661   -16685442.503 8 -13001641.00446  21308609.1784                 
  21143884.050   -19143512.843 9 -14917026.50646  21143885.9124                 
  23480372.228    -1064607.386 6   -829563.97445  23480374.4504                 
  24126491.326    -1826959.232 6  -1423615.77745  24126492.5664                 
  24437837.523    -2128857.677 6  -1658870.19945  24437843.9724                 
 97  1  9  2 51  0.0000000  0  7 25 17 21 23  3  6  1
  21175840.370   -19374041.398 9 -15096660.81546  21175841.3374                 
  21708682.704   -13403949.288 9 -10444641.98746  21708684.6004                 
  21293392.217   -16765395.659 8 -13063942.16446  21293394.5744                 
  21137366.207   -19177764.082 9 -14943715.79346  21137368.0464                 
  23475337.050    -1091066.598 6   -850181.54245  23475337.7644                 
  24133464.525    -1790315.088 6  -1395061.96445  24133468.1354                 
  24439094.662    -2122249.947 6  -1653721.38545  24439096.6384                 
 97  1  9  2 51 30.0000000  0  7 25 17 21 23  3  6  1
  21185176.482   -19324979.600 9 -15058430.88246  21185177.4704                 
  21725591.394   -13315093.190 9 -10375403.50946  21725593.4774                 
  21278213.895   -16845157.083 8 -13126093.91546  21278216.1314                 
  21130934.348   -19211564.307 9 -14970053.63246  21130936.0074                 
  23470290.787    -1117584.800 6   -870845.06345  23470294.1244                 
  24140416.188    -1753784.628 6  -1366596.69645  24140419.0444                 
  24440291.450    -2115965.489 6  -1648824.50845  24440295.6614                 
 97  1  9  2 52  0.0000000  0  7 25 17 21 23  3  6  1
  21194574.449   -19275593.976 9 -15019948.61046  21194575.4734                 
  21742536.757   -13226045.598 8 -10306015.80746  21742538.7094                 
  21263073.894   -16924720.021 9 -13188091.00146  21263075.7484                 
  21124586.137   -19244924.201 9 -14996048.36046  21124587.8174                 
  23465232.676    -1144164.018 6   -891556.16545  23465234.6104                 
  24147347.990    -1717357.175 6  -1338211.74745  24147349.5024                 
  24441424.055    -2110010.749 6  -1644184.50745  24441428.2434                 
 97  1  9  2 52 30.0000000  0  7 25 17 21 23  3  6  1
  21204032.110   -19225894.094 9 -14981221.46346  21204033.0314                 
  21759518.561   -13136805.142 8 -10236477.82546  21759520.6484                 
  21247976.009   -17004058.258 8 -13249912.99946  21247977.9924                 
  21118320.494   -19277849.791 9 -15021704.67146  21118322.6014                 
  23460165.668    -1170794.467 6   -912307.15445  23460167.7584                 
  24154258.604    -1681041.524 6  -1309913.90245  24154263.6294                 
  24442495.695    -2104380.946 6  -1639797.70545  24442504.3004                 
 97  1  9  2 53  0.0000000  0  7 25 21 17 23  3  6  1
  21213546.342   -19175896.395 9 -14942262.25146  21213547.3464                 
  21232926.707   -17083143.731 8 -13311538.03946  21232928.6364                 
  21776536.958   -13047374.604 8 -10166791.73246  21776539.0884                 
  21112141.804   -19310318.601 9 -15047005.04746  21112143.7684                 
  23455091.581    -1197457.280 6   -933083.38945  23455095.0414                 
  24161148.361    -1644835.544 6  -1281701.51045  24161150.3464                 
  24443508.554    -2099059.578 7  -1635651.21045  24443514.4184                 
 97  1  9  2 53 30.0000000  0  7 25 21 17 23  3  6  1
  21223117.467   -19125599.606 9 -14903069.98346  21223118.3654                 
  21217929.608   -17161953.948 9 -13372948.59446  21217932.1444                 
  21793589.098   -12957763.061 8 -10096964.59446  21793591.3544                 
  21106047.817   -19342342.788 9 -15071958.96446  21106049.8064                 
  23450014.652    -1224139.407 6   -953874.66445  23450017.5894                 
  24168018.534    -1608733.535 6  -1253570.16345  24168021.3434                 
  24444464.457    -2094035.127 6  -1631736.09145  24444468.6654                 
 97  1  9  2 54  0.0000000  0  7 25 21 17 23  3  6  1
  21232743.604   -19075013.610 9 -14863652.35846  21232744.6264                 
  21202987.235   -17240475.967 9 -13434134.57546  21202989.5724                 
  21810675.975   -12867972.337 8 -10026997.83246  21810677.9214                 
  21100037.549   -19373928.028 9 -15096570.84246  21100039.4224                 
  23444932.548    -1250843.303 6   -974682.88045  23444935.5354                 
  24174871.980    -1572721.033 6  -1225508.52945  24174875.7954                 
  24445365.279    -2089300.092 6  -1628046.53445  24445371.1184                 
 97  1  9  2 54 30.0000000  0  7 25 21 17 23  3  6  1
  21242427.242   -19024126.678 9 -14824000.23846  21242428.3304                 
  21188102.453   -17318696.842 9 -13495085.90846  21188105.3224                 
  21827796.871   -12778001.655 8  -9956890.83946  21827798.8524                 
  21094113.393   -19405059.200 9 -15120828.90146  21094115.4524                 
  23439847.740    -1277566.615 6   -995506.22945  23439850.6344                 
  24181709.030    -1536789.935 6  -1197510.32345  24181713.3094                 
  24446213.520    -2084844.579 6  -1624574.75444  24446223.4264                 
 97  1  9  2 55  0.0000000  0  7 25 21 17 23  3  6  1
  21252169.330   -18972931.628 9 -14784108.02546  21252170.3484                 
  21173273.111   -17396624.328 9 -13555808.61846  21173275.1474                 
  21844952.528   -12687847.250 8  -9886640.69546  21844954.4594                 
  21088278.592   -19435720.561 9 -15144720.87246  21088280.5684                 
  23434755.573    -1304324.056 6  -1016356.20545  23434758.6424                 
  24188534.187    -1500923.859 6  -1169562.80845  24188536.9934                 
  24447006.114    -2080679.238 6  -1621329.09745  24447013.4594                 
 97  1  9  2 55 30.0000000  0  7 25 21 17 23  3  1  6
  21261971.687   -18921419.529 9 -14743968.76246  21261972.3864                 
  21158498.548   -17474265.836 9 -13616308.48746  21158501.0244                 
  21862144.173   -12597505.911 8  -9816244.88446  21862146.2474                 
  21082531.802   -19465920.473 9 -15168253.27646  21082533.7934                 
  23429651.745    -1331145.464 6  -1037255.98545  23429654.5144                 
  24447741.953    -2076814.297 6  -1618317.47145  24447745.8494                 
  24195347.079    -1465122.598 6  -1141665.79845  24195349.7114                 
 97  1  9  2 56  0.0000000  0  7 25 21 23 17  3  6  1
  21271834.976   -18869587.130 9 -14703579.91046  21271835.8354                 
  21143777.899   -17551623.518 9 -13676587.19546  21143780.2234                 
  21076877.196   -19495636.206 9 -15191408.39646  21076878.9874                 
  21879371.573   -12506974.207 8  -9745700.73546  21879373.6884                 
  23424533.872    -1358039.199 6  -1058212.16545  23424535.7774                 
  24202148.192    -1429382.958 6  -1113816.79445  24202149.2444                 
  24448419.154    -2073253.793 6  -1615543.20245  24448425.1734                 
 97  1  9  2 56 30.0000000  0  7 25 21 23 17  3  6  1
  21281760.275   -18817430.430 9 -14662938.36346  21281761.3644                 
  21129111.528   -17628695.912 9 -13736643.59846  21129113.6414                 
  21071314.535   -19524867.330 9 -15214185.89846  21071316.6614                 
  21896632.085   -12416269.262 8  -9675021.59346  21896634.6634                 
  23419403.455    -1385000.308 6  -1079220.80745  23419407.1124                 
  24208936.780    -1393709.903 6  -1086019.63245  24208939.8154                 
  24449036.910    -2070009.041 6  -1613014.87545  24449045.4564                 
 97  1  9  2 57  0.0000000  0  7 25 21 23 17  3  1  6
  21291744.247   -18764965.034 9 -14622056.27046  21291745.2724                 
  21114498.179   -17705490.189 9 -13796483.29446  21114500.1154                 
  21065843.239   -19553619.432 9 -15236590.13746  21065845.4034                 
  21913924.472   -12325399.808 8  -9604214.26546  21913926.2534                 
  23414260.035    -1412030.264 6  -1100283.10745  23414262.9274                 
  24449591.245    -2067095.323 6  -1610744.53045  24449595.3754                 
  24215709.970    -1358115.989 6  -1058284.20845  24215711.6844                 
 97  1  9  2 57 30.0000000  0  7 25 21 23 17  3  1  6
  21301784.424   -18712202.940 9 -14580942.98446  21301785.4504                 
  21099939.638   -17781994.939 9 -13856097.37946  21099941.7384                 
  21060462.681   -19581894.678 9 -15258622.80346  21060464.5254                 
  21931246.543   -12234370.806 8  -9533282.61346  21931248.8474                 
  23409102.282    -1439133.597 6  -1121402.60645  23409105.4204                 
  24450083.371    -2064508.452 6  -1608728.76545  24450089.3464                 
  24222469.917    -1322592.752 6  -1030603.81545  24222472.8974                 
 97  1  9  2 58  0.0000000  0  7 25 21 23 17  3  1  6
  21311877.555   -18659162.131 9 -14539612.51946  21311878.6534                 
  21085435.136   -17858217.270 9 -13915491.40046  21085437.1544                 
  21055172.841   -19609693.779 9 -15280284.44046  21055174.5444                 
  21948596.438   -12143195.544 8  -9462236.99946  21948598.8504                 
  23403931.964    -1466304.170 6  -1142574.47545  23403934.4994                 
  24450512.533    -2062254.237 6  -1606972.35645  24450515.9894                 
  24229215.508    -1287143.760 6  -1002981.28545  24229215.9374                 
 97  1  9  2 58 30.0000000  0  7 25 21 23 17  3  1  6
  21322022.207   -18605853.015 9 -14498072.98746  21322023.2384                 
  21070982.140   -17934168.310 9 -13974674.02346  21070984.8644                 
  21049970.988   -19637029.417 9 -15301584.94046  21049973.0134                 
  21965973.410   -12051879.855 8  -9391081.95646  21965975.7534                 
  23398750.033    -1493535.999 6  -1163794.12845  23398752.2814                 
  24450876.814    -2060339.585 6  -1605480.44644  24450882.9584                 
  24235947.338    -1251769.692 6   -975417.13445  24235950.9374                 
 97  1  9  2 59  0.0000000  0  7 25 21 23 17  3  1  6
  21332216.049   -18552283.370 9 -14456330.43946  21332217.4334                 
  21056580.445   -18009848.674 9 -14033645.73146  21056582.8544                 
  21044858.747   -19663894.103 9 -15322518.46646  21044860.4094                 
  21983377.490   -11960420.273 8  -9319814.79246  21983379.4014                 
  23393555.912    -1520829.383 6  -1185061.67545  23393557.9584                 
  24451176.104    -2058767.197 6  -1604255.25645  24451181.5574                 
  24242666.194    -1216461.294 6   -947904.17145  24242668.3014                 
 97  1  9  2 59 30.0000000  0  7 25 21 23 17  3  1  6
  21342459.719   -18498452.158 9 -14414384.07546  21342460.7604                 
  21042232.780   -18085247.230 9 -14092397.85246  21042234.9954                 
  21039837.680   -19690279.470 9 -15343078.50146  21039839.5574                 
  22000807.676   -11868825.508 8  -9248442.28746  22000809.3864                 
  23388350.499    -1548184.880 6  -1206377.64545  23388351.8994                 
  24451413.603    -2057519.208 6  -1603282.81745  24451420.9454                 
  24249373.840    -1181211.497 6   -920436.85645  24249374.7104                 
 97  1  9  3  0  0.0000000  0  7 25 21 23 17  3  1  6
  21352753.456   -18444359.556 9 -14372234.03046  21352754.3654                 
  21027937.647   -18160368.426 9 -14150933.84246  21027940.0394                 
  21034907.400   -19716188.196 9 -15363267.11846  21034909.7094                 
  22018262.534   -11777098.783 8  -9176966.96546  22018264.2184                 
  23383137.270    -1575580.067 6  -1227724.55245  23383140.4934                 
  24451590.963    -2056588.892 6  -1602557.94945  24451597.1314                 
  24256066.499    -1146041.505 6   -893031.75345  24256067.2584                 
 97  1  9  3  0 30.0000000  0  7 25 21 23 17  3  1  6
  21363097.204   -18390003.157 9 -14329878.43246  21363098.1844                 
  21013698.748   -18235193.944 9 -14209239.43946  21013700.7784                 
  21030069.306   -19741613.042 9 -15383078.69446  21030071.3574                 
  22035744.424   -11685231.281 8  -9105381.93646  22035747.0884                 
  23377919.064    -1603002.604 6  -1249092.76445  23377921.4964                 
  24451709.295    -2055964.167 6  -1602071.16445  24451714.7724                 
  24262745.078    -1110945.493 6   -865684.27145  24262748.3344                 
 97  1  9  3  1  0.0000000  0  7 25 21 23 17  3  1  6
  21373490.215   -18335387.219 9 -14287320.59146  21373491.1554                 
  20999519.150   -18309708.231 9 -14267302.51846  20999521.3594                 
  21025323.844   -19766550.818 9 -15402510.72946  21025325.8514                 
  22053253.186   -11593223.686 8  -9033687.75146  22053254.5724                 
  23372691.866    -1630471.639 6  -1270497.22245  23372693.7974                 
  24451771.131    -2055640.311 6  -1601818.89345  24451776.2854                 
  24269408.738    -1075928.382 6   -838398.28145  24269412.3714                 
 97  1  9  3  1 30.0000000  0  7 23 25 17  3  1  6 21
  21020670.953   -19791002.198 9 -15421563.75446  21020673.0404                 
  21383932.804   -18280511.238 9 -14244560.12546  21383933.7934                 
  22070788.412   -11501073.250 8  -8961882.26546  22070790.9014                 
  23367454.405    -1657994.387 6  -1291943.51745  23367458.3324                 
  24451778.026    -2055606.294 6  -1601792.36244  24451781.0594                 
  24276054.936    -1041001.700 6   -811182.77345  24276056.7224                 
  20985398.643   -18383911.489 9 -14325123.23146  20985400.8384                 
 97  1  9  3  2  0.0000000  0  7 23 25 17  3  1  6 21
  21016108.569   -19814977.325 9 -15440245.67646  21016110.6354                 
  21394425.527   -18225372.614 9 -14201595.00746  21394426.9034                 
  22088352.202   -11408776.786 8  -8889962.98946  22088354.3544                 
  23362205.626    -1685576.762 6  -1313436.25545  23362208.9164                 
  24451725.475    -2055881.020 6  -1602006.49645  24451729.0244                 
  24282684.169    -1006166.068 6   -784038.20745  24282684.4464                 
  20971336.180   -18457810.262 9 -14382706.68246  20971338.3654                 
 97  1  9  3  2 30.0000000  0  7 23 25 17  3  1  6 21
  21011638.413   -19838468.441 9 -15458550.44446  21011640.5384                 
  21404970.333   -18169959.309 9 -14158415.84746  21404971.4924                 
  22105942.148   -11316340.634 8  -8817934.86445  22105943.7764                 
  23356940.496    -1713247.198 6  -1334997.64645  23356943.7234                 
  24451612.044    -2056477.461 6  -1602471.24544  24451621.1094                 
  24289300.385     -971398.213 6   -756946.42145  24289302.9824                 
  20957333.357   -18531396.458 9 -14440046.57346  20957335.3494                 
 97  1  9  3  3  0.0000000  0  7 23 25 17  3  1  6 21
  21007260.774   -19861473.561 9 -15476476.51846  21007262.7494                 
  21415568.057   -18114266.510 9 -14115018.89946  21415569.0904                 
  22123556.276   -11223777.820 8  -8745808.04445  22123558.4634                 
  23351656.458    -1741013.581 6  -1356633.79045  23351658.3534                 
  24451437.717    -2057394.599 6  -1603185.95545  24451441.0854                 
  24295904.647     -936693.095 6   -729903.52545  24295908.1914                 
  20943388.833   -18604674.048 9 -14497145.98646  20943391.0954                 
 97  1  9  3  3 30.0000000  0  7 23 25 17  3  1  6 21
  21002976.554   -19883986.317 9 -15494018.93246  21002978.5804                 
  21426220.911   -18058286.149 9 -14071397.87346  21426221.9814                 
  22141193.130   -11131095.770 8  -8673588.30745  22141195.0104                 
  23346358.607    -1768853.165 6  -1378327.00845  23346361.8994                 
  24451204.083    -2058621.948 6  -1604142.32745  24451207.3774                 
  24302499.049     -902041.322 6   -702902.19845  24302503.3224                 
  20929503.295   -18677644.556 9 -14554006.11646  20929505.2174                 
 97  1  9  3  4  0.0000000  0  7 23 25 17  3  1  6 21
  20998787.331   -19906000.657 9 -15511172.96446  20998789.4354                 
  21436926.983   -18002026.505 9 -14027559.23046  21436928.1044                 
  22158851.389   -11038302.378 8  -8601281.81545  22158853.7354                 
  23341047.839    -1796762.012 6  -1400074.15745  23341049.1304                 
  24450910.868    -2060163.099 6  -1605343.36845  24450917.1714                 
  24309083.414     -867438.562 6   -675939.06245  24309085.1114                 
  20915676.881   -18750301.179 9 -14610621.66146  20915679.3834                 
 97  1  9  3  4 30.0000000  0  7 23 25 17  3  1  6 21
  20994696.466   -19927498.291 9 -15527924.36846  20994698.4924                 
  21447684.420   -17945495.358 9 -13983509.02246  21447685.3664                 
  22176530.378   -10945397.325 8  -8528888.31745  22176532.6214                 
  23335726.574    -1824726.611 6  -1421864.75345  23335729.1624                 
  24450560.854    -2062000.515 6  -1606775.10345  24450566.0994                 
  24315659.572     -832879.839 6   -649010.18645  24315662.6834                 
  20901912.969   -18822632.262 9 -14666983.53446  20901915.2024                 
 97  1  9  3  5  0.0000000  0  7 23 25 17  3  1  6 21
  20990703.028   -19948485.350 9 -15544277.93046  20990705.1804                 
  21458490.753   -17888707.397 9 -13939258.70046  21458492.0104                 
  22194230.202   -10852383.356 8  -8456409.94945  22194232.5104                 
  23330398.035    -1852728.612 6  -1443684.50445  23330401.8724                 
  24450157.236    -2064123.900 6  -1608429.75744  24450158.0714                 
  24322224.386     -798381.813 6   -622128.68945  24322228.3124                 
  20888209.852   -18894642.815 9 -14723095.64446  20888212.0074                 
 97  1  9  3  5 30.0000000  0  7 25 17  3  1  6 21 23
  21469345.123   -17831668.031 9 -13894812.48646  21469346.1324                 
  22211950.930   -10759260.809 8  -8383846.97845  22211953.3484                 
  23325061.022    -1880773.040 6  -1465537.30645  23325063.6444                 
  24449695.517    -2066550.447 6  -1610320.64745  24449702.5374                 
  24328777.523     -763946.194 6   -595295.79545  24328778.9044                 
  20874569.024   -18966325.590 9 -14778952.34946  20874571.2384                 
  20986806.121   -19968963.321 9 -15560234.79346  20986808.0274                 
 97  1  9  3  6  0.0000000  0  7 25 17  3  1  6 21 23
  21480245.298   -17774388.118 9 -13850178.82246  21480246.7164                 
  22229693.027   -10666027.904 8  -8311198.00445  22229695.3994                 
  23319714.354    -1908870.478 7  -1487431.42945  23319717.8504                 
  24449173.356    -2069294.762 6  -1612459.15445  24449179.5744                 
  24335319.320     -729568.234 6   -568507.78645  24335320.3434                 
  20860994.039   -19037663.244 9 -14834540.12746  20860996.2804                 
  20983007.024   -19988927.838 9 -15575791.56746  20983009.0924                 
 97  1  9  3  6 30.0000000  0  7 25 17  3  1  6 21 23
  21491191.473   -17716864.658 9 -13805355.38846  21491192.4014                 
  22247454.269   -10572691.474 8  -8238468.36345  22247456.6164                 
  23314356.241    -1937026.843 6  -1509371.46145  23314357.8264                 
  24448589.966    -2072358.156 6  -1614846.26544  24448598.3494                 
  24341851.649     -695239.485 6   -541758.22745  24341855.5294                 
  20847486.780   -19108642.379 9 -14889848.53546  20847489.1694                 
  20979305.113   -20008381.333 9 -15590950.14446  20979307.2064                 
 97  1  9  3  7  0.0000000  0  7 25 17  3  1  6 21 23
  21502180.994   -17659114.094 9 -13760354.99246  21502182.0994                 
  22265232.219   -10479267.331 8  -8165670.38945  22265234.7084                 
  23308982.764    -1965266.767 7  -1531376.60045  23308984.6684                 
  24447944.283    -2075752.180 6  -1617490.98543  24447949.7724                 
  24348374.242     -660964.076 6   -515050.17045  24348376.4994                 
  20834049.410   -19179258.039 9 -14944873.72346  20834051.5454                 
  20975698.008   -20027335.978 9 -15605720.00546  20975699.9924                 
 97  1  9  3  7 30.0000000  0  7 25 17  3  1  6 21 23
  21513211.956   -17601144.913 9 -13715184.24146  21513212.9324                 
  22283026.940   -10385755.726 8  -8092804.25245  22283029.2134                 
  23303592.293    -1993592.702 7  -1553448.75345  23303595.6694                 
  24447236.919    -2079469.893 6  -1620388.02943  24447243.6524                 
  24354887.361     -626737.786 6   -488380.43745  24354892.7474                 
  20820684.393   -19249491.561 9 -14999601.13146  20820686.6444                 
  20972188.668   -20045777.682 9 -15620090.17046  20972190.3674                 
 97  1  9  3  8  0.0000000  0  7 25 17  3  1  6 21 23
  21524284.418   -17542959.950 9 -13669845.35246  21524285.5884                 
  22300838.753   -10292152.637 8  -8019866.82545  22300840.5374                 
  23298185.417    -2022005.847 7  -1575588.86545  23298187.6384                 
  24446472.381    -2083489.281 6  -1623519.85644  24446476.6594                 
  24361390.089     -592565.427 6   -461752.69345  24361391.6824                 
  20807391.915   -19319342.998 9 -15054030.81346  20807394.0594                 
  20968777.756   -20063702.998 9 -15634057.95946  20968779.6244                 
 97  1  9  3  8 30.0000000  0  7 25 17  3  1  6 21 23
  21535398.202   -17484558.344 9 -13624337.64746  21535399.4914                 
  22318667.609   -10198464.059 8  -7946862.78845  22318669.7394                 
  23292760.166    -2050516.926 7  -1597805.31445  23292761.6444                 
  24445652.571    -2087797.314 6  -1626876.89544  24445658.9344                 
  24367879.220     -558465.320 6   -435181.23945  24367884.5474                 
  20794169.357   -19388828.397 9 -15108175.27346  20794171.3954                 
  20965463.806   -20081117.642 9 -15647627.82346  20965465.9884                 
 97  1  9  3  9  0.0000000  0  7 25 17  3  1  6 21 23
  21546552.180   -17425942.987 9 -13578663.38946  21546553.5634                 
  22336514.039   -10104679.550 8  -7873784.00845  22336516.7664                 
  23287317.577    -2079115.838 6  -1620090.19445  23287321.4544                 
  24444777.013    -2092397.781 6  -1630461.69943  24444787.6624                 
  24374353.718     -524443.852 6   -408671.06145  24374358.9604                 
  20781013.425   -19457963.200 9 -15162046.54146  20781015.5014                 
  20962249.861   -20098007.248 9 -15660788.56246  20962252.1134                 
 97  1  9  3  9 30.0000000  0  7 25 17  3  1  6 21 23
  21557751.950   -17367086.113 9 -13532800.93746  21557752.9314                 
  22354383.195   -10010775.919 8  -7800612.39445  22354385.9504                 
  23281863.529    -2107777.276 7  -1642423.77345  23281866.8724                 
  24443847.117    -2097284.665 6  -1634269.75843  24443854.6674                 
  24380812.699     -490501.100 6   -382222.23545  24380818.9784                 
  20767922.947   -19526754.362 9 -15215650.03746  20767924.9494                 
  20959136.944   -20114365.330 9 -15673535.13646  20959138.9724                 
 97  1  9  3 10  0.0000000  0  7 25 17  3  1  6 21 23
  21569000.468   -17307976.545 9 -13486741.57546  21569001.9044                 
  22372273.618    -9916760.865 7  -7727353.96745  22372275.3154                 
  23276395.305    -2136513.204 7  -1664815.41245  23276399.9284                 
  24442858.441    -2102478.802 6  -1638317.04643  24442864.3014                 
  24387258.174     -456631.469 6   -355830.36245  24387258.8864                 
  20754895.195   -19595215.182 9 -15268996.12346  20754897.1714                 
  20956124.653   -20130196.322 9 -15685870.98346  20956126.6284                 
 97  1  9  3 10 30.0000000  0  7 25 17  3  1  6 21 23
  21580295.030   -17248624.968 9 -13440493.63646  21580296.2904                 
  22390184.120    -9822641.281 7  -7654014.08545  22390186.8914                 
  23270913.568    -2165319.733 7  -1687262.03845  23270915.7374                 
  24441808.448    -2107998.773 6  -1642618.29943  24441809.2324                 
  24393692.485     -422818.129 6   -329482.40845  24393692.9954                 
  20741929.745   -19663348.693 9 -15322087.16346  20741932.0794                 
  20953214.083   -20145491.268 9 -15697789.13146  20953216.3444                 
 97  1  9  3 11  0.0000000  0  7 25 17  3  1  6 21 23
  21591634.225   -17189036.973 9 -13394061.47446  21591635.3364                 
  22408113.337    -9728422.844 7  -7580597.17245  22408116.0394                 
  23265421.339    -2194181.733 7  -1709751.93845  23265424.5004                 
  24440694.334    -2113855.070 6  -1647181.71942  24440696.8114                 
  24400122.799     -389027.475 6   -303152.11445  24400128.2824                 
  20729029.498   -19731140.458 9 -15374911.90646  20729031.4014                 
  20950405.405   -20160250.737 9 -15709290.02946  20950407.7634                 
 97  1  9  3 11 30.0000000  0  7 25 17  3  1  6 21 23
  21603016.892   -17129220.065 9 -13347450.93646  21603018.2514                 
  22426057.829    -9634124.418 7  -7507117.92945  22426060.3794                 
  23259915.343    -2223115.998 7  -1732298.12045  23259918.4054                 
  24439517.944    -2120039.042 5  -1652000.45342  24439516.5024                 
  24406549.425     -355254.917 6   -276835.91945  24406554.9614                 
  20716196.476   -19798578.224 9 -15427460.80746  20716198.4914                 
  20947695.475   -20174490.840 9 -15720386.22746  20947697.7774                 
 97  1  9  3 12  0.0000000  0  6 25 17  3  6 21 23
  21614437.741   -17069203.204 9 -13300684.59546  21614439.1934                 
  22444013.814    -9539765.865 7  -7433591.84245  22444017.2254                 
  23254391.509    -2252144.286 7  -1754917.57145  23254393.7664                 
  24412976.593     -321478.976 6   -250517.02945  24412982.9374                 
  20703432.466   -19865653.810 9 -15479727.49046  20703434.5014                 
  20945086.308   -20188201.736 9 -15731070.05346  20945088.6444                 
 97  1  9  3 12 30.0000000  0  6 25 17  3  6 21 23
  21625893.792   -17009000.081 9 -13253773.11246  21625895.2334                 
  22461981.261    -9445346.674 7  -7360018.49045  22461983.6594                 
  23248851.358    -2281258.886 7  -1777604.28745  23248855.0994                 
  24419403.897     -287702.916 6   -224198.16945  24419409.8304                 
  20690738.616   -19932360.078 9 -15531706.39446  20690740.8974                 
  20942577.700   -20201384.947 9 -15741342.69446  20942579.8804                 
 97  1  9  3 13  0.0000000  0  7 25 17  3  1  6 21 23
  21637387.758   -16948598.812 9 -13206707.23246  21637389.0514                 
  22479960.148    -9350866.468 7  -7286397.60045  22479961.6654                 
  23243291.517    -2310475.837 7  -1800370.74845  23243293.7994                 
  24435625.783          -0.61516         0.19153  24435629.0714                 
  24425826.389     -253954.697 6   -197900.85845  24425831.0354                 
  20678117.856   -19998682.291 9 -15583386.03646  20678120.1754                 
  20940168.100   -20214048.288 9 -15751210.24546  20940170.0894                 
 97  1  9  3 13 30.0000000  0  7 25 17  3  1  6 21 23
  21648920.213   -16887997.551 9 -13159485.52046  21648921.7304                 
  22497953.083    -9256315.055 7  -7212721.23745  22497955.0694                 
  23237710.063    -2339805.468 7  -1823225.02845  23237711.6454                 
  24434213.088       -7417.898 5     -5779.50545  24434217.1164                 
  24432237.587     -220264.623 6   -171648.90445  24432240.3144                 
  20665571.573   -20064613.637 9 -15634761.10646  20665573.6194                 
  20937859.676   -20226179.346 9 -15760663.02146  20937861.3694                 
 97  1  9  3 14  0.0000000  0  7 25 17  3  1  6 21 23
  21660491.436   -16827190.656 9 -13112103.57246  21660492.7984                 
  22515959.851    -9161688.211 7  -7138986.08145  22515961.8604                 
  23232110.506    -2369232.436 7  -1846155.13545  23232112.4114                 
  24432744.603      -15134.493 6    -11792.53144  24432745.5924                 
  24438636.576     -186636.615 6   -145445.33144  24438641.9274                 
  20653100.848   -20130148.100 9 -15685826.92046  20653103.1064                 
  20935653.573   -20237772.297 9 -15769696.50246  20935655.6624                 
 97  1  9  3 14 30.0000000  0  7 25 17  3  1  6 21 23
  21672104.273   -16766165.468 9 -13064551.52446  21672105.5114                 
  22533980.837    -9066985.536 7  -7065191.84645  22533983.6794                 
  23226493.033    -2398750.834 7  -1869156.47645  23226495.5504                 
  24431220.009      -23145.389 6    -18034.80643  24431221.0994                 
  24445019.187     -153097.595 6   -119311.10145  24445022.5724                 
  20640706.916   -20195278.594 9 -15736577.94646  20640709.0734                 
  20933549.399   -20248828.951 9 -15778312.08546  20933551.2954                 
 97  1  9  3 15  0.0000000  0  7 25 17  3  1  6 21 23
  21683758.193   -16704923.975 9 -13016830.92646  21683759.6124                 
  22552016.440    -8972209.850 7  -6991340.71745  22552018.6564                 
  23220858.538    -2428361.271 7  -1892229.54845  23220861.8184                 
  24429642.270      -31440.597 6    -24498.71144  24429649.4304                 
  24451384.983     -119643.941 6    -93243.40145  24451387.8604                 
  20628392.610   -20259990.851 9 -15787003.07946  20628394.7004                 
  20931548.894   -20259343.083 9 -15786504.92546  20931550.8664                 
 97  1  9  3 15 30.0000000  0  7 25 17  3  1  6 21 23
  21695450.530   -16643479.142 9 -12968951.87846  21695451.8004                 
  22570063.512    -8877372.578 7  -6917441.60145  22570066.5764                 
  23215210.127    -2458044.338 7  -1915359.22045  23215213.5074                 
  24428010.446      -40014.247 6    -31179.47744  24428019.1074                 
  24457740.269      -86245.445 6    -67218.69744  24457743.1174                 
  20616155.429   -20324297.998 9 -15837112.53646  20616157.6554                 
  20929650.556   -20269317.797 9 -15794277.43546  20929652.8834                 
 97  1  9  3 16  0.0000000  0  7 25 17  3  1  6 21 23
  21707180.978   -16581834.753 9 -12920917.33946  21707182.4004                 
  22588117.675    -8782494.836 7  -6843510.93545  22588120.2094                 
  23209547.257    -2487801.762 7  -1938546.83845  23209549.4884                 
  24426325.189      -48866.960 6    -38077.43945  24426327.2324                 
  24464089.574      -52882.962 6    -41222.05645  24464096.1454                 
  20603993.418   -20388209.558 9 -15886913.74646  20603995.5434                 
  20927853.993   -20278758.433 9 -15801633.78246  20927856.1234                 
 97  1  9  3 16 30.0000000  0  7 25 17  3  1  6 21 23
  21718947.496   -16520002.569 9 -12872736.46046  21718948.7754                 
  22606180.239    -8687578.981 7  -6769550.59245  22606181.3134                 
  23203868.741    -2517642.741 7  -1961799.56745  23203871.9534                 
  24424587.597      -58002.636 6    -45195.44945  24424593.7044                 
  24470433.236      -19547.239 6    -15246.27144  24470442.0174                 
  20591906.691   -20451725.855 9 -15936406.95546  20591908.8634                 
  20926160.603   -20287657.722 9 -15808568.29946  20926162.5954                 
 97  1  9  3 17  0.0000000  0  7 25 17  3  1  6 21 23
  21730748.090   -16457990.164 9 -12824415.15346  21730749.3424                 
  22624247.449    -8592633.127 7  -6695566.86045  22624249.5954                 
  23198176.768    -2547553.711 7  -1985106.84645  23198179.8354                 
  24422791.900      -67438.436 6    -52547.98544  24422797.1854                 
  24476775.408       13781.801 6     10724.32645  24476777.5784                 
  20579895.726   -20514843.930 9 -15985589.86346  20579897.8234                 
  20924568.033   -20296027.708 9 -15815090.37046  20924570.2484                 
 97  1  9  3 17 30.0000000  0  7 25 17  3  1  6 21 23
  21742583.598   -16395794.909 9 -12775951.35946  21742585.0864                 
  22642319.891    -8497661.813 7  -6621563.28945  22642322.6044                 
  23192472.908    -2577530.181 7  -2008465.14245  23192476.3174                 
  24420935.939      -77188.236 6    -60145.25643  24420936.5824                 
  24483115.617       47100.811 6     36687.19344  24483123.6564                 
  20567959.314   -20577569.424 9 -16034466.86446  20567961.5274                 
  20923077.320   -20303860.976 9 -15821194.21546  20923079.3414                 
 97  1  9  3 18  0.0000000  0  7 25 17  3  1  6 21 23
  21754453.561   -16333417.434 9 -12727345.58146  21754454.7214                 
  22660399.199    -8402657.260 7  -6547533.81945  22660400.5574                 
  23186753.513    -2607583.330 7  -2031883.18745  23186756.8674                 
  24419020.205      -87258.507 6    -67992.25045  24419033.1944                 
  24489449.358       80386.004 6     62623.51744  24489450.5344                 
  20556101.462   -20639883.391 9 -16083023.19546  20556103.5584                 
  20921692.043   -20311140.523 9 -15826866.59346  20921694.3544                 
 97  1  9  3 18 30.0000000  0  7 25 17  3  1  6 21 23
  21766357.451   -16270861.762 9 -12678600.94846  21766358.8524                 
  22678486.967    -8307604.138 7  -6473466.51745  22678488.9964                 
  23181021.977    -2637704.025 7  -2055353.86845  23181025.4114                 
  24417044.119      -97642.596 6    -76083.74545  24417047.0204                 
  24495776.267      113631.394 6     88528.97145  24495780.4694                 
  20544326.003   -20701764.026 9 -16131241.86546  20544328.2244                 
  20920412.815   -20317863.728 9 -15832105.45746  20920414.7144                 
 97  1  9  3 19  0.0000000  0  7 25 17  3  1  6 21 23
  21778294.490   -16208132.100 9 -12629720.73646  21778295.5254                 
  22696582.710    -8212510.310 7  -6399367.47145  22696585.5024                 
  23175276.699    -2667895.979 7  -2078880.07645  23175279.9544                 
  24415010.983     -108326.102 6    -84408.46144  24415012.6204                 
  24502093.176      146826.405 6    114395.15444  24502089.7964                 
  20532632.555   -20763212.965 9 -16179124.14846  20532634.7144                 
  20919238.378   -20324036.476 9 -15836915.39446  20919240.2064                 
 97  1  9  3 19 30.0000000  0  7 25 17  3  1  6 21 23
  21790263.545   -16145234.864 9 -12580709.94946  21790265.0714                 
  22714689.154    -8117360.381 7  -6325224.73845  22714691.2804                 
  23169514.976    -2698174.597 7  -2102473.83245  23169518.0394                 
  24412922.402     -119301.235 6    -92960.61744  24412923.7434                 
  24508398.018      179958.654 6    140212.42145  24508403.2254                 
  20521020.475   -20824234.693 9 -16226673.54046  20521022.4534                 
  20918172.673   -20329635.054 9 -15841277.92046  20918174.7424                 
 97  1  9  3 20  0.0000000  0  7 25 17  3  1  6 21 23
  21802263.559   -16082174.222 9 -12531571.83646  21802265.0634                 
  22732807.111    -8022149.383 7  -6251034.40045  22732809.1384                 
  23163736.715    -2728538.989 7  -2126134.40445  23163739.7664                 
  24410778.245     -130572.109 6   -101743.21143  24410786.0424                 
  24514693.253      213039.868 6    165989.93645  24514696.7214                 
  20509489.937   -20884828.718 9 -16273889.66146  20509491.9414                 
  20917214.998   -20334667.195 9 -15845199.07346  20917217.3764                 
 97  1  9  3 20 30.0000000  0  7 25 17  3  1  6 21 23
  21814293.612   -16018956.130 9 -12482311.03546  21814295.1654                 
  22750934.974    -7926888.074 7  -6176804.86645  22750936.8814                 
  23157943.279    -2758984.544 7  -2149858.21845  23157946.0594                 
  24408574.967     -142150.135 6   -110765.04543  24408580.6844                 
  24520983.594      246093.578 6    191745.97945  24520981.9954                 
  20498041.148   -20944992.349 9 -16320770.40646  20498043.1924                 
  20916362.600   -20339147.376 9 -15848690.13646  20916364.3064                 
 97  1  9  3 21  0.0000000  0  7 25 17  3  1  6 21 23
  21826352.465   -15955586.507 9 -12432932.15146  21826354.2794                 
  22769070.630    -7831584.321 7  -6102542.26245  22769073.5294                 
  23152129.843    -2789534.854 7  -2173663.68345  23152133.1294                 
  24406310.707     -154045.169 6   -120033.81144  24406312.6624                 
  24527269.411      279124.826 6    217484.46244  24527271.4654                 
  20486673.190   -21004731.290 9 -16367320.22646  20486675.1264                 
  20915616.471   -20343068.561 9 -15851745.60846  20915618.3104                 
 97  1  9  3 21 30.0000000  0  7 25 17  3  1  6 21 23
  21838441.213   -15892060.356 9 -12383431.30546  21838442.3414                 
  22787215.036    -7736236.418 7  -6028245.25245  22787217.6354                 
  23146294.555    -2820199.552 7  -2197558.26045  23146296.5494                 
  24403987.533     -166255.025 6   -129548.10544  24403993.6854                 
  24533554.516      312155.434 6    243222.53644  24533555.4904                 
  20475389.142   -21064029.113 9 -16413526.31446  20475391.1564                 
  20914977.474   -20346424.660 9 -15854360.75946  20914979.4794                 
 97  1  9  3 22  0.0000000  0  7 25 17  3  1  6 21 23
  21850560.171   -15828375.200 9 -12333806.56446  21850561.8244                 
  22805362.199    -7640872.085 7  -5953935.43745  22805364.4504                 
  23140436.699    -2850980.375 7  -2221543.31145  23140438.9504                 
  24401606.754     -178769.549 6   -139299.73043  24401610.0964                 
  24539842.940      345202.059 6    268973.05545  24539845.7934                 
  20464190.779   -21122877.206 9 -16459381.96046  20464193.0524                 
  20914442.088   -20349238.766 9 -15856553.58346  20914444.2594                 
 97  1  9  3 22 30.0000000  0  7 25 17  3  1  6 21 23
  21862707.329   -15764541.156 8 -12284065.79646  21862709.1894                 
  22823511.276    -7545496.312 7  -5879616.71545  22823513.7024                 
  23134554.421    -2881893.421 7  -2245631.43245  23134557.9494                 
  24399168.856     -191579.840 6   -149281.80644  24399172.6214                 
  24546134.845      378264.272 6    294735.67645  24546139.7284                 
  20453077.532   -21181277.422 9 -16504888.61946  20453079.3984                 
  20914010.254   -20351509.357 9 -15858322.88446  20914012.2424                 
 97  1  9  3 23  0.0000000  0  7 25 17  3  1  6 21 23
  21874883.289   -15700557.204 8 -12234208.21446  21874884.7294                 
  22841663.968    -7450106.011 7  -5805286.65845  22841666.1944                 
  23128647.167    -2912937.897 7  -2269821.93145  23128649.8874                 
  24396679.477     -204661.880 6   -159475.56943  24396688.1584                 
  24552428.127      411334.612 6    320504.67145  24552431.5114                 
  20442046.811   -21239243.317 9 -16550056.83646  20442048.9954                 
  20913683.761   -20353225.120 9 -15859659.85446  20913685.7854                 
 97  1  9  3 23 30.0000000  0  7 25 17  3  1  6 21 23
  21887088.249   -15636420.780 9 -12184231.82646  21887090.1874                 
  22859816.516    -7354710.976 7  -5730952.92145  22859819.2374                 
  23122720.639    -2944079.648 7  -2294088.24145  23122722.6654                 
  24394139.696     -218005.181 6   -169873.06644  24394149.8444                 
  24558721.634      444408.376 6    346276.36245  24558722.5424                 
  20431096.722   -21296787.207 9 -16594896.22446  20431099.0024                 
  20913459.892   -20354400.024 9 -15860575.37546  20913462.1974                 
 97  1  9  3 24  0.0000000  0  7 25 17  3  1  6 21 23
  21899320.644   -15572137.744 8 -12134141.19746  21899321.8714                 
  22877971.161    -7259310.322 7  -5656614.81145  22877973.7684                 
  23116779.504    -2975300.705 7  -2318416.35045  23116782.7214                 
  24391549.141     -231621.241 6   -180482.97745  24391554.9174                 
  24565013.265      477470.610 6    372039.05645  24565018.1984                 
  20420226.350   -21353911.097 9 -16639408.34046  20420228.4774                 
  20913337.847   -20355041.757 9 -15861075.44146  20913339.8434                 
 97  1  9  3 24 30.0000000  0  7 25 17  3  1  6 21 23
  21911580.768   -15507710.754 8 -12083938.40146  21911582.5984                 
  22896130.320    -7163885.321 7  -5582257.73445  22896133.6724                 
  23110822.656    -3006605.381 7  -2342809.61045  23110826.5424                 
  24388905.675     -245513.368 6   -191308.04845  24388912.1424                 
  24571302.123      510518.744 6    397790.70045  24571306.7024                 
  20409439.467   -21410596.575 9 -16683578.83446  20409441.5844                 
  20913320.991   -20355130.612 9 -15861144.68846  20913323.0084                 
 97  1  9  3 25  0.0000000  0  7 25 17  3  1  6 21 23
  21923870.214   -15443130.019 8 -12033615.81046  21923871.7114                 
  22914291.113    -7068446.255 7  -5507889.68645  22914293.8694                 
  23104851.349    -3037984.808 7  -2367261.10345  23104853.7674                 
  24386210.509     -259674.821 6   -202342.97945  24386215.0494                 
  24577586.120      543541.592 6    423522.69445  24577595.9174                 
  20398740.225   -21466821.173 9 -16727390.20046  20398742.3664                 
  20913408.598   -20354670.812 9 -15860786.41646  20913410.6244                 
 97  1  9  3 25 30.0000000  0  7 25 17  3  1  6 21 23
  21936188.390   -15378396.607 8 -11983174.24646  21936190.1974                 
  22932454.257    -6973000.626 7  -5433516.53545  22932457.2084                 
  23098862.769    -3069454.402 7  -2391782.86545  23098865.6714                 
  24383460.854     -274124.957 6   -213602.81245  24383466.5274                 
  24583865.761      576539.058 6    449234.95745  24583871.8314                 
  20388133.044   -21522562.644 9 -16770825.10546  20388135.2824                 
  20913599.250   -20353668.423 9 -15860005.35346  20913601.2844                 
 97  1  9  3 26  0.0000000  0  7 25 17  3  1  6 21 23
  21948535.381   -15313514.535 8 -11932616.84446  21948537.0444                 
  22950618.460    -6877545.065 7  -5359135.63645  22950622.2604                 
  23092852.499    -3101038.617 7  -2416393.94845  23092854.9174                 
  24380653.686     -288878.684 6   -225099.21645  24380660.1404                 
  24590139.789      609509.077 6    474925.79345  24590145.5634                 
  20377621.327   -21577801.959 9 -16813868.71446  20377622.9734                 
  20913898.004   -20352099.206 9 -15858782.59946  20913899.6914                 
 97  1  9  3 26 30.0000000  0  7 25 17  3  1  6 21 23
  21960908.160   -15248495.312 8 -11881952.57646  21960909.3604                 
  22968782.923    -6782090.124 7  -5284755.21945  22968785.5554                 
  23086819.814    -3132741.390 7  -2441097.38845  23086822.0004                 
  24377788.254     -303934.599 6   -236831.20545  24377795.5154                 
  24596406.140      642438.701 6    500585.15844  24596413.9514                 
  20367203.758   -21632546.922 9 -16856527.12346  20367205.6404                 
  20914306.806   -20349950.744 9 -15857108.48346  20914308.8114                 
 97  1  9  3 27  0.0000000  0  7 25 17  3  1  6 21 23
  21973306.517   -15183340.848 8 -11831182.91546  21973307.8784                 
  22986944.694    -6686652.339 7  -5210388.18445  22986948.0384                 
  23080765.767    -3164555.628 7  -2465887.73445  23080769.6384                 
  24374863.695     -319303.125 6   -248806.66645  24374869.4604                 
  24602663.035      675318.237 6    526205.42545  24602664.8364                 
  20356874.351   -21686827.925 9 -16898823.99946  20356876.5134                 
  20914823.806   -20347233.652 9 -15854991.28446  20914825.9624                 
 97  1  9  3 27 30.0000000  0  7 25 17  3  1  6 21 23
  21985729.712   -15118058.352 8 -11780313.48446  21985731.7984                 
  23005103.298    -6591227.973 7  -5136031.58645  23005105.5864                 
  23074691.743    -3196474.041 7  -2490759.21445  23074695.7374                 
  24371877.569     -334996.025 6   -261034.92745  24371884.8494                 
  24608912.780      708161.664 6    551797.64545  24608913.3354                 
  20346631.474   -21740654.927 9 -16940767.10846  20346633.5514                 
  20915452.651   -20343930.045 9 -15852417.05646  20915454.5844                 
 97  1  9  3 28  0.0000000  0  7 25 17  3  1  6 21 23
  21998176.029   -15052652.195 8 -11729347.70846  21998177.5374                 
  23023260.086    -6495812.641 7  -5061682.03645  23023262.2774                 
  23068602.071    -3228475.087 7  -2515695.09245  23068604.9504                 
  24368830.399     -351007.295 6   -273511.20645  24368834.3964                 
  24615156.364      740972.369 6    577364.32245  24615161.7664                 
  20336473.250   -21794036.738 9 -16982363.31146  20336475.3744                 
  20916194.814   -20340029.178 9 -15849377.43046  20916196.6864                 
 97  1  9  3 28 30.0000000  0  7 25 17  3  1  6 21 23
  22010645.871   -14987121.529 8 -11678284.90446  22010647.4794                 
  23041415.941    -6400402.649 7  -4987336.66145  23041418.6604                 
  23062498.244    -3260551.474 7  -2540689.68745  23062501.6684                 
  24365725.484     -367323.985 6   -286225.48145  24365730.4254                 
  24621398.993      773775.190 6    602924.85844  24621404.2454                 
  20326399.556   -21846974.348 9 -17023613.38946  20326401.6364                 
  20917046.826   -20335551.694 9 -15845888.48846  20917048.8674                 
 97  1  9  3 29  0.0000000  0  7 25 17  3  1  6 21 23
  22023141.779   -14921456.394 8 -11627117.32046  22023143.7074                 
  23059571.781    -6304993.771 7  -4912992.14245  23059574.6494                 
  23056380.051    -3292703.483 7  -2565743.19845  23056382.9744                 
  24362564.079     -383938.326 6   -299171.76345  24362567.3824                 
  24627644.729      806595.893 6    628499.34245  24627650.7084                 
  20316415.075   -21899442.449 9 -17064497.61346  20316417.0734                 
  20918008.916   -20330495.691 9 -15841948.75646  20918011.2354                 
 97  1  9  3 29 30.0000000  0  7 25 17  3  1  6 21 23
  22035659.109   -14855676.199 8 -11575860.08046  22035660.8194                 
  23077729.308    -6209576.795 7  -4838641.30845  23077732.6244                 
  23050247.475    -3324929.105 7  -2590854.08945  23050249.4254                 
  24359348.793     -400835.082 6   -312338.08345  24359354.1894                 
  24633895.375      839444.422 6    654095.52945  24633898.5244                 
  20306525.016   -21951415.605 9 -17104996.17046  20306526.9854                 
  20919083.228   -20324852.004 9 -15837551.09146  20919085.5514                 
 97  1  9  3 30  0.0000000  0  7 25 17  3  1  6 21 23
  22048197.684   -14789785.591 8 -11524516.79846  22048199.9124                 
  23095886.531    -6114158.129 7  -4764289.16645  23095890.5534                 
  23044098.896    -3357241.185 7  -2616032.33645  23044102.0664                 
  24356082.447     -418000.747 6   -325714.00545  24356086.8604                 
  24640149.908      872313.337 5    679707.55744  24640154.1994                 
  20296729.232   -22002892.430 9 -17145107.97546  20296731.5104                 
  20920265.970   -20318635.429 9 -15832707.01646  20920267.9034                 
 97  1  9  3 30 30.0000000  0  7 25 17  3  1  6 21 23
  22060756.923   -14723786.298 8 -11473088.83646  22060758.3874                 
  23114042.506    -6018750.527 7  -4689945.65045  23114045.9264                 
  23037931.307    -3389652.068 7  -2641287.56145  23037933.2224                 
  24352765.597     -435428.014 6   -339293.66345  24352774.7424                 
  24646407.494      905196.546 5    705330.68944  24646407.8154                 
  20287029.296   -22053865.905 9 -17184827.55446  20287031.5434                 
  20921557.069   -20311850.181 9 -15827419.81546  20921559.1684                 
 97  1  9  3 31  0.0000000  0  7 25 17  3  1  6 21 23
  22073335.888   -14657684.108 8 -11421580.69146  22073337.5874                 
  23132193.485    -5923366.177 7  -4615620.24245  23132196.6184                 
  23031743.760    -3422169.533 7  -2666625.85245  23031746.8474                 
  24349401.013     -453111.809 6   -353073.25045  24349404.8954                 
  24652664.494      938073.134 5    730948.67844  24652671.8984                 
  20277423.875   -22104343.311 9 -17224160.59046  20277426.0184                 
  20922958.304   -20304486.091 9 -15821681.57246  20922960.6394                 
 97  1  9  3 31 30.0000000  0  7 25 17  3  1  6 21 23
  22085932.489   -14591488.949 8 -11370000.10646  22085934.2924                 
  23150338.744    -5828013.447 7  -4541319.48245  23150340.8724                 
  23025532.851    -3454804.225 7  -2692055.48145  23025534.2344                 
  24345986.954     -471050.968 6   -367051.81145  24345991.8224                 
  24658919.011      970940.879 5    756559.81344  24658925.0884                 
  20267908.659   -22154346.164 9 -17263123.84346  20267910.6814                 
  20924469.007   -20296548.603 9 -15815496.52646  20924471.5054                 
 97  1  9  3 32  0.0000000  0  7 25 17  3  1  6 21 23
  22098549.520   -14525185.378 8 -11318335.04046  22098551.6194                 
  23168474.433    -5732705.755 7  -4467053.80945  23168478.5424                 
  23019299.427    -3487560.749 7  -2717580.05345  23019302.9364                 
  24342524.365     -489246.174 6   -381229.91445  24342531.5844                 
  24665171.332     1003799.063 5    782163.50345  24665178.1004                 
  20258484.008   -22203872.228 9 -17301715.57546  20258486.2184                 
  20926087.703   -20288041.225 9 -15808867.40946  20926089.9604                 
 97  1  9  3 32 30.0000000  0  7 25 17  3  1  6 21 23
  22111186.458   -14458779.101 8 -11266589.94546  22111188.4904                 
  23186604.265    -5637437.510 7  -4392818.86445  23186605.5014                 
  23013041.957    -3520444.327 7  -2743203.63245  23013044.9364                 
  24339011.172     -507711.378 6   -395618.36345  24339014.5014                 
  24671424.419     1036659.624 5    807769.00043  24671426.7364                 
  20249152.366   -22252910.642 9 -17339927.31846  20249154.5554                 
  20927815.869   -20278959.813 9 -15801790.99446  20927818.2874                 
 97  1  9  3 33  0.0000000  0  7 25 17  3  1  6 21 23
  22123841.333   -14392277.840 8 -11214770.83746  22123842.9514                 
  23204727.426    -5542198.046 7  -4318606.35445  23204729.8734                 
  23006759.821    -3553459.277 7  -2768929.56845  23006762.2384                 
  24335443.762     -526455.799 6   -410224.39645  24335448.0574                 
  24677680.646     1069534.424 5    833385.60444  24677689.1534                 
  20239915.776   -22301448.771 9 -17377749.22646  20239918.1054                 
  20929652.959   -20269305.522 9 -15794268.18046  20929655.5184                 
 97  1  9  3 33 30.0000000  0  7 25 17  3  1  6 21 23
  22136513.143   -14325685.119 8 -11162880.45946  22136515.1584                 
  23222846.155    -5446984.467 7  -4244414.02945  23222849.4374                 
  23000453.446    -3586596.332 7  -2794750.65945  23000456.5264                 
  24331821.606     -545492.874 6   -425058.44745  24331827.5774                 
  24683939.570     1102424.196 5    859013.92745  24683941.8374                 
  20230777.943   -22349469.247 9 -17415167.77246  20230780.1034                 
  20931599.480   -20259077.973 9 -15786298.67046  20931601.5454                 
 97  1  9  3 34  0.0000000  0  7 25  3 17  1  6 21 23
  22149202.823   -14259000.836 8 -11110918.74646  22149204.3934                 
  22994127.060    -3619844.369 7  -2820658.22745  22994131.5024                 
  23240962.091    -5351785.756 7  -4170233.26645  23240963.4994                 
  24328140.789     -564834.815 6   -440130.10845  24328145.9734                 
  24690199.198     1135321.018 5    884647.68545  24690202.6644                 
  20221742.978   -22396947.791 9 -17452164.03346  20221744.9364                 
  20933655.456   -20248272.787 9 -15777879.04846  20933657.8534                 
 97  1  9  3 34 30.0000000  0  7 25  3 17  1  6 21 23
  22161909.445   -14192229.065 8 -11058888.85745  22161911.6254                 
  22987780.548    -3653195.660 7  -2846646.25545  22987783.4194                 
  23259077.367    -5256587.017 7  -4096052.49445  23259080.5644                 
  24324401.373     -584485.925 6   -455442.66145  24324405.2334                 
  24696460.742     1168224.045 5    910286.32745  24696461.3454                 
  20212808.983   -22443895.995 9 -17488747.04346  20212810.9034                 
  20935821.405   -20236890.316 9 -15769009.59946  20935823.5994                 
 97  1  9  3 35  0.0000000  0  7 25  3 17  1  6 21 23
  22174633.431   -14125365.196 8 -11006787.20045  22174635.9444                 
  22981417.364    -3686633.733 7  -2872701.89745  22981420.3894                 
  23277191.881    -5161394.410 7  -4021876.51245  23277195.8344                 
  24320606.300     -604427.875 6   -470981.77545  24320612.7284                 
  24702722.698     1201126.401 6    935924.40945  24702728.5634                 
  20203973.017   -22490329.513 9 -17524928.99546  20203975.0214                 
  20938097.093   -20224932.329 9 -15759691.69746  20938099.1334                 
 97  1  9  3 35 30.0000000  0  7 25  3 17  1  6 21 23
  22187375.023   -14058407.560 8 -10954612.48545  22187376.9534                 
  22975040.744    -3720143.546 7  -2898813.44445  22975043.8084                 
  23295303.293    -5066220.297 7  -3947714.91745  23295306.2224                 
  24316757.356     -624653.723 6   -486742.20845  24316763.7064                 
  24708983.021     1234027.665 6    961561.66945  24708985.1244                 
  20195232.857   -22536259.099 9 -17560718.27646  20195234.8934                 
  20940481.809   -20212399.943 9 -15749926.20846  20940483.9184                 
 97  1  9  3 36  0.0000000  0  7 25  3 17  1  6 21 23
  22200134.457   -13991357.378 8 -10902365.65045  22200136.9484                 
  22968649.995    -3753727.509 7  -2924982.77145  22968652.1854                 
  23313410.898    -4971064.804 7  -3873567.84245  23313414.0694                 
  24312857.917     -645146.906 6   -502710.91645  24312863.2454                 
  24715245.862     1266940.061 5    987207.59645  24715252.3084                 
  20186587.139   -22581692.564 9 -17596120.96946  20186589.2674                 
  20942973.836   -20199304.804 9 -15739722.21046  20942975.7494                 
 97  1  9  3 36 30.0000000  0  7 25  3 17  1  6 21 23
  22212910.090   -13924218.670 8 -10850049.84145  22212912.0074                 
  22962243.069    -3787396.805 7  -2951218.58845  22962245.8974                 
  23331508.808    -4875957.770 7  -3799458.53045  23331512.5414                 
  24308910.828     -665886.922 6   -518871.92645  24308919.9834                 
  24721512.893     1299872.082 6   1012868.82745  24721517.0354                 
  20178033.362   -22626643.385 9 -17631147.57946  20178035.5204                 
  20945572.882   -20185646.208 9 -15729079.16246  20945575.2184                 
 97  1  9  3 37  0.0000000  0  7 25  3 17  1  6 21 23
  22225701.720   -13856998.667 8 -10797670.68745  22225703.6014                 
  22955816.740    -3821166.332 7  -2977532.51345  22955820.1644                 
  23349593.899    -4780922.001 7  -3725404.74245  23349595.7264                 
  24304918.003     -686869.322 6   -535221.78945  24304926.5634                 
  24727783.393     1332823.079 6   1038544.78445  24727791.4254                 
  20169574.352   -22671096.130 9 -17665786.07646  20169576.3564                 
  20948280.904   -20171416.207 9 -15717990.86146  20948283.2464                 
 97  1  9  3 37 30.0000000  0  7 25  3 17  1  6 21 23
  22238505.975   -13789711.929 8 -10745239.53545  22238508.1124                 
  22949369.691    -3855046.816 7  -3003932.88045  22949373.1034                 
  23367663.747    -4685963.737 7  -3651411.33445  23367667.2884                 
  24300877.063     -708105.550 6   -551769.48145  24300883.7014                 
  24734058.909     1365799.962 6   1064240.97445  24734066.1334                 
  20161212.967   -22715034.960 9 -17700024.12046  20161215.0624                 
  20951099.121   -20156606.030 9 -15706450.47446  20951100.9544                 
 97  1  9  3 38  0.0000000  0  7 25  3 17  1  6 21 23
  22251321.901   -13722365.104 8 -10692761.56245  22251323.6234                 
  22942899.099    -3889048.829 7  -3030427.95945  22942901.5784                 
  23385718.766    -4591084.414 7  -3577479.46245  23385722.9984                 
  24296789.174     -729588.669 6   -568509.53545  24296794.0264                 
  24740337.755     1398795.159 6   1089951.41745  24740345.3434                 
  20152949.301   -22758460.891 9 -17733862.50246  20152951.4794                 
  20954029.045   -20141209.951 9 -15694453.53746  20954031.0274                 
 97  1  9  3 38 30.0000000  0  7 25  3 17  1  6 21 23
  22264148.287   -13654962.573 8 -10640240.18445  22264150.0394                 
  22936404.475    -3923178.558 7  -3057022.54245  22936407.0584                 
  23403758.491    -4496286.591 7  -3503611.06645  23403761.6244                 
  24292653.173     -751323.633 6   -585445.90645  24292659.2224                 
  24746619.526     1431806.431 6   1115674.39045  24746622.1434                 
  20144784.846   -22801365.683 9 -17767294.80146  20144787.0074                 
  20957073.306   -20125212.298 9 -15681987.85146  20957075.4374                 
 97  1  9  3 39  0.0000000  0  7 25  3 17  1  6 21 23
  22276985.086   -13587503.926 8 -10587675.07345  22276987.4574                 
  22929888.706    -3957421.106 7  -3083705.05145  22929891.2014                 
  23421786.501    -4401547.520 7  -3429788.50045  23421789.0914                 
  24288466.072     -773322.968 6   -602588.23345  24288472.8004                 
  24752905.191     1464837.515 6   1141412.77845  24752909.6934                 
  20136720.721   -22843742.835 9 -17800315.95446  20136722.7604                 
  20960230.609   -20108620.361 9 -15669059.08746  20960232.9934                 
 97  1  9  3 39 30.0000000  0  7 25  3 17  1  6 21 23
  22289831.780   -13519995.385 8 -10535071.08145  22289834.0194                 
  22923353.260    -3991763.720 7  -3110465.51145  22923356.2074                 
  23439806.506    -4306852.240 7  -3356000.03445  23439809.2874                 
  24284230.625     -795583.762 6   -619934.26445  24284238.1684                 
  24759195.651     1497893.363 6   1167170.51145  24759204.9934                 
  20128756.299   -22885595.819 9 -17832928.66246  20128758.2824                 
  20963499.289   -20091442.120 9 -15655673.46646  20963502.2884                 
 97  1  9  3 40  0.0000000  0  7 25 17  3  1  6 21 23
  22302689.376   -13452427.939 8 -10482421.18345  22302691.0234                 
  23457817.382    -4212206.202 7  -3282249.90145  23457819.6034                 
  22916797.509    -4026213.840 7  -3137309.76545  22916800.1144                 
  24279946.028     -818099.309 6   -637478.83645  24279951.3174                 
  24765489.948     1530970.555 6   1192944.86145  24765495.2224                 
  20120892.997   -22926917.309 9 -17865127.21846  20120895.1644                 
  20966879.292   -20073681.897 9 -15641834.34746  20966881.4114                 
 97  1  9  3 40 30.0000000  0  7 25  3 17  1  6 21 23
  22315560.125   -13384791.957 8 -10429717.88345  22315562.3394                 
  22910218.116    -4060788.539 7  -3164251.08045  22910222.0884                 
  23475819.105    -4117606.198 7  -3208535.66345  23475821.6834                 
  24275610.141     -840884.469 6   -655233.47145  24275615.1854                 
  24771790.561     1564078.162 6   1218742.90345  24771793.1454                 
  20113133.898   -22967692.537 9 -17896900.11646  20113135.9664                 
  20970368.967   -20055343.249 9 -15627544.50246  20970371.5394                 
 97  1  9  3 41  0.0000000  0  7 25  3 17  1  6 21 23
  22328444.068   -13317087.833 8 -10376961.49545  22328445.8204                 
  22903615.111    -4095486.857 7  -3191288.72245  22903616.9734                 
  23493811.975    -4023052.487 7  -3134857.53445  23493814.9644                 
  24271220.764     -863950.001 6   -673206.60245  24271226.0344                 
  24778096.788     1597217.789 6   1244565.86845  24778101.0934                 
  20105478.768   -23007919.917 9 -17928246.12046  20105480.7914                 
  20973967.666   -20036432.411 9 -15612808.80446  20973969.9284                 
 97  1  9  3 41 30.0000000  0  7 25  3 17  1  6 21 23
  22341340.139   -13249318.188 8 -10324154.04845  22341342.4974                 
  22896986.090    -4130323.800 7  -3218434.39245  22896989.3044                 
  23511794.260    -3928556.179 7  -3061224.09545  23511796.5594                 
  24266778.743     -887292.644 6   -691395.64045  24266784.9084                 
  24784407.953     1630382.202 6   1270408.13545  24784413.6784                 
  20097930.771   -23047584.991 9 -17959153.96646  20097932.8264                 
  20977676.046   -20016944.244 9 -15597623.24446  20977678.0234                 
 97  1  9  3 42  0.0000000  0  7 25  3 17  1  6 21 23
  22354251.297   -13181469.912 8 -10271285.33945  22354253.5174                 
  22890328.965    -4165306.193 7  -3245693.39745  22890332.6204                 
  23529762.217    -3834133.793 7  -2987648.26345  23529765.3244                 
  24262283.606     -910914.211 6   -709802.03445  24262288.2474                 
  24790723.751     1663574.011 6   1296271.79945  24790731.3564                 
  20090492.155   -23086674.778 9 -17989613.53546  20090494.2074                 
  20981493.885   -19996882.596 9 -15581990.80546  20981495.9774                 
 97  1  9  3 42 30.0000000  0  7 23 25  3 17  1  6 21
  20985418.298   -19976257.413 9 -15565919.26146  20985420.1304                 
  22367174.198   -13113558.990 8 -10218367.81345  22367176.6544                 
  22883648.901    -4200411.080 7  -3273047.83645  22883651.1124                 
  23547717.782    -3739776.673 7  -2914123.28845  23547720.7474                 
  24257735.460     -934817.380 6   -728427.85545  24257741.2464                 
  24797045.699     1696794.544 6   1322157.79645  24797051.5394                 
  20083163.330   -23125188.400 9 -18019624.14446  20083165.3454                 
 97  1  9  3 43  0.0000000  0  7 23 25  3 17  1  6 21
  20989449.894   -19955072.288 9 -15549411.39946  20989451.6894                 
  22380106.219   -13045601.565 8 -10165414.05045  22380107.8034                 
  22876951.121    -4235608.145 7  -3300474.12545  22876953.9674                 
  23565659.969    -3645490.694 7  -2840653.77645  23565664.9024                 
  24253137.390     -958978.348 6   -747254.57645  24253141.4434                 
  24803372.793     1730042.266 6   1348065.08845  24803378.4584                 
  20075942.882   -23163132.209 9 -18049190.74346  20075944.9274                 
 97  1  9  3 43 30.0000000  0  7 23 25  3 17  1  6 21
  20993589.572   -19933318.783 9 -15532460.63746  20993591.7984                 
  22393046.681   -12977599.253 8 -10112425.30645  22393049.1314                 
  22870236.095    -4270896.784 7  -3327971.77445  22870239.4934                 
  23583586.069    -3551286.161 6  -2767247.70545  23583590.6584                 
  24248493.796     -983379.714 6   -766268.60345  24248498.8124                 
  24809703.735     1763311.901 6   1373989.35145  24809710.0114                 
  20068829.121   -23200515.095 9 -18078320.25846  20068831.1854                 
 97  1  9  3 44  0.0000000  0  7 23 25  3 17  1  6 21
  20997838.076   -19910992.587 9 -15515063.62246  20997839.8324                 
  22405994.131   -12909560.276 8 -10059407.98845  22405995.8234                 
  22863504.700    -4306269.509 7  -3355534.91545  22863507.4514                 
  23601498.017    -3457160.061 6  -2693902.73645  23601502.7434                 
  24243804.525    -1008023.002 6   -785471.10545  24243808.4654                 
  24816037.565     1796595.592 6   1399924.64545  24816038.2654                 
  20061819.444   -23237351.588 9 -18107024.01346  20061821.4584                 
 97  1  9  3 44 30.0000000  0  7 23 25  3 17  1  6 21
  21002197.645   -19888083.120 9 -15497212.11546  21002199.8414                 
  22418945.700   -12841499.588 8 -10006373.75545  22418947.5284                 
  22856755.436    -4341737.248 7  -3383172.09745  22856758.8584                 
  23619397.169    -3363101.502 6  -2620610.40245  23619402.4694                 
  24239068.856    -1032910.170 6   -804863.68245  24239076.8924                 
  24822373.662     1829891.998 6   1425869.77644  24822374.1774                 
  20054910.571   -23273658.279 9 -18135314.94146  20054912.6244                 
 97  1  9  3 45  0.0000000  0  7 23 25  3 17  1  6 21
  21006672.529   -19864568.929 9 -15478889.38746  21006674.3144                 
  22431904.612   -12773399.348 8  -9953308.70245  22431906.7264                 
  22849983.187    -4377326.354 7  -3410903.93545  22849985.9184                 
  23637281.637    -3269114.864 6  -2547374.13845  23637284.2404                 
  24234286.540    -1058039.748 6   -824445.11345  24234291.6584                 
  24828711.302     1863198.830 6   1451823.06045  24828714.6534                 
  20048101.762   -23309437.943 9 -18163195.18946  20048103.7744                 
 97  1  9  3 45 30.0000000  0  7 23 25  3 17  1  6 21
  21011262.214   -19840449.185 9 -15460094.79846  21011264.7764                 
  22444872.240   -12705254.971 8  -9900209.26545  22444874.3034                 
  22843184.816    -4413051.031 7  -3438741.27345  22843187.6974                 
  23655154.062    -3175198.377 6  -2474192.53945  23655156.6224                 
  24229455.064    -1083428.159 6   -844228.30645  24229463.2104                 
  24835053.674     1896524.968 6   1477791.41944  24835063.4114                 
  20041396.872   -23344672.587 9 -18190650.75846  20041398.7734                 
 97  1  9  3 46  0.0000000  0  7 23 25  3 17  1  6 21
  21015963.487   -19815743.609 9 -15440843.72246  21015965.9664                 
  22457847.454   -12637069.015 7  -9847077.42245  22457849.7464                 
  22836361.316    -4448909.259 7  -3466682.74645  22836364.0064                 
  23673012.968    -3081348.375 6  -2401062.70745  23673015.0544                 
  24224573.620    -1109081.807 6   -864218.12145  24224578.0114                 
  24841400.432     1929879.309 6   1503781.68445  24841404.6494                 
  20034799.571   -23379340.964 9 -18217665.07646  20034801.4784                 
 97  1  9  3 46 30.0000000  0  7 23 25  3 17  1  6 21
  21020774.783   -19790461.012 9 -15421143.01946  21020777.1104                 
  22470830.674   -12568843.783 8  -9793914.97245  22470833.5814                 
  22829512.963    -4484896.200 7  -3494724.49845  22829516.1614                 
  23690858.582    -2987566.999 6  -2327986.38045  23690862.1504                 
  24219643.032    -1134991.598 6   -884407.54945  24219648.4514                 
  24847757.909     1963286.087 6   1529812.89044  24847767.2394                 
  20028311.140   -23413438.791 9 -18244234.80946  20028313.0534                 
 97  1  9  3 47  0.0000000  0  7 23 25  3 17  1  6 21
  21025694.301   -19764608.673 9 -15400998.36146  21025696.3284                 
  22483820.035   -12500583.736 7  -9740725.39145  22483822.5164                 
  22822645.343    -4520986.075 7  -3522846.48445  22822648.2304                 
  23708688.790    -2893870.143 6  -2254975.92345  23708690.8434                 
  24214664.457    -1161153.642 6   -904793.53945  24214669.7624                 
  24854124.573     1996742.434 6   1555882.73245  24854130.4034                 
  20021932.360   -23446959.018 9 -18270354.46647  20021934.3694                 
 97  1  9  3 47 30.0000000  0  7 23 25  3 17  1  6 21
  21030719.855   -19738197.745 9 -15380418.43646  21030722.0214                 
  22496813.617   -12432302.769 7  -9687519.50845  22496816.2704                 
  22815760.502    -4557165.810 7  -3551038.47345  22815763.7804                 
  23726500.583    -2800269.310 6  -2182040.28345  23726504.7464                 
  24209637.759    -1187568.502 6   -925376.49845  24209645.7074                 
  24860501.323     2030252.045 5   1581993.98545  24860506.9804                 
  20015662.275   -23479908.477 9 -18296029.36446  20015664.2284                 
 97  1  9  3 48  0.0000000  0  7 23 25  3 17  1  6 21
  21035853.383   -19711222.016 9 -15359398.41446  21035855.2454                 
  22509809.720   -12364006.542 7  -9634301.73945  22509812.3574                 
  22808859.508    -4593431.245 7  -3579297.24845  22808862.4634                 
  23744291.711    -2706776.523 6  -2109188.81545  23744293.9984                 
  24204565.553    -1214224.087 6   -946147.06545  24204572.7544                 
  24866886.901     2063807.139 5   1608140.73744  24866893.4034                 
  20009497.189   -23512306.172 9 -18321274.31846  20009499.1414                 
 97  1  9  3 48 30.0000000  0  7 23 25  3 17  1  6 21
  21041097.529   -19683663.565 9 -15337924.31746  21041099.4434                 
  22522808.266   -12295701.586 7  -9581077.17145  22522810.4514                 
  22801941.786    -4629783.697 7  -3607623.83345  22801944.9274                 
  23762061.233    -2613397.670 6  -2036426.12945  23762062.8894                 
  24199446.769    -1241123.390 6   -967107.52445  24199453.0864                 
  24873279.948     2097404.398 5   1634320.26945  24873280.9004                 
  20003436.070   -23544157.532 9 -18346093.55447  20003438.0224                 
 97  1  9  3 49  0.0000000  0  7 23 25  3 17  1  6 21
  21046454.590   -19655511.745 9 -15315987.85846  21046456.9504                 
  22535808.650   -12227381.860 7  -9527841.09545  22535811.3584                 
  22795005.736    -4666233.465 7  -3636026.23845  22795007.9864                 
  23779807.406    -2520140.118 6  -1963757.99945  23779809.7954                 
  24194280.240    -1268271.217 6   -988261.59845  24194288.4244                 
  24879679.731     2131034.796 5   1660525.66044  24879680.4284                 
  19997479.971   -23575456.895 9 -18370482.66247  19997481.8584                 
 97  1  9  3 49 30.0000000  0  7 23 25  3 17  1  6 21
  21051924.584   -19626765.844 9 -15293588.47546  21051927.1474                 
  22548811.621   -12159049.748 7  -9474595.37145  22548813.7254                 
  22788049.468    -4702788.685 7  -3664510.82145  22788052.7004                 
  23797534.051    -2426985.134 6  -1891169.77445  23797538.0204                 
  24189068.531    -1295662.834 6  -1009605.72045  24189074.0544                 
  24886089.863     2164717.529 5   1686771.86043  24886087.8064                 
  19991630.986   -23606193.468 9 -18394433.23247  19991632.7984                 
 97  1  9  3 50  0.0000000  0  7 23 25  3 17  1  6 21
  21057508.136   -19597425.165 9 -15270725.62946  21057510.4374                 
  22561816.053   -12090714.154 7  -9421346.94045  22561818.8284                 
  22781072.805    -4739450.862 7  -3693078.73445  22781075.3644                 
  23815243.354    -2333924.551 6  -1818655.11445  23815247.8604                 
  24183810.055    -1323294.040 6  -1031136.45445  24183817.4754                 
  24892510.500     2198459.382 5   1713064.08142  24892504.4794                 
  19985891.326   -23636355.921 9 -18417936.43647  19985893.4954                 
 97  1  9  3 50 30.0000000  0  7 23 25  3 17  1  6 21
  21063204.426   -19567491.058 9 -15247400.37146  21063206.8494                 
  22574819.635   -12022381.386 7  -9368100.70245  22574821.9044                 
  22774075.596    -4776221.971 7  -3721731.55745  22774078.1024                 
  23832935.331    -2240949.757 6  -1746207.29345  23832938.2164                 
  24178505.863    -1351167.619 6  -1052856.08845  24178512.2094                 
  24898945.037     2232273.186 5   1739412.46644  24898941.8364                 
  19980262.414   -23665936.602 9 -18440986.31147  19980264.4534                 
 97  1  9  3 51  0.0000000  0  7 23 25  3 17  1  6 21
  21069010.387   -19536980.306 9 -15223625.78046  21069013.0594                 
  22587821.871   -11954051.776 7  -9314856.92745  22587824.9484                 
  22767058.487    -4813097.806 7  -3750465.96245  22767061.9174                 
  23850612.203    -2148058.254 6  -1673824.38445  23850615.9364                 
  24173158.143    -1379269.351 6  -1074753.51045  24173165.1704                 
  24905394.269     2266162.139 5   1765819.29443  24905404.2164                 
  19974744.782   -23694930.924 9 -18463579.28747  19974746.7814                 
 97  1  9  3 51 30.0000000  0  7 23 25  3 17  1  6 21
  21074925.171   -19505898.270 9 -15199406.03846  21074927.3024                 
  22600821.367   -11885739.466 7  -9261626.64245  22600823.7444                 
  22760021.447    -4850077.861 7  -3779281.57245  22760023.9504                 
  23868272.982    -2055253.153 6  -1601508.80145  23868276.4934                 
  24167767.449    -1407598.020 6  -1096827.75945  24167773.2394                 
  24911856.766     2300124.750 5   1792283.52443  24911863.3114                 
  19969339.981   -23723333.491 9 -18485711.15247  19969342.0134                 
 97  1  9  3 52  0.0000000  0  7 23 25  3 17  1  6 21
  21080948.917   -19474243.771 9 -15174740.21846  21080950.8024                 
  22613817.991   -11817444.774 7  -9208410.09045  22613820.3194                 
  22752962.961    -4887168.850 7  -3808183.62645  22752965.9514                 
  23885911.675    -1962559.980 6  -1529280.40245  23885915.7944                 
  24162334.281    -1436149.863 6  -1119075.91145  24162337.5344                 
  24918329.608     2334140.603 5   1818789.26743  24918330.1984                 
  19964047.328   -23751146.041 9 -18507383.26647  19964049.5114                 
 97  1  9  3 52 30.0000000  0  7 23 25  3 17  1  6 21
  21087080.690   -19442021.117 9 -15149631.67846  21087082.3924                 
  22626811.288   -11749162.268 7  -9155203.00445  22626814.5474                 
  22745882.332    -4924378.884 7  -3837178.45245  22745885.1344                 
  23903529.265    -1869980.181 6  -1457140.36645  23903531.1354                 
  24156859.365    -1464920.475 6  -1141494.51545  24156866.7584                 
  24924811.204     2368197.182 5   1845326.86643  24924815.0244                 
  19958868.404   -23778362.473 9 -18528590.87147  19958870.3724                 
 97  1  9  3 53  0.0000000  0  6 23 25  3 17  1 21
  21093320.287   -19409230.610 8 -15124080.65846  21093322.3234                 
  22639805.403   -11680878.972 7  -9101995.32845  22639807.2424                 
  22738777.880    -4961712.135 7  -3866269.28745  22738780.4184                 
  23921124.918    -1777512.280 6  -1385087.55745  23921130.1174                 
  24151342.253    -1493911.003 6  -1164084.52045  24151348.5044                 
  19953803.548   -23804978.398 9 -18549330.55347  19953805.6114                 
 97  1  9  3 53 30.0000000  0  6 23 25  3 17  1 21
  21099671.673   -19375854.449 9 -15098073.27846  21099673.9224                 
  22652800.895   -11612586.409 7  -9048780.43745  22652803.7214                 
  22731649.033    -4999174.430 7  -3895460.67945  22731651.2374                 
  23938699.069    -1685161.503 6  -1313125.99245  23938699.8804                 
  24145784.350    -1523119.893 6  -1186844.61845  24145789.1514                 
  19948853.382   -23830991.882 9 -18569600.79747  19948855.4334                 
 97  1  9  3 54  0.0000000  0  6 23 25  3 17  1 21
  21106133.735   -19341896.948 9 -15071612.90946  21106135.6054                 
  22665800.405   -11544276.920 7  -8995552.35145  22665803.0934                 
  22724496.326    -5036762.789 7  -3924750.30345  22724498.5044                 
  23956253.202    -1592917.869 6  -1241247.92045  23956256.2984                 
  24140184.989    -1552544.980 6  -1209773.23045  24140191.4614                 
  19944017.342   -23856404.853 9 -18589403.11447  19944019.5634                 
 97  1  9  3 54 30.0000000  0  6 23 25  3 17  1 21
  21112704.894   -19307365.183 8 -15044705.06346  21112706.9714                 
  22678804.146   -11475938.826 7  -8942301.97245  22678807.3574                 
  22717319.956    -5074474.979 7  -3954136.40445  22717324.1134                 
  23973789.080    -1500762.087 6  -1169438.26545  23973791.0954                 
  24134542.651    -1582192.650 6  -1232875.23945  24134549.8494                 
  19939296.457   -23881213.868 9 -18608734.81247  19939298.3254                 
 97  1  9  3 55  0.0000000  0  7 23 25  3 17  1  6 21
  21119385.496   -19272260.079 9 -15017350.45846  21119388.0764                 
  22691813.066   -11407578.638 7  -8889034.38145  22691815.3044                 
  22710120.944    -5112304.944 7  -3983614.28445  22710124.1164                 
  23991307.602    -1408702.932 6  -1097703.95745  23991312.1454                 
  24128858.380    -1612066.712 6  -1256153.68645  24128866.0244                 
  24957309.530          -0.36215         0.31753  24957312.0924                 
  19934689.684   -23905422.036 9 -18627598.31947  19934691.6814                 
 97  1  9  3 55 30.0000000  0  7 23 25  3 17  1  6 21
  21126172.815   -19236591.643 9 -14989556.88946  21126175.3094                 
  22704820.926   -11339220.613 7  -8835768.49045  22704823.5154                 
  22702900.333    -5150250.495 7  -4013182.22645  22702903.1324                 
  24008804.112    -1316757.509 6  -1026058.25545  24008808.8284                 
  24123128.823    -1642174.379 6  -1279614.17045  24123135.4204                 
  24963841.248       34321.667 5     26744.77643  24963846.5194                 
  19930198.965   -23929021.029 9 -18645987.14647  19930200.9244                 
 97  1  9  3 56  0.0000000  0  7 23 25  3 17  1  6 21
  21133064.812   -19200372.852 8 -14961334.48446  21133067.0304                 
  22717824.453   -11270890.439 7  -8782524.29445  22717826.2064                 
  22695658.555    -5188306.350 7  -4042836.12545  22695662.1574                 
  24026280.050    -1224924.752 6   -954500.35345  24026283.3394                 
  24117354.203    -1672520.992 6  -1303260.81545  24117360.3134                 
  24970385.280       68711.136 5     53541.65742  24970388.8634                 
  19925823.302   -23952015.557 9 -18663904.95947  19925825.2704                 
 97  1  9  3 56 30.0000000  0  7 23 25  3 17  1  6 21
  21140062.530   -19163600.525 8 -14932680.74446  21140064.9734                 
  22730820.278   -11202595.986 7  -8729307.93345  22730822.6004                 
  22688395.630    -5226473.259 7  -4072576.56145  22688398.9074                 
  24043729.253    -1133225.646 6   -883046.59545  24043734.8914                 
  24111533.684    -1703108.411 6  -1327095.13745  24111539.4264                 
  24976943.312      103173.454 5     80395.26643  24976941.4404                 
  19921562.704   -23974404.895 9 -18681351.19947  19921564.8344                 
 97  1  9  3 57  0.0000000  0  7 23 25  3 17  1  6 21
  21147168.190   -19126259.583 8 -14903583.92946  21147170.4774                 
  22743803.843   -11134366.240 7  -8676141.99245  22743806.5634                 
  22681112.698    -5264745.631 7  -4102399.17145  22681115.2984                 
  24061149.830    -1041680.053 6   -811712.43045  24061151.5994                 
  24105667.118    -1733935.740 6  -1351116.38045  24105672.2694                 
  24983513.795      137701.763 5    107300.32744  24983520.9224                 
  19917415.990   -23996196.592 9 -18698331.74547  19917417.9504                 
 97  1  9  3 57 30.0000000  0  5 23 25 17  1 21
  21154382.784   -19088346.810 8 -14874041.52746  21154384.7894                 
  22756775.665   -11066199.350 7  -8623025.04545  22756778.5414                 
  24078541.940     -950284.504 6   -740495.20645  24078546.0744                 
  24099756.998    -1764993.148 6  -1375316.88045  24099764.2454                 
  19913382.095   -24017393.985 9 -18714849.20147  19913384.3164                 
 97  1  9  3 58  0.0000000  0  6 23 25  3 17  1 21
  21161706.844   -19049859.352 9 -14844051.32646  21161708.9404                 
  22769738.361   -10998081.357 7  -8569946.18645  22769741.2744                 
  22666492.242           0.22317         1.00755  22666495.1174                 
  24095907.068     -859031.380 6   -669388.96945  24095910.2644                 
  24093806.746    -1796262.144 6  -1399682.26545  24093813.4474                 
  19909459.061   -24038009.944 9 -18730913.58447  19909461.0274                 
 97  1  9  3 58 30.0000000  0  6 23 25  3 17  1 21
  21169141.357   -19010790.666 9 -14813608.22746  21169143.4824                 
  22782696.215   -10929986.619 7  -8516885.45245  22782698.8054                 
  22659156.069      -38552.620 7    -30040.15845  22659158.8484                 
  24113246.930     -767910.879 6   -598386.07945  24113251.2774                 
  24087816.624    -1827739.352 6  -1424209.92245  24087823.8574                 
  19905646.957   -24058042.665 9 -18746523.49947  19905648.7884                 
 97  1  9  3 59  0.0000000  0  6 23 25  3 17  1 21
  21176685.003   -18971148.514 8 -14782718.26146  21176686.8884                 
  22795649.956   -10861913.173 7  -8463841.29545  22795653.0964                 
  22651801.689      -77200.053 7    -60155.02745  22651803.2694                 
  24130563.821     -676908.323 6   -527475.06545  24130565.3704                 
  24081788.116    -1859419.312 6  -1448895.54645  24081791.9574                 
  19901946.210   -24077490.530 9 -18761677.68147  19901948.2074                 
 97  1  9  3 59 30.0000000  0  6 23 25  3 17  1 21
  21184335.227   -18930945.634 8 -14751391.37246  21184337.4714                 
  22808603.981   -10793841.902 7  -8410798.85445  22808607.2214                 
  22644427.055     -115953.472 7    -90352.47645  22644431.0284                 
  24147862.329     -586006.426 6   -456642.50145  24147865.5434                 
  24075722.727    -1891293.926 6  -1473732.89245  24075729.0684                 
  19898360.205   -24096334.827 9 -18776361.55147  19898362.1194                 
 97  1  9  4  0  0.0000000  0  7 23 25  3 17  1 15 21
  21192092.141   -18890182.666 8 -14719628.04646  21192094.5714                 
  22821555.752   -10725780.013 7  -8357763.71245  22821558.7754                 
  22637029.686     -154826.509 7   -120643.13945  22637032.6864                 
  24165140.846     -495204.810 6   -385888.09045  24165145.9004                 
  24069618.497    -1923369.839 6  -1498727.03545  24069624.4054                 
  24648077.027          -0.10015         0.27853  24648076.3944                 
  19894890.211   -24114570.561 9 -18790571.21947  19894892.3224                 
 97  1  9  4  0 30.0000000  0  7 23 25  3 17  1 15 21
  21199956.202   -18848857.873 8 -14687426.93846  21199958.8654                 
  22834501.615   -10657749.758 7  -8304753.23445  22834505.2484                 
  22629608.428     -193825.185 7   -151031.69145  22629611.6334                 
  24182398.400     -404517.086 6   -315222.39845  24182402.1804                 
  24063474.548    -1955657.223 6  -1523885.95245  24063479.9354                 
  24635050.211      -68464.556 5    -53348.58643  24635056.3124                 
  19891537.374   -24132189.121 9 -18804299.96747  19891539.4254                 
 97  1  9  4  1  0.0000000  0  7 23 25  3 17  1 15 21
  21207925.134   -18806980.456 8 -14654795.21246  21207927.6144                 
  22847435.747   -10589780.775 7  -8251790.49145  22847439.4524                 
  22622162.357     -232954.726 7   -181522.22545  22622166.0754                 
  24199630.896     -313961.800 6   -244659.96045  24199630.9954                 
  24057290.932    -1988152.878 6  -1549207.18845  24057297.1934                 
  24622074.546     -136653.504 6   -106482.89244  24622079.0874                 
  19888303.954   -24149180.391 9 -18817539.91947  19888306.1274                 
 97  1  9  4  1 30.0000000  0  7 23  3 25 17  1 15 21
  21216000.291   -18764546.420 8 -14621729.76346  21216002.4074                 
  22614691.807     -272212.777 7   -212112.89445  22614695.0104                 
  22860355.801   -10521886.263 7  -8198885.77045  22860358.2414                 
  24216836.116     -223546.807 6   -174206.76545  24216838.5364                 
  24051068.670    -2020848.561 6  -1574684.31345  24051076.0214                 
  24609151.012     -204566.250 5   -159401.87043  24609152.1014                 
  19885191.257   -24165538.373 9 -18830286.40347  19885193.1354                 
 97  1  9  4  2  0.0000000  0  7 23  3 25 17  1 15 21
  21224179.980   -18721561.210 8 -14588234.81846  21224181.8194                 
  22607197.943     -311594.724 7   -242800.10745  22607200.9934                 
  22873259.749   -10454075.623 7  -8146046.42345  22873261.7164                 
  24234010.428     -133294.001 6   -103879.97345  24234013.5394                 
  24044810.014    -2053740.713 6  -1600314.49345  24044814.7474                 
  24596280.263     -272201.940 5   -212105.05444  24596286.6814                 
  19882198.121   -24181267.619 9 -18842542.95847  19882200.1794                 
 97  1  9  4  2 30.0000000  0  7 23  3 25 17  1 15 21
  21232463.682   -18678028.682 8 -14554313.39846  21232466.5024                 
  22599681.998     -351090.507 7   -273576.02345  22599685.2094                 
  22886148.276   -10386345.591 7  -8093269.86145  22886150.4584                 
  24251153.320      -43208.237 6    -33683.38545  24251157.4754                 
  24038513.735    -2086827.247 6  -1626096.17445  24038519.0164                 
  24583461.673     -339560.052 5   -264591.85444  24583461.6874                 
  19879326.416   -24196357.994 9 -18854301.69547  19879328.3284                 
 97  1  9  4  3  0.0000000  0  7 23  3 25  1 17 15 21
  21240850.941   -18633954.256 8 -14519969.71746  21240853.4464                 
  22592144.907     -390697.465 7   -304438.57145  22592147.4364                 
  22899025.128   -10318679.398 7  -8040543.06645  22899028.8914                 
  24032182.696    -2120096.110 6  -1652019.92845  24032190.5904                 
  24268268.701       46730.913 6     36399.00645  24268271.4054                 
  24570696.851     -406640.036 5   -316862.00243  24570703.0724                 
  19876577.287   -24210804.814 9 -18865558.95647  19876579.3414                 
 97  1  9  4  3 30.0000000  0  7 23  3 25  1 17 15 21
  21249340.775   -18589341.366 8 -14485206.45046  21249342.9694                 
  22584588.197     -430408.103 7   -335381.91145  22584590.7274                 
  22911893.419   -10251053.145 7  -7987847.38645  22911896.7404                 
  24025815.622    -2153552.065 6  -1678089.46445  24025821.7764                 
  24285356.449      136527.501 6    106370.29345  24285362.8914                 
  24557985.130     -473441.299 6   -368914.93143  24557996.4274                 
  19873948.807   -24224617.590 9 -18876322.16747  19873950.7984                 
 97  1  9  4  4  0.0000000  0  7 23  3 25  1 17 15 21
  21257933.326   -18544186.417 8 -14450020.80246  21257935.4934                 
  22577014.228     -470210.123 7   -366396.44845  22577017.2544                 
  22924756.851   -10183458.551 7  -7935176.37745  22924760.2824                 
  24019412.064    -2187206.961 6  -1704313.97845  24019416.4824                 
  24302416.207      226178.560 6    176228.18445  24302420.2104                 
  24545326.049     -539963.161 6   -420750.19744  24545330.8464                 
  19871438.555   -24237809.743 9 -18886601.77047  19871440.5384                 
 97  1  9  4  4 30.0000000  0  7 23  3 25  1 17 15 21
  21266630.991   -18498481.506 8 -14414406.62446  21266633.3064                 
  22569423.935     -510097.747 7   -397477.70545  22569426.6554                 
  22937612.463   -10115901.526 7  -7882534.62745  22937615.4984                 
  24012969.026    -2221064.111 6  -1730696.12345  24012975.1304                 
  24319451.599      315701.078 6    245985.91145  24319455.2454                 
  24532720.843     -606204.711 6   -472366.99445  24532727.0814                 
  19869044.110   -24250391.750 9 -18896405.93547  19869046.2674                 
 97  1  9  4  5  0.0000000  0  7 23  3 25  1 17 15 21
  21275432.985   -18452225.758 8 -14378363.21046  21275435.2714                 
  22561815.448     -550079.640 7   -428632.40345  22561818.0304                 
  22950460.355   -10048386.142 7  -7829925.35045  22950463.2894                 
  24006488.738    -2255118.024 6  -1757231.59045  24006494.8654                 
  24336461.211      405086.579 6    315636.88245  24336466.7744                 
  24520169.298     -672165.842 6   -523765.27845  24520174.6504                 
  19866763.865   -24262375.019 9 -18905743.54947  19866765.9514                 
 97  1  9  4  5 30.0000000  0  7 23  3 25  1 17 15 21
  21284343.483   -18405400.215 8 -14341875.79546  21284345.7984                 
  22554188.629     -590159.548 7   -459863.33245  22554190.1194                 
  22963299.213    -9980918.081 7  -7777352.94145  22963302.1374                 
  23999969.913    -2289374.075 6  -1783924.56345  23999975.3684                 
  24353441.716      494316.535 6    385166.59045  24353448.4144                 
  24507670.601     -737845.706 6   -574944.45844  24507678.0714                 
  19864595.472   -24273770.695 9 -18914623.30247  19864597.5764                 
 97  1  9  4  6  0.0000000  0  7 23  3 25  1 17 15 21
  21293364.649   -18357994.638 8 -14304936.42246  21293367.3204                 
  22546542.732     -630337.282 7   -491170.79645  22546545.9914                 
  22976124.738    -9913519.647 7  -7724834.79545  22976128.4514                 
  23993415.094    -2323821.812 6  -1810766.90945  23993418.5864                 
  24370392.167      583392.957 6    454576.73445  24370395.0304                 
  24495225.974     -803243.822 6   -625903.98045  24495229.0794                 
  19862540.161   -24284570.987 9 -18923039.11947  19862542.2254                 
 97  1  9  4  6 30.0000000  0  7 23  3 25  1 17 15 21
  21302494.155   -18310018.835 8 -14267552.70846  21302495.9774                 
  22538876.808     -670623.180 7   -522562.38645  22538880.1064                 
  22988935.872    -9846196.267 7  -7672375.12745  22988938.4924                 
  23986824.937    -2358450.715 6  -1837750.41445  23986829.1364                 
  24387315.149      672323.329 6    523873.08145  24387318.3054                 
  24482835.474     -868359.955 6   -676643.89345  24482841.5554                 
  19860599.205   -24294770.101 9 -18930986.48347  19860601.2654                 
 97  1  9  4  7  0.0000000  0  7 23  3 25  1 17 15 21
  21311731.102   -18261476.911 8 -14229727.85946  21311733.7074                 
  22531190.335     -711015.845 7   -554037.18045  22531193.1724                 
  23001732.937    -9778948.458 7  -7619974.34845  23001737.3084                 
  23980200.881    -2393260.042 6  -1864874.49445  23980204.2834                 
  24404208.407      761097.748 6    593047.85345  24404210.7884                 
  24470498.041     -933193.339 6   -727163.41145  24470501.2614                 
  19858773.160   -24304366.100 9 -18938463.88947  19858775.2964                 
 97  1  9  4  7 30.0000000  0  8 23  3 25  1 17 15 31 21
  21321075.942   -18212370.292 8 -14191463.00046  21321078.3804                 
  22523484.814     -751507.267 7   -585588.91445  22523487.6614                 
  23014513.465    -9711786.115 7  -7567640.16745  23014516.0684                 
  23973543.191    -2428246.221 6  -1892136.41545  23973548.6464                 
  24421073.444      849723.685 6    662106.93645  24421085.1404                 
  24458214.623     -997743.268 6   -777462.06345  24458215.6854                 
  25083663.204          -0.21716        -0.06355  25083663.6874                 
  19857063.764   -24313349.317 9 -18945463.80247  19857065.6264                 
 97  1  9  4  8  0.0000000  0  8 23  3 25  1 17 15 31 21
  21330523.308   -18162724.673 8 -14152778.12746  21330525.3284                 
  22515763.512     -792084.945 7   -617207.87845  22515766.7744                 
  23027275.990    -9644717.976 7  -7515379.38845  23027281.3014                 
  23966853.736    -2463400.828 6  -1919529.54545  23966860.1044                 
  24437911.829      938208.037 6    731055.73045  24437914.8194                 
  24445985.838    -1062009.310 6   -827539.49945  24445990.0534                 
  25074489.686      -48203.907 6    -37561.41245  25074493.9454                 
  19855472.831   -24321709.899 9 -18951978.54347  19855474.9684                 
 97  1  9  4  8 30.0000000  0  8 23  3 25  1 17 15 31 21
  21340072.026   -18112545.583 8 -14113677.56746  21340074.2194                 
  22508024.252     -832754.326 7   -648898.28245  22508026.3414                 
  23040022.784    -9577735.494 7  -7463185.39345  23040025.9374                 
  23960131.112    -2498726.990 6  -1947056.37445  23960134.9454                 
  24454722.829     1026549.894 6    799893.47445  24454728.6804                 
  24433810.224    -1125991.128 6   -877395.54745  24433816.9594                 
  25065287.198      -96568.733 6    -75248.31745  25065290.4884                 
  19854000.106   -24329448.279 9 -18958008.45247  19854002.1814                 
 97  1  9  4  9  0.0000000  0  8 23  3 25  1 17 15 31 21
  21349724.894   -18061820.400 8 -14074151.48346  21349727.4364                 
  22500265.948     -873524.538 7   -680667.25945  22500268.4284                 
  23052754.065    -9510834.279 7  -7411054.67145  23052757.4684                 
  23953375.481    -2534228.406 6  -1974719.73245  23953380.1964                 
  24471505.745     1114746.004 6    868617.63845  24471509.6384                 
  24421688.843    -1189688.172 6   -927029.55645  24421696.6264                 
  25056050.123     -145103.825 6   -113067.91045  25056053.6144                 
  19852648.769   -24336550.459 9 -18963542.61947  19852650.8434                 
