     2.11           OBSERVATION DATA    M (MIXED)           RINEX VERSION / TYPE
teqc  2011Oct11     Jaume Sanz          20140502 10:31:53UTCPGM / RUN BY / DATE
Linux 2.4.21-27.ELsmp|Opteron|gcc|Linux x86_64|=+           COMMENT
     2.10           Observation data    M (Mixed)           COMMENT
sbf2rin                                 (07-MAY-11 11:30)   COMMENT
LLI: only bit 0 (loss of lock bit) supported                COMMENT
UPC1                                                        MARKER NAME
Unknown                                                     MARKER NUMBER
gAGE / UPC          gAGE / UPC                              OBSERVER / AGENCY
1217                SEPT POLARX2        2.7.0               REC # / TYPE / VERS
Unknown             -                                       ANT # / TYPE
  4789013.0077   176610.1555  4195034.8091                  APPROX POSITION XYZ
        0.0000        0.0000        0.0000                  ANTENNA: DELTA H/E/N
     1     1                                                WAVELENGTH FACT L1/2
     5    C1    L1    L2    P2    P1                        # / TYPES OF OBSERV
     1.0000                                                 INTERVAL
teqc edited: all SBAS satellites excluded                   COMMENT
  2010     3    18     0     0    0.0000000     GPS         TIME OF FIRST OBS
    15                                                      LEAP SECONDS
                                                            END OF HEADER
 10  3 18  5  0  0.0000000  0  9G19G07G16G24G21G22G06G18G03
  22907163.076 8 -16928881.668 8 -13030091.462 8  22907160.687 8  22907161.185 8
  24781801.204 7  -3590865.338 7  -2581350.785 6  24781800.987 6  24781801.236 6
  21271994.837 9 -36888203.951 9 -28496606.548 9  21271994.961 9  21271993.925 9
  23680324.491 7 -35224175.434 7 -22496539.536 7  23680326.333 7  23680323.596 7
  22962986.759 8 -38716769.470 8 -26089852.117 8  22962985.939 8  22962985.260 8
  22115207.532 9 -29776039.613 9 -18242778.261 9  22115205.579 9  22115206.591 9
  20829944.689 9 -39309730.712 9 -29251710.418 9  20829945.372 9  20829943.922 9
  22537978.087 8 -31814636.635 8 -19710398.465 8  22537977.806 8  22537977.393 8
  20847386.391 9 -32762976.000 9 -25060562.115 9  20847386.776 9  20847385.359 9
 10  3 18  5  0  1.0000000  0  9G19G07G16G24G21G22G06G18G03
  22906468.403 8 -16932531.784 8 -13032935.706 8  22906466.095 8  22906466.584 8
  24781416.686 7  -3592885.680 7  -2582925.077 6  24781416.487 6  24781416.763 6
  21272092.059 9 -36887692.505 9 -28496208.019 9  21272092.261 9  21272091.318 9
  23680684.969 8 -35222280.939 8 -22495063.306 7  23680686.816 7  23680684.112 7
  22963211.949 8 -38715585.399 8 -26088929.465 8  22963211.259 8  22963210.575 8
  22114603.965 9 -29779211.372 9 -18245249.761 9  22114601.981 9  22114602.996 9
  20829541.387 9 -39311850.088 9 -29253361.879 9  20829542.083 9  20829540.644 9
  22537772.097 8 -31815719.472 8 -19711242.234 8  22537771.793 8  22537771.321 8
  20846851.242 9 -32765788.900 9 -25062753.986 9  20846851.515 9  20846850.097 9
 10  3 18  5  0  2.0000000  0  9G19G07G16G24G21G22G06G18G03
  22905773.663 8 -16936181.752 8 -13035779.836 8  22905771.510 8  22905772.022 8
  24781032.086 7  -3594905.422 7  -2584498.904 6  24781032.127 6  24781032.407 6
  21272189.539 9 -36887180.524 9 -28495809.073 9  21272189.631 9  21272188.814 9
  23681045.622 7 -35220386.347 7 -22493587.001 7  23681047.302 7  23681044.646 7
  22963437.151 8 -38714401.146 8 -26088006.670 8  22963436.607 8  22963435.932 8
  22114000.465 9 -29782382.628 9 -18247720.869 9  22113998.500 9  22113999.520 9
  20829138.145 9 -39313969.179 9 -29255013.119 9  20829138.850 9  20829137.421 9
  22537566.185 8 -31816801.715 8 -19712085.540 8  22537565.874 8  22537565.355 8
  20846316.115 9 -32768601.468 9 -25064945.596 9  20846316.326 9  20846314.889 9
 10  3 18  5  0  3.0000000  0  9G19G07G16G24G21G22G06G18G03
  22905079.177 8 -16939831.612 8 -13038623.882 8  22905076.949 8  22905077.485 8
  24780647.790 7  -3596924.551 7  -2586072.250 6  24780647.906 6  24780648.162 6
  21272287.040 9 -36886668.036 9 -28495409.731 9  21272287.123 9  21272286.374 9
  23681405.997 7 -35218491.685 7 -22492110.639 7  23681407.759 7  23681405.217 7
  22963662.617 8 -38713216.727 8 -26087083.746 8  22963661.975 8  22963661.315 8
  22113396.960 9 -29785553.424 9 -18250191.619 9  22113395.108 9  22113396.134 9
  20828734.986 9 -39316088.002 9 -29256664.150 9  20828735.672 9  20828734.233 9
  22537360.303 8 -31817883.399 8 -19712928.410 8  22537360.046 8  22537359.493 8
  20845780.990 9 -32771413.707 9 -25067136.952 9  20845781.214 9  20845779.727 9
 10  3 18  5  0  4.0000000  0  9G19G07G16G24G21G22G06G18G03
  22904384.669 8 -16943481.328 8 -13041467.816 8  22904382.423 8  22904382.985 8
  24780263.368 7  -3598943.104 7  -2587645.146 6  24780263.813 6  24780264.018 6
  21272384.727 9 -36886155.012 9 -28495009.973 9  21272384.751 9  21272384.009 9
  23681766.678 7 -35216596.911 7 -22490634.192 7  23681768.249 7  23681765.802 7
  22963888.055 8 -38712032.102 8 -26086160.661 8  22963887.374 8  22963886.735 8
  22112793.693 9 -29788723.728 9 -18252661.985 9  22112791.817 9  22112792.875 9
  20828331.913 9 -39318206.548 9 -29258314.965 9  20828332.543 9  20828331.097 9
  22537154.579 8 -31818964.505 8 -19713770.831 8  22537154.319 8  22537153.738 8
  20845245.906 9 -32774225.635 9 -25069328.064 9  20845246.154 9  20845244.623 9
 10  3 18  5  0  5.0000000  0  9G19G07G16G24G21G22G06G18G03
  22903690.017 8 -16947130.905 8 -13044311.641 8  22903687.927 8  22903688.511 8
  24779879.576 7  -3600961.011 7  -2589217.538 6  24779879.841 6  24779879.993 6
  21272482.477 9 -36885641.442 9 -28494609.789 9  21272482.486 9  21272481.724 9
  23682127.110 7 -35214702.023 7 -22489157.656 7  23682128.822 7  23682126.381 7
  22964113.455 8 -38710847.273 8 -26085237.418 8  22964112.806 8  22964112.204 8
  22112190.586 9 -29791893.513 9 -18255131.948 9  22112188.629 9  22112189.728 9
  20827928.808 9 -39320324.792 9 -29259965.544 9  20827929.444 9  20827928.026 9
  22536948.992 8 -31820044.986 8 -19714612.764 8  22536948.697 8  22536948.100 8
  20844710.783 9 -32777037.202 9 -25071518.896 9  20844711.160 9  20844709.586 9
 10  3 18  5  0  6.0000000  0  9G19G07G16G24G21G22G06G18G03
  22902995.537 8 -16950780.287 8 -13047155.314 8  22902993.485 8  22902994.052 8
  24779495.389 7  -3602978.276 7  -2590789.431 6  24779495.992 6  24779496.088 6
  21272580.373 9 -36885127.297 9 -28494209.157 9  21272580.331 9  21272579.526 9
  23682487.565 7 -35212807.009 7 -22487681.023 7  23682489.419 7  23682486.978 7
  22964339.021 8 -38709662.225 8 -26084314.004 8  22964338.277 8  22964337.723 8
  22111587.338 9 -29795062.761 9 -18257601.491 9  22111585.559 9  22111586.656 9
  20827525.719 9 -39322442.689 9 -29261615.854 9  20827526.412 9  20827525.020 9
  22536743.448 8 -31821124.841 8 -19715454.209 8  22536743.205 8  22536742.568 8
  20844175.701 9 -32779848.387 9 -25073709.430 9  20844176.242 9  20844174.643 9
 10  3 18  5  0  7.0000000  0  9G19G07G16G24G21G22G06G18G03
  22902301.330 8 -16954429.497 8 -13049998.853 8  22902299.073 8  22902299.621 8
  24779111.450 7  -3604994.904 7  -2592360.829 6  24779112.283 6  24779112.302 6
  21272678.348 9 -36884612.579 9 -28493808.078 9  21272678.281 9  21272677.461 9
  23682847.834 7 -35210911.831 7 -22486204.259 7  23682850.039 7  23682847.574 7
  22964564.501 8 -38708476.954 8 -26083390.417 8  22964563.809 8  22964563.268 8
  22110984.363 9 -29798231.485 9 -18260070.627 9  22110982.599 9  22110983.676 9
  20827122.726 9 -39324560.290 9 -29263265.932 9  20827123.428 9  20827122.022 9
  22536538.032 8 -31822204.077 8 -19716295.172 8  22536537.844 8  22536537.143 8
  20843640.798 9 -32782659.201 9 -25075899.673 9  20843641.404 9  20843639.803 9
 10  3 18  5  0  8.0000000  0  9G19G07G16G24G21G22G06G18G03
  22901607.036 8 -16958078.590 8 -13052842.300 8  22901604.705 8  22901605.215 8
  24778728.347 7  -3607010.930 7  -2593931.756 6  24778728.713 6  24778728.632 6
  21272776.333 9 -36884097.345 9 -28493406.597 9  21272776.321 9  21272775.507 9
  23683208.426 7 -35209016.582 7 -22484727.444 7  23683210.671 7  23683208.184 7
  22964789.827 8 -38707291.496 8 -26082466.683 8  22964789.394 8  22964788.835 8
  22110381.510 9 -29801399.715 9 -18262539.377 9  22110379.731 9  22110380.775 9
  20826719.782 9 -39326677.625 9 -29264915.803 9  20826720.490 9  20826719.072 9
  22536332.813 8 -31823282.747 8 -19717135.693 8  22536332.551 8  22536331.845 8
  20843105.920 9 -32785469.700 9 -25078089.673 9  20843106.617 9  20843105.016 9
 10  3 18  5  0  9.0000000  0  9G19G07G16G24G21G22G06G18G03
  22900912.494 8 -16961727.554 8 -13055685.647 8  22900910.360 8  22900910.835 8
  24778344.974 7  -3609026.360 7  -2595502.220 6  24778345.206 6  24778345.049 6
  21272874.420 9 -36883581.598 9 -28493004.717 9  21272874.469 9  21272873.652 9
  23683568.932 7 -35207121.227 7 -22483250.545 7  23683571.295 7  23683568.816 7
  22965015.386 8 -38706105.860 8 -26081542.811 8  22965015.026 8  22965014.455 8
  22109778.678 9 -29804567.469 9 -18265007.756 9  22109776.954 9  22109777.962 9
  20826316.920 9 -39328794.677 9 -29266565.454 9  20826317.622 9  20826316.183 9
  22536127.708 8 -31824360.830 8 -19717975.758 8  22536127.334 8  22536126.680 8
  20842571.065 9 -32788279.869 9 -25080279.414 9  20842571.869 9  20842570.279 9
 10  3 18  5  0 10.0000000  0  9G19G07G16G24G21G22G06G18G03
  22900218.117 8 -16965376.363 8 -13058528.875 8  22900215.990 8  22900216.511 8
  24777961.763 7  -3611041.144 7  -2597072.179 6  24777961.774 6  24777961.574 6
  21272972.663 9 -36883065.296 9 -28492602.404 9  21272972.729 9  21272971.901 9
  23683929.776 7 -35205225.774 7 -22481773.568 7  23683931.937 7  23683929.467 7
  22965241.077 8 -38704920.034 8 -26080618.790 8  22965240.708 8  22965240.127 8
  22109175.976 9 -29807734.710 9 -18267475.736 9  22109174.259 9  22109175.242 9
  20825914.192 9 -39330911.444 9 -29268214.883 9  20825914.802 9  20825913.345 9
  22535922.516 8 -31825438.325 8 -19718815.363 8  22535922.249 8  22535921.614 8
  20842036.367 9 -32791089.698 9 -25082468.891 9  20842037.176 9  20842035.588 9
 10  3 18  5  0 11.0000000  0  9G19G07G16G24G21G22G06G18G03
  22899523.965 8 -16969024.987 8 -13061371.959 8  22899521.651 8  22899522.219 8
  24777578.460 7  -3613055.322 7  -2598641.668 6  24777578.480 6  24777578.238 6
  21273071.033 9 -36882548.432 9 -28492199.653 9  21273071.075 9  21273070.251 9
  23684290.402 7 -35203330.189 7 -22480296.490 7  23684292.626 7  23684290.165 7
  22965466.499 8 -38703733.977 8 -26079694.590 8  22965466.435 8  22965465.811 8
  22108573.398 9 -29810901.434 9 -18269943.313 9  22108571.663 9  22108572.625 9
  20825511.461 9 -39333027.884 9 -29269864.056 9  20825512.015 9  20825510.610 9
  22535717.521 8 -31826515.196 8 -19719654.483 8  22535717.308 8  22535716.660 8
  20841501.629 9 -32793899.148 9 -25084658.073 9  20841502.538 9  20841500.940 9
 10  3 18  5  0 12.0000000  0  9G19G07G16G24G21G22G06G18G03
  22898829.995 8 -16972673.477 8 -13064214.936 8  22898827.389 8  22898827.915 8
  24777195.536 7  -3615068.872 7  -2600210.669 6  24777195.323 6  24777195.035 6
  21273169.534 9 -36882031.040 9 -28491796.490 9  21273169.495 9  21273168.697 9
  23684651.006 7 -35201434.479 7 -22478819.317 7  23684653.350 7  23684650.887 7
  22965692.325 8 -38702547.721 8 -26078770.236 8  22965692.196 8  22965691.500 8
  22107970.867 9 -29814067.658 9 -18272410.501 9  22107969.170 9  22107970.112 9
  20825108.895 9 -39335144.022 9 -29271512.995 9  20825109.284 9  20825107.932 9
  22535512.610 8 -31827591.476 8 -19720493.142 8  22535512.475 8  22535511.834 8
  20840967.045 9 -32796708.266 9 -25086846.996 9  20840967.964 9  20840966.359 9
 10  3 18  5  0 13.0000000  0  9G19G07G16G24G21G22G06G18G03
  22898135.820 8 -16976321.824 8 -13067057.803 8  22898133.159 8  22898133.644 8
  24776812.639 7  -3617081.832 7  -2601779.211 6  24776812.300 6  24776811.959 6
  21273268.002 9 -36881513.107 9 -28491392.906 9  21273268.030 9  21273267.221 9
  23685012.006 7 -35199538.664 7 -22477342.059 7  23685014.147 7  23685011.629 7
  22965917.982 8 -38701361.300 8 -26077845.752 8  22965917.971 8  22965917.246 8
  22107368.461 9 -29817233.370 9 -18274877.288 9  22107366.783 9  22107367.706 9
  20824706.296 9 -39337259.863 9 -29273161.701 9  20824706.608 9  20824705.313 9
  22535307.803 8 -31828667.173 8 -19721331.348 8  22535307.741 8  22535307.123 8
  20840432.575 9 -32799517.039 9 -25089035.650 9  20840433.453 9  20840431.850 9
 10  3 18  5  0 14.0000000  0  9G19G07G16G24G21G22G06G18G03
  22897441.573 8 -16979970.041 8 -13069900.568 8  22897438.951 8  22897439.429 8
  24776429.775 7  -3619094.190 7  -2603347.283 6  24776429.419 6  24776429.013 6
  21273366.736 9 -36880994.641 9 -28490988.907 9  21273366.674 9  21273365.822 9
  23685373.063 7 -35197642.761 7 -22475864.732 7  23685374.966 7  23685372.404 7
  22966143.957 8 -38700174.679 8 -26076921.113 8  22966143.766 8  22966143.052 8
  22106766.020 9 -29820398.607 9 -18277343.707 9  22106764.472 9  22106765.371 9
  20824303.642 9 -39339375.433 9 -29274810.197 9  20824303.984 9  20824302.747 9
  22535103.285 8 -31829742.263 8 -19722169.081 8  22535103.130 8  22535102.525 8
  20839898.257 9 -32802325.487 9 -25091224.052 9  20839899.004 9  20839897.413 9
 10  3 18  5  0 15.0000000  0  9G19G07G16G24G21G22G06G18G03
  22896747.458 8 -16983618.070 8 -13072743.187 8  22896744.771 8  22896745.242 8
  24776047.038 7  -3621105.874 7  -2604914.830 6  24776046.660 6  24776046.175 6
  21273465.597 9 -36880475.621 9 -28490584.476 9  21273465.438 9  21273464.540 9
  23685733.920 7 -35195746.737 7 -22474387.309 7  23685735.825 7  23685733.242 7
  22966369.858 8 -38698987.847 8 -26075996.309 8  22966369.616 8  22966368.901 8
  22106163.816 9 -29823563.316 9 -18279809.714 9  22106162.258 9  22106163.134 9
  20823901.102 9 -39341490.698 9 -29276458.457 9  20823901.462 9  20823900.205 9
  22534898.823 8 -31830816.749 8 -19723006.342 8  22534898.640 8  22534898.036 8
  20839364.032 9 -32805133.566 9 -25093412.165 9  20839364.626 9  20839363.055 9
 10  3 18  5  0 16.0000000  0  9G19G07G16G24G21G22G06G18G03
  22896053.196 8 -16987265.982 8 -13075585.716 8  22896050.584 8  22896051.067 8
  24775664.177 7  -3623116.970 7  -2606481.917 6  24775664.001 6  24775663.425 6
  21273564.493 9 -36879956.087 9 -28490179.644 9  21273564.309 9  21273563.369 9
  23686094.907 7 -35193850.618 7 -22472909.812 7  23686096.708 7  23686094.096 7
  22966595.758 8 -38697800.844 8 -26075071.372 8  22966595.509 8  22966594.781 8
  22105561.792 9 -29826727.530 9 -18282275.336 9  22105560.146 9  22105561.010 9
  20823498.600 9 -39343605.691 9 -29278106.502 9  20823498.999 9  20823497.718 9
  22534694.456 8 -31831890.654 8 -19723843.151 8  22534694.279 8  22534693.653 8
  20838829.799 9 -32807941.321 9 -25095600.026 9  20838830.299 9  20838828.764 9
 10  3 18  5  0 17.0000000  0  9G19G07G16G24G21G22G06G18G03
  22895358.979 8 -16990913.746 8 -13078428.129 8  22895356.426 8  22895356.923 8
  24775281.964 7  -3625127.452 7  -2608048.526 6  24775281.436 6  24775280.823 6
  21273663.573 9 -36879435.999 9 -28489774.381 9  21273663.285 9  21273662.344 9
  23686455.869 7 -35191954.381 7 -22471432.226 7  23686457.629 7  23686454.958 7
  22966821.593 8 -38696613.637 8 -26074146.277 8  22966821.428 8  22966820.701 8
  22104959.706 9 -29829891.242 9 -18284740.565 9  22104958.128 9  22104958.985 9
  20823096.074 9 -39345720.369 9 -29279754.304 9  20823096.612 9  20823095.278 9
  22534490.193 8 -31832963.950 8 -19724679.486 8  22534490.056 8  22534489.387 8
  20838295.538 9 -32810748.717 9 -25097787.607 9  20838296.025 9  20838294.540 9
 10  3 18  5  0 18.0000000  0  9G19G07G16G24G21G22G06G18G03
  22894664.854 8 -16994561.370 8 -13081270.432 8  22894662.317 8  22894662.812 8
  24774899.396 7  -3627137.325 7  -2609614.660 6  24774898.952 6  24774898.358 6
  21273762.700 9 -36878915.396 9 -28489368.717 9  21273762.365 9  21273761.458 9
  23686816.881 7 -35190058.048 7 -22469954.564 7  23686818.551 7  23686815.839 7
  22967047.641 8 -38695426.233 8 -26073221.028 8  22967047.369 8  22967046.657 8
  22104357.615 9 -29833054.471 9 -18287205.418 9  22104356.197 9  22104357.079 9
  20822693.592 9 -39347834.777 9 -29281401.895 9  20822694.274 9  20822692.888 9
  22534285.936 8 -31834036.670 8 -19725515.372 8  22534285.923 8  22534285.237 8
  20837761.307 9 -32813555.797 9 -25099974.942 9  20837761.832 9  20837760.370 9
 10  3 18  5  0 19.0000000  0  9G19G07G16G24G21G22G06G18G03
  22893970.722 8 -16998208.865 8 -13084112.635 8  22893968.231 8  22893968.723 8
  24774517.081 7  -3629146.603 7  -2611180.330 6  24774516.589 6  24774515.979 6
  21273861.847 9 -36878394.256 9 -28488962.634 9  21273861.534 9  21273860.646 9
  23687177.754 7 -35188161.600 7 -22468476.813 7  23687179.433 7  23687176.760 7
  22967273.948 8 -38694238.651 8 -26072295.640 8  22967273.343 8  22967272.648 8
  22103755.675 9 -29836217.184 9 -18289669.870 9  22103754.357 9  22103755.277 9
  20822291.210 9 -39349948.883 9 -29283049.250 9  20822291.975 9  20822290.574 9
  22534081.947 8 -31835108.807 8 -19726350.804 8  22534081.880 8  22534081.203 8
  20837227.075 9 -32816362.531 9 -25102162.007 9  20837227.736 9  20837226.246 9
 10  3 18  5  0 20.0000000  0  9G19G07G16G24G21G22G06G18G03
  22893276.678 8 -17001856.192 8 -13086954.705 8  22893274.171 8  22893274.670 8
  24774134.465 7  -3631155.234 7  -2612745.497 6  24774134.356 6  24774133.702 6
  21273961.076 9 -36877872.543 9 -28488556.105 9  21273960.806 9  21273959.922 9
  23687538.713 7 -35186265.077 7 -22466999.005 7  23687540.333 7  23687537.686 7
  22967499.949 8 -38693050.852 8 -26071370.083 8  22967499.355 8  22967498.681 8
  22103153.948 9 -29839379.382 9 -18292133.921 9  22103152.630 9  22103153.554 9
  20821888.813 9 -39352062.690 9 -29284696.372 9  20821889.735 9  20821888.319 9
  22533878.001 8 -31836180.331 8 -19727185.758 8  22533877.967 8  22533877.279 8
  20836692.960 9 -32819168.890 9 -25104348.781 9  20836693.699 9  20836692.191 9
 10  3 18  5  0 21.0000000  0  9G19G07G16G24G21G22G06G18G03
  22892582.717 8 -17005503.387 8 -13089796.675 8  22892580.141 8  22892580.643 8
  24773752.067 7  -3633163.266 7  -2614310.197 6  24773752.234 6  24773751.569 6
  21274060.429 9 -36877350.337 9 -28488149.191 9  21274060.165 9  21274059.292 9
  23687899.613 7 -35184368.444 7 -22465521.108 7  23687901.293 7  23687898.606 7
  22967725.935 8 -38691862.888 8 -26070444.397 8  22967725.399 8  22967724.747 8
  22102552.428 9 -29842541.107 9 -18294597.602 9  22102551.004 9  22102551.919 9
  20821486.560 9 -39354176.221 9 -29286343.280 9  20821487.518 9  20821486.125 9
  22533674.262 8 -31837251.275 8 -19728020.261 8  22533674.178 8  22533673.459 8
  20836158.875 9 -32821974.951 9 -25106535.321 9  20836159.700 9  20836158.192 9
 10  3 18  5  0 22.0000000  0  9G19G07G16G24G21G22G06G18G03
  22891888.719 8 -17009150.425 8 -13092638.521 8  22891886.118 8  22891886.670 8
  24773369.776 7  -3635170.654 7  -2615874.397 6  24773370.233 6  24773369.584 6
  21274159.775 9 -36876827.564 9 -28487741.835 9  21274159.626 9  21274158.770 9
  23688260.368 7 -35182471.671 7 -22464043.103 7  23688262.269 7  23688259.546 7
  22967952.080 8 -38690674.695 8 -26069518.533 8  22967951.490 8  22967950.859 8
  22101950.892 9 -29845702.310 9 -18297060.877 9  22101949.434 9  22101950.388 9
  20821084.387 9 -39356289.451 9 -29287989.952 9  20821085.360 9  20821083.989 9
  22533470.671 8 -31838321.620 8 -19728854.295 8  22533470.498 8  22533469.747 8
  20835625.020 9 -32824780.646 9 -25108721.577 9  20835625.785 9  20835624.268 9
 10  3 18  5  0 23.0000000  0  9G19G07G16G24G21G22G06G18G03
  22891194.727 8 -17012797.299 8 -13095480.241 8  22891192.123 8  22891192.721 8
  24772987.851 7  -3637177.443 7  -2617438.130 6  24772988.311 6  24772987.694 6
  21274259.373 9 -36876304.229 9 -28487334.042 9  21274259.222 9  21274258.369 9
  23688621.567 7 -35180574.816 7 -22462565.035 7  23688623.240 7  23688620.500 7
  22968178.467 8 -38689486.323 8 -26068592.530 8  22968177.624 8  22968177.012 8
  22101349.475 9 -29848862.986 9 -18299523.741 9  22101347.937 9  22101348.953 9
  20820682.268 9 -39358402.366 9 -29289636.379 9  20820683.276 9  20820681.915 9
  22533267.043 8 -31839391.349 8 -19729687.849 8  22533266.933 8  22533266.148 8
  20835091.131 9 -32827585.976 9 -25110907.548 9  20835091.955 9  20835090.408 9
 10  3 18  5  0 24.0000000  0  9G19G07G16G24G21G22G06G18G03
  22890500.799 8 -17016444.012 8 -13098321.833 8  22890498.184 8  22890498.788 8
  24772605.916 7  -3639183.577 7  -2619001.353 6  24772606.470 6  24772605.910 6
  21274358.965 9 -36875780.352 9 -28486925.826 9  21274358.935 9  21274358.075 9
  23688982.497 7 -35178677.792 7 -22461086.833 7  23688984.238 7  23688981.480 7
  22968404.563 8 -38688297.726 8 -26067666.351 8  22968403.810 8  22968403.215 8
  22100748.115 9 -29852023.157 9 -18301986.212 9  22100746.551 9  22100747.584 9
  20820280.167 9 -39360514.986 9 -29291282.576 9  20820281.245 9  20820279.890 9
  22533063.634 8 -31840460.481 8 -19730520.939 8  22533063.485 8  22533062.674 8
  20834557.319 9 -32830390.953 9 -25113093.244 9  20834558.207 9  20834556.618 9
 10  3 18  5  0 25.0000000  0  9G19G07G16G24G21G22G06G18G03
  22889806.775 8 -17020090.578 8 -13101163.313 8  22889804.275 8  22889804.888 8
  24772224.313 7  -3641189.136 7  -2620564.127 6  24772224.830 6  24772224.265 6
  21274458.679 9 -36875255.940 9 -28486517.193 9  21274458.758 9  21274457.879 9
  23689343.589 7 -35176780.681 7 -22459608.564 7  23689345.253 7  23689342.461 7
  22968630.820 8 -38687108.947 8 -26066740.029 8  22968630.036 8  22968629.446 8
  22100146.920 9 -29855182.813 9 -18304448.281 9  22100145.273 9  22100146.303 9
  20819878.224 9 -39362627.300 9 -29292928.535 9  20819879.262 9  20819877.870 9
  22532860.361 8 -31841529.004 8 -19731353.554 8  22532860.160 8  22532859.328 8
  20834023.648 9 -32833195.595 9 -25115278.679 9  20834024.553 9  20834022.894 9
 10  3 18  5  0 26.0000000  0  9G19G07G16G24G21G22G06G18G03
  22889112.979 8 -17023737.012 8 -13104004.689 8  22889110.420 8  22889111.052 8
  24771843.308 7  -3643194.087 7  -2622126.426 6  24771843.405 6  24771842.761 6
  21274558.478 9 -36874731.005 9 -28486108.153 9  21274558.680 9  21274557.773 9
  23689704.660 8 -35174883.471 8 -22458130.219 7  23689706.290 7  23689703.471 7
  22968856.962 8 -38685919.984 8 -26065813.565 8  22968856.303 8  22968855.703 8
  22099545.708 9 -29858341.991 9 -18306909.978 9  22099544.132 9  22099545.119 9
  20819476.371 9 -39364739.363 9 -29294574.299 9  20819477.324 9  20819475.895 9
  22532657.159 8 -31842596.974 8 -19732185.739 8  22532656.924 8  22532656.124 8
  20833490.178 9 -32835999.913 9 -25117463.861 9  20833490.938 9  20833489.225 9
 10  3 18  5  0 27.0000000  0  9G19G07G16G24G21G22G06G18G03
  22888419.454 8 -17027383.288 8 -13106845.942 8  22888416.590 8  22888417.240 8
  24771462.047 7  -3645198.417 7  -2623688.241 6  24771462.089 6  24771461.380 6
  21274658.377 9 -36874205.523 9 -28485698.686 9  21274658.693 9  21274657.775 9
  23690065.525 7 -35172986.148 7 -22456651.786 7  23690067.322 7  23690064.514 7
  22969083.116 8 -38684730.831 8 -26064886.952 8  22969082.595 8  22969081.990 8
  22098944.536 9 -29861500.656 9 -18309371.275 9  22098943.111 9  22098944.031 9
  20819074.515 9 -39366851.105 9 -29296219.812 9  20819075.509 9  20819074.030 9
  22532454.139 8 -31843664.320 8 -19733017.438 8  22532453.786 8  22532453.066 8
  20832956.549 9 -32838803.879 9 -25119648.769 9  20832957.369 9  20832955.627 9
 10  3 18  5  0 28.0000000  0  9G19G07G16G24G21G22G06G18G03
  22887725.617 8 -17031029.408 8 -13109687.075 8  22887722.768 8  22887723.425 8
  24771080.964 7  -3647202.085 7  -2625249.541 6  24771080.880 6  24771080.122 6
  21274758.504 9 -36873679.474 9 -28485288.778 9  21274758.803 9  21274757.891 9
  23690426.732 7 -35171088.714 7 -22455173.266 7  23690428.379 7  23690425.579 7
  22969309.683 8 -38683541.462 8 -26063960.173 8  22969308.912 8  22969308.305 8
  22098343.592 9 -29864658.789 9 -18311832.157 9  22098342.158 9  22098343.067 9
  20818672.846 9 -39368962.530 9 -29297865.078 9  20818673.755 9  20818672.225 9
  22532251.151 8 -31844731.043 8 -19733848.651 8  22532250.784 8  22532250.072 8
  20832423.022 9 -32841607.472 9 -25121833.387 9  20832423.843 9  20832422.103 9
 10  3 18  5  0 29.0000000  0  9G19G07G16G24G21G22G06G18G03
  22887031.610 8 -17034675.342 8 -13112528.063 8  22887028.975 8  22887029.639 8
  24770700.166 7  -3649205.104 7  -2626810.334 6  24770699.736 6  24770698.995 6
  21274858.730 9 -36873152.865 9 -28484878.434 9  21274859.012 9  21274858.130 9
  23690788.005 7 -35169191.120 7 -22453694.622 7  23690789.468 7  23690786.665 7
  22969536.176 8 -38682351.864 8 -26063033.214 8  22969535.277 8  22969534.673 8
  22097742.611 9 -29867816.395 9 -18314292.629 9  22097741.287 9  22097742.207 9
  20818271.200 9 -39371073.629 9 -29299510.090 9  20818272.025 9  20818270.492 9
  22532048.318 8 -31845797.163 8 -19734679.394 8  22532047.904 8  22532047.138 8
  20831889.528 9 -32844410.698 9 -25124017.719 9  20831890.340 9  20831888.657 9
 10  3 18  5  0 30.0000000  0  9G19G07G16G24G21G22G06G18G03
  22886337.797 8 -17038321.100 8 -13115368.913 8  22886335.210 8  22886335.915 8
  24770319.277 7  -3651207.491 7  -2628370.636 6  24770318.640 6  24770317.988 6
  21274959.080 9 -36872625.686 9 -28484467.645 9  21274959.324 9  21274958.493 9
  23691148.982 7 -35167293.393 7 -22452215.876 7  23691150.597 7  23691147.785 7
  22969762.646 8 -38681162.055 8 -26062106.091 8  22969761.687 8  22969761.094 8
  22097141.727 9 -29870973.468 9 -18316752.685 9  22097140.484 9  22097141.431 9
  20817869.465 9 -39373184.407 9 -29301154.852 9  20817870.360 9  20817868.820 9
  22531845.416 8 -31846862.647 8 -19735509.640 8  22531845.146 8  22531844.336 8
  20831356.023 9 -32847213.547 9 -25126201.756 9  20831356.922 9  20831355.298 9
 10  3 18  5  0 31.0000000  0  9G19G07G16G24G21G22G06G18G03
  22885643.867 8 -17041966.737 8 -13118209.669 8  22885641.467 8  22885642.208 8
  24769938.387 7  -3653209.279 7  -2629930.470 6  24769937.705 6  24769937.073 6
  21275059.574 9 -36872097.987 9 -28484056.451 9  21275059.732 9  21275058.916 9
  23691509.990 8 -35165395.607 8 -22450737.084 7  23691511.772 7  23691508.926 7
  22969989.076 8 -38679972.058 8 -26061178.820 8  22969988.126 8  22969987.539 8
  22096541.116 9 -29874130.050 9 -18319212.359 9  22096539.763 9  22096540.743 9
  20817467.897 9 -39375294.947 9 -29302799.428 9  20817468.740 9  20817467.163 9
  22531642.674 8 -31847927.563 8 -19736339.445 8  22531642.498 8  22531641.651 8
  20830822.751 9 -32850016.075 9 -25128385.544 9  20830823.598 9  20830822.028 9
 10  3 18  5  0 32.0000000  0  9G19G07G16G24G21G22G06G18G03
  22884950.144 8 -17045612.236 8 -13121050.318 8  22884947.756 8  22884948.499 8
  24769557.309 7  -3655210.458 7  -2631489.832 6  24769556.931 6  24769556.253 6
  21275160.090 9 -36871569.760 9 -28483644.846 9  21275160.242 9  21275159.409 9
  23691871.302 8 -35163497.716 8 -22449258.210 7  23691872.962 7  23691870.085 7
  22970215.546 8 -38678781.878 8 -26060251.408 8  22970214.592 8  22970214.012 8
  22095940.565 9 -29877286.149 9 -18321671.656 9  22095939.162 9  22095940.126 9
  20817066.336 9 -39377405.189 9 -29304443.772 9  20817067.173 9  20817065.563 9
  22531440.189 8 -31848991.893 8 -19737168.792 8  22531439.965 8  22531439.099 8
  20830289.602 9 -32852818.268 9 -25130569.071 9  20830290.341 9  20830288.794 9
 10  3 18  5  0 33.0000000  0  9G19G07G16G24G21G22G06G18G03
  22884256.349 8 -17049257.578 8 -13123890.843 8  22884254.069 8  22884254.816 8
  24769176.791 7  -3657211.036 7  -2633048.725 6  24769176.278 6  24769175.539 6
  21275260.714 9 -36871040.998 9 -28483232.824 9  21275260.848 9  21275260.002 9
  23692232.470 7 -35161599.713 7 -22447779.251 7  23692234.162 7  23692231.287 7
  22970442.263 8 -38677591.521 8 -26059323.858 8  22970441.104 8  22970440.542 8
  22095340.130 9 -29880441.745 9 -18324130.561 9  22095338.675 9  22095339.601 9
  20816664.812 9 -39379515.139 9 -29306087.890 9  20816665.645 9  20816664.076 9
  22531237.833 8 -31850055.641 8 -19737997.687 8  22531237.548 8  22531236.672 8
  20829756.468 9 -32855620.129 9 -25132752.338 9  20829757.160 9  20829755.590 9
 10  3 18  5  0 34.0000000  0  9G19G07G16G24G21G22G06G18G03
  22883562.705 8 -17052902.769 8 -13126731.251 8  22883560.418 8  22883561.174 8
  24768796.458 7  -3659210.954 7  -2634607.100 6  24768795.756 6  24768794.939 6
  21275361.567 9 -36870511.684 9 -28482820.371 9  21275361.558 9  21275360.704 9
  23692593.538 7 -35159701.557 7 -22446300.169 7  23692595.390 7  23692592.506 7
  22970668.692 8 -38676400.953 8 -26058396.143 8  22970667.663 8  22970667.128 8
  22094739.796 9 -29883596.818 9 -18326589.059 9  22094738.280 9  22094739.209 9
  20816263.409 9 -39381624.776 9 -29307731.762 9  20816264.171 9  20816262.640 9
  22531035.657 8 -31851118.769 8 -19738826.098 8  22531035.245 8  22531034.378 8
  20829223.415 9 -32858421.617 9 -25134935.316 9  20829224.040 9  20829222.483 9
 10  3 18  5  0 35.0000000  0  9G19G07G16G24G21G22G06G18G03
  22882869.073 8 -17056547.821 8 -13129571.552 8  22882866.793 8  22882867.559 8
  24768415.759 7  -3661210.277 7  -2636165.013 6  24768415.337 6  24768414.485 6
  21275462.456 9 -36869981.835 9 -28482407.502 9  21275462.351 9  21275461.505 9
  23692954.915 7 -35157803.330 7 -22444821.034 7  23692956.660 7  23692953.721 7
  22970895.148 8 -38675210.190 8 -26057468.277 8  22970894.262 8  22970893.746 8
  22094139.448 9 -29886751.387 9 -18329047.164 9  22094137.975 9  22094138.922 9
  20815861.954 9 -39383734.119 9 -29309375.405 9  20815862.803 9  20815861.224 9
  22530833.579 8 -31852181.320 8 -19739654.060 8  22530833.053 8  22530832.210 8
  20828690.326 9 -32861222.775 9 -25137118.036 9  20828690.959 9  20828689.466 9
 10  3 18  5  0 36.0000000  0  9G19G07G16G24G21G22G06G18G03
  22882175.516 8 -17060192.686 8 -13132411.708 8  22882173.186 8  22882174.016 8
  24768035.155 7  -3663208.982 7  -2637722.445 6  24768035.020 6  24768034.171 6
  21275563.438 9 -36869451.410 9 -28481994.184 9  21275563.240 9  21275562.418 9
  23693316.195 8 -35155904.993 8 -22443341.812 7  23693317.941 7  23693314.959 7
  22971121.736 8 -38674019.212 8 -26056540.243 8  22971120.897 8  22971120.396 8
  22093539.310 9 -29889905.422 9 -18331504.853 9  22093537.777 9  22093538.721 9
  20815460.660 9 -39385843.147 9 -29311018.803 9  20815461.489 9  20815459.867 9
  22530631.434 8 -31853243.238 8 -19740481.528 8  22530630.991 8  22530630.162 8
  20828157.380 9 -32864023.549 9 -25139300.456 9  20828157.958 9  20828156.508 9
 10  3 18  5  0 37.0000000  0  9G19G07G16G24G21G22G06G18G03
  22881481.999 8 -17063837.322 8 -13135251.683 8  22881479.622 8  22881480.512 8
  24767654.812 7  -3665206.946 7  -2639279.298 6  24767654.855 6  24767654.015 6
  21275664.631 9 -36868920.372 9 -28481580.387 9  21275664.267 9  21275663.480 9
  23693677.792 7 -35154006.412 7 -22441862.397 7  23693679.227 7  23693676.260 7
  22971348.352 8 -38672827.951 8 -26055611.988 8  22971347.571 8  22971347.089 8
  22092939.339 9 -29893058.874 9 -18333962.089 9  22092937.696 9  22092938.631 9
  20815059.279 9 -39387951.785 9 -29312661.898 9  20815060.280 9  20815058.607 9
  22530429.639 8 -31854304.482 8 -19741308.471 8  22530429.064 8  22530428.238 8
  20827624.530 9 -32866823.894 9 -25141482.543 9  20827625.053 9  20827623.607 9
 10  3 18  5  0 38.0000000  0  9G19G07G16G24G21G22G06G18G03
  22880788.602 8 -17067481.907 8 -13138091.619 8  22880786.091 8  22880787.014 8
  24767274.501 7  -3667204.394 7  -2640835.749 6  24767274.800 6  24767273.968 6
  21275765.747 9 -36868388.893 9 -28481166.248 9  21275765.396 9  21275764.648 9
  23694039.160 8 -35152107.861 8 -22440383.006 7  23694040.512 7  23694037.556 7
  22971574.971 8 -38671636.603 8 -26054683.664 8  22971574.241 8  22971573.788 8
  22092339.440 9 -29896211.929 9 -18336419.014 9  22092337.671 9  22092338.579 9
  20814657.986 9 -39390060.239 9 -29314304.848 9  20814659.102 9  20814657.378 9
  22530227.975 8 -31855365.234 8 -19742135.031 8  22530227.230 8  22530226.396 8
  20827091.774 9 -32869623.991 9 -25143664.436 9  20827092.186 9  20827090.761 9
 10  3 18  5  0 39.0000000  0  9G19G07G16G24G21G22G06G18G03
  22880095.181 8 -17071126.346 8 -13140931.442 8  22880092.590 8  22880093.544 8
  24766894.602 7  -3669201.226 7  -2642391.718 6  24766894.830 6  24766893.956 6
  21275867.127 9 -36867856.866 9 -28480751.681 9  21275866.617 9  21275865.910 9
  23694400.381 7 -35150209.168 7 -22438903.506 7  23694401.856 7  23694398.879 7
  22971801.644 8 -38670445.041 8 -26053755.175 8  22971800.968 8  22971800.537 8
  22091739.505 9 -29899364.465 9 -18338875.535 9  22091737.737 9  22091738.612 9
  20814256.818 9 -39392168.398 9 -29315947.570 9  20814257.940 9  20814256.209 9
  22530026.250 9 -31856425.364 9 -19742961.107 8  22530025.508 8  22530024.662 8
  20826558.863 9 -32872423.740 9 -25145846.058 9  20826559.372 9  20826557.996 9
 10  3 18  5  0 40.0000000  0  9G19G07G16G24G21G22G06G18G03
  22879401.460 8 -17074770.621 8 -13143771.137 8  22879399.111 8  22879400.060 8
  24766514.671 7  -3671197.417 7  -2643947.186 6  24766514.946 6  24766513.996 6
  21275968.401 9 -36867324.297 9 -28480336.692 9  21275967.928 9  21275967.266 9
  23694761.703 8 -35148310.395 8 -22437423.943 7  23694763.218 7  23694760.215 7
  22972028.409 8 -38669253.295 8 -26052826.542 8  22972027.744 8  22972027.323 8
  22091139.619 9 -29902516.483 9 -18341331.653 9  22091137.906 9  22091138.766 9
  20813855.701 9 -39394276.257 9 -29317590.056 9  20813856.833 9  20813855.094 9
  22529824.647 9 -31857484.907 9 -19743786.725 8  22529823.890 8  22529823.071 8
  20826026.241 9 -32875223.133 9 -25148027.402 9  20826026.624 9  20826025.278 9
 10  3 18  5  0 41.0000000  0  9G19G07G16G24G21G22G06G18G03
  22878708.112 8 -17078414.768 8 -13146610.733 8  22878705.656 8  22878706.601 8
  24766134.776 7  -3673193.013 7  -2645502.193 6  24766135.187 6  24766134.207 6
  21276069.806 9 -36866791.190 9 -28479921.284 9  21276069.335 9  21276068.725 9
  23695123.136 7 -35146411.507 7 -22435944.289 7  23695124.604 7  23695121.575 7
  22972255.205 8 -38668061.342 8 -26051897.748 8  22972254.558 8  22972254.158 8
  22090539.843 9 -29905668.012 9 -18343787.389 9  22090538.162 9  22090539.017 9
  20813454.773 9 -39396383.803 9 -29319232.300 9  20813455.783 9  20813454.000 9
  22529623.211 9 -31858543.853 9 -19744611.878 8  22529622.366 8  22529621.613 8
  20825493.587 9 -32878022.183 9 -25150208.480 9  20825493.942 9  20825492.603 9
 10  3 18  5  0 42.0000000  0  9G19G07G16G24G21G22G06G18G03
  22878014.659 8 -17082058.733 8 -13149450.186 8  22878012.240 8  22878013.174 8
  24765755.441 7  -3675187.975 7  -2647056.707 6  24765755.571 6  24765754.599 6
  21276171.378 9 -36866257.546 9 -28479505.457 9  21276170.836 9  21276170.287 9
  23695484.350 7 -35144512.501 7 -22434464.547 7  23695486.014 7  23695482.958 7
  22972482.160 8 -38666869.197 8 -26050968.804 8  22972481.409 8  22972481.044 8
  22089940.164 9 -29908819.028 9 -18346242.726 9  22089938.533 9  22089939.362 9
  20813053.830 9 -39398491.057 9 -29320874.315 9  20813054.787 9  20813052.963 9
  22529421.878 9 -31859602.196 9 -19745436.560 8  22529420.949 8  22529420.275 8
  20824961.085 9 -32880820.887 9 -25152389.287 9  20824961.356 9  20824959.988 9
 10  3 18  5  0 43.0000000  0  9G19G07G16G24G21G22G06G18G03
  22877321.212 8 -17085702.580 8 -13152289.547 8  22877318.846 8  22877319.768 8
  24765375.547 7  -3677182.344 7  -2648610.761 6  24765376.036 6  24765375.084 6
  21276273.004 9 -36865723.376 9 -28479089.220 9  21276272.417 9  21276271.938 9
  23695845.762 8 -35142613.398 8 -22432984.727 7  23695847.434 7  23695844.357 7
  22972709.244 8 -38665676.872 8 -26050039.719 8  22972708.296 8  22972707.952 8
  22089340.490 9 -29911969.552 9 -18348697.680 9  22089339.003 9  22089339.796 9
  20812653.004 9 -39400598.027 9 -29322516.110 9  20812653.830 9  20812651.986 9
  22529220.595 9 -31860659.961 9 -19746260.792 8  22529219.628 8  22529219.048 8
  20824428.430 9 -32883619.262 9 -25154569.839 9  20824428.889 9  20824427.428 9
 10  3 18  5  0 44.0000000  0  9G19G07G16G24G21G22G06G18G03
  22876627.978 8 -17089346.282 8 -13155128.795 8  22876625.511 8  22876626.381 8
  24764995.816 7  -3679176.099 7  -2650164.337 6  24764996.585 6  24764995.667 6
  21276374.741 9 -36865188.657 9 -28478672.557 9  21276374.081 9  21276373.686 9
  23696206.961 7 -35140714.195 7 -22431504.829 7  23696208.870 7  23696205.777 7
  22972936.193 8 -38664484.337 8 -26049110.471 8  22972935.222 8  22972934.887 8
  22088741.176 9 -29915119.565 9 -18351152.234 9  22088739.582 9  22088740.367 9
  20812252.245 9 -39402704.707 9 -29324157.678 9  20812252.922 9  20812251.061 9
  22529019.570 9 -31861717.123 9 -19747084.554 8  22529018.460 8  22529017.910 8
  20823895.873 9 -32886417.282 9 -25156750.114 9  20823896.463 9  20823894.964 9
 10  3 18  5  0 45.0000000  0  9G19G07G16G24G21G22G06G18G03
  22875934.709 8 -17092989.816 8 -13157967.912 8  22875932.216 8  22875933.035 8
  24764616.281 7  -3681169.204 7  -2651717.406 6  24764617.297 6  24764616.359 6
  21276476.609 9 -36864653.387 9 -28478255.463 9  21276475.891 9  21276475.525 9
  23696568.355 7 -35138814.878 7 -22430024.842 7  23696570.311 7  23696567.221 7
  22973163.357 8 -38663291.609 8 -26048181.073 8  22973162.204 8  22973161.860 8
  22088141.727 9 -29918269.063 9 -18353606.389 9  22088140.264 9  22088141.051 9
  20811851.408 9 -39404811.095 9 -29325799.019 9  20811852.086 9  20811850.226 9
  22528818.457 9 -31862773.678 9 -19747907.844 8  22528817.447 8  22528816.867 8
  20823363.484 9 -32889214.954 9 -25158930.117 9  20823364.052 9  20823362.600 9
 10  3 18  5  0 46.0000000  0  9G19G07G16G24G21G22G06G18G03
  22875241.361 8 -17096633.178 8 -13160806.895 8  22875238.956 8  22875239.760 8
  24764236.941 7  -3683161.699 7  -2653269.999 6  24764238.177 6  24764237.159 6
  21276578.507 9 -36864117.575 9 -28477837.947 9  21276577.845 9  21276577.452 9
  23696929.447 7 -35136915.405 7 -22428544.733 7  23696931.787 7  23696928.708 7
  22973390.364 8 -38662098.673 8 -26047251.512 8  22973389.248 8  22973388.876 8
  22087542.481 9 -29921418.045 9 -18356060.141 9  22087541.022 9  22087541.840 9
  20811450.576 9 -39406917.152 9 -29327440.101 9  20811451.316 9  20811449.454 9
  22528617.566 9 -31863829.632 9 -19748730.664 8  22528616.552 8  22528615.945 8
  20822831.150 9 -32892012.262 9 -25161109.838 9  20822831.725 9  20822830.304 9
 10  3 18  5  0 47.0000000  0  9G19G07G16G24G21G22G06G18G03
  22874548.110 8 -17100276.399 8 -13163645.769 8  22874545.732 8  22874546.519 8
  24763857.860 7  -3685153.547 7  -2654822.090 6  24763859.168 6  24763858.104 6
  21276680.356 9 -36863581.200 9 -28477419.992 9  21276679.948 9  21276679.483 9
  23697290.719 7 -35135015.832 7 -22427064.547 7  23697293.290 7  23697290.246 7
  22973617.424 8 -38660905.511 8 -26046321.776 8  22973616.321 8  22973615.932 8
  22086943.372 9 -29924566.492 9 -18358513.475 9  22086941.876 9  22086942.741 9
  20811049.771 9 -39409022.916 9 -29329080.956 9  20811050.611 9  20811048.729 9
  22528416.792 9 -31864884.963 9 -19749552.999 8  22528415.774 8  22528415.146 8
  20822298.889 9 -32894809.195 9 -25163289.265 9  20822299.499 9  20822298.075 9
 10  3 18  5  0 48.0000000  0  9G19G07G16G24G21G22G06G18G03
  22873854.779 8 -17103919.461 8 -13166484.519 8  22873852.485 8  22873853.281 8
  24763478.761 7  -3687144.773 7  -2656373.698 6  24763480.271 6  24763479.193 6
  21276782.520 9 -36863044.292 9 -28477001.622 9  21276782.186 9  21276781.604 9
  23697651.918 7 -35133116.154 7 -22425584.278 7  23697654.819 7  23697651.797 7
  22973844.394 8 -38659712.164 8 -26045391.894 8  22973843.417 8  22973843.025 8
  22086344.359 9 -29927714.445 9 -18360966.425 9  22086342.843 9  22086343.712 9
  20810649.087 9 -39411128.382 9 -29330721.578 9  20810649.962 9  20810648.060 9
  22528216.062 9 -31865939.711 9 -19750374.881 8  22528215.081 8  22528214.439 8
  20821766.757 9 -32897605.801 9 -25165468.439 9  20821767.338 9  20821765.904 9
 10  3 18  5  0 49.0000000  0  9G19G07G16G24G21G22G06G18G03
  22873161.526 8 -17107562.323 8 -13169323.112 8  22873159.271 8  22873160.076 8
  24763100.415 7  -3689135.331 7  -2657924.783 6  24763101.447 6  24763100.390 6
  21276884.822 9 -36862506.803 9 -28476582.800 9  21276884.527 9  21276883.897 9
  23698013.302 7 -35131216.352 7 -22424103.913 7  23698016.357 7  23698013.321 7
  22974071.382 8 -38658518.580 8 -26044461.829 8  22974070.567 8  22974070.151 8
  22085745.526 9 -29930861.851 9 -18363418.948 9  22085743.930 9  22085744.784 9
  20810248.471 9 -39413233.530 9 -29332361.952 9  20810249.362 9  20810247.458 9
  22528015.415 9 -31866993.829 9 -19751196.271 8  22528014.487 8  22528013.840 8
  20821234.682 9 -32900402.021 9 -25167647.311 9  20821235.264 9  20821233.805 9
 10  3 18  5  0 50.0000000  0  9G19G07G16G24G21G22G06G18G03
  22872468.276 8 -17111205.069 8 -13172161.615 8  22872466.073 8  22872466.883 8
  24762721.921 7  -3691125.334 7  -2659475.435 6  24762722.664 6  24762721.674 6
  21276987.236 9 -36861968.804 9 -28476163.579 9  21276986.955 9  21276986.329 9
  23698374.714 7 -35129316.467 7 -22422623.483 7  23698377.908 7  23698374.849 7
  22974298.419 8 -38657324.835 8 -26043531.638 8  22974297.762 8  22974297.307 8
  22085146.759 9 -29934008.773 9 -18365871.095 9  22085145.085 9  22085145.941 9
  20809847.826 9 -39415338.409 9 -29334002.117 9  20809848.808 9  20809846.905 9
  22527814.880 9 -31868047.370 9 -19752017.211 8  22527814.003 8  22527813.362 8
  20820702.742 9 -32903197.908 9 -25169825.923 9  20820703.257 9  20820701.767 9
 10  3 18  5  0 51.0000000  0  9G19G07G16G24G21G22G06G18G03
  22871775.013 8 -17114847.658 8 -13174999.996 8  22871772.905 8  22871773.718 8
  24762343.606 7  -3693114.676 7  -2661025.573 6  24762344.072 6  24762343.105 6
  21277089.737 9 -36861430.255 9 -28475743.931 9  21277089.481 9  21277088.834 9
  23698736.338 7 -35127416.439 7 -22421142.939 7  23698739.440 7  23698736.354 7
  22974525.316 8 -38656130.883 8 -26042601.285 8  22974525.006 8  22974524.514 8
  22084547.931 9 -29937155.194 9 -18368322.852 9  22084546.328 9  22084547.190 9
  20809447.266 9 -39417442.980 9 -29335642.042 9  20809448.320 9  20809446.455 9
  22527614.294 9 -31869100.315 9 -19752837.688 8  22527613.640 8  22527613.009 8
  20820170.857 9 -32905993.455 9 -25172004.270 9  20820171.312 9  20820169.781 9
 10  3 18  5  0 52.0000000  0  9G19G07G16G24G21G22G06G18G03
  22871081.788 8 -17118490.129 8 -13177838.286 8  22871079.765 8  22871080.600 8
  24761965.160 7  -3695103.440 7  -2662575.258 6  24761965.659 6  24761964.665 6
  21277192.387 9 -36860891.194 9 -28475323.883 9  21277192.092 9  21277191.406 9
  23699097.840 7 -35125516.362 7 -22419662.359 7  23699100.987 7  23699097.880 7
  22974752.487 8 -38654936.771 8 -26041670.809 8  22974752.288 8  22974751.762 8
  22083949.246 9 -29940301.107 9 -18370774.211 9  22083947.695 9  22083948.534 9
  20809046.875 9 -39419547.273 9 -29337281.751 9  20809047.881 9  20809046.053 9
  22527413.945 9 -31870152.670 9 -19753657.705 8  22527413.382 8  22527412.764 8
  20819638.976 9 -32908788.666 9 -25174182.356 9  20819639.422 9  20819637.874 9
 10  3 18  5  0 53.0000000  0  9G19G07G16G24G21G22G06G18G03
  22870388.653 8 -17122132.406 8 -13180676.423 8  22870386.662 8  22870387.520 8
  24761586.700 7  -3697091.567 7  -2664124.448 6  24761587.348 6  24761586.331 6
  21277295.109 9 -36860351.561 9 -28474903.389 9  21277294.803 9  21277294.081 9
  23699459.535 7 -35123616.090 7 -22418181.625 7  23699462.577 7  23699459.480 7
  22974979.728 8 -38653742.431 8 -26040740.154 8  22974979.590 8  22974979.048 8
  22083350.744 9 -29943446.509 9 -18373225.174 9  22083349.177 9  22083349.979 9
  20808646.502 9 -39421651.243 9 -29338921.208 9  20808647.504 9  20808645.687 9
  22527213.972 9 -31871204.407 9 -19754477.240 8  22527213.239 8  22527212.633 8
  20819107.195 9 -32911583.501 9 -25176360.150 9  20819107.585 9  20819106.051 9
 10  3 18  5  0 54.0000000  0  9G19G07G16G24G21G22G06G18G03
  22869695.448 8 -17125774.546 8 -13183514.454 8  22869693.595 8  22869694.427 8
  24761208.518 7  -3699079.051 7  -2665673.139 6  24761209.146 6  24761208.111 6
  21277397.975 9 -36859811.392 9 -28474482.478 9  21277397.601 9  21277396.846 9
  23699821.074 7 -35121715.773 7 -22416700.859 7  23699824.183 7  23699821.095 7
  22975207.039 8 -38652547.888 8 -26039809.341 8  22975206.913 8  22975206.377 8
  22082752.291 9 -29946591.387 9 -18375675.727 9  22082750.768 9  22082751.516 9
  20808246.107 9 -39423754.926 9 -29340560.441 9  20808247.177 9  20808245.370 9
  22527013.902 9 -31872255.560 9 -19755296.320 8  22527013.214 8  22527012.601 8
  20818575.490 9 -32914378.001 9 -25178537.681 9  20818575.816 9  20818574.291 9
 10  3 18  5  0 55.0000000  0  9G19G07G16G24G21G22G06G18G03
  22869002.210 8 -17129416.521 8 -13186352.356 8  22869000.558 8  22869001.363 8
  24760830.332 7  -3701065.908 7  -2667221.341 6  24760831.067 6  24760829.990 6
  21277500.886 9 -36859270.668 9 -28474061.135 9  21277500.480 9  21277499.722 9
  23700183.003 7 -35119815.309 7 -22415219.977 7  23700185.837 7  23700182.752 7
  22975434.570 8 -38651353.146 8 -26038878.374 8  22975434.271 8  22975433.728 8
  22082153.937 9 -29949735.737 9 -18378125.870 9  22082152.473 9  22082153.156 9
  20807845.893 9 -39425858.283 9 -29342199.419 9  20807846.893 9  20807845.117 9
  22526813.939 9 -31873306.091 9 -19756114.915 8  22526813.312 8  22526812.677 8
  20818043.846 9 -32917172.134 9 -25180714.927 9  20818044.118 9  20818042.590 9
 10  3 18  5  0 56.0000000  0  9G19G07G16G24G21G22G06G18G03
  22868309.352 8 -17133058.293 8 -13189190.101 8  22868307.580 8  22868308.315 8
  24760452.166 7  -3703052.109 7  -2668769.028 6  24760453.127 6  24760451.984 6
  21277603.917 9 -36858729.368 9 -28473639.342 9  21277603.436 9  21277602.705 9
  23700544.918 7 -35117914.718 7 -22413738.998 7  23700547.514 7  23700544.436 7
  22975661.815 8 -38650158.170 8 -26037947.224 8  22975661.683 8  22975661.120 8
  22081555.539 9 -29952879.548 9 -18380575.592 9  22081554.242 9  22081554.878 9
  20807445.740 9 -39427961.315 9 -29343838.145 9  20807446.670 9  20807444.926 9
  22526614.208 9 -31874355.979 9 -19756933.008 8  22526613.540 8  22526612.879 8
  20817512.263 9 -32919965.880 9 -25182891.871 9  20817512.514 9  20817510.970 9
 10  3 18  5  0 57.0000000  0  9G19G07G16G24G21G22G06G18G03
  22867616.390 8 -17136699.929 8 -13192027.738 8  22867614.630 8  22867615.296 8
  24760074.714 7  -3705037.683 7  -2670316.228 6  24760075.288 6  24760074.133 6
  21277706.954 9 -36858187.537 9 -28473217.136 9  21277706.540 9  21277705.792 9
  23700906.734 7 -35116013.991 7 -22412257.912 7  23700909.200 7  23700906.149 7
  22975889.270 8 -38648962.999 8 -26037015.922 8  22975889.127 8  22975888.571 8
  22080957.295 9 -29956022.856 9 -18383024.923 9  22080956.096 9  22080956.696 9
  20807045.487 9 -39430064.057 9 -29345476.644 9  20807046.551 9  20807044.793 9
  22526414.481 9 -31875405.274 9 -19757750.639 8  22526413.892 8  22526413.201 8
  20816980.697 9 -32922759.286 9 -25185068.550 9  20816981.013 9  20816979.421 9
 10  3 18  5  0 58.0000000  0  9G19G07G16G24G21G22G06G18G03
  22866923.409 8 -17140341.446 8 -13194865.283 8  22866921.667 8  22866922.338 8
  24759696.656 7  -3707022.676 7  -2671862.975 6  24759697.543 6  24759696.429 6
  21277810.194 9 -36857645.187 9 -28472794.526 9  21277809.790 9  21277808.977 9
  23701268.591 7 -35114113.187 7 -22410776.768 7  23701270.906 7  23701267.877 7
  22976116.780 8 -38647767.654 8 -26036084.485 8  22976116.602 8  22976116.073 8
  22080359.166 9 -29959165.683 9 -18385473.879 9  22080358.046 9  22080358.624 9
  20806645.426 9 -39432166.515 9 -29347114.922 9  20806646.482 9  20806644.709 9
  22526214.830 9 -31876454.016 9 -19758567.840 8  22526214.340 8  22526213.634 8
  20816449.270 9 -32925552.366 9 -25187244.976 9  20816449.540 9  20816447.932 9
 10  3 18  5  0 59.0000000  0  9G19G07G16G24G21G22G06G18G03
  22866230.420 8 -17143982.778 8 -13197702.684 8  22866228.739 8  22866229.415 8
  24759318.642 7  -3709007.030 7  -2673409.222 6  24759319.931 6  24759318.841 6
  21277913.585 9 -36857102.273 9 -28472371.476 9  21277913.132 9  21277912.291 9
  23701630.547 7 -35112212.269 7 -22409295.535 7  23701632.643 7  23701629.629 7
  22976344.400 8 -38646572.104 8 -26035152.889 8  22976344.093 8  22976343.590 8
  22079761.223 9 -29962307.962 9 -18387922.407 9  22079760.107 9  22079760.667 9
  20806245.374 9 -39434268.661 9 -29348752.958 9  20806246.439 9  20806244.657 9
  22526015.448 9 -31877502.120 9 -19759384.543 8  22526014.901 8  22526014.194 8
  20815917.781 9 -32928345.056 9 -25189421.098 9  20815918.082 9  20815916.522 9
 10  3 18  5  1  0.0000000  0  9G19G07G16G24G21G22G06G18G03
  22865537.426 8 -17147623.954 8 -13200539.963 8  22865535.870 8  22865536.512 8
  24758941.031 7  -3710990.754 7  -2674954.978 6  24758942.460 6  24758941.380 6
  21278017.070 9 -36856558.806 9 -28471947.995 9  21278016.557 9  21278015.726 9
  23701992.402 7 -35110311.226 7 -22407814.202 7  23701994.403 7  23701991.411 7
  22976572.048 8 -38645376.342 8 -26034221.128 8  22976571.602 8  22976571.126 8
  22079163.315 9 -29965449.730 9 -18390370.537 9  22079162.269 9  22079162.809 9
  20805845.434 9 -39436370.495 9 -29350390.752 9  20805846.456 9  20805844.668 9
  22525816.243 9 -31878549.623 9 -19760200.779 8  22525815.590 8  22525814.898 8
  20815386.432 9 -32931137.402 9 -25191596.952 9  20815386.690 9  20815385.188 9
 10  3 18  5  1  1.0000000  0  9G19G07G16G24G21G22G06G18G03
  22864844.780 8 -17151264.997 8 -13203377.139 8  22864843.029 8  22864843.635 8
  24758563.799 7  -3712973.892 7  -2676500.280 6  24758565.096 6  24758564.035 6
  21278120.631 9 -36856014.833 9 -28471524.120 9  21278120.096 9  21278119.260 9
  23702353.944 7 -35108410.093 7 -22406332.801 7  23702356.142 7  23702353.228 7
  22976799.698 8 -38644180.401 8 -26033289.226 8  22976799.162 8  22976798.702 8
  22078565.495 9 -29968591.018 9 -18392818.293 9  22078564.517 9  22078565.039 9
  20805445.597 9 -39438472.059 9 -29352028.334 9  20805446.490 9  20805444.774 9
  22525617.078 9 -31879596.556 9 -19761016.570 8  22525616.399 8  22525615.733 8
  20814855.152 9 -32933929.420 9 -25193772.550 9  20814855.369 9  20814853.934 9
 10  3 18  5  1  2.0000000  0  9G19G07G16G24G21G22G06G18G03
  22864152.091 8 -17154905.887 8 -13206214.196 8  22864150.212 8  22864150.797 8
  24758186.736 7  -3714956.356 7  -2678045.058 6  24758187.868 6  24758186.834 6
  21278224.157 9 -36855470.290 9 -28471099.801 9  21278223.763 9  21278222.901 9
  23702715.838 7 -35106508.840 7 -22404851.305 7  23702717.910 7  23702715.051 7
  22977027.236 8 -38642984.261 8 -26032357.170 8  22977026.778 8  22977026.324 8
  22077967.808 9 -29971731.775 9 -18395265.636 9  22077966.862 9  22077967.372 9
  20805045.730 9 -39440573.308 9 -29353665.670 9  20805046.585 9  20805044.943 9
  22525418.169 9 -31880642.876 9 -19761831.884 8  22525417.317 8  22525416.677 8
  20814323.992 9 -32936721.068 9 -25195947.859 9  20814324.133 9  20814322.742 9
 10  3 18  5  1  3.0000000  0  9G19G07G16G24G21G22G06G18G03
  22863459.347 8 -17158546.627 8 -13209051.135 8  22863457.429 8  22863457.991 8
  24757809.570 7  -3716938.228 7  -2679589.376 6  24757810.686 6  24757809.735 6
  21278327.780 9 -36854925.215 9 -28470675.067 9  21278327.531 9  21278326.621 9
  23703077.460 7 -35104607.470 7 -22403369.718 7  23703079.726 7  23703076.839 7
  22977254.937 8 -38641787.937 8 -26031424.970 8  22977254.433 8  22977253.981 8
  22077370.074 9 -29974872.028 9 -18397712.585 9  22077369.299 9  22077369.798 9
  20804645.906 9 -39442674.268 9 -29355302.781 9  20804646.785 9  20804645.171 9
  22525219.253 9 -31881688.597 9 -19762646.731 8  22525218.332 8  22525217.727 8
  20813792.890 9 -32939512.367 9 -25198122.897 9  20813793.004 9  20813791.613 9
 10  3 18  5  1  4.0000000  0  9G19G07G16G24G21G22G06G18G03
  22862766.589 8 -17162187.218 8 -13211887.959 8  22862764.640 8  22862765.190 8
  24757432.322 7  -3718919.511 7  -2681133.235 6  24757433.544 6  24757432.738 6
  21278431.635 9 -36854379.603 9 -28470249.915 9  21278431.409 9  21278430.432 9
  23703439.203 7 -35102706.009 7 -22401888.061 7  23703441.557 7  23703438.648 7
  22977482.813 8 -38640591.388 8 -26030492.595 8  22977482.136 8  22977481.685 8
  22076772.676 9 -29978011.774 9 -18400159.140 9  22076771.827 9  22076772.315 9
  20804246.109 9 -39444774.935 9 -29356939.664 9  20804247.042 9  20804245.457 9
  22525020.339 9 -31882733.723 9 -19763461.113 8  22525019.471 8  22525018.853 8
  20813261.721 9 -32942303.330 9 -25200297.673 9  20813261.917 9  20813260.543 9
 10  3 18  5  1  5.0000000  0  9G19G07G16G24G21G22G06G18G03
  22862073.747 8 -17165827.630 8 -13214724.641 8  22862071.877 8  22862072.421 8
  24757055.835 7  -3720900.113 7  -2682676.561 6  24757056.624 6  24757055.846 6
  21278535.443 9 -36853833.427 9 -28469824.324 9  21278535.351 9  21278534.359 9
  23703801.137 7 -35100804.408 7 -22400406.295 7  23703803.382 7  23703800.496 7
  22977710.631 8 -38639394.664 8 -26029560.084 8  22977709.862 8  22977709.403 8
  22076175.454 9 -29981151.011 9 -18402605.299 9  22076174.450 9  22076174.929 9
  20803846.527 9 -39446875.295 9 -29358576.308 9  20803847.294 9  20803845.754 9
  22524821.638 9 -31883778.223 9 -19764275.008 8  22524820.746 8  22524820.073 8
  20812730.591 9 -32945093.929 9 -25202472.165 9  20812730.874 9  20812729.543 9
 10  3 18  5  1  6.0000000  0  9G19G07G16G24G21G22G06G18G03
  22861380.965 8 -17169467.910 8 -13217561.222 8  22861379.181 8  22861379.677 8
  24756679.122 7  -3722880.124 7  -2684219.425 6  24756679.923 6  24756679.050 6
  21278639.305 9 -36853286.738 9 -28469398.333 9  21278639.351 9  21278638.394 9
  23704163.151 7 -35098902.744 7 -22398924.479 7  23704165.228 7  23704162.376 7
  22977938.501 8 -38638197.753 8 -26028627.427 8  22977937.616 8  22977937.143 8
  22075578.274 9 -29984289.761 9 -18405051.077 9  22075577.167 9  22075577.662 9
  20803446.852 9 -39448975.342 9 -29360212.708 9  20803447.601 9  20803446.109 9
  22524622.927 9 -31884822.159 9 -19765088.465 8  22524622.103 8  22524621.415 9
  20812199.504 9 -32947884.188 9 -25204646.392 9  20812199.910 9  20812198.598 9
 10  3 18  5  1  7.0000000  0  9G19G07G16G24G21G22G06G18G03
  22860688.188 8 -17173107.989 8 -13220397.648 8  22860686.526 8  22860686.974 8
  24756302.256 7  -3724859.475 7  -2685761.781 6  24756303.369 6  24756302.362 6
  21278743.287 9 -36852739.428 9 -28468971.858 9  21278743.463 9  21278742.558 9
  23704524.649 7 -35097000.871 7 -22397442.498 7  23704527.160 7  23704524.368 7
  22978166.234 8 -38637000.573 8 -26027694.560 8  22978165.413 8  22978164.951 8
  22074981.174 9 -29987427.925 9 -18407496.401 9  22074979.996 9  22074980.519 9
  20803047.341 9 -39451075.050 9 -29361848.844 9  20803048.005 9  20803046.588 9
  22524424.291 9 -31885865.428 9 -19765901.402 8  22524423.556 8  22524422.895 9
  20811668.537 9 -32950674.034 9 -25206820.298 9  20811669.056 9  20811667.718 9
 10  3 18  5  1  8.0000000  0  9G19G07G16G24G21G22G06G18G03
  22859995.514 8 -17176747.943 8 -13223233.976 8  22859993.854 8  22859994.285 8
  24755925.591 7  -3726838.232 7  -2687303.673 6  24755926.951 6  24755925.770 6
  21278847.606 9 -36852191.624 9 -28468544.998 9  21278847.667 9  21278846.830 9
  23704886.464 7 -35095098.953 7 -22395960.483 7  23704889.100 7  23704886.340 7
  22978393.936 8 -38635803.255 8 -26026761.586 8  22978393.225 8  22978392.794 8
  22074384.048 9 -29990565.622 9 -18409941.359 9  22074382.927 9  22074383.434 9
  20802647.843 9 -39453174.485 9 -29363484.767 9  20802648.461 9  20802647.118 9
  22524225.798 9 -31886908.137 9 -19766713.902 8  22524225.143 8  22524224.497 9
  20811137.726 9 -32953463.577 9 -25208993.967 9  20811138.255 9  20811136.888 9
 10  3 18  5  1  9.0000000  0  9G19G07G16G24G21G22G06G18G03
  22859302.837 8 -17180387.777 8 -13226070.208 8  22859301.198 8  22859301.613 8
  24755549.623 7  -3728816.385 7  -2688845.094 6  24755550.615 6  24755549.376 6
  21278952.022 9 -36851643.318 9 -28468117.747 9  21278951.982 9  21278951.172 9
  23705248.744 7 -35093196.932 7 -22394478.388 7  23705251.110 7  23705248.271 7
  22978621.657 8 -38634605.761 8 -26025828.475 8  22978621.098 8  22978620.668 8
  22073786.951 9 -29993702.856 9 -18412385.957 9  22073785.941 9  22073786.417 9
  20802248.445 9 -39455273.663 9 -29365120.490 9  20802249.015 9  20802247.650 9
  22524027.373 9 -31887950.285 9 -19767525.965 8  22524026.864 8  22524026.219 9
  20810606.883 9 -32956252.803 9 -25211167.389 9  20810607.512 9  20810606.112 9
 10  3 18  5  1 10.0000000  0  9G19G07G16G24G21G22G06G18G03
  22858610.059 8 -17184027.459 8 -13228906.324 8  22858608.571 8  22858609.003 8
  24755173.215 7  -3730793.936 7  -2690386.042 6  24755174.358 6  24755173.173 6
  21279056.460 9 -36851094.458 9 -28467690.064 9  21279056.422 9  21279055.599 9
  23705610.573 7 -35091294.837 7 -22392996.237 7  23705613.126 7  23705610.220 7
  22978849.560 8 -38633408.081 8 -26024895.218 8  22978849.022 8  22978848.561 8
  22073190.181 9 -29996839.562 9 -18414830.143 9  22073189.039 9  22073189.541 9
  20801849.120 9 -39457372.535 9 -29366755.975 9  20801849.628 9  20801848.240 9
  22523829.064 9 -31888991.808 9 -19768337.541 8  22523828.692 8  22523828.047 9
  20810076.228 9 -32959041.671 9 -25213340.533 9  20810076.840 9  20810075.409 9
 10  3 18  5  1 11.0000000  0  9G19G07G16G24G21G22G06G18G03
  22857917.440 8 -17187667.014 8 -13231742.340 8  22857915.963 8  22857916.414 8
  24754796.768 7  -3732770.883 7  -2691926.519 6  24754798.125 6  24754796.974 6
  21279160.969 9 -36850545.075 9 -28467261.974 9  21279160.941 9  21279160.140 9
  23705972.450 7 -35089392.652 7 -22391514.016 7  23705975.107 7  23705972.200 7
  22979077.525 8 -38632210.221 8 -26023961.821 8  22979076.971 8  22979076.512 8
  22072593.384 9 -29999975.762 9 -18417273.935 9  22072592.226 9  22072592.779 9
  20801449.751 9 -39459471.134 9 -29368391.246 9  20801450.282 9  20801448.890 9
  22523630.829 9 -31890032.757 9 -19769148.669 9  22523630.625 9  22523629.984 9
  20809545.661 9 -32961830.201 9 -25215513.413 9  20809546.244 9  20809544.785 9
 10  3 18  5  1 12.0000000  0  9G19G07G16G24G21G22G06G18G03
  22857224.970 8 -17191306.382 8 -13234578.211 8  22857223.448 8  22857223.867 8
  24754420.638 7  -3734747.181 7  -2693466.489 6  24754421.923 6  24754420.814 6
  21279265.713 9 -36849995.136 9 -28466833.450 9  21279265.553 9  21279264.804 9
  23706334.225 7 -35087490.304 7 -22390031.668 7  23706337.110 7  23706334.223 7
  22979305.551 8 -38631012.143 8 -26023028.254 8  22979304.951 8  22979304.522 8
  22071996.726 9 -30003111.445 9 -18419717.324 9  22071995.494 9  22071996.087 9
  20801050.511 9 -39461569.411 9 -29370026.267 9  20801051.001 9  20801049.608 9
  22523432.721 9 -31891073.090 9 -19769959.317 9  22523432.670 9  22523432.033 9
  20809015.124 9 -32964618.369 9 -25217686.012 9  20809015.703 9  20809014.214 9
 10  3 18  5  1 13.0000000  0  9G19G07G16G24G21G22G06G18G03
  22856532.440 8 -17194945.607 8 -13237413.970 8  22856530.960 8  22856531.347 8
  24754044.475 7  -3736722.881 7  -2695005.995 6  24754045.951 6  24754044.785 6
  21279370.517 9 -36849444.663 9 -28466404.511 9  21279370.309 9  21279369.555 9
  23706696.506 8 -35085587.889 8 -22388549.268 7  23706699.093 7  23706696.304 7
  22979533.677 8 -38629813.886 8 -26022094.548 8  22979532.979 8  22979532.562 8
  22071400.272 9 -30006246.617 9 -18422160.315 9  22071398.852 9  22071399.482 9
  20800651.277 9 -39463667.414 9 -29371661.074 9  20800651.760 9  20800650.395 9
  22523234.961 9 -31892112.834 9 -19770769.507 9  22523234.839 9  22523234.205 9
  20808484.600 9 -32967406.186 9 -25219858.337 9  20808485.208 9  20808483.693 9
 10  3 18  5  1 14.0000000  0  9G19G07G16G24G21G22G06G18G03
  22855839.805 8 -17198584.666 8 -13240249.600 8  22855838.497 8  22855838.835 8
  24753668.526 7  -3738697.946 7  -2696545.009 6  24753670.235 6  24753668.900 6
  21279475.358 9 -36848893.633 9 -28465975.136 9  21279475.223 9  21279474.403 9
  23707058.630 7 -35083685.355 7 -22387066.774 7  23707061.098 7  23707058.403 7
  22979761.833 8 -38628615.402 8 -26021160.665 8  22979761.063 8  22979760.637 8
  22070803.785 9 -30009381.264 9 -18424602.897 9  22070802.344 9  22070802.981 9
  20800252.239 9 -39465765.078 9 -29373295.617 9  20800252.584 9  20800251.249 9
  22523037.290 9 -31893151.954 9 -19771579.210 9  22523037.116 9  22523036.500 9
  20807954.105 9 -32970193.632 9 -25222030.372 9  20807954.777 9  20807953.249 9
 10  3 18  5  1 15.0000000  0  9G19G07G16G24G21G22G06G18G03
  22855147.234 8 -17202223.585 8 -13243085.121 8  22855146.059 8  22855146.347 8
  24753292.699 7  -3740672.394 7  -2698083.541 6  24753294.556 6  24753293.148 6
  21279580.243 9 -36848342.087 9 -28465545.361 9  21279580.233 9  21279579.321 9
  23707421.171 7 -35081782.696 7 -22385584.180 7  23707423.145 7  23707420.526 7
  22979989.870 8 -38627416.748 8 -26020226.649 8  22979989.180 8  22979988.761 8
  22070207.338 9 -30012515.408 9 -18427045.086 9  22070205.949 9  22070206.582 9
  20799853.124 9 -39467862.461 9 -29374929.940 9  20799853.473 9  20799852.128 9
  22522839.730 9 -31894190.496 9 -19772388.463 9  22522839.499 9  22522838.922 8
  20807423.745 9 -32972980.756 9 -25224202.157 9  20807424.399 9  20807422.875 9
 10  3 18  5  1 16.0000000  0  9G19G07G16G24G21G22G06G18G03
  22854454.656 8 -17205862.366 8 -13245920.533 8  22854453.622 8  22854453.872 8
  24752916.934 7  -3742646.219 7  -2699621.586 5  24752918.907 5  24752917.531 6
  21279685.364 9 -36847789.980 9 -28465115.147 9  21279685.355 9  21279684.327 9
  23707783.489 7 -35079879.936 7 -22384101.512 7  23707785.209 7  23707782.648 7
  22980218.029 8 -38626217.894 8 -26019292.477 8  22980217.330 8  22980216.928 8
  22069611.110 9 -30015649.044 9 -18429486.881 9  22069609.650 9  22069610.300 9
  20799454.002 9 -39469959.551 9 -29376564.037 9  20799454.418 9  20799453.068 9
  22522642.358 9 -31895228.438 9 -19773197.249 9  22522641.984 9  22522641.441 9
  20806893.460 9 -32975767.511 9 -25226373.654 9  20806894.088 9  20806892.574 9
 10  3 18  5  1 17.0000000  0  9G19G07G16G24G21G22G06G18G03
  22853762.215 8 -17209500.985 8 -13248755.821 8  22853761.212 8  22853761.423 8
  24752541.994 7  -3744619.436 7  -2701159.157 6  24752543.365 6  24752542.047 6
  21279790.523 9 -36847237.340 9 -28464684.519 9  21279790.547 9  21279789.452 9
  23708145.740 7 -35077977.083 7 -22382618.771 7  23708147.275 7  23708144.721 7
  22980446.131 8 -38625018.827 8 -26018358.138 8  22980445.509 8  22980445.118 8
  22069014.926 9 -30018782.166 9 -18431928.273 9  22069013.448 9  22069014.125 9
  20799054.893 9 -39472056.357 9 -29378197.910 9  20799055.419 9  20799054.081 9
  22522444.957 9 -31896265.768 9 -19774005.558 9  22522444.574 9  22522444.066 8
  20806363.227 9 -32978553.928 9 -25228544.888 9  20806363.844 9  20806362.338 9
 10  3 18  5  1 18.0000000  0  9G19G07G16G24G21G22G06G18G03
  22853069.992 8 -17213139.413 8 -13251590.959 8  22853068.873 8  22853069.003 8
  24752166.727 7  -3746591.990 7  -2702696.211 6  24752167.927 6  24752166.699 6
  21279895.967 9 -36846684.133 9 -28464253.448 9  21279895.821 9  21279894.707 9
  23708508.096 7 -35076074.105 7 -22381135.931 7  23708509.372 7  23708506.816 7
  22980674.371 8 -38623819.556 8 -26017423.642 8  22980673.711 8  22980673.329 8
  22068418.895 9 -30021914.742 9 -18434369.242 9  22068417.361 9  22068418.004 9
  20798656.001 9 -39474152.811 9 -29379831.511 9  20798656.482 9  20798655.154 9
  22522247.611 9 -31897302.489 9 -19774813.392 8  22522247.282 8  22522246.796 8
  20805833.104 9 -32981339.959 9 -25230715.820 9  20805833.687 9  20805832.181 9
 10  3 18  5  1 19.0000000  0  9G19G07G16G24G21G22G06G18G03
  22852377.321 8 -17216777.706 8 -13254425.991 8  22852376.558 8  22852376.610 8
  24751791.930 7  -3748563.922 7  -2704232.782 5  24751792.594 5  24751791.423 6
  21280001.272 9 -36846130.375 9 -28463821.949 9  21280001.193 9  21280000.085 9
  23708870.468 7 -35074170.977 7 -22379652.975 7  23708871.565 7  23708868.945 7
  22980902.498 8 -38622620.085 8 -26016488.990 8  22980901.966 8  22980901.574 8
  22067822.871 9 -30025046.800 9 -18436809.806 9  22067821.369 9  22067821.956 9
  20798257.055 9 -39476248.968 9 -29381464.880 9  20798257.623 9  20798256.279 9
  22522050.359 9 -31898338.601 9 -19775620.751 8  22522050.103 8  22522049.627 8
  20805302.968 9 -32984125.624 9 -25232886.467 9  20805303.623 9  20805302.103 9
 10  3 18  5  1 20.0000000  0  9G19G07G16G24G21G22G06G18G03
  22851685.052 8 -17220415.858 8 -13257260.913 8  22851684.250 8  22851684.309 8
  24751416.622 7  -3750535.263 7  -2705768.892 5  24751417.343 5  24751416.213 6
  21280106.784 9 -36845576.094 9 -28463390.042 9  21280106.660 9  21280105.580 9
  23709232.653 7 -35072267.793 7 -22378169.975 7  23709233.754 7  23709231.091 7
  22981130.847 8 -38621420.435 8 -26015554.198 8  22981130.257 8  22981129.838 8
  22067226.911 9 -30028178.377 9 -18439249.996 9  22067225.438 9  22067226.030 9
  20797858.200 9 -39478344.870 9 -29383098.050 9  20797858.816 9  20797857.454 9
  22521853.315 9 -31899374.129 9 -19776427.656 8  22521853.048 8  22521852.564 8
  20804772.872 9 -32986910.967 9 -25235056.864 9  20804773.617 9  20804772.082 9
 10  3 18  5  1 21.0000000  0  9G19G07G16G24G21G22G06G18G03
  22850992.827 8 -17224053.812 8 -13260095.681 8  22850991.978 8  22850992.045 8
  24751042.212 7  -3752505.926 7  -2707304.472 5  24751042.282 5  24751041.112 6
  21280212.431 9 -36845021.249 9 -28462957.696 9  21280212.215 9  21280211.200 9
  23709594.628 7 -35070364.456 7 -22376686.856 7  23709595.915 7  23709593.288 7
  22981359.159 8 -38620220.561 8 -26014619.232 8  22981358.594 8  22981358.141 8
  22066630.966 9 -30031309.398 9 -18441689.753 9  22066629.598 9  22066630.225 9
  20797459.418 9 -39480440.443 9 -29384730.964 9  20797460.071 9  20797458.685 9
  22521656.308 9 -31900409.048 9 -19777234.086 8  22521656.116 8  22521655.606 9
  20804242.881 9 -32989695.931 9 -25237226.967 9  20804243.688 9  20804242.143 9
 10  3 18  5  1 22.0000000  0  9G19G07G16G24G21G22G06G18G03
  22850300.569 8 -17227691.594 8 -13262930.315 8  22850299.759 8  22850299.807 8
  24750667.015 7  -3754475.925 7  -2708839.539 5  24750667.406 5  24750666.115 6
  21280318.190 9 -36844465.835 9 -28462524.905 9  21280317.865 9  21280316.946 9
  23709956.309 7 -35068460.978 7 -22375203.624 7  23709958.115 7  23709955.516 7
  22981587.558 8 -38619020.449 8 -26013684.080 8  22981586.975 8  22981586.477 8
  22066035.100 9 -30034439.881 9 -18444129.090 9  22066033.910 9  22066034.513 9
  20797060.784 9 -39482535.669 9 -29386363.607 9  20797061.390 9  20797059.979 9
  22521459.428 9 -31901443.315 9 -19778040.008 8  22521459.329 8  22521458.762 9
  20803712.959 9 -32992480.506 9 -25239396.765 9  20803713.820 9  20803712.241 9
 10  3 18  5  1 23.0000000  0  9G19G07G16G24G21G22G06G18G03
  22849608.210 8 -17231329.238 8 -13265764.842 8  22849607.573 8  22849607.600 8
  24750292.258 7  -3756445.360 7  -2710374.167 5  24750292.609 5  24750291.256 6
  21280423.877 9 -36843909.898 9 -28462091.707 9  21280423.624 9  21280422.786 9
  23710318.352 7 -35066557.433 7 -22373720.341 7  23710320.389 7  23710317.759 7
  22981815.662 8 -38617820.173 8 -26012748.799 8  22981815.384 8  22981814.871 8
  22065439.392 9 -30037569.868 9 -18446568.040 9  22065438.335 9  22065438.886 9
  20796662.176 9 -39484630.614 9 -29387996.032 9  20796662.731 9  20796661.349 9
  22521262.729 8 -31902477.011 8 -19778845.486 9  22521262.669 9  22521262.014 9
  20803183.120 9 -32995264.748 9 -25241566.304 9  20803183.992 9  20803182.348 9
 10  3 18  5  1 24.0000000  0  9G19G07G16G24G21G22G06G18G03
  22848916.254 8 -17234966.724 8 -13268599.246 8  22848915.393 8  22848915.420 8
  24749917.654 7  -3758414.137 7  -2711908.279 6  24749917.897 6  24749916.540 6
  21280529.762 9 -36843353.414 9 -28461658.083 9  21280529.493 9  21280528.721 9
  23710680.657 7 -35064653.738 7 -22372236.944 7  23710682.687 7  23710680.027 7
  22982043.921 8 -38616619.697 8 -26011813.361 8  22982043.831 8  22982043.326 8
  22064844.012 9 -30040699.338 9 -18449006.588 9  22064842.836 9  22064843.375 9
  20796263.621 9 -39486725.256 9 -29389628.220 9  20796264.128 9  20796262.777 9
  22521066.115 8 -31903510.102 8 -19779650.491 8  22521066.125 8  22521065.408 9
  20802653.456 9 -32998048.633 9 -25243735.564 9  20802654.247 9  20802652.551 9
 10  3 18  5  1 25.0000000  0  9G19G07G16G24G21G22G06G18G03
  22848224.190 8 -17238604.002 8 -13271433.488 8  22848223.252 8  22848223.279 8
  24749543.099 7  -3760382.291 7  -2713441.908 6  24749543.314 6  24749542.033 6
  21280635.763 9 -36842796.347 9 -28461224.006 9  21280635.487 9  21280634.749 9
  23711042.997 7 -35062749.917 7 -22370753.448 7  23711044.961 7  23711042.297 7
  22982272.393 8 -38615418.986 8 -26010877.742 8  22982272.314 8  22982271.837 8
  22064248.627 9 -30043828.256 9 -18451444.705 9  22064247.430 9  22064247.976 9
  20795865.124 9 -39488819.567 9 -29391260.150 9  20795865.585 9  20795864.307 9
  22520869.618 8 -31904542.564 8 -19780455.007 8  22520869.704 8  22520868.945 9
  20802123.718 9 -33000832.133 9 -25245904.525 9  20802124.597 9  20802122.863 9
 10  3 18  5  1 26.0000000  0  9G19G07G16G24G21G22G06G18G03
  22847532.268 8 -17242241.160 8 -13274267.635 8  22847531.133 8  22847531.142 8
  24749168.424 7  -3762349.770 7  -2714975.009 6  24749168.867 6  24749167.732 6
  21280741.888 9 -36842238.732 9 -28460789.500 9  21280741.591 9  21280740.863 9
  23711405.186 7 -35060845.973 7 -22369269.855 7  23711407.262 7  23711404.593 7
  22982501.077 8 -38614218.062 8 -26009941.958 8  22982500.827 8  22982500.396 8
  22063653.378 9 -30046956.662 9 -18453882.424 9  22063652.116 9  22063652.650 9
  20795466.617 9 -39490913.568 9 -29392891.839 9  20795467.101 9  20795465.896 9
  22520673.250 8 -31905574.416 8 -19781259.048 8  22520673.373 8  22520672.608 9
  20801594.106 9 -33003615.262 9 -25248073.196 9  20801595.009 9  20801593.254 9
 10  3 18  5  1 27.0000000  0  9G19G07G16G24G21G22G06G18G03
  22846840.166 8 -17245878.196 8 -13277101.689 8  22846839.042 8  22846839.028 8
  24748793.348 7  -3764316.720 7  -2716507.694 6  24748794.561 6  24748793.465 6
  21280848.008 9 -36841680.655 9 -28460354.636 9  21280847.782 9  21280847.065 9
  23711767.418 7 -35058942.018 7 -22367786.257 7  23711769.574 7  23711766.894 7
  22982729.844 8 -38613017.043 8 -26009006.098 8  22982729.374 8  22982728.950 8
  22063058.186 9 -30050084.613 9 -18456319.787 9  22063056.885 9  22063057.401 9
  20795068.189 9 -39493007.343 9 -29394523.353 9  20795068.684 9  20795067.460 9
  22520477.003 8 -31906605.742 8 -19782062.678 8  22520477.103 8  22520476.369 9
  20801064.535 9 -33006398.125 9 -25250241.660 9  20801065.456 9  20801063.704 9
 10  3 18  5  1 28.0000000  0  9G19G07G16G24G21G22G06G18G03
  22846148.247 8 -17249515.106 8 -13279935.644 8  22846146.994 8  22846146.915 8
  24748419.313 7  -3766283.020 7  -2718039.875 6  24748420.427 6  24748419.268 6
  21280954.294 9 -36841122.051 9 -28459919.359 9  21280954.075 9  21280953.371 9
  23712129.757 7 -35057037.947 7 -22366302.564 7  23712131.894 7  23712129.205 6
  22982958.432 8 -38611815.826 8 -26008070.085 8  22982957.970 8  22982957.518 8
  22062463.138 9 -30053212.074 9 -18458756.770 9  22062461.755 9  22062462.262 9
  20794669.756 9 -39495100.842 9 -29396154.650 9  20794670.324 9  20794669.079 9
  22520280.870 8 -31907636.478 8 -19782865.849 8  22520280.960 8  22520280.217 9
  20800535.144 9 -33009180.642 9 -25252409.855 9  20800535.964 9  20800534.219 9
 10  3 18  5  1 29.0000000  0  9G19G07G16G24G21G22G06G18G03
  22845456.366 8 -17253151.810 8 -13282769.439 8  22845454.988 8  22845454.843 8
  24748044.941 7  -3768248.722 7  -2719571.589 6  24748046.380 6  24748045.256 6
  21281060.681 9 -36840562.857 9 -28459483.624 9  21281060.521 9  21281059.789 9
  23712492.015 7 -35055133.701 7 -22364818.733 7  23712494.190 7  23712491.518 7
  22983186.905 8 -38610614.364 8 -26007133.880 8  22983186.591 8  22983186.134 8
  22061868.076 9 -30056338.972 9 -18461193.313 9  22061866.734 9  22061867.234 9
  20794271.539 9 -39497193.995 9 -29397785.679 9  20794272.020 9  20794270.708 9
  22520084.758 8 -31908666.566 8 -19783668.515 9  22520084.952 9  22520084.166 9
  20800005.682 9 -33011962.766 9 -25254577.743 9  20800006.532 9  20800004.795 9
 10  3 18  5  1 30.0000000  0  9G19G07G16G24G21G22G06G18G03
  22844764.471 8 -17256788.365 8 -13285603.117 8  22844762.962 8  22844762.811 8
  24747671.300 7  -3770213.759 7  -2721102.787 6  24747672.432 6  24747671.433 6
  21281167.281 9 -36840003.114 9 -28459047.461 9  21281167.109 9  21281166.310 9
  23712854.471 7 -35053229.357 7 -22363334.829 7  23712856.508 7  23712853.853 7
  22983415.645 8 -38609412.692 8 -26006197.511 8  22983415.222 8  22983414.787 8
  22061273.324 9 -30059465.342 9 -18463629.446 9  22061271.793 9  22061272.323 9
  20793873.347 9 -39499286.837 9 -29399416.464 9  20793873.775 9  20793872.402 9
  22519888.789 8 -31909696.051 8 -19784470.710 9  22519889.037 9  22519888.222 9
  20799476.323 9 -33014744.520 9 -25256745.343 9  20799477.178 9  20799475.450 9
 10  3 18  5  1 31.0000000  0  9G19G07G16G24G21G22G06G18G03
  22844072.365 8 -17260424.783 8 -13288436.689 8  22844070.959 8  22844070.806 8
  24747297.428 7  -3772178.194 7  -2722633.515 6  24747298.613 6  24747297.647 6
  21281273.872 9 -36839442.846 9 -28458610.889 9  21281273.775 9  21281272.934 9
  23713216.796 7 -35051324.951 7 -22361850.875 7  23713218.824 7  23713216.182 7
  22983644.206 8 -38608210.846 8 -26005261.007 8  22983643.892 8  22983643.466 8
  22060678.459 9 -30062591.220 9 -18466065.194 9  22060676.934 9  22060677.514 9
  20793475.222 9 -39501379.375 9 -29401047.013 9  20793475.550 9  20793474.231 9
  22519692.893 8 -31910724.948 8 -19785272.449 9  22519693.220 9  22519692.394 8
  20798947.113 9 -33017525.947 9 -25258912.688 9  20798947.901 9  20798946.176 9
 10  3 18  5  1 32.0000000  0  9G19G07G16G24G21G22G06G18G03
  22843380.332 8 -17264061.002 8 -13291270.104 8  22843379.022 8  22843378.853 8
  24746923.642 7  -3774141.982 7  -2724163.739 5  24746924.939 5  24746923.924 6
  21281380.646 9 -36838882.016 9 -28458173.878 9  21281380.513 9  21281379.661 9
  23713579.218 7 -35049420.372 7 -22360366.786 7  23713581.188 7  23713578.554 7
  22983872.948 8 -38607008.783 8 -26004324.334 8  22983872.609 8  22983872.177 8
  22060083.748 9 -30065716.554 9 -18468500.518 9  22060082.201 9  22060082.798 9
  20793077.109 9 -39503471.600 9 -29402677.318 9  20793077.390 9  20793076.124 9
  22519497.260 8 -31911753.223 8 -19786073.702 8  22519497.542 8  22519496.687 8
  20798418.034 9 -33020306.996 9 -25261079.739 9  20798418.695 9  20798416.961 9
 10  3 18  5  1 33.0000000  0  9G19G07G16G24G21G22G06G18G03
  22842688.461 8 -17267697.091 8 -13294103.418 8  22842687.106 8  22842686.920 8
  24746550.565 7  -3776105.170 7  -2725693.495 6  24746551.359 6  24746550.303 6
  21281487.560 9 -36838320.659 9 -28457736.457 9  21281487.341 9  21281486.507 9
  23713941.583 7 -35047515.710 7 -22358882.636 7  23713943.643 7  23713940.975 7
  22984101.711 8 -38605806.522 8 -26003387.507 8  22984101.370 8  22984100.956 8
  22059489.003 9 -30068841.391 9 -18470935.456 9  22059487.570 9  22059488.169 9
  20792678.986 9 -39505563.530 9 -29404307.393 9  20792679.290 9  20792678.060 9
  22519301.623 8 -31912780.914 8 -19786874.501 9  22519302.002 9  22519301.100 8
  20797888.862 9 -33023087.701 9 -25263246.521 9  20797889.561 9  20797887.791 9
 10  3 18  5  1 34.0000000  0  9G19G07G16G24G21G22G06G18G03
  22841996.424 8 -17271333.027 8 -13296936.614 8  22841995.217 8  22841995.005 8
  24746177.046 7  -3778067.734 7  -2727222.765 6  24746177.870 6  24746176.787 6
  21281594.558 9 -36837758.766 9 -28457298.619 9  21281594.248 9  21281593.462 9
  23714304.154 7 -35045610.957 7 -22357398.413 7  23714306.109 7  23714303.416 7
  22984330.553 8 -38604604.095 8 -26002450.551 8  22984330.167 8  22984329.791 8
  22058894.454 9 -30071965.729 9 -18473370.004 9  22058893.027 9  22058893.641 9
  20792280.961 9 -39507655.179 9 -29405937.249 9  20792281.242 9  20792280.047 9
  22519106.008 8 -31913808.016 8 -19787674.841 9  22519106.566 9  22519105.644 8
  20797359.773 9 -33025868.068 9 -25265413.040 9  20797360.473 9  20797358.701 9
 10  3 18  5  1 35.0000000  0  9G19G07G16G24G21G22G06G18G03
  22841304.349 8 -17274968.821 8 -13299769.699 8  22841303.346 8  22841303.111 8
  24745803.704 7  -3780029.668 7  -2728751.539 6  24745804.501 6  24745803.377 6
  21281701.650 9 -36837196.340 9 -28456860.364 9  21281701.269 9  21281700.519 9
  23714666.721 7 -35043706.081 7 -22355914.095 7  23714668.580 7  23714665.894 7
  22984559.455 8 -38603401.469 8 -26001513.439 8  22984559.005 8  22984558.677 8
  22058299.924 9 -30075089.551 9 -18475804.151 9  22058298.566 9  22058299.199 9
  20791882.954 9 -39509746.513 9 -29407566.860 9  20791883.227 9  20791882.084 9
  22518910.683 8 -31914834.519 8 -19788474.713 9  22518911.225 9  22518910.307 8
  20796830.733 9 -33028648.102 9 -25267579.299 9  20796831.408 9  20796829.687 9
 10  3 18  5  1 36.0000000  0  9G19G07G16G24G21G22G06G18G03
  22840612.755 8 -17278604.461 8 -13302602.664 8  22840611.505 8  22840611.281 8
  24745430.536 7  -3781990.986 7  -2730279.837 6  24745431.252 6  24745430.074 6
  21281808.824 9 -36836633.363 9 -28456421.681 9  21281808.403 9  21281807.679 9
  23715029.166 7 -35041801.114 7 -22354429.708 7  23715031.075 7  23715028.385 7
  22984788.613 8 -38602198.640 8 -26000576.170 8  22984787.885 8  22984787.617 8
  22057705.411 9 -30078212.859 9 -18478237.898 9  22057704.216 9  22057704.850 9
  20791484.978 9 -39511837.554 9 -29409196.242 9  20791485.268 9  20791484.177 9
  22518715.568 8 -31915860.412 8 -19789274.111 9  22518715.993 9  22518715.070 8
  20796301.746 9 -33031427.774 9 -25269745.277 9  20796302.421 9  20796300.735 9
 10  3 18  5  1 37.0000000  0  9G19G07G16G24G21G22G06G18G03
  22839920.939 8 -17282239.968 8 -13305435.526 8  22839919.687 8  22839919.476 8
  24745057.249 7  -3783951.743 7  -2731807.698 6  24745058.108 6  24745056.875 6
  21281915.992 9 -36836069.881 9 -28455982.604 9  21281915.641 9  21281914.929 9
  23715391.784 7 -35039896.070 7 -22352945.259 7  23715393.628 7  23715390.888 7
  22985017.650 8 -38600995.649 8 -25999638.775 8  22985016.799 8  22985016.554 8
  22057111.013 9 -30081335.687 9 -18480671.270 9  22057109.963 9  22057110.588 9
  20791087.045 9 -39513928.308 9 -29410825.401 9  20791087.354 9  20791086.352 9
  22518520.507 8 -31916885.754 8 -19790073.079 9  22518520.863 9  22518519.926 8
  20795772.824 9 -33034207.116 9 -25271910.998 9  20795773.505 9  20795771.833 9
 10  3 18  5  1 38.0000000  0  9G19G07G16G24G21G22G06G18G03
  22839228.682 8 -17285875.356 8 -13308268.295 8  22839227.891 8  22839227.667 8
  24744684.135 7  -3785911.872 7  -2733335.072 6  24744685.079 6  24744683.793 6
  21282023.290 9 -36835505.886 9 -28455543.127 9  21282022.989 9  21282022.275 9
  23715754.364 7 -35037990.937 7 -22351460.740 7  23715756.197 7  23715753.405 7
  22985246.429 8 -38599792.493 8 -25998701.250 8  22985245.746 8  22985245.492 8
  22056516.743 9 -30084458.026 9 -18483104.260 9  22056515.804 9  22056516.443 9
  20790689.232 9 -39516018.811 9 -29412454.364 9  20790689.490 9  20790688.575 9
  22518325.663 8 -31917910.505 8 -19790871.587 9  22518325.850 9  22518324.917 8
  20795244.052 9 -33036986.137 9 -25274076.468 9  20795244.673 9  20795242.997 9
 10  3 18  5  1 39.0000000  0  9G19G07G16G24G21G22G06G18G03
  22838536.847 8 -17289510.620 8 -13311100.968 8  22838536.115 8  22838535.880 8
  24744310.563 7  -3787871.423 7  -2734861.995 6  24744312.138 6  24744310.883 6
  21282130.726 9 -36834941.375 9 -28455103.248 9  21282130.426 9  21282129.713 9
  23716117.303 7 -35036085.718 7 -22349976.153 7  23716118.788 7  23716115.930 7
  22985475.431 8 -38598589.177 8 -25997763.602 8  22985474.706 8  22985474.459 8
  22055922.633 9 -30087579.888 9 -18485536.879 9  22055921.736 9  22055922.396 9
  20790291.552 9 -39518109.017 9 -29414083.095 9  20790291.719 9  20790290.838 9
  22518131.042 8 -31918934.695 8 -19791669.657 9  22518130.938 9  22518130.023 8
  20794715.285 9 -33039764.822 9 -25276241.677 9  20794715.941 9  20794714.234 9
 10  3 18  5  1 40.0000000  0  9G19G07G16G24G21G22G06G18G03
  22837845.306 8 -17293145.737 8 -13313933.525 8  22837844.375 8  22837844.128 8
  24743937.762 7  -3789830.369 7  -2736388.445 6  24743939.294 6  24743938.149 6
  21282238.208 9 -36834376.338 9 -28454662.960 9  21282237.952 9  21282237.248 9
  23716479.883 7 -35034180.428 7 -22348491.511 7  23716481.376 7  23716478.477 7
  22985704.727 8 -38597385.662 8 -25996825.797 8  22985703.692 8  22985703.463 8
  22055328.596 9 -30090701.235 9 -18487969.097 9  22055327.746 9  22055328.427 9
  20789893.778 9 -39520198.936 9 -29415711.604 9  20789894.002 9  20789893.151 9
  22517936.180 9 -31919958.293 9 -19792467.267 9  22517936.132 9  22517935.241 8
  20794186.629 9 -33042543.170 9 -25278406.623 9  20794187.271 9  20794185.543 9
 10  3 18  5  1 41.0000000  0  9G19G07G16G24G21G22G06G18G03
  22837153.777 8 -17296780.698 8 -13316765.962 8  22837152.667 8  22837152.411 8
  24743564.862 7  -3791788.669 7  -2737914.390 6  24743566.636 6  24743565.556 6
  21282345.808 9 -36833810.738 9 -28454222.232 9  21282345.574 9  21282344.873 9
  23716842.371 7 -35032274.986 7 -22347006.752 7  23716843.880 7  23716841.062 7
  22985933.696 8 -38596181.925 8 -25995887.820 8  22985932.729 8  22985932.515 8
  22054734.667 9 -30093822.061 9 -18490400.910 9  22054733.839 9  22054734.544 9
  20789496.172 9 -39522288.546 9 -29417339.871 9  20789496.369 9  20789495.536 9
  22517741.601 9 -31920981.256 9 -19793264.381 9  22517741.433 9  22517740.572 9
  20793657.922 9 -33045321.154 9 -25280571.284 9  20793658.669 9  20793656.931 9
 10  3 18  5  1 42.0000000  0  9G19G07G16G24G21G22G06G18G03
  22836462.273 8 -17300415.491 8 -13319598.267 8  22836460.965 8  22836460.777 8
  24743192.525 7  -3793746.333 7  -2739439.840 6  24743194.156 6  24743193.091 6
  21282453.531 9 -36833244.595 9 -28453781.082 9  21282453.284 9  21282452.589 9
  23717204.783 7 -35030369.453 7 -22345521.923 7  23717206.404 7  23717203.663 7
  22986162.520 8 -38594978.015 8 -25994949.708 8  22986161.814 8  22986161.615 8
  22054140.840 9 -30096942.372 9 -18492832.320 9  22054140.047 9  22054140.787 9
  20789098.665 9 -39524377.871 9 -29418967.917 9  20789098.785 9  20789097.969 9
  22517547.122 9 -31922003.628 9 -19794061.035 9  22517546.862 9  22517546.003 9
  20793129.332 9 -33048098.773 9 -25282735.662 9  20793130.125 9  20793128.386 9
 10  3 18  5  1 43.0000000  0  9G19G07G16G24G21G22G06G18G03
  22835770.525 8 -17304050.158 8 -13322430.474 8  22835769.290 8  22835769.165 8
  24742820.202 7  -3795703.403 7  -2740964.825 6  24742821.800 6  24742820.671 6
  21282561.508 9 -36832677.917 9 -28453339.514 9  21282561.112 9  21282560.460 9
  23717567.350 7 -35028463.787 7 -22344036.989 7  23717568.952 7  23717566.279 7
  22986391.567 8 -38593773.910 8 -25994011.443 8  22986390.938 8  22986390.752 8
  22053547.178 9 -30100062.174 9 -18495263.335 9  22053546.350 9  22053547.127 9
  20788701.091 9 -39526466.903 9 -29420595.735 9  20788701.241 9  20788700.443 9
  22517352.886 9 -31923025.413 9 -19794857.231 9  22517352.420 9  22517351.536 9
  20792600.820 9 -33050876.043 9 -25284899.768 9  20792601.622 9  20792599.896 9
 10  3 18  5  1 44.0000000  0  9G19G07G16G24G21G22G06G18G03
  22835079.015 8 -17307684.657 8 -13325262.550 8  22835077.636 8  22835077.517 8
  24742448.154 7  -3797659.836 7  -2742489.315 6  24742449.581 6  24742448.313 6
  21282669.395 9 -36832110.720 9 -28452897.542 9  21282669.042 9  21282668.466 9
  23717929.926 7 -35026558.055 7 -22342552.002 7  23717931.520 7  23717928.921 7
  22986620.547 8 -38592569.621 8 -25993073.036 8  22986620.097 8  22986619.921 8
  22052953.768 9 -30103181.468 9 -18497693.953 9  22052952.748 9  22052953.553 9
  20788303.701 9 -39528555.641 9 -29422223.323 9  20788303.751 9  20788302.970 9
  22517158.562 9 -31924046.607 9 -19795652.968 8  22517158.081 8  22517157.179 8
  20792072.444 9 -33053652.980 9 -25287063.614 9  20792073.164 9  20792071.467 9
 10  3 18  5  1 45.0000000  0  9G19G07G16G24G21G22G06G18G03
  22834387.424 8 -17311318.982 8 -13328094.491 8  22834386.019 8  22834385.910 8
  24742076.372 7  -3799615.649 7  -2744013.323 6  24742077.421 6  24742076.154 6
  21282777.548 9 -36831542.949 9 -28452455.124 9  21282777.105 9  21282776.555 9
  23718292.695 7 -35024652.158 7 -22341066.887 7  23718294.182 7  23718291.638 7
  22986849.487 8 -38591365.098 8 -25992134.446 8  22986849.276 8  22986849.130 8
  22052360.326 9 -30106300.226 9 -18500124.153 9  22052359.246 9  22052360.076 9
  20787906.160 9 -39530644.054 9 -29423850.658 9  20787906.371 9  20787905.516 9
  22516964.456 9 -31925067.154 9 -19796448.200 8  22516963.854 8  22516962.943 8
  20791544.132 9 -33056429.532 9 -25289227.161 9  20791544.756 9  20791543.105 9
 10  3 18  5  1 46.0000000  0  9G19G07G16G24G21G22G06G18G03
  22833695.804 8 -17314953.097 8 -13330926.267 8  22833694.467 8  22833694.379 8
  24741704.601 7  -3801570.738 7  -2745536.766 6  24741705.325 6  24741704.192 6
  21282885.607 9 -36830974.583 9 -28452012.241 9  21282885.293 9  21282884.729 9
  23718655.370 7 -35022746.125 7 -22339581.664 7  23718656.875 7  23718654.376 7
  22987078.707 8 -38590160.318 8 -25991195.656 8  22987078.486 8  22987078.393 8
  22051766.994 9 -30109418.406 9 -18502553.903 9  22051765.869 9  22051766.671 9
  20787508.823 9 -39532732.093 9 -29425477.701 9  20787509.065 9  20787508.137 9
  22516770.377 9 -31926087.077 9 -19797242.945 8  22516769.753 8  22516768.836 8
  20791015.860 9 -33059205.666 9 -25291390.381 9  20791016.436 9  20791014.811 9
 10  3 18  5  1 47.0000000  0  9G19G07G16G24G21G22G06G18G03
  22833004.170 8 -17318587.149 8 -13333757.996 8  22833002.931 8  22833002.865 8
  24741332.823 7  -3803525.334 7  -2747059.827 6  24741333.311 6  24741332.275 6
  21282993.822 9 -36830405.759 9 -28451569.001 9  21282993.533 9  21282992.994 9
  23719018.026 7 -35020840.078 7 -22338096.433 7  23719019.608 7  23719017.110 7
  22987307.951 8 -38588955.448 8 -25990256.796 8  22987307.724 8  22987307.669 8
  22051173.730 9 -30112536.156 9 -18504983.319 9  22051172.584 9  22051173.336 9
  20787111.403 9 -39534819.925 9 -29427104.583 9  20787111.796 9  20787110.816 9
  22516576.376 9 -31927106.462 9 -19798037.271 8  22516575.757 8  22516574.837 9
  20790487.660 9 -33061981.557 9 -25293553.413 9  20790488.189 9  20790486.553 9
 10  3 18  5  1 48.0000000  0  9G19G07G16G24G21G22G06G18G03
  22832312.562 8 -17322221.013 8 -13336589.577 8  22832311.443 8  22832311.353 8
  24740961.622 7  -3805479.267 7  -2748582.374 6  24740961.402 6  24740960.436 6
  21283102.197 9 -36829836.380 9 -28451125.330 9  21283101.842 9  21283101.370 9
  23719380.784 7 -35018933.898 7 -22336611.099 7  23719382.368 7  23719379.852 7
  22987537.348 8 -38587750.366 8 -25989317.772 8  22987537.021 8  22987536.991 8
  22050580.571 9 -30115653.377 9 -18507412.322 9  22050579.408 9  22050580.161 9
  20786714.124 9 -39536907.444 9 -29428731.220 9  20786714.586 9  20786713.555 9
  22516382.393 9 -31928125.236 9 -19798831.121 9  22516381.887 9  22516380.996 9
  20789959.472 9 -33064757.054 9 -25295716.136 9  20789960.007 9  20789958.394 9
 10  3 18  5  1 49.0000000  0  9G19G07G16G24G21G22G06G18G03
  22831621.250 8 -17325854.733 8 -13339421.046 8  22831619.986 8  22831619.871 8
  24740589.792 7  -3807432.597 7  -2750104.449 6  24740589.635 6  24740588.709 6
  21283210.594 9 -36829266.438 9 -28450681.219 9  21283210.256 9  21283209.859 9
  23719743.355 7 -35017027.583 7 -22335125.660 7  23719745.170 7  23719742.564 7
  22987766.732 8 -38586545.069 8 -25988378.580 8  22987766.346 8  22987766.342 8
  22049987.430 9 -30118770.058 9 -18509840.904 9  22049986.335 9  22049987.106 9
  20786316.978 9 -39538994.630 9 -29430357.599 9  20786317.398 9  20786316.396 9
  22516188.627 9 -31929143.407 9 -19799624.502 8  22516188.144 8  22516187.306 9
  20789431.477 9 -33067532.192 9 -25297878.581 9  20789431.866 9  20789430.329 9
 10  3 18  5  1 50.0000000  0  9G19G07G16G24G21G22G06G18G03
  22830929.808 8 -17329488.288 8 -13342252.386 8  22830928.552 8  22830928.445 8
  24740218.385 7  -3809385.309 7  -2751626.040 6  24740218.022 6  24740217.105 6
  21283319.117 9 -36828695.989 9 -28450236.713 9  21283318.779 9  21283318.454 9
  23720106.155 7 -35015121.194 7 -22333640.162 7  23720107.982 7  23720105.304 7
  22987996.119 8 -38585339.592 8 -25987439.247 8  22987995.704 8  22987995.727 8
  22049394.286 9 -30121886.240 9 -18512269.097 9  22049393.372 9  22049394.122 9
  20785919.878 9 -39541081.558 9 -29431983.776 9  20785920.266 9  20785919.290 9
  22515995.043 9 -31930160.996 9 -19800417.429 8  22515994.509 8  22515993.680 9
  20788903.570 9 -33070306.997 9 -25300040.766 9  20788903.797 9  20788902.333 9
 10  3 18  5  1 51.0000000  0  9G19G07G16G24G21G22G06G18G03
  22830238.547 8 -17333121.681 8 -13345083.601 8  22830237.149 8  22830237.049 8
  24739847.167 7  -3811337.392 7  -2753147.142 6  24739846.518 6  24739845.601 6
  21283427.627 9 -36828124.969 9 -28449791.762 9  21283427.412 9  21283427.110 9
  23720469.218 8 -35013214.690 8 -22332154.576 7  23720470.836 7  23720468.145 7
  22988225.465 8 -38584133.906 8 -25986499.751 8  22988225.119 8  22988225.141 8
  22048801.330 9 -30125001.902 9 -18514696.886 9  22048800.517 9  22048801.228 9
  20785522.775 9 -39543168.159 9 -29433609.699 9  20785523.232 9  20785522.247 9
  22515801.620 9 -31931177.967 9 -19801209.874 9  22515800.991 9  22515800.134 9
  20788375.649 9 -33073081.426 9 -25302202.658 9  20788375.816 9  20788374.412 9
 10  3 18  5  1 52.0000000  0  9G19G07G16G24G21G22G06G18G03
  22829547.288 8 -17336754.921 8 -13347914.696 8  22829545.748 8  22829545.692 8
  24739475.596 7  -3813288.782 7  -2754667.705 6  24739475.132 6  24739474.209 6
  21283536.468 9 -36827553.403 9 -28449346.385 9  21283536.153 9  21283535.835 9
  23720831.966 7 -35011308.024 7 -22330668.862 7  23720833.708 7  23720831.001 7
  22988454.844 8 -38582928.020 8 -25985560.101 8  22988454.595 8  22988454.589 8
  22048208.568 9 -30128117.036 9 -18517124.264 9  22048207.735 9  22048208.425 9
  20785125.659 9 -39545254.435 9 -29435235.368 9  20785126.260 9  20785125.267 9
  22515608.287 9 -31932194.322 9 -19802001.839 9  22515607.587 9  22515606.734 9
  20787847.778 9 -33075855.491 9 -25304364.267 9  20787847.923 9  20787846.565 9
 10  3 18  5  1 53.0000000  0  9G19G07G16G24G21G22G06G18G03
  22828855.797 8 -17340387.991 8 -13350745.661 8  22828854.378 8  22828854.365 8
  24739104.363 7  -3815239.594 7  -2756187.818 6  24739103.896 6  24739102.902 6
  21283645.248 9 -36826981.297 9 -28448900.588 9  21283645.018 9  21283644.683 9
  23721194.752 7 -35009401.285 7 -22329183.091 7  23721196.567 7  23721193.837 7
  22988684.352 8 -38581721.948 8 -25984620.306 8  22988684.108 8  22988684.083 8
  22047615.745 9 -30131231.642 9 -18519551.229 9  22047615.044 9  22047615.723 9
  20784728.698 9 -39547340.414 9 -29436860.806 9  20784729.308 9  20784728.335 9
  22515414.958 9 -31933210.081 9 -19802793.339 8  22515414.285 8  22515413.469 9
  20787320.002 9 -33078629.211 9 -25306525.606 9  20787320.122 9  20787318.784 9
 10  3 18  5  1 54.0000000  0  9G19G07G16G24G21G22G06G18G03
  22828164.580 8 -17344020.891 8 -13353576.491 8  22828163.029 8  22828163.049 8
  24738732.822 7  -3817189.748 7  -2757707.419 6  24738732.833 6  24738731.698 6
  21283754.224 9 -36826408.648 9 -28448454.368 9  21283754.009 9  21283753.649 9
  23721557.725 8 -35007494.452 8 -22327697.249 7  23721559.441 7  23721556.684 7
  22988913.897 8 -38580515.675 8 -25983680.354 8  22988913.649 8  22988913.617 8
  22047023.283 9 -30134345.738 9 -18521977.797 9  22047022.440 9  22047023.110 9
  20784331.842 9 -39549426.101 9 -29438486.017 9  20784332.419 9  20784331.462 9
  22515221.892 9 -31934225.236 9 -19803584.369 8  22515221.085 8  22515220.324 9
  20786792.221 9 -33081402.572 9 -25308686.666 9  20786792.375 9  20786791.058 9
 10  3 18  5  1 55.0000000  0  9G19G07G16G24G21G22G06G18G03
  22827473.649 8 -17347653.681 8 -13356407.235 8  22827471.704 8  22827471.759 8
  24738361.681 7  -3819139.293 7  -2759226.546 6  24738361.924 6  24738360.657 6
  21283863.147 9 -36825835.473 9 -28448007.738 9  21283863.092 9  21283862.709 9
  23721920.732 8 -35005587.500 8 -22326211.311 7  23721922.329 7  23721919.533 7
  22989143.708 8 -38579309.216 8 -25982740.256 8  22989143.247 8  22989143.190 8
  22046430.960 9 -30137459.328 9 -18524403.971 9  22046429.936 9  22046430.599 9
  20783935.118 9 -39551511.485 9 -29440110.991 9  20783935.578 9  20783934.632 9
  22515028.843 9 -31935239.806 9 -19804374.943 8  22515027.983 8  22515027.298 8
  20786264.496 9 -33084175.591 9 -25310847.460 9  20786264.669 9  20786263.377 9
 10  3 18  5  1 56.0000000  0  9G19G07G16G24G21G22G06G18G03
  22826782.404 8 -17351286.272 8 -13359237.825 8  22826780.423 8  22826780.518 8
  24737990.837 7  -3821088.247 7  -2760745.215 6  24737991.171 6  24737989.769 6
  21283972.282 9 -36825261.720 9 -28447560.658 9  21283972.275 9  21283971.876 9
  23722283.877 8 -35003680.445 8 -22324725.293 7  23722285.229 7  23722282.412 7
  22989373.512 8 -38578102.525 8 -25981799.978 8  22989372.897 8  22989372.800 8
  22045838.689 9 -30140572.371 9 -18526829.720 9  22045837.528 9  22045838.197 9
  20783538.330 9 -39553596.559 9 -29441735.724 9  20783538.800 9  20783537.867 9
  22514835.966 9 -31936253.747 9 -19805165.027 8  22514835.007 8  22514834.370 9
  20785736.873 9 -33086948.230 9 -25313007.957 9  20785737.049 9  20785735.767 9
 10  3 18  5  1 57.0000000  0  9G19G07G16G24G21G22G06G18G03
  22826091.063 8 -17354918.715 8 -13362068.300 8  22826089.166 8  22826089.301 8
  24737620.192 7  -3823036.552 7  -2762263.377 6  24737620.477 6  24737619.024 6
  21284081.536 9 -36824687.454 9 -28447113.178 9  21284081.550 9  21284081.143 9
  23722646.810 8 -35001773.258 8 -22323239.172 7  23722648.093 7  23722645.322 7
  22989603.128 8 -38576895.669 8 -25980859.571 8  22989602.566 8  22989602.451 8
  22045246.435 9 -30143684.915 9 -18529255.078 9  22045245.216 9  22045245.897 9
  20783141.689 9 -39555681.333 9 -29443360.223 9  20783142.068 9  20783141.160 9
  22514643.009 9 -31937267.094 9 -19805954.648 8  22514642.155 8  22514641.541 8
  20785209.347 9 -33089720.530 9 -25315168.191 9  20785209.523 9  20785208.224 9
 10  3 18  5  1 58.0000000  0  9G19G07G16G24G21G22G06G18G03
  22825399.807 8 -17358551.026 8 -13364898.670 8  22825397.894 8  22825398.086 8
  24737249.465 7  -3824984.196 7  -2763781.020 6  24737249.836 6  24737248.418 6
  21284190.889 9 -36824112.653 9 -28446665.280 9  21284190.914 9  21284190.512 9
  23723009.939 8 -34999865.968 8 -22321752.970 7  23723010.992 7  23723008.256 7
  22989832.864 8 -38575688.616 8 -25979919.010 8  22989832.262 8  22989832.153 8
  22044654.253 9 -30146796.940 9 -18531680.032 9  22044653.013 9  22044653.677 9
  20782745.055 9 -39557765.828 9 -29444984.505 9  20782745.386 9  20782744.505 9
  22514450.272 9 -31938279.847 9 -19806743.806 8  22514449.421 8  22514448.816 8
  20784681.835 9 -33092492.478 9 -25317328.150 9  20784682.045 9  20784680.734 9
 10  3 18  5  1 59.0000000  0  9G19G07G16G24G21G22G06G18G03
  22824708.687 8 -17362183.173 8 -13367728.915 8  22824706.649 8  22824706.899 8
  24736878.644 7  -3826931.257 7  -2765298.207 6  24736879.325 6  24736877.901 6
  21284300.377 9 -36823537.320 9 -28446216.969 9  21284300.388 9  21284299.999 9
  23723372.997 8 -34997958.600 8 -22320266.709 7  23723373.978 7  23723371.199 7
  22990062.632 8 -38574481.387 8 -25978978.312 8  22990061.959 8  22990061.880 8
  22044062.139 9 -30149908.478 9 -18534104.606 9  22044060.910 9  22044061.542 9
  20782348.637 9 -39559850.021 9 -29446608.551 9  20782348.772 9  20782347.904 9
  22514257.525 9 -31939292.027 9 -19807532.518 8  22514256.803 8  22514256.195 8
  20784154.383 9 -33095264.090 9 -25319487.848 9  20784154.599 9  20784153.294 9
 10  3 18  5  2  0.0000000  0  9G19G07G16G24G21G22G06G18G03
  22824017.728 8 -17365815.155 8 -13370559.030 8  22824015.452 8  22824015.733 8
  24736508.268 7  -3828877.728 7  -2766814.935 6  24736508.944 6  24736507.474 6
  21284409.980 9 -36822961.448 9 -28445768.237 9  21284409.973 9  21284409.604 9
  23723736.059 8 -34996051.129 8 -22318780.370 7  23723736.978 7  23723734.186 7
  22990292.439 8 -38573273.950 8 -25978037.453 8  22990291.665 8  22990291.646 8
  22043470.248 9 -30153019.489 9 -18536528.770 9  22043468.879 9  22043469.519 9
  20781952.136 9 -39561933.924 9 -29448232.371 9  20781952.215 9  20781951.358 9
  22514065.193 9 -31940303.598 9 -19808320.755 9  22514064.295 9  22514063.670 8
  20783626.940 9 -33098035.346 9 -25321647.268 9  20783627.225 9  20783625.930 9
 10  3 18  5  2  1.0000000  0  9G19G07G16G24G21G22G06G18G03
  22823326.463 8 -17369447.002 8 -13373389.040 8  22823324.284 8  22823324.595 8
  24736138.037 7  -3830823.527 7  -2768331.141 6  24736138.698 6  24736137.193 6
  21284519.845 9 -36822385.015 9 -28445319.069 9  21284519.670 9  21284519.295 9
  23724099.048 8 -34994143.521 8 -22317293.922 7  23724099.966 7  23724097.283 7
  22990522.410 8 -38572066.313 8 -25977096.438 8  22990521.421 8  22990521.481 8
  22042878.315 9 -30156129.969 9 -18538952.520 9  22042876.935 9  22042877.598 9
  20781555.656 9 -39564017.514 9 -29449855.948 9  20781555.704 9  20781554.836 9
  22513872.840 9 -31941314.557 9 -19809108.516 9  22513871.908 9  22513871.254 8
  20783099.695 9 -33100806.225 9 -25323806.395 9  20783099.928 9  20783098.643 9
 10  3 18  5  2  2.0000000  0  9G19G07G16G24G21G22G06G18G03
  22822635.069 8 -17373078.718 8 -13376218.948 8  22822633.120 8  22822633.517 8
  24735767.661 7  -3832768.746 7  -2769846.896 6  24735768.569 6  24735767.037 6
  21284629.724 9 -36821808.073 9 -28444869.504 9  21284629.476 9  21284629.074 9
  23724462.188 7 -34992235.853 7 -22315807.427 7  23724462.964 7  23724460.368 7
  22990752.205 8 -38570858.512 8 -25976155.296 8  22990751.223 8  22990751.376 8
  22042286.401 9 -30159239.960 9 -18541375.889 9  22042285.095 9  22042285.763 9
  20781159.237 9 -39566100.822 9 -29451479.305 9  20781159.243 9  20781158.366 9
  22513680.651 9 -31942324.951 9 -19809895.836 9  22513679.616 9  22513678.963 8
  20782572.303 9 -33103576.786 9 -25325965.273 9  20782572.697 9  20782571.403 9
 10  3 18  5  2  3.0000000  0  9G19G07G16G24G21G22G06G18G03
  22821943.906 8 -17376710.260 8 -13379048.720 8  22821941.988 8  22821942.468 8
  24735397.780 7  -3834713.306 7  -2771362.136 6  24735398.578 6  24735397.042 6
  21284739.788 9 -36821230.579 9 -28444419.509 9  21284739.404 9  21284738.957 9
  23724825.460 8 -34990328.056 8 -22314320.832 7  23724826.019 7  23724823.423 7
  22990982.063 8 -38569650.506 8 -25975213.993 8  22990981.084 8  22990981.279 8
  22041694.606 9 -30162349.414 9 -18543798.840 9  22041693.363 9  22041694.027 9
  20780762.795 9 -39568183.799 9 -29453102.404 9  20780762.870 9  20780761.998 9
  22513488.602 9 -31943334.731 9 -19810682.677 8  22513487.427 8  22513486.802 8
  20782045.109 9 -33106346.972 9 -25328123.859 9  20782045.543 9  20782044.199 9
 10  3 18  5  2  4.0000000  0  9G19G07G16G24G21G22G06G18G03
  22821252.668 8 -17380341.644 8 -13381878.370 8  22821250.952 8  22821251.424 8
  24735027.807 7  -3836657.271 7  -2772876.914 6  24735028.716 6  24735027.196 6
  21284849.828 9 -36820652.546 9 -28443969.093 9  21284849.452 9  21284848.943 9
  23725188.608 8 -34988420.150 8 -22312834.151 7  23725189.084 7  23725186.497 7
  22991212.036 8 -38568442.302 8 -25974272.535 8  22991210.998 8  22991211.184 8
  22041103.072 9 -30165458.349 9 -18546221.387 9  22041101.722 9  22041102.391 9
  20780366.389 9 -39570266.477 9 -29454725.270 9  20780366.557 9  20780365.689 9
  22513296.660 9 -31944343.903 9 -19811469.045 8  22513295.366 8  22513294.767 9
  20781518.082 9 -33109116.800 9 -25330282.167 9  20781518.456 9  20781517.082 9
 10  3 18  5  2  5.0000000  0  9G19G07G16G24G21G22G06G18G03
  22820561.590 8 -17383972.884 8 -13384707.907 8  22820559.946 8  22820560.410 8
  24734657.953 7  -3838600.608 7  -2774391.201 6  24734658.915 6  24734657.397 6
  21284960.041 9 -36820073.975 9 -28443518.259 9  21284959.564 9  21284959.037 9
  23725551.475 8 -34986512.152 8 -22311347.399 7  23725552.166 7  23725549.622 7
  22991441.956 8 -38567233.914 8 -25973330.934 8  22991440.942 8  22991441.133 8
  22040511.664 9 -30168566.782 9 -18548643.541 9  22040510.178 9  22040510.857 9
  20779970.036 9 -39572348.856 9 -29456347.903 9  20779970.313 9  20779969.414 9
  22513104.744 9 -31945352.493 9 -19812254.959 8  22513103.417 8  22513102.838 9
  20780991.109 9 -33111886.302 9 -25332440.220 9  20780991.423 9  20780990.045 9
 10  3 18  5  2  6.0000000  0  9G19G07G16G24G21G22G06G18G03
  22819870.625 8 -17387603.965 8 -13387537.321 8  22819868.921 8  22819869.408 8
  24734288.029 7  -3840543.359 7  -2775905.030 6  24734289.157 6  24734287.646 6
  21285070.338 9 -36819494.873 9 -28443067.011 9  21285069.741 9  21285069.243 9
  23725914.145 7 -34984604.044 7 -22309860.559 7  23725915.271 7  23725912.777 7
  22991672.071 8 -38566025.344 8 -25972389.191 8  22991670.918 8  22991671.128 8
  22039920.322 9 -30171674.704 9 -18551065.298 9  22039918.745 9  22039919.429 9
  20779573.682 9 -39574430.957 9 -29457970.319 9  20779574.125 9  20779573.194 9
  22512912.844 9 -31946360.484 9 -19813040.406 8  22512911.581 8  22512911.030 9
  20780464.104 9 -33114655.441 9 -25334597.991 9  20780464.464 9  20780463.099 9
 10  3 18  5  2  7.0000000  0  9G19G07G16G24G21G22G06G18G03
  22819179.743 8 -17391234.899 8 -13390366.619 8  22819177.924 8  22819178.435 8
  24733918.596 7  -3842485.437 7  -2777418.336 6  24733919.512 6  24733918.045 6
  21285180.720 9 -36818915.212 9 -28442615.327 9  21285180.023 9  21285179.566 9
  23726277.442 7 -34982695.813 7 -22308373.624 7  23726278.398 7  23726275.974 7
  22991902.089 8 -38564816.550 8 -25971447.273 8  22991900.927 8  22991901.143 8
  22039328.951 9 -30174782.091 9 -18553486.638 9  22039327.422 9  22039328.112 9
  20779177.425 9 -39576512.748 9 -29459592.494 9  20779177.937 9  20779177.036 9
  22512720.967 9 -31947367.874 9 -19813825.384 8  22512719.863 8  22512719.342 9
  20779937.149 9 -33117424.220 9 -25336755.480 9  20779937.584 9  20779936.252 9
 10  3 18  5  2  8.0000000  0  9G19G07G16G24G21G22G06G18G03
  22818488.734 8 -17394865.688 8 -13393195.805 8  22818487.016 8  22818487.479 8
  24733548.972 7  -3844426.914 7  -2778931.175 6  24733549.960 6  24733548.570 6
  21285291.162 9 -36818335.029 9 -28442163.236 9  21285290.412 9  21285290.006 9
  23726640.275 7 -34980787.519 7 -22306886.644 7  23726641.527 7  23726639.157 7
  22992132.175 8 -38563607.593 8 -25970505.228 8  22992130.969 8  22992131.178 8
  22038737.698 9 -30177888.966 9 -18555907.580 9  22038736.178 9  22038736.867 9
  20778781.272 9 -39578594.231 9 -29461214.428 9  20778781.810 9  20778780.932 9
  22512529.336 9 -31948374.661 9 -19814609.893 8  22512528.258 8  22512527.768 9
  20779410.420 9 -33120192.651 9 -25338912.699 9  20779410.766 9  20779409.466 9
 10  3 18  5  2  9.0000000  0  9G19G07G16G24G21G22G06G18G03
  22817797.904 8 -17398496.295 8 -13396024.850 8  22817796.142 8  22817796.557 8
  24733179.263 7  -3846367.770 7  -2780443.528 6  24733180.638 6  24733179.231 6
  21285401.623 9 -36817754.300 9 -28441710.720 9  21285400.914 9  21285400.534 9
  23727003.456 7 -34978879.091 7 -22305399.557 7  23727004.647 7  23727002.282 7
  22992362.399 8 -38562398.425 8 -25969563.019 8  22992361.054 8  22992361.259 8
  22038146.510 9 -30180995.324 9 -18558328.118 9  22038145.016 9  22038145.703 9
  20778385.192 9 -39580675.427 9 -29462836.140 9  20778385.728 9  20778384.827 9
  22512337.767 9 -31949380.847 9 -19815393.934 8  22512336.765 8  22512336.309 9
  20778883.647 9 -33122960.723 9 -25341069.638 9  20778884.011 9  20778882.737 9
 10  3 18  5  2 10.0000000  0  9G19G07G16G24G21G22G06G18G03
  22817107.085 8 -17402126.662 8 -13398853.707 8  22817105.291 8  22817105.688 8
  24732810.550 7  -3848307.877 7  -2781955.298 6  24732811.585 6  24732810.053 6
  21285512.185 9 -36817172.912 9 -28441257.690 9  21285511.548 9  21285511.169 9
  23727366.552 7 -34976970.435 7 -22303912.291 7  23727367.814 7  23727365.460 7
  22992592.449 8 -38561188.955 8 -25968620.575 8  22992591.202 8  22992591.405 8
  22037555.433 9 -30184101.048 9 -18560748.162 9  22037553.967 9  22037554.719 9
  20777989.322 9 -39582756.185 9 -29464457.509 9  20777989.731 9  20777988.805 9
  22512146.543 9 -31950386.306 9 -19816177.408 8  22512145.423 8  22512144.961 9
  20778356.963 9 -33125728.323 9 -25343226.210 9  20778357.338 9  20778356.084 9
 10  3 18  5  2 11.0000000  0  9G19G07G16G24G21G22G06G18G03
  22816416.316 8 -17405756.835 8 -13401682.413 8  22816414.477 8  22816414.855 8
  24732441.860 7  -3850247.362 7  -2783466.584 6  24732442.636 6  24732440.981 6
  21285622.952 9 -36816590.982 9 -28440804.238 9  21285622.269 9  21285621.906 9
  23727729.801 7 -34975061.670 7 -22302424.943 7  23727731.070 7  23727728.715 7
  22992822.785 8 -38559979.285 8 -25967677.975 8  22992821.369 8  22992821.592 8
  22036964.499 9 -30187206.254 9 -18563167.802 9  22036963.013 9  22036963.854 9
  20777593.458 9 -39584836.642 9 -29466078.645 9  20777593.885 9  20777592.894 9
  22511955.198 9 -31951391.171 9 -19816960.419 8  22511954.210 8  22511953.708 9
  20777830.308 9 -33128495.576 9 -25345382.511 9  20777830.714 9  20777829.471 9
 10  3 18  5  2 12.0000000  0  9G19G07G16G24G21G22G06G18G03
  22815725.566 8 -17409386.883 8 -13404511.021 8  22815723.660 8  22815724.098 8
  24732072.810 7  -3852186.228 7  -2784977.387 6  24732073.789 6  24732072.016 6
  21285733.789 9 -36816008.538 9 -28440350.385 9  21285733.073 9  21285732.737 9
  23728092.831 7 -34973152.827 7 -22300937.534 7  23728094.338 7  23728091.980 7
  22993053.055 8 -38558769.446 8 -25966735.243 8  22993051.551 8  22993051.815 8
  22036373.588 9 -30190310.961 9 -18565587.054 9  22036372.189 9  22036373.087 9
  20777197.666 9 -39586916.828 9 -29467699.568 9  20777198.089 9  20777197.035 9
  22511764.089 9 -31952395.452 9 -19817742.975 8  22511763.108 8  22511762.611 8
  20777303.739 9 -33131262.494 9 -25347538.551 9  20777304.151 9  20777302.939 9
 10  3 18  5  2 13.0000000  0  9G19G07G16G24G21G22G06G18G03
  22815034.786 8 -17413016.776 8 -13407339.510 8  22815032.875 8  22815033.371 8
  24731703.982 7  -3854124.474 7  -2786487.707 6  24731705.050 6  24731703.149 6
  21285844.722 9 -36815425.567 9 -28439896.122 9  21285844.024 9  21285843.653 9
  23728456.175 7 -34971243.891 7 -22299450.052 7  23728457.607 7  23728455.244 7
  22993283.292 8 -38557559.405 8 -25965792.352 8  22993281.792 8  22993282.075 8
  22035782.750 9 -30193415.159 9 -18568005.908 9  22035781.481 9  22035782.423 9
  20776801.979 9 -39588996.702 9 -29469320.249 9  20776802.303 9  20776801.285 9
  22511573.187 9 -31953399.151 9 -19818525.078 8  22511572.116 8  22511571.658 8
  20776777.200 9 -33134029.062 9 -25349694.318 9  20776777.651 9  20776776.497 9
 10  3 18  5  2 14.0000000  0  9G19G07G16G24G21G22G06G18G03
  22814344.109 8 -17416646.504 8 -13410167.869 8  22814342.139 8  22814342.651 8
  24731335.087 7  -3856062.076 7  -2787997.525 6  24731336.421 6  24731334.386 6
  21285955.698 9 -36814842.023 9 -28439441.413 9  21285955.134 9  21285954.662 9
  23728819.278 7 -34969334.816 7 -22297962.460 7  23728820.892 7  23728818.548 7
  22993513.726 8 -38556349.159 8 -25964849.302 8  22993512.089 8  22993512.365 8
  22035192.352 9 -30196518.811 9 -18570424.338 9  22035190.885 9  22035191.832 9
  20776406.211 9 -39591076.282 9 -29470940.701 9  20776406.572 9  20776405.587 9
  22511382.225 9 -31954402.215 9 -19819306.686 8  22511381.211 8  22511380.830 8
  20776250.704 9 -33136795.253 9 -25351849.791 9  20776251.236 9  20776250.129 9
 10  3 18  5  2 15.0000000  0  9G19G07G16G24G21G22G06G18G03
  22813653.540 8 -17420276.058 8 -13412996.092 8  22813651.435 8  22813651.966 8
  24730966.822 7  -3857999.083 7  -2789506.879 6  24730967.894 6  24730965.772 6
  21286066.725 9 -36814257.954 9 -28438986.293 9  21286066.347 9  21286065.789 9
  23729182.693 7 -34967425.656 7 -22296474.803 7  23729184.147 7  23729181.911 7
  22993744.168 8 -38555138.714 8 -25963906.098 8  22993742.414 8  22993742.680 8
  22034601.959 9 -30199621.965 9 -18572842.379 9  22034600.393 9  22034601.328 9
  20776010.584 9 -39593155.544 9 -29472560.905 9  20776010.938 9  20776009.911 9
  22511191.361 9 -31955404.692 9 -19820087.837 8  22511190.385 8  22511190.121 9
  20775724.395 9 -33139561.089 9 -25354004.988 9  20775724.907 9  20775723.826 9
 10  3 18  5  2 16.0000000  0  9G19G07G16G24G21G22G06G18G03
  22812962.910 8 -17423905.499 8 -13415824.227 8  22812960.759 8  22812961.322 8
  24730598.257 7  -3859935.440 7  -2791015.726 6  24730599.481 6  24730597.309 6
  21286177.977 9 -36813673.359 9 -28438530.765 9  21286177.654 9  21286177.022 9
  23729545.815 7 -34965516.387 7 -22294987.063 7  23729547.428 7  23729545.284 7
  22993974.566 8 -38553928.097 8 -25962962.760 8  22993972.763 8  22993973.021 8
  22034011.626 9 -30202724.598 9 -18575260.014 9  22034009.965 9  22034010.924 9
  20775614.977 9 -39595234.531 9 -29474180.894 9  20775615.355 9  20775614.285 9
  22511000.734 9 -31956406.592 9 -19820868.538 8  22510999.670 8  22510999.493 9
  20775198.251 9 -33142326.596 9 -25356159.928 9  20775198.649 9  20775197.570 9
 10  3 18  5  2 17.0000000  0  9G19G07G16G24G21G22G06G18G03
  22812272.346 8 -17427534.777 8 -13418652.236 8  22812270.115 8  22812270.711 8
  24730229.816 7  -3861871.259 7  -2792524.156 6  24730231.111 6  24730228.909 6
  21286289.328 9 -36813088.234 9 -28438074.823 9  21286289.031 9  21286288.354 9
  23729909.068 7 -34963607.036 7 -22293499.257 7  23729910.745 7  23729908.635 7
  22994204.832 8 -38552717.301 8 -25962019.283 8  22994203.150 8  22994203.428 8
  22033421.389 9 -30205826.755 9 -18577677.279 9  22033419.617 9  22033420.614 9
  20775219.421 9 -39597313.239 9 -29475800.667 9  20775219.777 9  20775218.673 9
  22510810.215 9 -31957407.907 9 -19821648.783 8  22510809.072 8  22510808.955 9
  20774672.029 9 -33145091.766 9 -25358314.605 9  20774672.467 9  20774671.356 9
 10  3 18  5  2 18.0000000  0  9G19G07G16G24G21G22G06G18G03
  22811581.803 8 -17431163.938 8 -13421480.153 8  22811579.514 8  22811580.119 8
  24729861.773 7  -3863806.436 7  -2794032.087 6  24729862.795 6  24729860.598 6
  21286400.923 9 -36812502.595 9 -28437618.481 9  21286400.475 9  21286399.781 9
  23730272.769 7 -34961697.627 7 -22292011.405 7  23730274.074 7  23730271.989 7
  22994435.218 8 -38551506.338 8 -25961075.675 8  22994433.562 8  22994433.885 8
  22032831.210 9 -30208928.401 9 -18580094.146 9  22032829.385 9  22032830.393 9
  20774824.037 9 -39599391.646 9 -29477420.205 9  20774824.251 9  20774823.114 9
  22510619.842 9 -31958408.623 9 -19822428.561 8  22510618.607 8  22510618.539 8
  20774145.993 9 -33147856.605 9 -25360469.025 9  20774146.335 9  20774145.208 9
 10  3 18  5  2 19.0000000  0  9G19G07G16G24G21G22G06G18G03
  22810891.252 8 -17434792.887 8 -13424307.906 8  22810888.952 8  22810889.566 8
  24729493.949 7  -3865740.932 7  -2795539.487 6  24729494.605 6  24729492.452 6
  21286512.528 9 -36811916.368 9 -28437161.681 9  21286512.048 9  21286511.341 9
  23730635.989 7 -34959788.042 7 -22290523.415 7  23730637.461 7  23730635.359 7
  22994665.799 8 -38550295.139 8 -25960131.883 8  22994664.024 8  22994664.370 8
  22032241.135 9 -30212029.487 9 -18582510.576 9  22032239.268 9  22032240.275 9
  20774428.550 9 -39601469.708 9 -29479039.474 9  20774428.819 9  20774427.647 9
  22510429.368 9 -31959408.712 9 -19823207.851 8  22510428.283 8  22510428.255 8
  20773620.021 9 -33150621.042 9 -25362623.132 9  20773620.264 9  20773619.150 9
 10  3 18  5  2 20.0000000  0  9G19G07G16G24G21G22G06G18G03
  22810200.419 8 -17438421.764 8 -13427135.600 8  22810198.405 8  22810199.023 8
  24729126.023 7  -3867674.918 7  -2797046.491 6  24729126.507 6  24729124.431 6
  21286624.175 9 -36811329.667 9 -28436704.512 9  21286623.727 9  21286623.005 9
  23730999.292 7 -34957878.404 7 -22289035.385 7  23731000.864 7  23730998.741 7
  22994896.338 8 -38549083.807 8 -25959187.987 8  22994894.515 8  22994894.860 8
  22031651.054 9 -30215130.125 9 -18584926.657 9  22031649.221 9  22031650.268 9
  20774033.133 9 -39603547.526 9 -29480658.552 9  20774033.431 9  20774032.225 9
  22510239.126 9 -31960408.267 9 -19823986.725 8  22510238.067 8  22510238.060 8
  20773093.962 9 -33153385.192 9 -25364777.015 9  20773094.249 9  20773093.136 9
 10  3 18  5  2 21.0000000  0  9G19G07G16G24G21G22G06G18G03
  22809509.680 8 -17442050.433 8 -13429963.132 8  22809507.894 8  22809508.515 8
  24728758.026 7  -3869608.173 7  -2798552.924 6  24728758.589 6  24728756.549 6
  21286735.894 9 -36810742.383 9 -28436246.888 9  21286735.495 9  21286734.798 9
  23731362.709 7 -34955968.633 7 -22287547.251 7  23731364.355 7  23731362.176 7
  22995126.706 8 -38547872.233 8 -25958243.903 8  22995125.039 8  22995125.400 8
  22031061.051 9 -30218230.201 9 -18587342.301 9  22031059.280 9  22031060.385 9
  20773637.749 9 -39605625.017 9 -29482277.377 9  20773638.127 9  20773636.896 9
  22510048.949 9 -31961407.171 9 -19824765.091 8  22510047.985 8  22510047.983 8
  20772568.073 9 -33156148.936 9 -25366930.582 9  20772568.323 9  20772567.193 9
 10  3 18  5  2 22.0000000  0  9G19G07G16G24G21G22G06G18G03
  22808819.370 8 -17445678.885 8 -13432790.496 8  22808817.420 8  22808818.034 8
  24728389.633 7  -3871540.823 7  -2800058.884 6  24728390.835 6  24728388.783 6
  21286847.691 9 -36810154.508 9 -28435788.803 9  21286847.364 9  21286846.729 9
  23731725.968 7 -34954058.737 7 -22286059.021 7  23731727.860 7  23731725.621 7
  22995357.164 8 -38546660.418 8 -25957299.631 8  22995355.604 8  22995355.995 8
  22030471.136 9 -30221329.698 9 -18589757.492 9  22030469.494 9  22030470.568 9
  20773242.373 9 -39607702.152 9 -29483895.923 9  20773242.894 9  20773241.637 9
  22509859.103 9 -31962405.428 9 -19825542.954 8  22509858.000 8  22509858.009 8
  20772042.139 9 -33158912.267 9 -25369083.827 9  20772042.475 9  20772041.337 9
 10  3 18  5  2 23.0000000  0  9G19G07G16G24G21G22G06G18G03
  22808128.702 8 -17449307.213 8 -13435617.765 8  22808126.970 8  22808127.580 8
  24728021.980 7  -3873472.820 7  -2801564.333 6  24728023.209 6  24728021.167 6
  21286959.683 9 -36809566.107 9 -28435330.309 9  21286959.335 9  21286958.736 9
  23732089.209 7 -34952148.701 7 -22284570.683 6  23732091.359 6  23732089.042 7
  22995587.529 8 -38545448.420 8 -25956355.218 8  22995586.211 8  22995586.637 8
  22029881.472 9 -30224428.695 9 -18592172.294 9  22029879.819 9  22029880.826 9
  20772847.138 9 -39609778.999 9 -29485514.246 9  20772847.699 9  20772846.418 9
  22509669.344 9 -31963403.098 9 -19826320.358 8  22509668.107 8  22509668.141 8
  20771516.383 9 -33161675.264 9 -25371236.811 9  20771516.692 9  20771515.556 9
 10  3 18  5  2 24.0000000  0  9G19G07G16G24G21G22G06G18G03
  22807438.207 8 -17452935.394 8 -13438444.918 8  22807436.493 8  22807437.145 8
  24727654.589 7  -3875404.181 7  -2803069.289 6  24727655.711 6  24727653.694 6
  21287071.764 9 -36808977.181 9 -28434871.406 9  21287071.410 9  21287070.824 9
  23732452.733 7 -34950238.609 7 -22283082.300 7  23732454.873 7  23732452.485 7
  22995818.013 8 -38544236.235 8 -25955410.658 8  22995816.868 8  22995817.333 8
  22029291.775 9 -30227527.169 9 -18594586.689 9  22029290.199 9  22029291.187 9
  20772451.946 9 -39611855.549 9 -29487132.337 9  20772452.560 9  20772451.258 9
  22509479.680 9 -31964400.172 9 -19827097.299 8  22509478.353 8  22509478.399 8
  20770990.546 9 -33164437.915 9 -25373389.525 9  20770990.983 9  20770989.837 9
 10  3 18  5  2 25.0000000  0  9G19G07G16G24G21G22G06G18G03
  22806747.816 8 -17456563.426 8 -13441271.957 8  22806746.039 8  22806746.735 8
  24727286.740 7  -3877334.960 7  -2804573.793 6  24727288.334 6  24727286.357 6
  21287184.051 9 -36808387.722 9 -28434412.087 9  21287183.573 9  21287182.981 9
  23732816.312 7 -34948328.416 7 -22281593.838 6  23732818.449 6  23732815.997 7
  22996048.747 8 -38543023.870 8 -25954465.958 8  22996047.589 8  22996048.042 8
  22028702.093 9 -30230625.143 9 -18597000.694 9  22028700.663 9  22028701.655 9
  20772056.811 9 -39613931.821 9 -29488750.211 9  20772057.486 9  20772056.201 9
  22509290.230 9 -31965396.664 9 -19827873.786 8  22509288.740 8  22509288.782 8
  20770464.896 9 -33167200.217 9 -25375541.969 9  20770465.350 9  20770464.174 9
 10  3 18  5  2 26.0000000  0  9G19G07G16G24G21G22G06G18G03
  22806057.729 8 -17460191.382 8 -13444098.934 8  22806055.645 8  22806056.326 8
  24726919.471 7  -3879265.183 7  -2806077.864 6  24726921.073 6  24726919.150 6
  21287296.395 9 -36807797.806 9 -28433952.412 9  21287295.807 9  21287295.199 9
  23733179.984 7 -34946418.178 7 -22280105.344 7  23733182.024 7  23733179.505 7
  22996279.287 8 -38541811.404 8 -25953521.179 8  22996278.361 8  22996278.751 8
  22028112.673 9 -30233722.691 9 -18599414.367 9  22028111.224 9  22028112.202 9
  20771661.832 9 -39616007.882 9 -29490367.920 9  20771662.449 9  20771661.178 9
  22509100.709 9 -31966392.625 9 -19828649.860 9  22509099.206 9  22509099.249 9
  20769939.088 9 -33169962.254 9 -25377694.205 9  20769939.765 9  20769938.557 9
 10  3 18  5  2 27.0000000  0  9G19G07G16G24G21G22G06G18G03
  22805367.349 8 -17463819.225 8 -13446925.824 8  22805365.268 8  22805365.935 8
  24726552.683 7  -3881194.841 7  -2807581.495 6  24726553.870 6  24726551.967 6
  21287408.703 9 -36807207.394 9 -28433492.351 9  21287408.135 9  21287407.538 9
  23733543.792 7 -34944507.910 7 -22278616.823 7  23733545.515 7  23733542.936 7
  22996509.766 8 -38540598.759 8 -25952576.262 8  22996509.170 8  22996509.473 8
  22027523.408 9 -30236819.752 9 -18601827.659 9  22027521.891 9  22027522.843 9
  20771266.846 9 -39618083.669 9 -29491985.416 9  20771267.475 9  20771266.206 9
  22508911.387 9 -31967388.021 9 -19829425.492 9  22508909.760 9  22508909.808 9
  20769413.452 9 -33172723.974 9 -25379846.195 9  20769414.228 9  20769412.990 9
 10  3 18  5  2 28.0000000  0  9G19G07G16G24G21G22G06G18G03
  22804676.925 8 -17467446.894 8 -13449752.579 8  22804674.929 8  22804675.607 8
  24726185.617 7  -3883123.832 7  -2809084.606 6  24726186.743 6  24726184.844 6
  21287521.250 9 -36806616.428 9 -28433031.857 9  21287520.563 9  21287520.001 9
  23733907.483 7 -34942597.495 7 -22277128.187 7  23733909.044 7  23733906.403 7
  22996740.508 8 -38539385.900 8 -25951631.177 8  22996740.019 8  22996740.215 8
  22026934.176 9 -30239916.269 9 -18604240.529 9  22026932.663 9  22026933.578 9
  20770871.916 9 -39620159.127 9 -29493602.656 9  20770872.564 9  20770871.296 9
  22508722.155 9 -31968382.813 9 -19830200.654 8  22508720.431 8  22508720.504 9
  20768888.003 9 -33175485.325 9 -25381997.897 9  20768888.774 9  20768887.514 9
 10  3 18  5  2 29.0000000  0  9G19G07G16G24G21G22G06G18G03
  22803986.351 8 -17471074.418 8 -13452579.219 8  22803984.619 8  22803985.310 8
  24725818.425 7  -3885052.224 7  -2810587.253 6  24725819.773 6  24725817.819 6
  21287633.680 9 -36806024.935 9 -28432570.954 9  21287633.135 9  21287632.568 9
  23734270.915 7 -34940686.987 7 -22275639.479 6  23734272.628 6  23734269.909 7
  22996971.294 8 -38538172.898 8 -25950685.980 8  22996970.885 8  22996971.028 8
  22026345.039 9 -30243012.299 9 -18606653.021 9  22026343.538 9  22026344.407 9
  20770477.095 9 -39622234.290 9 -29495219.666 9  20770477.643 9  20770476.453 9
  22508532.973 9 -31969377.019 9 -19830975.360 8  22508531.208 8  22508531.320 9
  20768362.587 9 -33178246.328 9 -25384149.328 9  20768363.406 9  20768362.131 9
 10  3 18  5  2 30.0000000  0  9G19G07G16G24G21G22G06G18G03
  22803296.184 8 -17474701.776 8 -13455405.730 8  22803294.331 8  22803295.044 8
  24725451.610 7  -3886979.977 7  -2812089.400 6  24725452.975 6  24725450.909 6
  21287746.392 9 -36805432.886 9 -28432109.617 9  21287745.858 9  21287745.246 9
  23734634.427 7 -34938776.361 7 -22274150.680 7  23734636.236 7  23734633.443 7
  22997202.015 8 -38536959.666 8 -25949740.604 8  22997201.776 8  22997201.914 8
  22025755.866 9 -30246107.777 9 -18609065.081 9  22025754.489 9  22025755.362 9
  20770082.279 9 -39624309.158 9 -29496836.446 9  20770082.783 9  20770081.665 9
  22508343.841 9 -31970370.596 9 -19831749.576 8  22508342.095 8  22508342.264 9
  20767837.257 9 -33181006.976 9 -25386300.482 9  20767838.118 9  20767836.797 9
 10  3 18  5  2 31.0000000  0  9G19G07G16G24G21G22G06G18G03
  22802606.050 8 -17478328.975 8 -13458232.119 8  22802604.079 8  22802604.813 8
  24725084.896 7  -3888907.108 7  -2813591.061 6  24725086.281 6  24725084.193 6
  21287859.166 9 -36804840.298 9 -28431647.860 9  21287858.638 9  21287858.031 9
  23734997.814 7 -34936865.658 7 -22272661.821 6  23734999.851 6  23734997.002 7
  22997432.881 8 -38535746.224 8 -25948795.066 8  22997432.716 8  22997432.809 8
  22025166.948 9 -30249202.734 9 -18611476.735 9  22025165.523 9  22025166.420 9
  20769687.601 9 -39626383.700 9 -29498452.972 9  20769688.052 9  20769686.836 9
  22508154.783 9 -31971363.589 9 -19832523.336 8  22508153.087 8  22508153.330 9
  20767312.045 9 -33183767.247 9 -25388451.342 9  20767312.918 9  20767311.498 9
 10  3 18  5  2 32.0000000  0  9G19G07G16G24G21G22G06G18G03
  22801915.830 8 -17481955.986 8 -13461058.362 8  22801913.893 8  22801914.609 8
  24724718.570 7  -3890833.571 7  -2815092.203 6  24724719.703 6  24724717.672 6
  21287971.936 9 -36804247.145 9 -28431185.663 9  21287971.477 9  21287970.928 9
  23735361.340 7 -34934954.795 7 -22271172.837 6  23735363.505 6  23735360.599 7
  22997663.872 8 -38534532.588 8 -25947849.377 8  22997663.690 8  22997663.700 8
  22024577.913 9 -30252297.155 9 -18613887.972 9  22024576.698 9  22024577.579 9
  20769292.787 9 -39628457.923 9 -29500069.250 9  20769293.387 9  20769292.073 9
  22507965.970 9 -31972355.936 9 -19833296.592 8  22507964.215 8  22507964.508 9
  20766786.850 9 -33186527.144 9 -25390601.912 9  20766787.769 9  20766786.281 9
 10  3 18  5  2 33.0000000  0  9G19G07G16G24G21G22G06G18G03
  22801225.576 8 -17485582.854 8 -13463884.492 8  22801223.731 8  22801224.426 8
  24724352.189 7  -3892759.415 7  -2816592.863 6  24724353.241 6  24724351.192 6
  21288084.820 9 -36803653.439 9 -28430723.035 9  21288084.430 9  21288083.909 9
  23735725.093 7 -34933043.780 7 -22269683.736 6  23735727.225 6  23735724.243 7
  22997894.905 8 -38533318.733 8 -25946903.517 8  22997894.714 8  22997894.670 8
  22023988.980 9 -30255391.051 9 -18616298.800 9  22023987.981 9  22023988.825 9
  20768898.136 9 -39630531.843 9 -29501685.291 9  20768898.728 9  20768897.363 9
  22507777.052 9 -31973347.689 9 -19834069.387 8  22507775.473 8  22507775.792 9
  20766261.740 9 -33189286.680 9 -25392752.199 9  20766262.657 9  20766261.148 9
 10  3 18  5  2 34.0000000  0  9G19G07G16G24G21G22G06G18G03
  22800535.313 8 -17489209.557 8 -13466710.493 8  22800533.570 8  22800534.272 8
  24723985.843 7  -3894684.649 7  -2818093.046 6  24723986.892 6  24723984.762 6
  21288197.841 9 -36803059.214 9 -28430260.004 9  21288197.486 9  21288196.967 9
  23736088.457 7 -34931132.730 7 -22268194.606 6  23736090.937 6  23736087.883 6
  22998125.901 8 -38532104.727 8 -25945957.538 8  22998125.765 8  22998125.695 8
  22023400.317 9 -30258484.445 9 -18618709.237 9  22023399.351 9  22023400.160 9
  20768503.508 9 -39632605.457 9 -29503301.095 9  20768504.123 9  20768502.709 9
  22507588.281 9 -31974338.849 9 -19834841.719 8  22507586.835 8  22507587.179 9
  20765736.826 9 -33192045.878 9 -25394902.223 9  20765737.586 9  20765736.078 9
 10  3 18  5  2 35.0000000  0  9G19G07G16G24G21G22G06G18G03
  22799845.253 8 -17492836.124 8 -13469536.389 8  22799843.440 8  22799844.148 8
  24723619.653 7  -3896609.250 7  -2819592.737 6  24723620.633 6  24723618.496 6
  21288310.968 9 -36802464.447 9 -28429796.549 9  21288310.662 9  21288310.151 9
  23736452.215 7 -34929221.563 7 -22266705.385 6  23736454.599 6  23736451.511 6
  22998357.171 8 -38530890.511 8 -25945011.396 8  22998356.855 8  22998356.744 8
  22022811.847 9 -30261577.305 9 -18621119.257 9  22022810.815 9  22022811.591 9
  20768108.826 9 -39634678.763 9 -29504916.658 9  20768109.592 9  20768108.126 9
  22507399.754 9 -31975329.412 9 -19835613.586 8  22507398.306 8  22507398.678 8
  20765211.995 9 -33194804.708 9 -25397051.961 9  20765212.546 9  20765211.080 9
 10  3 18  5  2 36.0000000  0  9G19G07G16G24G21G22G06G18G03
  22799155.241 8 -17496462.513 8 -13472362.146 8  22799153.311 8  22799154.065 8
  24723253.564 7  -3898533.232 7  -2821091.948 6  24723254.461 6  24723252.387 6
  21288424.212 9 -36801869.142 9 -28429332.675 9  21288423.969 9  21288423.464 9
  23736816.117 7 -34927310.278 7 -22265216.075 6  23736818.299 6  23736815.175 7
  22998588.295 8 -38529676.116 8 -25944065.115 8  22998587.981 8  22998587.816 8
  22022223.625 9 -30264669.660 9 -18623528.885 9  22022222.355 9  22022223.118 9
  20767714.329 9 -39636751.790 9 -29506532.003 9  20767715.115 9  20767713.596 9
  22507211.432 9 -31976319.385 9 -19836384.992 8  22507209.911 8  22507210.304 8
  20764687.085 9 -33197563.194 9 -25399201.430 9  20764687.606 9  20764686.159 9
 10  3 18  5  2 37.0000000  0  9G19G07G16G24G21G22G06G18G03
  22798465.160 8 -17500088.749 8 -13475187.784 8  22798463.216 8  22798464.014 8
  24722887.567 7  -3900456.581 7  -2822590.664 6  24722888.443 6  24722886.388 6
  21288537.538 9 -36801273.269 9 -28428868.359 9  21288537.354 9  21288536.876 9
  23737180.079 7 -34925398.884 7 -22263726.676 6  23737182.047 6  23737178.883 7
  22998819.636 8 -38528461.461 8 -25943118.632 8  22998819.135 8  22998818.946 8
  22021635.329 9 -30267761.448 9 -18625938.070 9  22021633.995 9  22021634.753 9
  20767319.888 9 -39638824.480 9 -29508147.086 9  20767320.701 9  20767319.164 9
  22507023.198 9 -31977308.704 9 -19837155.890 8  22507021.655 8  22507022.060 9
  20764162.389 9 -33200321.288 9 -25401350.593 9  20764162.803 9  20764161.325 9
 10  3 18  5  2 38.0000000  0  9G19G07G16G24G21G22G06G18G03
  22797775.353 8 -17503714.678 8 -13478013.181 8  22797773.229 8  22797773.971 8
  24722521.689 7  -3902379.174 7  -2824088.790 6  24722522.613 6  24722520.525 6
  21288651.042 9 -36800676.742 9 -28428403.532 9  21288650.826 9  21288650.403 9
  23737543.972 7 -34923487.267 7 -22262237.107 7  23737545.834 7  23737542.629 7
  22999050.932 8 -38527246.537 8 -25942171.939 7  22999050.320 7  22999050.139 8
  22021047.251 9 -30270852.603 9 -18628346.761 9  22021045.741 9  22021046.526 9
  20766925.531 9 -39640896.777 9 -29509761.863 9  20766926.365 9  20766924.809 9
  22506835.056 9 -31978297.327 9 -19837926.246 9  22506833.543 9  22506833.950 9
  20763637.699 9 -33203078.917 9 -25403499.395 9  20763638.074 9  20763636.574 9
 10  3 18  5  2 39.0000000  0  9G19G07G16G24G21G22G06G18G03
  22797085.207 8 -17507340.492 8 -13480838.489 8  22797083.268 8  22797083.956 8
  24722155.731 7  -3904301.186 7  -2825586.464 6  24722156.885 6  24722154.760 6
  21288764.671 9 -36800079.687 9 -28427938.295 9  21288764.441 9  21288763.992 9
  23737907.701 7 -34921575.539 7 -22260747.453 7  23737909.618 7  23737906.359 7
  22999282.284 8 -38526031.427 8 -25941225.100 7  22999281.546 7  22999281.366 8
  22020459.197 9 -30273943.265 9 -18630755.069 9  22020457.567 9  22020458.394 9
  20766531.318 9 -39642968.761 9 -29511376.397 9  20766532.062 9  20766530.507 9
  22506647.074 9 -31979285.365 9 -19838696.144 8  22506645.551 8  22506645.948 9
  20763113.128 9 -33205836.197 9 -25405647.924 9  20763113.375 9  20763111.879 9
 10  3 18  5  2 40.0000000  0  9G19G07G16G24G21G22G06G18G03
  22796395.107 8 -17510966.157 8 -13483663.682 8  22796393.298 8  22796393.967 8
  24721789.788 7  -3906222.552 7  -2827083.634 6  24721791.266 6  24721789.098 6
  21288878.306 9 -36799482.106 9 -28427472.648 9  21288878.198 9  21288877.650 9
  23738271.467 7 -34919663.734 7 -22259257.738 6  23738273.426 6  23738270.112 7
  22999513.534 8 -38524816.122 8 -25940278.109 7  22999512.808 7  22999512.627 8
  22019871.195 9 -30277033.412 9 -18633162.976 9  22019869.516 9  22019870.372 9
  20766137.175 9 -39645040.451 9 -29512990.700 9  20766137.816 9  20766136.257 9
  22506459.354 9 -31980272.798 9 -19839465.572 8  22506457.654 8  22506458.056 8
  20762588.404 9 -33208593.131 9 -25407796.184 9  20762588.740 9  20762587.246 9
 10  3 18  5  2 41.0000000  0  9G19G07G16G24G21G22G06G18G03
  22795705.325 8 -17514591.679 8 -13486488.763 8  22795703.361 8  22795704.016 8
  24721423.893 7  -3908143.302 7  -2828580.325 6  24721425.755 6  24721423.610 6
  21288992.145 9 -36798883.998 9 -28427006.589 9  21288992.053 9  21288991.405 9
  23738635.272 7 -34917751.851 7 -22257767.961 6  23738637.300 6  23738633.906 7
  22999744.792 8 -38523600.635 8 -25939330.977 7  22999744.109 7  22999743.888 8
  22019283.241 9 -30280123.052 9 -18635570.487 9  22019281.566 9  22019282.446 9
  20765743.123 9 -39647111.861 9 -29514604.786 9  20765743.636 9  20765742.004 9
  22506271.533 9 -31981259.635 9 -19840234.535 8  22506269.850 8  22506270.272 9
  20762063.744 9 -33211349.724 9 -25409944.178 9  20762064.155 9  20762062.663 9
 10  3 18  5  2 42.0000000  0  9G19G07G16G24G21G22G06G18G03
  22795015.323 8 -17518217.071 8 -13489313.744 8  22795013.451 8  22795014.128 8
  24721058.791 7  -3910063.463 7  -2830076.557 6  24721060.339 6  24721058.277 6
  21289105.937 9 -36798285.387 9 -28426540.139 9  21289105.990 9  21289105.246 9
  23738999.115 7 -34915839.862 7 -22256278.101 7  23739001.186 7  23738997.718 7
  22999976.132 8 -38522385.010 8 -25938383.737 7  22999975.443 7  22999975.149 8
  22018695.437 9 -30283212.206 9 -18637977.620 9  22018693.739 9  22018694.591 9
  20765348.965 9 -39649183.002 9 -29516218.663 9  20765349.505 9  20765347.802 9
  22506083.820 9 -31982245.926 9 -19841003.074 8  22506082.161 8  22506082.603 9
  20761539.238 9 -33214105.996 9 -25412091.922 9  20761539.645 9  20761538.157 9
 10  3 18  5  2 43.0000000  0  9G19G07G16G24G21G22G06G18G03
  22794325.067 8 -17521842.357 8 -13492138.642 8  22794323.557 8  22794324.257 8
  24720693.428 7  -3911983.083 7  -2831572.367 6  24720695.015 6  24720693.013 6
  21289219.927 9 -36797686.281 9 -28426073.304 9  21289219.985 9  21289219.213 9
  23739362.810 7 -34913927.862 7 -22254788.232 7  23739365.022 7  23739361.512 6
  23000207.316 8 -38521169.229 8 -25937436.375 7  23000206.800 7  23000206.462 8
  22018107.777 9 -30286300.881 9 -18640384.380 9  22018106.009 9  22018106.811 9
  20764954.876 9 -39651253.886 9 -29517832.339 9  20764955.381 9  20764953.737 9
  22505896.308 9 -31983231.664 9 -19841771.181 8  22505894.586 8  22505895.049 9
  20761014.738 9 -33216861.942 9 -25414239.413 9  20761015.219 9  20761013.732 9
 10  3 18  5  2 44.0000000  0  9G19G07G16G24G21G22G06G18G03
  22793634.911 8 -17525467.491 8 -13494963.421 8  22793633.722 8  22793634.393 8
  24720328.083 7  -3913902.048 7  -2833067.666 6  24720329.788 6  24720327.832 6
  21289333.974 9 -36797086.629 9 -28425606.043 9  21289334.036 9  21289333.298 9
  23739726.274 7 -34912015.713 7 -22253298.246 6  23739728.890 6  23739725.351 6
  23000438.617 8 -38519953.250 8 -25936488.858 7  23000438.188 7  23000437.829 8
  22017520.380 9 -30289389.024 9 -18642790.725 9  22017518.349 9  22017519.147 9
  20764560.786 9 -39653324.454 9 -29519445.768 9  20764561.319 9  20764559.729 9
  22505708.729 9 -31984216.787 9 -19842538.809 8  22505707.125 8  22505707.602 9
  20760490.428 9 -33219617.546 9 -25416386.636 9  20760490.843 9  20760489.377 9
 10  3 18  5  2 45.0000000  0  9G19G07G16G24G21G22G06G18G03
  22792945.125 8 -17529092.454 8 -13497788.067 8  22792943.921 8  22792944.562 8
  24719963.207 7  -3915820.351 7  -2834562.448 6  24719964.716 6  24719962.789 6
  21289448.176 9 -36796486.441 9 -28425138.364 9  21289448.215 9  21289447.498 9
  23740090.214 7 -34910103.462 7 -22251808.182 6  23740092.790 6  23740089.263 6
  23000669.925 8 -38518737.073 8 -25935541.188 7  23000669.620 7  23000669.237 8
  22016932.866 9 -30292476.656 9 -18645196.671 9  22016930.770 9  22016931.584 9
  20764166.755 9 -39655394.718 9 -29521058.961 9  20764167.364 9  20764165.748 9
  22505521.438 9 -31985201.309 9 -19843305.969 8  22505519.775 8  22505520.266 9
  20759966.006 9 -33222372.775 9 -25418533.567 9  20759966.510 9  20759965.103 9
 10  3 18  5  2 46.0000000  0  9G19G07G16G24G21G22G06G18G03
  22792255.492 8 -17532717.195 8 -13500612.539 8  22792254.176 8  22792254.774 8
  24719598.096 7  -3917738.004 7  -2836056.724 6  24719599.786 6  24719597.870 6
  21289562.413 9 -36795885.658 9 -28424670.222 9  21289562.537 9  21289561.822 9
  23740454.041 7 -34908191.081 7 -22250318.019 7  23740456.706 7  23740453.203 6
  23000901.250 8 -38517520.653 8 -25934593.329 7  23000901.107 7  23000900.693 7
  22016345.428 9 -30295563.710 9 -18647602.167 9  22016343.333 9  22016344.153 9
  20763772.853 9 -39657464.631 9 -29522671.880 9  20763773.475 9  20763771.833 9
  22505334.286 9 -31986185.177 9 -19844072.619 8  22505332.569 8  22505333.040 9
  20759441.805 9 -33225127.598 9 -25420680.182 9  20759442.271 9  20759440.892 9
 10  3 18  5  2 47.0000000  0  9G19G07G16G24G21G22G06G18G03
  22791565.898 8 -17536341.847 8 -13503436.943 8  22791564.451 8  22791565.004 8
  24719233.209 7  -3919655.104 7  -2837550.569 6  24719234.984 6  24719233.075 6
  21289676.836 9 -36795284.387 9 -28424201.700 9  21289676.945 9  21289676.243 9
  23740818.142 7 -34906278.650 7 -22248827.817 6  23740820.561 6  23740817.147 6
  23001132.499 8 -38516304.086 8 -25933645.356 7  23001132.599 7  23001132.171 8
  22015757.926 9 -30298650.299 9 -18650007.301 9  22015755.994 9  22015756.816 9
  20763379.026 9 -39659534.270 9 -29524284.586 9  20763379.642 9  20763377.995 9
  22505147.258 9 -31987168.508 9 -19844838.852 8  22505145.479 8  22505145.901 9
  20758917.564 9 -33227882.119 9 -25422826.562 9  20758918.123 9  20758916.720 9
 10  3 18  5  2 48.0000000  0  9G19G07G16G24G21G22G06G18G03
  22790876.183 8 -17539966.323 8 -13506261.208 8  22790874.766 8  22790875.289 8
  24718868.157 7  -3921571.561 7  -2839043.915 6  24718870.327 6  24718868.422 6
  21289791.374 9 -36794682.549 9 -28423732.735 9  21289791.459 9  21289790.782 9
  23741182.259 7 -34904366.052 7 -22247337.484 6  23741184.458 6  23741181.134 6
  23001364.171 8 -38515087.319 8 -25932697.227 7  23001364.101 7  23001363.677 8
  22015170.681 9 -30301736.351 9 -18652412.016 9  22015168.767 9  22015169.582 9
  20762985.205 9 -39661603.604 9 -29525897.053 9  20762985.864 9  20762984.212 9
  22504960.048 9 -31988151.203 9 -19845604.587 8  22504958.503 8  22504958.914 9
  20758393.525 9 -33230636.261 9 -25424972.646 9  20758394.033 9  20758392.630 9
 10  3 18  5  2 49.0000000  0  9G19G07G16G24G21G22G06G18G03
  22790186.647 8 -17543590.647 8 -13509085.357 8  22790185.105 8  22790185.596 8
  24718503.554 7  -3923487.373 7  -2840536.758 6  24718505.712 6  24718503.829 6
  21289906.063 9 -36794080.193 9 -28423263.367 9  21289906.073 9  21289905.404 9
  23741546.573 7 -34902453.383 7 -22245847.094 6  23741548.414 6  23741545.163 6
  23001596.157 8 -38513870.362 8 -25931748.948 7  23001595.650 7  23001595.228 8
  22014583.327 9 -30304821.888 9 -18654816.330 9  22014581.630 9  22014582.433 9
  20762591.444 9 -39663672.639 9 -29527509.288 9  20762592.188 9  20762590.496 9
  22504772.908 9 -31989133.326 9 -19846369.877 8  22504771.628 8  22504772.064 9
  20757869.616 9 -33233390.056 9 -25427118.460 9  20757869.983 9  20757868.624 9
 10  3 18  5  2 50.0000000  0  9G19G07G16G24G21G22G06G18G03
  22789497.379 8 -17547214.796 8 -13511909.368 8  22789495.473 8  22789495.970 8
  24718138.742 7  -3925402.571 7  -2842029.119 6  24718141.131 6  24718139.307 6
  21290020.917 9 -36793477.296 9 -28422793.577 9  21290020.791 9  21290020.113 9
  23741910.916 7 -34900540.616 7 -22244356.631 6  23741912.392 6  23741909.194 6
  23001827.873 8 -38512653.204 8 -25930800.514 8  23001827.247 8  23001826.823 8
  22013996.273 9 -30307906.901 9 -18657220.237 9  22013994.613 9  22013995.414 9
  20762197.916 9 -39665741.385 9 -29529121.298 9  20762198.561 9  20762196.833 9
  22504585.876 9 -31990114.832 9 -19847134.687 8  22504584.851 8  22504585.300 9
  20757345.774 9 -33236143.489 9 -25429263.991 9  20757346.014 9  20757344.691 9
 10  3 18  5  2 51.0000000  0  9G19G07G16G24G21G22G06G18G03
  22788807.750 8 -17550838.815 8 -13514733.278 8  22788805.865 8  22788806.369 8
  24717774.417 7  -3927317.155 7  -2843521.002 6  24717776.717 6  24717774.952 6
  21290135.820 9 -36792873.858 9 -28422323.366 9  21290135.618 9  21290134.947 9
  23742275.166 7 -34898627.742 7 -22242866.080 6  23742276.392 6  23742273.182 6
  23002059.530 8 -38511435.864 8 -25929851.939 8  23002058.884 8  23002058.464 8
  22013409.209 9 -30310991.404 9 -18659623.745 9  22013407.685 9  22013408.485 9
  20761804.406 9 -39667809.823 9 -29530733.067 9  20761804.929 9  20761803.233 9
  22504399.011 9 -31991095.760 9 -19847899.046 8  22504398.172 8  22504398.635 9
  20756822.005 9 -33238896.576 9 -25431409.253 9  20756822.129 9  20756820.828 9
 10  3 18  5  2 52.0000000  0  9G19G07G16G24G21G22G06G18G03
  22788118.182 8 -17554462.663 8 -13517557.055 8  22788116.231 8  22788116.761 8
  24717410.235 7  -3929231.130 7  -2845012.411 6  24717412.482 6  24717410.762 6
  21290250.782 9 -36792269.886 9 -28421852.739 9  21290250.563 9  21290249.909 9
  23742639.190 7 -34896714.759 7 -22241375.446 6  23742640.409 6  23742637.205 6
  23002291.231 8 -38510218.329 8 -25928903.211 8  23002290.562 8  23002290.152 8
  22012822.487 9 -30314075.387 9 -18662026.848 9  22012820.842 9  22012821.639 9
  20761410.945 9 -39669877.947 9 -29532344.592 9  20761411.355 9  20761409.691 9
  22504212.448 9 -31992076.070 9 -19848662.924 8  22504211.627 8  22504212.072 9
  20756298.180 9 -33241649.298 9 -25433554.232 9  20756298.313 9  20756297.028 9
 10  3 18  5  2 53.0000000  0  9G19G07G16G24G21G22G06G18G03
  22787428.610 8 -17558086.386 8 -13520380.734 8  22787426.616 8  22787427.174 8
  24717046.652 7  -3931144.459 7  -2846503.314 6  24717048.418 6  24717046.680 6
  21290365.854 9 -36791665.407 9 -28421381.716 9  21290365.616 9  21290364.948 9
  23743003.570 8 -34894801.703 8 -22239884.754 6  23743004.415 6  23743001.282 6
  23002523.177 8 -38509000.627 8 -25927954.353 8  23002522.290 8  23002521.853 8
  22012235.791 9 -30317158.865 9 -18664429.557 9  22012234.074 9  22012234.869 9
  20761017.403 9 -39671945.798 9 -29533955.904 9  20761017.843 9  20761016.221 9
  22504026.128 9 -31993055.817 9 -19849426.363 9  22504025.222 9  22504025.618 9
  20755774.358 9 -33244401.694 9 -25435698.955 9  20755774.575 9  20755773.290 9
 10  3 18  5  2 54.0000000  0  9G19G07G16G24G21G22G06G18G03
  22786739.078 8 -17561709.970 8 -13523204.305 8  22786737.094 8  22786737.634 8
  24716683.069 7  -3933057.244 7  -2847993.793 6  24716684.507 6  24716682.686 6
  21290481.004 9 -36791060.418 9 -28420910.297 9  21290480.785 9  21290480.073 9
  23743367.834 8 -34892888.585 8 -22238394.015 6  23743368.436 6  23743365.381 6
  23002754.910 8 -38507782.749 8 -25927005.358 8  23002754.072 8  23002753.573 8
  22011649.133 9 -30320241.830 9 -18666831.866 9  22011647.398 9  22011648.172 9
  20760624.007 9 -39674013.380 9 -29535567.007 9  20760624.382 9  20760622.795 9
  22503839.832 9 -31994034.977 9 -19850189.345 9  22503838.915 9  22503839.259 9
  20755250.617 9 -33247153.754 9 -25437843.417 9  20755250.886 9  20755249.606 9
 10  3 18  5  2 55.0000000  0  9G19G07G16G24G21G22G06G18G03
  22786049.495 8 -17565333.390 8 -13526027.748 8  22786047.613 8  22786048.132 8
  24716319.635 7  -3934969.357 7  -2849483.749 6  24716320.664 6  24716318.833 6
  21290596.187 9 -36790454.870 9 -28420438.441 9  21290596.046 9  21290595.298 9
  23743732.160 8 -34890975.326 8 -22236903.165 6  23743732.510 6  23743729.547 6
  23002986.450 8 -38506564.682 8 -25926056.215 8  23002985.864 8  23002985.372 8
  22011062.682 9 -30323324.276 9 -18669233.772 9  22011060.811 9  22011061.556 9
  20760230.619 9 -39676080.642 9 -29537177.860 9  20760231.040 9  20760229.401 9
  22503653.698 9 -31995013.542 9 -19850951.862 9  22503652.707 9  22503653.000 9
  20754726.953 9 -33249905.447 9 -25439987.593 9  20754727.248 9  20754725.985 9
 10  3 18  5  2 56.0000000  0  9G19G07G16G24G21G22G06G18G03
  22785359.948 8 -17568956.639 8 -13528851.058 8  22785358.159 8  22785358.630 8
  24715956.117 7  -3936880.836 7  -2850973.211 6  24715956.871 6  24715955.109 6
  21290711.635 9 -36789848.791 9 -28419966.172 9  21290711.394 9  21290710.619 9
  23744096.452 8 -34889062.003 8 -22235412.265 6  23744096.595 6  23744093.715 6
  23003218.203 8 -38505346.405 8 -25925106.909 8  23003217.664 8  23003217.248 8
  22010476.179 9 -30326406.205 9 -18671635.274 9  22010474.340 9  22010475.068 9
  20759837.211 9 -39678147.606 9 -29538788.481 9  20759837.760 9  20759836.064 9
  22503467.630 9 -31995991.501 9 -19851713.908 9  22503466.612 9  22503466.885 9
  20754203.372 9 -33252656.786 9 -25442131.493 9  20754203.682 9  20754202.436 9
 10  3 18  5  2 57.0000000  0  9G19G07G16G24G21G22G06G18G03
  22784670.472 8 -17572579.760 8 -13531674.269 8  22784668.729 8  22784669.152 8
  24715592.600 7  -3938791.723 7  -2852462.214 6  24715593.222 6  24715591.516 6
  21290827.066 9 -36789242.189 9 -28419493.496 9  21290826.836 9  21290826.035 9
  23744460.678 8 -34887148.551 8 -22233921.265 6  23744460.694 6  23744457.870 6
  23003450.171 8 -38504127.961 8 -25924157.474 8  23003449.501 8  23003449.114 8
  22009889.904 9 -30329487.618 9 -18674036.375 9  22009887.968 9  22009888.685 9
  20759443.884 9 -39680214.271 9 -29540398.869 9  20759444.511 9  20759442.758 9
  22503281.767 9 -31996968.872 9 -19852475.496 9  22503280.610 9  22503280.891 9
  20753679.817 9 -33255407.783 9 -25444275.127 9  20753680.202 9  20753678.971 9
 10  3 18  5  2 58.0000000  0  9G19G07G16G24G21G22G06G18G03
  22783981.223 8 -17576202.719 8 -13534497.353 8  22783979.355 8  22783979.704 8
  24715229.141 7  -3940701.969 7  -2853950.716 6  24715229.732 6  24715228.065 6
  21290942.573 9 -36788635.036 9 -28419020.390 9  21290942.379 9  21290941.555 9
  23744824.814 8 -34885235.001 8 -22232430.186 6  23744824.817 6  23744822.039 6
  23003682.292 8 -38502909.316 8 -25923207.881 8  23003681.375 8  23003680.974 8
  22009303.550 9 -30332568.507 9 -18676437.067 9  22009301.680 9  22009302.404 9
  20759050.631 9 -39682280.638 9 -29542009.025 9  20759051.324 9  20759049.513 9
  22503095.937 9 -31997945.630 9 -19853236.607 9  22503094.727 9  22503095.029 9
  20753156.418 9 -33258158.420 9 -25446418.480 9  20753156.771 9  20753155.560 9
 10  3 18  5  2 59.0000000  0  9G19G07G16G24G21G22G06G18G03
  22783291.781 8 -17579825.475 8 -13537320.278 8  22783290.019 8  22783290.294 8
  24714865.862 7  -3942611.580 7  -2855438.722 6  24714866.373 6  24714864.698 6
  21291058.151 9 -36788027.319 9 -28418546.845 9  21291058.031 9  21291057.175 9
  23745189.305 8 -34883321.328 8 -22230939.010 6  23745189.005 6  23745186.229 6
  23003914.251 8 -38501690.443 8 -25922258.112 8  23003913.330 8  23003912.887 8
  22008717.309 9 -30335648.841 9 -18678837.327 9  22008715.496 9  22008716.238 9
  20758657.459 9 -39684346.648 9 -29543618.903 9  20758658.138 9  20758656.360 9
  22502910.188 9 -31998921.764 9 -19853997.229 9  22502908.946 9  22502909.280 9
  20752633.072 9 -33260908.656 9 -25448561.521 9  20752633.387 9  20752632.208 9
 10  3 18  5  3  0.0000000  0  9G19G07G16G24G21G22G06G18G03
  22782602.563 8 -17583448.039 8 -13540143.053 8  22782600.704 8  22782600.924 8
  24714502.581 7  -3944520.489 7  -2856926.182 6  24714503.156 6  24714501.429 6
  21291173.832 9 -36787419.030 9 -28418072.854 9  21291173.795 9  21291172.903 9
  23745553.277 8 -34881407.529 8 -22229447.740 6  23745553.224 6  23745550.437 6
  23004146.230 8 -38500471.366 8 -25921308.183 8  23004145.367 8  23004144.852 8
  22008131.151 9 -30338728.622 9 -18681237.156 9  22008129.432 9  22008130.167 9
  20758264.331 9 -39686412.339 9 -29545228.532 9  20758265.013 9  20758263.270 9
  22502724.695 9 -31999897.262 9 -19854757.358 9  22502723.299 9  22502723.648 9
  20752109.799 9 -33263658.520 9 -25450704.271 9  20752110.091 9  20752108.940 9
 10  3 18  5  3  1.0000000  0  9G19G07G16G24G21G22G06G18G03
  22781913.270 8 -17587070.520 8 -13542965.764 8  22781911.401 8  22781911.567 8
  24714139.498 7  -3946428.838 7  -2858413.205 6  24714140.029 6  24714138.257 6
  21291289.500 9 -36786810.234 9 -28417598.468 9  21291289.657 9  21291288.738 9
  23745917.220 8 -34879493.626 8 -22227956.389 6  23745917.457 6  23745914.620 6
  23004378.239 8 -38499252.138 8 -25920358.136 8  23004377.387 8  23004376.859 8
  22007545.038 9 -30341807.919 9 -18683636.608 9  22007543.463 9  22007544.181 9
  20757871.150 9 -39688477.763 9 -29546837.953 9  20757871.939 9  20757870.267 9
  22502539.167 9 -32000872.205 9 -19855517.054 9  22502537.767 9  22502538.114 9
  20751586.480 9 -33266408.051 9 -25452846.762 9  20751586.874 9  20751585.743 9
 10  3 18  5  3  2.0000000  0  9G19G07G16G24G21G22G06G18G03
  22781223.937 8 -17590692.789 8 -13545788.311 8  22781222.141 8  22781222.272 8
  24713776.461 7  -3948336.547 7  -2859899.729 6  24713777.011 6  24713775.204 6
  21291405.376 9 -36786200.890 9 -28417123.655 9  21291405.622 9  21291404.682 9
  23746281.287 8 -34877579.637 8 -22226464.970 6  23746281.705 6  23746278.820 7
  23004610.210 8 -38498032.689 8 -25919407.916 8  23004609.401 8  23004608.924 8
  22006959.228 9 -30344886.678 9 -18686035.640 9  22006957.608 9  22006958.293 9
  20757478.255 9 -39690542.854 9 -29548447.115 9  20757478.926 9  20757477.327 9
  22502353.509 9 -32001846.534 9 -19856276.271 9  22502352.368 9  22502352.705 9
  20751063.277 9 -33269157.202 9 -25454988.957 9  20751063.731 9  20751062.631 9
 10  3 18  5  3  3.0000000  0  9G19G07G16G24G21G22G06G18G03
  22780534.804 8 -17594314.914 8 -13548610.744 8  22780532.906 8  22780533.003 8
  24713413.535 7  -3950243.613 7  -2861385.755 6  24713414.107 6  24713412.326 6
  21291521.373 9 -36785590.998 9 -28416648.414 9  21291521.688 9  21291520.721 9
  23746645.453 8 -34875665.520 8 -22224973.451 6  23746645.969 6  23746643.053 6
  23004842.458 8 -38496813.047 8 -25918457.546 8  23004841.482 8  23004841.052 8
  22006373.392 9 -30347964.900 9 -18688434.254 9  22006371.868 9  22006372.512 9
  20757085.322 9 -39692607.659 9 -29550056.054 9  20757085.954 9  20757084.447 9
  22502168.201 9 -32002820.245 9 -19857035.007 9  22502167.094 9  22502167.411 9
  20750540.363 9 -33271906.008 9 -25457130.884 9  20750540.648 9  20750539.588 9
 10  3 18  5  3  4.0000000  0  9G19G07G16G24G21G22G06G18G03
  22779845.545 8 -17597936.888 8 -13551433.061 8  22779843.687 8  22779843.760 8
  24713050.511 7  -3952150.097 7  -2862871.328 6  24713051.296 6  24713049.599 6
  21291637.435 9 -36784980.599 9 -28416172.779 9  21291637.839 9  21291636.842 9
  23747009.535 8 -34873751.305 8 -22223481.855 6  23747010.244 6  23747007.300 7
  23005074.726 8 -38495593.237 8 -25917507.045 8  23005073.625 8  23005073.233 8
  22005787.656 9 -30351042.635 9 -18690832.489 9  22005786.184 9  22005786.821 9
  20756692.536 9 -39694672.173 9 -29551664.767 9  20756693.033 9  20756691.616 9
  22501982.804 9 -32003793.399 9 -19857793.309 9  22501981.931 9  22501982.217 9
  20750017.357 9 -33274654.462 9 -25459272.536 9  20750017.630 9  20750016.587 9
 10  3 18  5  3  5.0000000  0  9G19G07G16G24G21G22G06G18G03
  22779156.120 8 -17601558.725 8 -13554255.272 8  22779154.491 8  22779154.541 8
  24712687.528 7  -3954055.938 7  -2864356.400 6  24712688.616 6  24712686.942 6
  21291753.694 9 -36784369.670 9 -28415696.731 9  21291754.080 9  21291753.072 9
  23747373.428 8 -34871837.025 8 -22221990.208 7  23747374.458 7  23747371.531 7
  23005307.044 8 -38494373.239 8 -25916556.396 8  23005305.802 8  23005305.431 8
  22005202.063 9 -30354119.863 9 -18693230.329 9  22005200.582 9  22005201.228 9
  20756299.837 9 -39696736.384 9 -29553273.242 9  20756300.240 9  20756298.816 9
  22501797.613 9 -32004765.944 9 -19858551.137 9  22501796.880 9  22501797.125 9
  20749494.485 9 -33277402.575 9 -25461413.922 9  20749494.667 9  20749493.609 9
 10  3 18  5  3  6.0000000  0  9G19G07G16G24G21G22G06G18G03
  22778466.546 8 -17605180.404 8 -13557077.359 8  22778465.309 8  22778465.366 8
  24712324.800 7  -3955961.181 7  -2865841.005 6  24712326.061 6  24712324.354 6
  21291870.032 9 -36783758.183 9 -28415220.248 9  21291870.417 9  21291869.411 9
  23747737.306 8 -34869922.625 8 -22220498.467 6  23747738.699 6  23747735.787 7
  23005539.338 8 -38493153.042 8 -25915605.593 8  23005538.010 8  23005537.643 8
  22004616.520 9 -30357196.540 9 -18695627.740 9  22004615.093 9  22004615.759 9
  20755907.139 9 -39698800.302 9 -29554881.491 9  20755907.500 9  20755906.069 9
  22501612.596 9 -32005737.876 9 -19859308.486 9  22501611.947 9  22501612.142 9
  20748971.648 9 -33280150.321 9 -25463555.022 9  20748971.760 9  20748970.717 9
 10  3 18  5  3  7.0000000  0  9G19G07G16G24G21G22G06G18G03
  22777777.553 8 -17608801.875 8 -13559899.284 8  22777776.168 8  22777776.233 8
  24711962.411 7  -3957865.733 7  -2867325.070 6  24711963.663 6  24711961.970 6
  21291986.553 9 -36783146.143 9 -28414743.334 9  21291986.858 9  21291985.864 9
  23748101.715 8 -34868008.105 8 -22219006.632 6  23748102.979 6  23748100.084 7
  23005771.491 8 -38491932.632 8 -25914654.624 8  23005770.248 8  23005769.923 8
  22004031.076 9 -30360272.679 9 -18698024.731 9  22004029.717 9  22004030.403 9
  20755514.356 9 -39700863.867 9 -29556489.463 9  20755514.837 9  20755513.365 9
  22501427.800 9 -32006709.204 9 -19860065.366 9  22501427.132 9  22501427.268 9
  20748448.693 9 -33282897.678 9 -25465695.820 9  20748448.908 9  20748447.923 9
 10  3 18  5  3  8.0000000  0  9G19G07G16G24G21G22G06G18G03
  22777088.511 8 -17612423.148 8 -13562721.053 8  22777087.052 8  22777087.106 8
  24711600.316 7  -3959769.644 7  -2868808.634 6  24711601.410 6  24711599.768 6
  21292103.220 9 -36782533.516 9 -28414265.963 9  21292103.411 9  21292102.437 9
  23748466.353 8 -34866093.422 8 -22217514.671 7  23748467.291 7  23748464.413 7
  23006003.668 8 -38490711.990 8 -25913703.474 8  23006002.511 8  23006002.265 8
  22003445.840 9 -30363348.258 9 -18700421.287 9  22003444.455 9  22003445.144 9
  20755121.707 9 -39702927.081 9 -29558097.162 9  20755122.238 9  20755120.726 9
  22501243.119 9 -32007679.866 9 -19860821.726 9  22501242.446 9  22501242.526 9
  20747925.867 9 -33285644.632 9 -25467836.304 9  20747926.140 9  20747925.173 9
 10  3 18  5  3  9.0000000  0  9G19G07G16G24G21G22G06G18G03
  22776399.323 8 -17616044.266 8 -13565542.702 8  22776397.963 8  22776398.007 8
  24711238.294 7  -3961672.908 7  -2870291.697 6  24711239.253 6  24711237.677 6
  21292220.046 9 -36781920.343 9 -28413788.166 9  21292220.064 9  21292219.126 9
  23748831.026 8 -34864178.600 8 -22216022.600 7  23748831.625 7  23748828.778 7
  23006235.954 8 -38489491.131 8 -25912752.156 8  23006234.818 8  23006234.637 8
  22002860.638 9 -30366423.290 9 -18702817.415 9  22002859.296 9  22002859.981 9
  20754729.160 9 -39704989.974 9 -29559704.611 9  20754729.672 9  20754728.168 9
  22501058.475 9 -32008649.917 9 -19861577.610 9  22501057.885 9  22501057.915 9
  20747403.202 9 -33288391.206 9 -25469976.490 9  20747403.472 9  20747402.460 9
 10  3 18  5  3 10.0000000  0  9G19G07G16G24G21G22G06G18G03
  22775710.334 8 -17619665.217 8 -13568364.221 8  22775708.940 8  22775708.990 8
  24710876.192 7  -3963575.561 7  -2871774.284 6  24710877.190 6  24710875.698 6
  21292336.894 9 -36781306.633 9 -28413309.950 9  21292336.818 9  21292335.928 9
  23749195.474 8 -34862263.722 8 -22214530.488 7  23749195.971 7  23749193.163 7
  23006468.212 8 -38488270.078 8 -25911800.686 7  23006467.169 7  23006467.045 8
  22002275.555 9 -30369497.803 9 -18705213.139 9  22002274.225 9  22002274.929 9
  20754336.786 9 -39707052.568 9 -29561311.827 9  20754337.162 9  20754335.668 9
  22500873.962 9 -32009619.376 9 -19862333.033 9  22500873.444 9  22500873.389 9
  20746880.632 9 -33291137.428 9 -25472116.403 9  20746880.867 9  20746879.828 9
 10  3 18  5  3 11.0000000  0  9G19G07G16G24G21G22G06G18G03
  22775021.661 8 -17623285.970 8 -13571185.585 8  22775019.948 8  22775020.002 8
  24710514.149 7  -3965477.562 7  -2873256.361 6  24710515.308 6  24710513.830 6
  21292453.865 9 -36780692.362 9 -28412831.298 9  21292453.677 9  21292452.797 9
  23749559.884 8 -34860348.696 8 -22213038.261 7  23749560.362 7  23749557.628 7
  23006700.498 8 -38487048.822 8 -25910849.057 8  23006699.559 8  23006699.472 8
  22001690.709 9 -30372571.784 9 -18707608.449 9  22001689.250 9  22001689.985 9
  20753944.446 9 -39709114.845 9 -29562918.796 9  20753944.754 9  20753943.262 9
  22500689.525 9 -32010588.209 9 -19863087.967 9  22500689.131 9  22500688.960 9
  20746358.080 9 -33293883.280 9 -25474256.028 9  20746358.323 9  20746357.284 9
 10  3 18  5  3 12.0000000  0  9G19G07G16G24G21G22G06G18G03
  22774332.736 8 -17626906.601 8 -13574006.854 8  22774330.985 8  22774331.010 8
  24710152.589 7  -3967378.945 7  -2874737.957 6  24710153.606 6  24710152.070 6
  21292570.927 9 -36780077.563 9 -28412352.234 9  21292570.628 9  21292569.731 9
  23749924.358 8 -34858433.553 8 -22211545.943 7  23749924.770 7  23749922.104 7
  23006933.030 8 -38485827.373 8 -25909897.278 8  23006931.986 8  23006931.917 8
  22001105.819 9 -30375645.239 9 -18710003.348 9  22001104.398 9  22001105.139 9
  20753552.100 9 -39711176.841 9 -29564525.547 9  20753552.395 9  20753550.905 9
  22500505.411 9 -32011556.441 9 -19863842.434 9  22500504.930 9  22500504.673 9
  20745835.625 9 -33296628.781 9 -25476395.380 9  20745835.854 9  20745834.817 9
 10  3 18  5  3 13.0000000  0  9G19G07G16G24G21G22G06G18G03
  22773643.669 8 -17630527.141 8 -13576828.054 8  22773642.045 8  22773642.042 8
  24709790.907 7  -3969279.775 7  -2876219.120 6  24709791.969 6  24709790.419 6
  21292687.940 9 -36779462.304 9 -28411872.811 9  21292687.668 9  21292686.794 9
  23750288.822 7 -34856518.426 7 -22210053.638 7  23750289.155 7  23750286.534 7
  23007165.614 8 -38484605.818 8 -25908945.416 8  23007164.417 8  23007164.389 8
  22000520.980 9 -30378718.242 9 -18712397.896 9  22000519.642 9  22000520.377 9
  20753159.771 9 -39713238.594 9 -29566132.107 9  20753160.026 9  20753158.565 9
  22500321.435 9 -32012524.151 9 -19864596.494 9  22500320.819 9  22500320.506 9
  20745313.109 9 -33299374.000 9 -25478534.511 9  20745313.453 9  20745312.412 9
 10  3 18  5  3 14.0000000  0  9G19G07G16G24G21G22G06G18G03
  22772954.549 8 -17634147.573 8 -13579649.169 8  22772953.114 8  22772953.077 8
  24709429.431 7  -3971180.000 7  -2877699.810 6  24709430.399 6  24709428.886 6
  21292805.218 9 -36778846.548 9 -28411393.002 9  21292804.795 9  21292803.979 9
  23750653.129 8 -34854603.213 8 -22208561.265 7  23750653.557 7  23750650.989 7
  23007398.268 8 -38483384.123 8 -25907993.445 8  23007396.854 8  23007396.892 8
  21999936.318 9 -30381790.776 9 -18714792.078 9  21999934.969 9  21999935.700 9
  20752767.502 9 -39715300.100 9 -29567738.475 9  20752767.703 9  20752766.272 9
  22500137.694 9 -32013491.324 9 -19865350.134 9  22500136.796 9  22500136.429 9
  20744790.749 9 -33302118.921 9 -25480673.410 9  20744791.114 9  20744790.052 9
 10  3 18  5  3 15.0000000  0  9G19G07G16G24G21G22G06G18G03
  22772265.431 8 -17637767.737 8 -13582470.074 8  22772264.236 8  22772264.167 8
  24709068.121 7  -3973079.553 7  -2879179.979 6  24709068.935 6  24709067.453 6
  21292922.412 9 -36778230.173 9 -28410912.710 9  21292922.062 9  21292921.281 9
  23751017.540 7 -34852687.802 7 -22207068.736 7  23751017.986 7  23751015.495 7
  23007631.096 8 -38482162.143 8 -25907041.252 8  23007629.390 8  23007629.443 8
  21999351.663 9 -30384862.704 9 -18717185.788 9  21999350.410 9  21999351.138 9
  20752375.344 9 -39717361.191 9 -29569344.521 9  20752375.465 9  20752374.054 9
  22499953.817 9 -32014457.788 9 -19866103.223 9  22499952.892 9  22499952.479 9
  20744268.479 9 -33304863.382 9 -25482811.951 9  20744268.877 9  20744267.767 9
 10  3 18  5  3 16.0000000  0  9G19G07G16G24G21G22G06G18G03
  22771576.529 8 -17641387.734 8 -13585290.850 8  22771575.406 8  22771575.340 8
  24708707.106 7  -3974978.437 7  -2880659.627 6  24708707.572 6  24708706.126 6
  21293039.773 9 -36777613.228 9 -28410431.974 9  21293039.451 9  21293038.685 9
  23751381.828 7 -34850772.283 7 -22205576.125 7  23751382.438 7  23751380.023 7
  23007863.687 8 -38480939.943 8 -25906088.888 8  23007862.012 8  23007862.021 8
  21998767.151 9 -30387934.054 9 -18719579.047 9  21998765.940 9  21998766.650 9
  20751983.148 9 -39719421.953 9 -29570950.310 9  20751983.291 9  20751981.899 9
  22499770.134 9 -32015423.623 9 -19866855.821 9  22499769.116 9  22499768.671 9
  20743746.392 9 -33307607.463 9 -25484950.195 9  20743746.715 9  20743745.550 9
 10  3 18  5  3 17.0000000  0  9G19G07G16G24G21G22G06G18G03
  22770887.663 8 -17645007.681 8 -13588111.587 8  22770886.578 8  22770886.514 8
  24708346.136 7  -3976876.794 7  -2882138.865 6  24708346.302 6  24708344.902 6
  21293157.236 9 -36776995.849 9 -28409950.899 9  21293156.957 9  21293156.198 9
  23751745.983 7 -34848856.768 7 -22204083.518 7  23751746.891 7  23751744.544 7
  23008096.330 8 -38479717.656 8 -25905136.454 8  23008094.692 8  23008094.622 8
  21998182.756 9 -30391005.011 9 -18721972.000 9  21998181.545 9  21998182.231 9
  20751591.017 9 -39721482.533 9 -29572555.957 9  20751591.174 9  20751589.813 9
  22499586.370 9 -32016388.975 9 -19867608.044 9  22499585.434 9  22499584.969 9
  20743224.209 9 -33310351.300 9 -25487088.249 9  20743224.611 9  20743223.374 9
 10  3 18  5  3 18.0000000  0  9G19G07G16G24G21G22G06G18G03
  22770198.875 8 -17648627.439 8 -13590932.177 8  22770197.763 8  22770197.738 8
  24707984.926 7  -3978774.506 7  -2883617.601 6  24707985.137 6  24707983.801 6
  21293274.801 9 -36776377.900 9 -28409469.380 9  21293274.601 9  21293273.835 9
  23752110.343 7 -34846941.091 7 -22202590.782 7  23752111.376 7  23752109.097 7
  23008328.739 8 -38478495.133 8 -25904183.838 8  23008327.458 8  23008327.269 8
  21997598.431 9 -30394075.403 9 -18724364.514 9  21997597.279 9  21997597.941 9
  20751198.819 9 -39723542.773 9 -29574161.339 9  20751199.123 9  20751197.796 9
  22499402.775 9 -32017353.683 9 -19868359.763 9  22499401.900 9  22499401.399 9
  20742702.178 9 -33313094.738 9 -25489225.992 9  20742702.564 9  20742701.277 9
 10  3 18  5  3 19.0000000  0  9G19G07G16G24G21G22G06G18G03
  22769510.333 8 -17652247.005 8 -13593752.617 8  22769508.976 8  22769508.988 8
  24707623.850 7  -3980671.556 7  -2885095.821 6  24707624.095 6  24707622.791 6
  21293392.553 9 -36775759.384 9 -28408987.420 9  21293392.349 9  21293391.561 9
  23752474.985 7 -34845025.309 7 -22201097.964 7  23752475.870 7  23752473.660 7
  23008561.032 8 -38477272.422 8 -25903231.075 8  23008560.206 8  23008559.931 8
  21997014.278 9 -30397145.242 9 -18726756.596 9  21997013.129 9  21997013.760 9
  20750806.757 9 -39725602.691 9 -29575766.470 9  20750807.110 9  20750805.838 9
  22499219.267 9 -32018317.775 9 -19869111.003 9  22499218.507 9  22499217.950 9
  20742180.125 9 -33315837.791 9 -25491363.437 9  20742180.565 9  20742179.266 9
 10  3 18  5  3 20.0000000  0  9G19G07G16G24G21G22G06G18G03
  22768821.679 8 -17655866.411 8 -13596572.933 8  22768820.256 8  22768820.246 8
  24707262.762 7  -3982568.010 7  -2886573.579 6  24707263.157 6  24707261.859 6
  21293510.294 9 -36775140.337 9 -28408505.046 9  21293510.191 9  21293509.368 9
  23752839.771 7 -34843109.417 7 -22199605.061 7  23752840.407 7  23752838.251 7
  23008793.750 8 -38476049.504 8 -25902278.151 8  23008792.938 8  23008792.618 8
  21996430.221 9 -30400214.574 9 -18729148.283 9  21996429.086 9  21996429.688 9
  20750414.652 9 -39727662.315 9 -29577371.373 9  20750415.155 9  20750413.937 9
  22499035.656 8 -32019281.260 8 -19869861.770 9  22499035.195 9  22499034.597 9
  20741658.052 9 -33318580.487 9 -25493500.602 9  20741658.646 9  20741657.321 9
 10  3 18  5  3 21.0000000  0  9G19G07G16G24G21G22G06G18G03
  22768133.014 8 -17659485.679 8 -13599393.140 8  22768131.555 8  22768131.523 8
  24706901.877 7  -3984463.823 7  -2888050.837 6  24706902.335 6  24706901.087 6
  21293628.158 9 -36774520.757 9 -28408022.257 9  21293628.096 9  21293627.273 9
  23753204.450 7 -34841193.441 7 -22198112.090 7  23753205.043 7  23753202.858 7
  23009026.409 8 -38474826.388 8 -25901325.072 8  23009025.696 8  23009025.339 8
  21995846.244 9 -30403283.379 9 -18731539.559 9  21995845.148 9  21995845.719 9
  20750022.708 9 -39729721.617 9 -29578976.024 9  20750023.265 9  20750022.081 9
  22498852.367 9 -32020244.163 9 -19870612.084 9  22498851.965 9  22498851.343 9
  20741136.152 9 -33321322.835 9 -25495637.495 9  20741136.817 9  20741135.435 9
 10  3 18  5  3 22.0000000  0  9G19G07G16G24G21G22G06G18G03
  22767444.360 8 -17663104.784 8 -13602213.220 8  22767442.886 8  22767442.827 8
  24706541.141 7  -3986359.003 7  -2889527.603 6  24706541.618 6  24706540.463 6
  21293746.133 9 -36773900.636 9 -28407539.045 9  21293746.061 9  21293745.275 9
  23753569.242 7 -34839277.353 7 -22196619.034 7  23753569.687 7  23753567.487 7
  23009259.094 8 -38473603.090 8 -25900371.853 8  23009258.475 8  23009258.089 8
  21995262.433 9 -30406351.668 9 -18733930.433 9  21995261.294 9  21995261.862 9
  20749630.723 9 -39731780.617 9 -29580580.440 9  20749631.434 9  20749630.282 9
  22498669.057 9 -32021206.441 9 -19871361.910 9  22498668.850 9  22498668.219 9
  20740614.350 9 -33324064.821 9 -25497774.107 9  20740615.055 9  20740613.640 9
 10  3 18  5  3 23.0000000  0  9G19G07G16G24G21G22G06G18G03
  22766756.059 8 -17666723.731 8 -13605033.177 8  22766754.249 8  22766754.167 8
  24706180.579 7  -3988253.589 7  -2891003.905 6  24706181.091 6  24706179.944 6
  21293864.243 9 -36773279.995 9 -28407055.428 9  21293864.113 9  21293863.369 9
  23753933.750 7 -34837361.174 7 -22195125.905 7  23753934.276 7  23753932.131 7
  23009491.941 8 -38472379.622 8 -25899418.501 8  23009491.291 8  23009490.886 8
  21994678.655 9 -30409419.426 9 -18736320.894 9  21994677.528 9  21994678.106 9
  20749238.926 9 -39733839.327 9 -29582184.629 9  20749239.640 9  20749238.503 9
  22498485.916 8 -32022168.159 8 -19872111.300 9  22498485.835 9  22498485.207 9
  20740092.743 9 -33326806.460 9 -25499910.449 9  20740093.337 9  20740091.923 9
 10  3 18  5  3 24.0000000  0  9G19G07G16G24G21G22G06G18G03
  22766067.610 8 -17670342.535 8 -13607853.022 8  22766065.610 8  22766065.563 8
  24705819.902 7  -3990147.527 7  -2892479.701 6  24705820.773 6  24705819.544 6
  21293982.463 9 -36772658.822 9 -28406571.398 9  21293982.259 9  21293981.564 9
  23754298.258 7 -34835444.879 7 -22193632.688 7  23754298.900 7  23754296.812 7
  23009724.730 8 -38471155.964 8 -25898465.002 8  23009724.152 8  23009723.733 8
  21994094.997 9 -30412486.670 9 -18738710.954 9  21994093.856 9  21994094.441 9
  20748847.118 9 -39735897.728 9 -29583788.577 9  20748847.903 9  20748846.780 9
  22498303.166 8 -32023129.257 8 -19872860.207 9  22498302.962 9  22498302.319 9
  20739571.169 9 -33329547.745 9 -25502046.515 9  20739571.692 9  20739570.269 9
 10  3 18  5  3 25.0000000  0  9G19G07G16G24G21G22G06G18G03
  22765378.987 8 -17673961.228 8 -13610672.782 8  22765376.996 8  22765376.985 8
  24705460.010 7  -3992040.888 7  -2893955.050 6  24705460.544 6  24705459.271 6
  21294100.731 9 -36772037.146 9 -28406086.975 9  21294100.527 9  21294099.861 9
  23754662.747 7 -34833528.539 7 -22192139.435 7  23754663.616 7  23754661.565 7
  23009957.749 8 -38469932.140 8 -25897511.373 8  23009957.041 8  23009956.611 8
  21993511.451 9 -30415553.445 9 -18741100.649 9  21993510.279 9  21993510.865 9
  20748455.495 9 -39737955.875 9 -29585392.330 9  20748456.231 9  20748455.094 9
  22498120.339 9 -32024089.804 9 -19873608.685 9  22498120.210 9  22498119.531 9
  20739049.677 9 -33332288.704 9 -25504182.327 9  20739050.114 9  20739048.669 9
 10  3 18  5  3 26.0000000  0  9G19G07G16G24G21G22G06G18G03
  22764690.439 8 -17677579.715 8 -13613492.380 8  22764688.442 8  22764688.426 8
  24705099.746 7  -3993933.613 7  -2895429.904 6  24705100.405 6  24705099.128 6
  21294219.126 9 -36771414.897 9 -28405602.106 9  21294218.936 9  21294218.275 9
  23755027.155 7 -34831612.057 7 -22190646.071 7  23755028.360 7  23755026.335 7
  23010190.662 8 -38468708.096 8 -25896557.572 8  23010189.964 8  23010189.531 8
  21992927.818 9 -30418619.643 9 -18743489.893 9  21992926.792 9  21992927.377 9
  20748064.002 9 -39740013.662 9 -29586995.800 9  20748064.623 9  20748063.470 9
  22497937.752 9 -32025049.705 9 -19874356.660 9  22497937.558 9  22497936.862 9
  20738528.140 9 -33335029.266 9 -25506317.830 9  20738528.615 9  20738527.145 9
 10  3 18  5  3 27.0000000  0  9G19G07G16G24G21G22G06G18G03
  22764002.088 8 -17681198.060 8 -13616311.869 8  22763999.916 8  22763999.895 8
  24704739.522 7  -3995825.715 7  -2896904.273 6  24704740.352 6  24704739.070 6
  21294337.571 9 -36770792.135 9 -28405116.837 9  21294337.430 9  21294336.780 9
  23755391.902 7 -34829695.507 7 -22189152.657 7  23755393.131 7  23755391.104 7
  23010423.654 8 -38467483.887 8 -25895603.643 8  23010422.942 8  23010422.489 8
  21992344.356 9 -30421685.341 9 -18745878.748 9  21992343.398 9  21992343.984 9
  20747672.561 9 -39742071.162 9 -29588599.047 9  20747673.092 9  20747671.878 9
  22497755.265 8 -32026009.040 8 -19875104.193 9  22497754.980 9  22497754.294 9
  20738006.646 9 -33337769.504 9 -25508453.080 9  20738007.172 9  20738005.675 9
 10  3 18  5  3 28.0000000  0  9G19G07G16G24G21G22G06G18G03
  22763313.686 8 -17684816.258 8 -13619131.241 8  22763311.392 8  22763311.399 8
  24704379.807 7  -3997717.196 7  -2898378.157 6  24704380.389 6  24704379.108 6
  21294456.211 9 -36770168.830 9 -28404631.144 9  21294456.023 9  21294455.387 9
  23755756.364 7 -34827778.849 7 -22187659.158 7  23755757.923 7  23755755.864 7
  23010656.760 8 -38466259.487 8 -25894649.565 8  23010655.987 8  23010655.497 8
  21991761.176 9 -30424750.525 9 -18748267.202 9  21991760.088 9  21991760.699 9
  20747281.068 9 -39744128.380 9 -29590202.074 9  20747281.616 9  20747280.340 9
  22497572.764 8 -32026967.786 8 -19875851.268 9  22497572.531 9  22497571.845 9
  20737485.099 9 -33340509.383 9 -25510588.050 9  20737485.808 9  20737484.289 9
 10  3 18  5  3 29.0000000  0  9G19G07G16G24G21G22G06G18G03
  22762625.061 8 -17688434.301 8 -13621950.495 8  22762622.908 8  22762622.941 8
  24704019.999 7  -3999608.046 7  -2899851.545 6  24704020.550 6  24704019.344 6
  21294574.938 9 -36769544.990 9 -28404145.035 9  21294574.750 9  21294574.102 9
  23756121.043 7 -34825862.068 7 -22186165.563 7  23756122.750 7  23756120.548 7
  23010889.984 8 -38465034.893 8 -25893695.336 8  23010889.049 8  23010888.527 8
  21991177.960 9 -30427815.191 9 -18750655.253 9  21991176.875 9  21991177.525 9
  20746889.570 9 -39746185.274 9 -29591804.849 9  20746890.191 9  20746888.914 9
  22497390.349 8 -32027925.907 8 -19876597.856 9  22497390.209 9  22497389.513 9
  20736963.750 9 -33343248.889 9 -25512722.729 9  20736964.516 9  20736962.981 9
 10  3 18  5  3 30.0000000  0  9G19G07G16G24G21G22G06G18G03
  22761936.651 8 -17692052.173 8 -13624769.615 8  22761934.485 8  22761934.480 8
  24703659.986 7  -4001498.272 7  -2901324.448 6  24703660.845 6  24703659.774 6
  21294693.673 9 -36768920.606 9 -28403658.502 9  21294693.609 9  21294692.919 9
  23756485.425 7 -34823945.234 7 -22184671.929 7  23756487.574 7  23756485.259 7
  23011123.113 8 -38463810.127 8 -25892740.973 8  23011122.120 8  23011121.576 8
  21990594.738 9 -30430879.312 9 -18753042.880 9  21990593.778 9  21990594.436 9
  20746498.181 9 -39748241.898 9 -29593407.412 9  20746498.819 9  20746497.535 9
  22497208.240 8 -32028883.430 8 -19877343.977 8  22497208.024 8  22497207.290 9
  20736442.548 9 -33345988.037 9 -25514857.130 9  20736443.274 9  20736441.738 9
 10  3 18  5  3 31.0000000  0  9G19G07G16G24G21G22G06G18G03
  22761248.145 8 -17695669.945 8 -13627588.658 8  22761246.077 8  22761246.035 8
  24703300.351 7  -4003387.933 7  -2902796.914 6  24703301.276 6  24703300.210 6
  21294812.687 9 -36768295.712 9 -28403171.572 9  21294812.564 9  21294811.816 9
  23756850.307 7 -34822028.276 7 -22183178.201 7  23756852.308 7  23756850.038 7
  23011356.381 8 -38462585.172 8 -25891786.464 7  23011355.218 7  23011354.659 8
  21990011.709 9 -30433942.957 9 -18755430.136 9  21990010.788 9  21990011.439 9
  20746106.834 9 -39750298.224 9 -29595009.744 9  20746107.555 9  20746106.174 9
  22497026.292 8 -32029840.390 8 -19878089.660 8  22497025.963 8  22497025.163 9
  20735921.480 9 -33348726.858 9 -25516991.276 9  20735922.062 9  20735920.553 9
 10  3 18  5  3 32.0000000  0  9G19G07G16G24G21G22G06G18G03
  22760559.900 8 -17699287.600 8 -13630407.608 8  22760557.653 8  22760557.639 8
  24702940.665 7  -4005277.006 7  -2904268.920 6  24702941.858 6  24702940.676 6
  21294931.814 9 -36767670.342 9 -28402684.271 9  21294931.601 9  21294930.786 9
  23757215.200 7 -34820111.292 7 -22181684.450 7  23757217.063 7  23757214.823 7
  23011589.686 8 -38461360.114 8 -25890831.873 7  23011588.319 7  23011587.756 8
  21989428.866 9 -30437006.130 9 -18757817.023 9  21989427.863 9  21989428.547 9
  20745715.680 9 -39752354.320 9 -29596611.896 9  20745716.340 9  20745714.864 9
  22496844.054 8 -32030796.829 8 -19878834.936 8  22496843.967 8  22496843.143 9
  20735400.356 9 -33351465.390 9 -25519125.197 9  20735400.912 9  20735399.398 9
 10  3 18  5  3 33.0000000  0  9G19G07G16G24G21G22G06G18G03
  22759871.552 8 -17702905.148 8 -13633226.476 8  22759869.243 8  22759869.260 8
  24702581.172 7  -4007165.501 7  -2905740.476 6  24702582.554 6  24702581.305 6
  21295051.037 9 -36767044.477 9 -28402196.583 9  21295050.689 9  21295049.845 9
  23757579.996 7 -34818194.287 7 -22180190.680 7  23757581.908 7  23757579.605 7
  23011822.820 8 -38460134.909 8 -25889877.169 7  23011821.464 7  23011820.900 8
  21988846.028 9 -30440068.815 9 -18760203.531 9  21988845.021 9  21988845.758 9
  20745324.471 9 -39754410.141 9 -29598213.835 9  20745325.215 9  20745323.642 9
  22496662.108 8 -32031752.683 8 -19879579.757 8  22496662.038 8  22496661.235 9
  20734879.291 9 -33354203.608 9 -25521258.873 9  20734879.830 9  20734878.269 9
 10  3 18  5  3 34.0000000  0  9G19G07G16G24G21G22G06G18G03
  22759183.013 8 -17706522.544 8 -13636045.225 8  22759180.858 8  22759180.930 8
  24702221.763 7  -4009053.365 7  -2907211.540 6  24702223.382 6  24702222.101 6
  21295170.199 9 -36766418.101 9 -28401708.498 9  21295169.825 9  21295168.993 9
  23757944.756 7 -34816277.162 7 -22178696.818 7  23757946.763 7  23757944.399 7
  23012055.993 8 -38458909.505 8 -25888922.309 7  23012054.668 7  23012054.099 8
  21988263.434 9 -30443130.998 9 -18762589.647 9  21988262.290 9  21988263.070 9
  20744933.332 9 -39756465.703 9 -29599815.572 9  20744934.134 9  20744932.471 9
  22496480.425 8 -32032707.969 8 -19880324.136 9  22496480.246 9  22496479.440 9
  20734358.274 9 -33356941.484 9 -25523392.283 9  20734358.816 9  20734357.243 9
 10  3 18  5  3 35.0000000  0  9G19G07G16G24G21G22G06G18G03
  22758494.642 8 -17710139.685 8 -13638863.775 8  22758492.522 8  22758492.646 8
  24701862.476 7  -4010940.525 7  -2908682.058 6  24701864.268 6  24701863.009 6
  21295289.547 9 -36765791.072 9 -28401219.904 9  21295289.084 9  21295288.271 9
  23758309.596 7 -34814359.836 7 -22177202.801 7  23758311.623 7  23758309.208 6
  23012289.044 8 -38457683.821 8 -25887967.233 8  23012287.936 8  23012287.355 8
  21987680.926 9 -30446192.545 9 -18764975.267 9  21987679.685 9  21987680.501 9
  20744542.334 9 -39758520.822 9 -29601416.962 9  20744543.079 9  20744541.386 9
  22496298.891 8 -32033662.532 8 -19881067.950 9  22496298.626 9  22496297.788 9
  20733837.313 9 -33359678.887 9 -25525525.324 9  20733837.897 9  20733836.368 9
 10  3 18  5  3 36.0000000  0  9G19G07G16G24G21G22G06G18G03
  22757806.314 8 -17713756.678 8 -13641682.211 8  22757804.231 8  22757804.402 8
  24701503.717 7  -4012827.085 7  -2910152.108 6  24701505.178 6  24701504.007 6
  21295409.036 9 -36765163.522 9 -28400730.904 9  21295408.441 9  21295407.651 9
  23758674.653 7 -34812442.417 7 -22175708.709 7  23758676.505 7  23758674.024 6
  23012522.197 8 -38456457.950 8 -25887012.011 8  23012521.255 8  23012520.653 8
  21987098.425 9 -30449253.585 9 -18767360.493 9  21987097.183 9  21987098.015 9
  20744151.344 9 -39760575.639 9 -29603018.119 9  20744152.082 9  20744150.355 9
  22496117.427 8 -32034616.516 8 -19881811.314 9  22496117.107 9  22496116.251 9
  20733316.358 9 -33362415.955 9 -25527658.104 9  20733317.033 9  20733315.541 9
 10  3 18  5  3 37.0000000  0  9G19G07G16G24G21G22G06G18G03
  22757117.928 8 -17717373.509 8 -13644500.520 8  22757115.965 8  22757116.179 8
  24701144.863 7  -4014712.986 7  -2911621.642 6  24701146.222 6  24701145.167 6
  21295528.545 9 -36764535.426 9 -28400241.478 9  21295527.949 9  21295527.177 9
  23759039.612 7 -34810524.902 7 -22174214.545 7  23759041.456 7  23759038.834 7
  23012755.650 8 -38455231.884 8 -25886056.636 8  23012754.602 8  23012753.978 8
  21986515.986 9 -30452314.099 9 -18769745.309 9  21986514.784 9  21986515.625 9
  20743760.441 9 -39762630.159 9 -29604619.043 9  20743761.137 9  20743759.350 9
  22495935.890 8 -32035569.899 8 -19882554.210 9  22495935.689 9  22495934.826 9
  20732795.646 9 -33365152.646 9 -25529790.590 9  20732796.232 9  20732794.772 9
 10  3 18  5  3 38.0000000  0  9G19G07G16G24G21G22G06G18G03
  22756429.822 8 -17720990.166 8 -13647318.694 8  22756427.767 8  22756427.968 8
  24700786.085 7  -4016598.269 7  -2913090.695 6  24700787.394 6  24700786.478 6
  21295648.112 9 -36763906.804 9 -28399751.644 9  21295647.606 9  21295646.836 9
  23759404.554 7 -34808607.254 7 -22172720.275 7  23759406.421 7  23759403.686 7
  23012988.934 8 -38454005.650 8 -25885101.128 8  23012987.972 8  23012987.326 8
  21985933.554 9 -30455374.096 9 -18772129.721 9  21985932.480 9  21985933.341 9
  20743369.499 9 -39764684.369 9 -29606219.726 9  20743370.248 9  20743368.401 9
  22495754.328 8 -32036522.664 8 -19883296.624 9  22495754.384 9  22495753.516 9
  20732274.912 9 -33367888.973 9 -25531922.793 9  20732275.497 9  20732274.068 9
 10  3 18  5  3 39.0000000  0  9G19G07G16G24G21G22G06G18G03
  22755741.624 8 -17724606.695 8 -13650136.766 8  22755739.582 8  22755739.773 8
  24700426.955 7  -4018482.919 7  -2914559.253 6  24700428.714 6  24700427.841 6
  21295767.891 9 -36763277.635 9 -28399261.382 9  21295767.353 9  21295766.611 9
  23759769.546 7 -34806689.557 7 -22171225.968 7  23759771.339 7  23759768.610 7
  23013222.200 8 -38452779.196 8 -25884145.449 8  23013221.385 8  23013220.720 8
  21985351.424 9 -30458433.543 9 -18774513.706 9  21985350.281 9  21985351.168 9
  20742978.538 9 -39766738.301 9 -29607820.192 9  20742979.395 9  20742977.516 9
  22495573.121 8 -32037474.832 8 -19884038.573 9  22495573.176 9  22495572.307 9
  20731754.212 9 -33370624.951 9 -25534054.722 9  20731754.825 9  20731753.428 9
 10  3 18  5  3 40.0000000  0  9G19G07G16G24G21G22G06G18G03
  22755053.376 8 -17728223.058 8 -13652954.710 8  22755051.439 8  22755051.667 8
  24700067.739 7  -4020366.972 7  -2916027.345 6  24700070.179 6  24700069.260 6
  21295887.707 9 -36762647.943 9 -28398770.713 9  21295887.174 9  21295886.488 9
  23760134.501 7 -34804771.726 7 -22169731.557 7  23760136.292 7  23760133.550 6
  23013455.543 8 -38451552.591 8 -25883189.654 8  23013454.829 8  23013454.148 8
  21984769.261 9 -30461492.495 9 -18776897.304 9  21984768.173 9  21984769.099 9
  20742587.570 9 -39768791.918 9 -29609420.413 9  20742588.598 9  20742586.693 9
  22495392.136 8 -32038426.418 8 -19884780.068 9  22495392.093 9  22495391.227 9
  20731233.687 9 -33373360.586 9 -25536186.386 9  20731234.226 9  20731232.846 9
 10  3 18  5  3 41.0000000  0  9G19G07G16G24G21G22G06G18G03
  22754365.229 8 -17731839.281 8 -13655772.545 8  22754363.323 8  22754363.585 8
  24699709.101 7  -4022250.404 7  -2917494.954 6  24699711.744 6  24699710.846 6
  21296007.528 9 -36762017.735 9 -28398279.642 9  21296007.076 9  21296006.445 9
  23760499.681 7 -34802853.852 7 -22168237.111 6  23760501.301 6  23760498.467 6
  23013688.940 8 -38450325.794 8 -25882233.710 8  23013688.320 8  23013687.597 8
  21984187.357 9 -30464550.941 9 -18779280.508 9  21984186.160 9  21984187.134 9
  20742196.864 9 -39770845.247 9 -29611020.410 9  20742197.847 9  20742195.986 9
  22495211.117 8 -32039377.427 8 -19885521.114 9  22495211.130 9  22495210.266 9
  20730713.231 9 -33376095.871 9 -25538317.776 9  20730713.711 9  20730712.320 9
 10  3 18  5  3 42.0000000  0  9G19G07G16G24G21G22G06G18G03
  22753677.198 8 -17735455.386 8 -13658590.289 8  22753675.208 8  22753675.486 8
  24699350.853 7  -4024133.282 7  -2918962.135 6  24699353.400 6  24699352.582 6
  21296127.371 9 -36761387.028 9 -28397788.182 9  21296127.051 9  21296126.484 9
  23760864.692 7 -34800935.890 7 -22166742.598 6  23760866.322 6  23760863.421 6
  23013922.364 8 -38449098.847 8 -25881277.649 8  23013921.854 8  23013921.064 8
  21983605.473 9 -30467608.892 9 -18781663.327 9  21983604.238 9  21983605.234 9
  20741806.248 9 -39772898.292 9 -29612620.184 9  20741807.150 9  20741805.328 9
  22495030.360 8 -32040327.862 8 -19886261.712 9  22495030.266 9  22495029.400 9
  20730192.749 9 -33378830.835 9 -25540448.917 9  20730193.266 9  20730191.860 9
 10  3 18  5  3 43.0000000  0  9G19G07G16G24G21G22G06G18G03
  22752988.996 8 -17739071.311 8 -13661407.893 8  22752987.117 8  22752987.416 8
  24698992.503 6  -4026015.451 6  -2920428.760 6  24698995.241 6  24698994.436 6
  21296247.490 9 -36760755.753 9 -28397296.280 9  21296247.150 9  21296246.609 9
  23761229.421 7 -34799017.810 7 -22165247.992 6  23761231.335 6  23761228.455 6
  23014155.855 8 -38447871.683 8 -25880321.417 8  23014155.408 8  23014154.579 8
  21983023.695 9 -30470666.296 9 -18784045.719 9  21983022.414 9  21983023.423 9
  20741415.633 9 -39774951.012 9 -29614219.705 9  20741416.559 9  20741414.702 9
  22494849.408 8 -32041277.673 8 -19887001.825 9  22494849.512 9  22494848.638 9
  20729672.384 9 -33381565.418 9 -25542579.760 9  20729672.906 9  20729671.476 9
 10  3 18  5  3 44.0000000  0  9G19G07G16G24G21G22G06G18G03
  22752300.989 8 -17742687.141 8 -13664225.422 8  22752299.061 8  22752299.354 8
  24698634.055 7  -4027897.104 7  -2921894.983 6  24698637.234 6  24698636.370 6
  21296367.690 9 -36760124.009 9 -28396804.012 9  21296367.359 9  21296366.813 9
  23761594.269 7 -34797099.665 7 -22163753.338 6  23761596.360 6  23761593.506 6
  23014389.446 8 -38446644.417 8 -25879365.106 8  23014388.966 8  23014388.125 8
  21982442.005 9 -30473723.241 9 -18786427.754 9  21982440.694 9  21982441.694 9
  20741025.062 9 -39777003.507 9 -29615819.051 9  20741026.014 9  20741024.120 9
  22494668.829 8 -32042226.954 8 -19887741.524 9  22494668.852 9  22494667.986 9
  20729152.263 9 -33384299.700 9 -25544710.369 9  20729152.598 9  20729151.145 9
 10  3 18  5  3 45.0000000  0  9G19G07G16G24G21G22G06G18G03
  22751612.947 8 -17746302.888 8 -13667042.886 8  22751611.019 8  22751611.311 8
  24698276.625 6  -4029778.203 6  -2923360.773 6  24698279.308 6  24698278.358 6
  21296487.916 9 -36759491.812 9 -28396311.391 9  21296487.697 9  21296487.121 9
  23761959.244 7 -34795181.533 7 -22162258.690 6  23761961.380 6  23761958.572 6
  23014623.190 8 -38445417.022 8 -25878408.694 8  23014622.560 8  23014621.672 8
  21981860.376 9 -30476779.741 9 -18788809.442 9  21981859.075 9  21981860.054 9
  20740634.588 9 -39779055.780 9 -29617418.225 9  20740635.458 9  20740633.587 9
  22494488.172 8 -32043175.698 8 -19888480.805 9  22494488.288 9  22494487.441 9
  20728632.079 9 -33387033.705 9 -25546840.762 9  20728632.326 9  20728630.857 9
 10  3 18  5  3 46.0000000  0  9G19G07G16G24G21G22G06G18G03
  22750925.077 8 -17749918.449 8 -13669860.206 8  22750923.011 8  22750923.339 8
  24697918.965 7  -4031658.637 7  -2924826.049 6  24697921.481 6  24697920.428 6
  21296608.393 9 -36758859.052 9 -28395818.332 9  21296608.182 9  21296607.548 9
  23762324.207 7 -34793263.261 7 -22160763.932 6  23762326.421 6  23762323.654 6
  23014856.904 8 -38444189.432 8 -25877452.131 8  23014856.200 8  23014855.230 8
  21981278.862 9 -30479835.680 9 -18791190.693 9  21981277.549 9  21981278.499 9
  20740244.041 9 -39781107.715 9 -29619017.135 9  20740244.960 9  20740243.109 9
  22494307.622 8 -32044123.832 8 -19889219.610 9  22494307.861 9  22494307.000 9
  20728111.859 9 -33389767.336 9 -25548970.863 9  20728112.124 9  20728110.647 9
 10  3 18  5  3 47.0000000  0  9G19G07G16G24G21G22G06G18G03
  22750237.163 8 -17753533.882 8 -13672677.427 8  22750235.026 8  22750235.389 8
  24697561.730 7  -4033538.485 7  -2926290.870 6  24697563.787 6  24697562.675 6
  21296728.886 9 -36758225.771 9 -28395324.866 9  21296728.734 9  21296728.078 9
  23762689.512 7 -34791344.923 7 -22159269.126 6  23762691.465 6  23762688.726 6
  23015090.517 8 -38442961.648 8 -25876495.417 8  23015089.866 8  23015088.851 8
  21980697.523 9 -30482891.119 9 -18793571.554 9  21980696.122 9  21980697.043 9
  20739853.700 9 -39783159.354 9 -29620615.815 9  20739854.570 9  20739852.678 9
  22494127.396 8 -32045071.376 8 -19889957.956 9  22494127.574 9  22494126.667 9
  20727591.873 9 -33392500.621 9 -25551100.696 9  20727591.978 9  20727590.510 9
 10  3 18  5  3 48.0000000  0  9G19G07G16G24G21G22G06G18G03
  22749549.022 8 -17757149.179 8 -13675494.541 8  22749547.057 8  22749547.452 8
  24697204.627 7  -4035417.715 7  -2927755.206 6  24697206.230 6  24697205.092 6
  21296849.397 9 -36757591.997 9 -28394831.016 9  21296849.344 9  21296848.703 9
  23763054.673 7 -34789426.516 7 -22157774.266 6  23763056.519 6  23763053.816 6
  23015324.152 8 -38441733.720 8 -25875538.590 8  23015323.545 8  23015322.516 8
  21980116.256 9 -30485946.065 9 -18795952.030 9  21980114.781 9  21980115.694 9
  20739463.377 9 -39785210.731 9 -29622214.290 9  20739464.234 9  20739462.300 9
  22493947.102 8 -32046018.361 8 -19890695.868 9  22493947.379 9  22493946.430 9
  20727071.854 9 -33395233.580 9 -25553230.274 9  20727071.900 9  20727070.457 9
 10  3 18  5  3 49.0000000  0  9G19G07G16G24G21G22G06G18G03
  22748860.923 8 -17760764.343 8 -13678311.553 8  22748859.117 8  22748859.543 8
  24696847.280 7  -4037296.348 7  -2929219.075 6  24696848.720 6  24696847.635 6
  21296970.076 9 -36756957.703 9 -28394336.761 9  21296970.071 9  21296969.415 9
  23763419.986 7 -34787508.016 7 -22156279.331 6  23763421.580 6  23763418.934 7
  23015557.806 8 -38440505.637 8 -25874581.643 8  23015557.249 8  23015556.214 8
  21979534.964 9 -30489000.540 9 -18798332.139 9  21979533.528 9  21979534.440 9
  20739073.055 9 -39787261.803 9 -29623812.528 9  20739073.874 9  20739071.948 9
  22493767.094 8 -32046964.766 8 -19891433.326 9  22493767.291 9  22493766.308 9
  20726551.949 9 -33397966.196 9 -25555359.584 9  20726551.888 9  20726550.494 9
 10  3 18  5  3 50.0000000  0  9G19G07G16G24G21G22G06G18G03
  22748172.875 8 -17764379.354 8 -13681128.444 8  22748171.181 8  22748171.633 8
  24696489.574 6  -4039174.358 6  -2930682.459 6  24696491.264 6  24696490.315 6
  21297090.962 9 -36756322.875 9 -28393842.090 9  21297090.919 9  21297090.218 9
  23763785.066 7 -34785589.412 7 -22154784.315 6  23763786.651 6  23763784.070 7
  23015791.337 8 -38439277.348 8 -25873624.535 8  23015790.994 8  23015789.959 8
  21978953.861 9 -30492054.438 9 -18800711.800 9  21978952.393 9  21978953.310 9
  20738682.790 9 -39789312.580 9 -29625410.536 9  20738683.575 9  20738681.663 9
  22493587.141 8 -32047910.560 8 -19892170.308 9  22493587.315 9  22493586.313 9
  20726032.007 9 -33400698.455 9 -25557488.616 9  20726031.947 9  20726030.589 9
 10  3 18  5  3 51.0000000  0  9G19G07G16G24G21G22G06G18G03
  22747485.054 8 -17767994.229 8 -13683945.229 8  22747483.274 8  22747483.751 8
  24696132.076 7  -4041051.757 7  -2932145.370 6  24696133.953 6  24696133.008 6
  21297211.938 9 -36755687.534 9 -28393347.019 9  21297211.861 9  21297211.124 9
  23764150.078 7 -34783670.757 7 -22153289.260 6  23764151.683 6  23764149.222 7
  23016024.887 8 -38438048.885 8 -25872667.291 8  23016024.762 8  23016023.754 8
  21978373.011 9 -30495107.865 9 -18803091.093 9  21978371.340 9  21978372.264 9
  20738292.390 9 -39791363.075 9 -29627008.324 9  20738293.381 9  20738291.516 9
  22493407.274 8 -32048855.786 8 -19892906.848 9  22493407.447 9  22493406.441 9
  20725512.053 9 -33403430.376 9 -25559617.385 9  20725512.087 9  20725510.737 9
 10  3 18  5  3 52.0000000  0  9G19G07G16G24G21G22G06G18G03
  22746797.025 8 -17771608.937 8 -13686761.885 8  22746795.416 8  22746795.905 8
  24695774.957 6  -4042928.536 6  -2933607.799 6  24695776.783 6  24695775.724 6
  21297333.049 9 -36755051.654 9 -28392851.529 9  21297332.903 9  21297332.145 9
  23764515.264 7 -34781751.985 7 -22151794.115 6  23764516.745 6  23764514.387 6
  23016258.505 8 -38436820.243 8 -25871709.909 8  23016258.559 8  23016257.600 8
  21977792.204 9 -30498160.739 9 -18805469.955 9  21977790.393 9  21977791.300 9
  20737902.300 9 -39793413.266 9 -29628605.875 9  20737903.244 9  20737901.425 9
  22493227.566 8 -32049800.399 8 -19893642.910 9  22493227.682 9  22493226.698 9
  20724992.183 9 -33406161.935 9 -25561745.872 9  20724992.285 9  20724990.952 9
 10  3 18  5  3 53.0000000  0  9G19G07G16G24G21G22G06G18G03
  22746109.387 8 -17775223.486 8 -13689578.416 8  22746107.585 8  22746108.085 8
  24695417.738 6  -4044804.714 6  -2935069.759 6  24695419.712 6  24695418.613 6
  21297454.259 9 -36754415.249 9 -28392355.629 9  21297453.982 9  21297453.262 9
  23764880.142 7 -34779833.123 7 -22150298.899 6  23764881.876 6  23764879.540 6
  23016492.253 8 -38435591.406 8 -25870752.376 8  23016492.405 8  23016491.450 8
  21977211.568 9 -30501213.114 9 -18807848.428 9  21977209.537 9  21977210.417 9
  20737512.072 9 -39795463.163 9 -29630203.197 9  20737513.169 9  20737511.389 9
  22493047.976 8 -32050744.425 8 -19894378.514 9  22493048.022 9  22493047.082 9
  20724472.320 9 -33408893.137 9 -25563874.082 9  20724472.544 9  20724471.239 9
 10  3 18  5  3 54.0000000  0  9G19G07G16G24G21G22G06G18G03
  22745421.693 8 -17778837.918 8 -13692394.856 8  22745419.769 8  22745420.310 8
  24695061.009 6  -4046680.308 6  -2936531.263 6  24695062.728 6  24695061.661 6
  21297575.605 9 -36753778.341 9 -28391859.336 9  21297575.092 9  21297574.476 9
  23765244.894 7 -34777914.186 7 -22148803.623 6  23765247.022 6  23765244.711 6
  23016726.255 8 -38434362.415 8 -25869794.723 8  23016726.288 8  23016725.294 8
  21976630.924 9 -30504264.985 9 -18810226.509 9  21976628.779 9  21976629.670 9
  20737121.962 9 -39797512.772 9 -29631800.295 9  20737123.148 9  20737121.402 9
  22492868.495 8 -32051687.893 8 -19895113.684 9  22492868.473 9  22492867.550 8
  20723952.491 9 -33411624.021 9 -25566002.043 9  20723952.887 9  20723951.566 9
 10  3 18  5  3 55.0000000  0  9G19G07G16G24G21G22G06G18G03
  22744733.881 8 -17782452.193 8 -13695211.175 8  22744731.985 8  22744732.567 8
  24694703.945 6  -4048555.217 6  -2937992.234 6  24694705.839 6  24694704.775 6
  21297696.980 9 -36753140.891 9 -28391362.622 9  21297696.350 9  21297695.802 9
  23765610.028 7 -34775995.154 7 -22147308.276 6  23765612.225 6  23765609.918 6
  23016960.156 8 -38433133.250 8 -25868836.932 8  23016960.194 8  23016959.170 8
  21976050.290 9 -30507316.327 9 -18812604.178 9  21976048.115 9  21976049.031 9
  20736732.030 9 -39799562.071 9 -29633397.151 9  20736733.212 9  20736731.447 9
  22492689.074 8 -32052630.752 8 -19895848.380 8  22492689.054 8  22492688.123 8
  20723432.885 9 -33414354.528 9 -25568129.711 9  20723433.342 9  20723431.924 9
 10  3 18  5  3 56.0000000  0  9G19G07G16G24G21G22G06G18G03
  22744046.083 8 -17786066.316 8 -13698027.374 8  22744044.209 8  22744044.842 8
  24694346.998 6  -4050429.599 6  -2939452.793 6  24694349.003 6  24694347.932 6
  21297818.375 9 -36752502.919 9 -28390865.501 9  21297817.762 9  21297817.241 9
  23765975.371 7 -34774076.041 7 -22145812.866 6  23765977.442 6  23765975.133 6
  23017194.082 8 -38431903.896 8 -25867878.995 8  23017194.120 8  23017193.073 8
  21975469.909 9 -30510367.172 9 -18814981.458 9  21975467.564 9  21975468.478 9
  20736342.166 9 -39801611.085 9 -29634993.785 9  20736343.326 9  20736341.540 9
  22492509.830 8 -32053573.020 8 -19896582.614 8  22492509.754 8  22492508.823 9
  20722913.286 9 -33417084.692 9 -25570257.110 9  20722913.824 9  20722912.369 9
 10  3 18  5  3 57.0000000  0  9G19G07G16G24G21G22G06G18G03
  22743358.243 8 -17789680.268 8 -13700843.441 8  22743356.467 8  22743357.153 8
  24693990.476 6  -4052303.285 6  -2940912.806 6  24693992.369 6  24693991.282 6
  21297939.884 9 -36751864.398 9 -28390367.951 9  21297939.258 9  21297938.776 9
  23766340.506 7 -34772156.791 7 -22144317.347 6  23766342.686 6  23766340.354 6
  23017427.979 8 -38430674.353 8 -25866920.911 8  23017428.089 8  23017427.021 8
  21974889.413 9 -30513417.467 9 -18817358.310 9  21974887.128 9  21974888.028 9
  20735952.355 9 -39803659.791 9 -29636590.178 9  20735953.472 9  20735951.696 9
  22492330.602 8 -32054514.676 8 -19897316.371 8  22492330.587 8  22492329.660 9
  20722393.705 9 -33419814.479 9 -25572384.217 9  20722394.317 9  20722392.929 9
 10  3 18  5  3 58.0000000  0  9G19G07G16G24G21G22G06G18G03
  22742670.507 8 -17793294.039 8 -13703659.366 8  22742668.785 8  22742669.476 8
  24693634.066 6  -4054176.348 6  -2942372.334 6  24693635.930 6  24693634.809 6
  21298061.489 9 -36751225.322 9 -28389869.970 9  21298060.839 9  21298060.407 9
  23766705.776 7 -34770237.437 7 -22142821.748 6  23766707.943 6  23766705.593 6
  23017662.101 8 -38429444.598 8 -25865962.661 8  23017662.109 8  23017661.021 8
  21974309.084 9 -30516467.234 9 -18819734.751 9  21974306.792 9  21974307.690 9
  20735562.661 9 -39805708.147 9 -29638186.300 9  20735563.690 9  20735561.924 9
  22492151.533 8 -32055455.721 8 -19898049.652 9  22492151.523 9  22492150.587 9
  20721874.363 9 -33422543.898 9 -25574511.037 9  20721874.877 9  20721873.531 9
 10  3 18  5  3 59.0000000  0  9G19G07G16G24G21G22G06G18G03
  22741982.916 8 -17796907.619 8 -13706475.143 8  22741981.140 8  22741981.835 8
  24693277.869 6  -4056048.751 6  -2943831.352 6  24693279.674 6  24693278.511 6
  21298183.061 9 -36750585.679 9 -28389371.547 9  21298182.572 9  21298182.131 9
  23767071.186 7 -34768317.960 7 -22141326.054 6  23767073.202 6  23767070.867 6
  23017896.225 8 -38428214.626 8 -25865004.241 8  23017896.164 8  23017895.067 8
  21973728.754 9 -30519516.433 9 -18822110.749 9  21973726.569 9  21973727.469 9
  20735172.903 9 -39807756.185 9 -29639782.173 9  20735173.950 9  20735172.204 9
  22491972.527 8 -32056396.123 8 -19898782.434 9  22491972.575 9  22491971.622 9
  20721355.126 9 -33425272.923 9 -25576637.549 9  20721355.521 9  20721354.185 9
 10  3 18  5  4  0.0000000  0  9G19G07G16G24G21G22G06G18G03
  22741295.436 8 -17800520.990 8 -13709290.756 8  22741293.548 8  22741294.217 8
  24692921.796 6  -4057920.435 6  -2945289.811 5  24692923.613 5  24692922.390 6
  21298304.868 9 -36749945.427 9 -28388872.650 9  21298304.464 9  21298303.954 9
  23767436.667 7 -34766398.321 7 -22139830.232 6  23767438.502 6  23767436.166 7
  23018130.310 8 -38426984.386 8 -25864045.612 8  23018130.267 8  23018129.171 8
  21973148.605 9 -30522565.037 9 -18824486.283 9  21973146.447 9  21973147.361 9
  20734783.167 9 -39809803.866 9 -29641377.768 9  20734784.280 9  20734782.555 9
  22491793.917 8 -32057335.862 8 -19899514.698 9  22491793.752 9  22491792.805 9
  20720835.941 9 -33428001.517 9 -25578763.726 9  20720836.264 9  20720834.921 9
 10  3 18  5  4  1.0000000  0  9G19G07G16G24G21G22G06G18G03
  22740607.829 8 -17804134.202 8 -13712106.245 8  22740605.989 8  22740606.634 8
  24692565.591 6  -4059791.515 6  -2946747.798 5  24692567.626 5  24692566.365 5
  21298426.691 9 -36749304.671 9 -28388373.359 9  21298426.415 9  21298425.874 9
  23767802.159 7 -34764478.581 7 -22138334.330 6  23767803.842 6  23767801.455 7
  23018364.344 8 -38425754.000 8 -25863086.870 8  23018364.401 8  23018363.342 8
  21972568.517 9 -30525613.137 9 -18826861.425 9  21972566.412 9  21972567.349 9
  20734393.635 9 -39811851.242 9 -29642973.126 9  20734394.689 9  20734392.954 9
  22491615.262 9 -32058275.019 9 -19900246.508 8  22491615.038 8  22491614.121 9
  20720316.795 9 -33430729.767 9 -25580889.635 9  20720317.110 9  20720315.731 9
 10  3 18  5  4  2.0000000  0  9G19G07G16G24G21G22G06G18G03
  22739920.097 8 -17807747.258 8 -13714921.613 8  22739918.436 8  22739919.070 8
  24692210.038 7  -4061661.984 7  -2948205.308 5  24692211.697 5  24692210.426 5
  21298548.634 9 -36748663.361 9 -28387873.637 9  21298548.431 9  21298547.902 9
  23768167.413 7 -34762558.734 7 -22136838.347 7  23768169.213 7  23768166.779 7
  23018598.477 8 -38424523.382 8 -25862127.948 8  23018598.574 8  23018597.589 8
  21971988.460 9 -30528660.687 9 -18829236.139 9  21971986.499 9  21971987.439 9
  20734004.127 9 -39813898.295 9 -29644568.231 9  20734005.159 9  20734003.416 9
  22491436.633 9 -32059213.567 9 -19900977.844 9  22491436.430 9  22491435.541 9
  20719797.779 9 -33433457.646 9 -25583015.254 9  20719798.015 9  20719796.612 9
 10  3 18  5  4  3.0000000  0  9G19G07G16G24G21G22G06G18G03
  22739232.663 8 -17811360.114 8 -13717736.825 8  22739230.926 8  22739231.548 8
  24691854.021 7  -4063531.787 7  -2949662.297 5  24691855.893 5  24691854.612 6
  21298670.783 9 -36748021.500 9 -28387373.484 9  21298670.577 9  21298670.015 9
  23768532.707 7 -34760638.745 7 -22135342.249 7  23768534.653 7  23768532.168 7
  23018832.812 8 -38423292.563 8 -25861168.869 8  23018832.794 8  23018831.840 8
  21971408.506 9 -30531707.685 9 -18831610.422 9  21971406.699 9  21971407.634 9
  20733614.580 9 -39815945.029 9 -29646163.088 9  20733615.666 9  20733613.962 9
  22491258.130 8 -32060151.481 8 -19901708.686 8  22491257.931 8  22491257.071 9
  20719278.907 9 -33436185.135 9 -25585140.571 9  20719278.969 9  20719277.561 9
 10  3 18  5  4  4.0000000  0  9G19G07G16G24G21G22G06G18G03
  22738545.145 8 -17814972.815 8 -13720551.917 8  22738543.473 8  22738544.004 8
  24691498.481 7  -4065400.961 7  -2951118.796 5  24691500.198 5  24691498.911 6
  21298792.998 9 -36747379.105 9 -28386872.918 9  21298792.839 9  21298792.203 9
  23768897.827 7 -34758718.695 7 -22133846.106 7  23768900.101 7  23768897.556 7
  23019066.814 8 -38422061.553 8 -25860209.641 8  23019067.062 8  23019066.104 8
  21970828.861 9 -30534754.175 9 -18833984.309 9  21970827.005 9  21970827.921 9
  20733225.163 9 -39817991.457 9 -29647757.708 9  20733226.236 9  20733224.569 9
  22491079.792 8 -32061088.814 8 -19902439.076 9  22491079.540 9  22491078.710 9
  20718760.035 9 -33438912.286 9 -25587265.624 9  20718759.992 9  20718758.581 9
 10  3 18  5  4  5.0000000  0  9G19G07G16G24G21G22G06G18G03
  22737857.506 8 -17818585.496 8 -13723366.993 8  22737856.024 8  22737856.467 8
  24691142.833 7  -4067269.658 7  -2952574.923 5  24691144.546 5  24691143.267 6
  21298915.292 9 -36746736.299 9 -28386372.030 9  21298915.154 9  21298914.486 9
  23769263.424 7 -34756798.643 7 -22132349.961 7  23769265.512 7  23769262.890 7
  23019300.954 8 -38420830.481 8 -25859250.366 8  23019301.316 8  23019300.372 8
  21970249.298 9 -30537800.266 9 -18836357.885 9  21970247.393 9  21970248.284 9
  20732835.726 9 -39820037.692 9 -29649352.177 9  20732836.898 9  20732835.218 9
  22490901.556 8 -32062025.649 8 -19903169.077 9  22490901.242 9  22490900.437 9
  20718241.018 9 -33441639.193 9 -25589390.486 9  20718241.071 9  20718239.651 9
 10  3 18  5  4  6.0000000  0  9G19G07G16G24G21G22G06G18G03
  22737170.117 8 -17822198.001 8 -13726181.931 8  22737168.590 8  22737169.028 8
  24690787.779 7  -4069137.720 7  -2954030.556 5  24690788.966 5  24690787.717 5
  21299037.747 9 -36746092.948 9 -28385870.717 9  21299037.545 9  21299036.882 9
  23769628.861 7 -34754878.504 7 -22130853.747 7  23769630.923 7  23769628.244 7
  23019535.458 8 -38419599.211 8 -25858290.936 8  23019535.585 8  23019534.675 8
  21969669.683 9 -30540845.819 9 -18838731.042 9  21969667.848 9  21969668.722 9
  20732446.429 9 -39822083.627 9 -29650946.411 9  20732447.618 9  20732445.923 9
  22490723.283 9 -32062961.890 9 -19903898.616 9  22490723.063 9  22490722.284 9
  20717722.280 9 -33444365.729 9 -25591515.059 9  20717722.223 9  20717720.807 9
 10  3 18  5  4  7.0000000  0  9G19G07G16G24G21G22G06G18G03
  22736482.816 8 -17825810.326 8 -13728996.729 8  22736481.196 8  22736481.629 8
  24690432.477 7  -4071005.141 7  -2955485.692 5  24690433.572 5  24690432.333 5
  21299160.281 9 -36745449.041 9 -28385368.971 9  21299160.038 9  21299159.417 9
  23769994.198 7 -34752958.234 7 -22129357.433 7  23769996.250 7  23769993.620 7
  23019769.746 8 -38418367.733 8 -25857331.343 8  23019769.917 8  23019769.017 8
  21969090.255 9 -30543890.807 9 -18841103.759 9  21969088.396 9  21969089.261 9
  20732057.278 9 -39824129.211 9 -29652540.373 9  20732058.392 9  20732056.687 9
  22490545.138 8 -32063897.517 8 -19904627.675 9  22490545.004 9  22490544.253 9
  20717203.374 9 -33447091.893 9 -25593639.343 9  20717203.463 9  20717202.059 9
 10  3 18  5  4  8.0000000  0  9G19G07G16G24G21G22G06G18G03
  22735795.265 8 -17829422.494 8 -13731811.405 8  22735793.788 8  22735794.220 8
  24690077.274 7  -4072871.911 7  -2956940.319 5  24690078.361 5  24690077.100 5
  21299282.848 9 -36744804.604 9 -28384866.812 9  21299282.633 9  21299282.083 9
  23770359.785 7 -34751037.886 7 -22127861.057 7  23770361.607 7  23770359.037 7
  23020004.083 8 -38417136.067 8 -25856371.604 8  23020004.303 8  23020003.386 8
  21968510.865 9 -30546935.272 9 -18843476.068 9  21968509.052 9  21968509.892 9
  20731668.127 9 -39826174.522 9 -29654134.120 9  20731669.214 9  20731667.501 9
  22490367.325 8 -32064832.529 8 -19905356.255 9  22490367.068 9  22490366.362 9
  20716684.784 9 -33449817.692 9 -25595763.342 9  20716684.756 9  20716683.366 9
 10  3 18  5  4  9.0000000  0  9G19G07G16G24G21G22G06G18G03
  22735107.706 8 -17833034.531 8 -13734625.978 8  22735106.406 8  22735106.840 8
  24689722.226 7  -4074738.076 7  -2958394.473 5  24689723.247 5  24689721.972 5
  21299405.511 9 -36744159.653 9 -28384364.253 9  21299405.343 9  21299404.821 9
  23770725.431 7 -34749117.433 7 -22126364.600 7  23770727.033 7  23770724.535 7
  23020238.644 8 -38415904.238 8 -25855411.739 8  23020238.717 8  23020237.801 8
  21967931.488 9 -30549979.249 9 -18845847.997 9  21967929.813 9  21967930.622 9
  20731279.006 9 -39828219.543 9 -29655727.643 9  20731280.022 9  20731278.317 9
  22490189.582 8 -32065766.968 8 -19906084.390 9  22490189.248 9  22490188.600 9
  20716166.125 9 -33452543.157 9 -25597887.081 9  20716166.094 9  20716164.722 9
 10  3 18  5  4 10.0000000  0  9G19G07G16G24G21G22G06G18G03
  22734420.401 8 -17836646.397 8 -13737440.420 8  22734419.074 8  22734419.528 8
  24689366.699 7  -4076603.600 7  -2959848.128 5  24689368.234 5  24689366.958 5
  21299528.383 9 -36743514.156 9 -28383861.269 9  21299528.176 9  21299527.642 9
  23771090.728 7 -34747196.897 7 -22124868.078 7  23771092.482 7  23771090.048 7
  23020473.084 8 -38414672.215 8 -25854451.723 8  23020473.167 8  23020472.267 8
  21967352.368 9 -30553022.673 9 -18848219.495 9  21967350.661 9  21967351.488 9
  20730889.930 9 -39830264.258 9 -29657320.927 9  20730890.889 9  20730889.189 9
  22490011.996 9 -32066700.804 9 -19906812.055 9  22490011.531 9  22490010.944 9
  20715647.578 9 -33455268.257 9 -25600010.536 9  20715647.507 9  20715646.158 9
 10  3 18  5  4 11.0000000  0  9G19G07G16G24G21G22G06G18G03
  22733733.150 8 -17840258.080 8 -13740254.718 8  22733731.779 8  22733732.248 8
  24689011.804 7  -4078468.500 7  -2961301.296 5  24689013.275 5  24689012.066 6
  21299651.366 9 -36742868.107 9 -28383357.853 9  21299651.140 9  21299650.573 9
  23771456.289 7 -34745276.218 7 -22123371.446 7  23771457.998 7  23771455.578 7
  23020707.586 8 -38413439.976 8 -25853491.539 8  23020707.650 8  23020706.797 8
  21966773.330 9 -30556065.567 9 -18850590.581 9  21966771.611 9  21966772.477 9
  20730501.030 9 -39832308.629 9 -29658913.943 9  20730501.851 9  20730500.092 9
  22489834.400 9 -32067634.012 9 -19907539.229 9  22489833.925 9  22489833.402 9
  20715129.099 9 -33457992.974 9 -25602133.692 9  20715129.000 9  20715127.675 9
 10  3 18  5  4 12.0000000  0  9G19G07G16G24G21G22G06G18G03
  22733045.976 8 -17843869.632 8 -13743068.913 8  22733044.530 8  22733044.938 8
  24688657.473 7  -4080332.825 7  -2962754.017 5  24688658.362 5  24688657.297 6
  21299774.502 9 -36742221.545 9 -28382854.039 9  21299774.222 9  21299773.602 9
  23771821.904 7 -34743355.489 7 -22121874.775 7  23771823.518 7  23771821.095 7
  23020942.364 8 -38412207.600 8 -25852531.246 8  23020942.150 8  23020941.375 8
  21966194.257 9 -30559107.939 9 -18852961.260 9  21966192.681 9  21966193.542 9
  20730112.067 9 -39834352.736 9 -29660506.754 9  20730112.867 9  20730111.053 9
  22489657.010 9 -32068566.658 9 -19908265.965 9  22489656.441 9  22489655.952 9
  20714610.629 9 -33460717.373 9 -25604256.600 9  20714610.565 9  20714609.277 9
 10  3 18  5  4 13.0000000  0  9G19G07G16G24G21G22G06G18G03
  22732358.737 8 -17847481.056 8 -13745883.008 8  22732357.309 8  22732357.655 8
  24688302.999 7  -4082196.502 7  -2964206.236 6  24688303.642 6  24688302.644 6
  21299897.595 9 -36741574.454 9 -28382349.812 9  21299897.383 9  21299896.726 9
  23772187.492 7 -34741434.658 7 -22120378.026 6  23772189.026 6  23772186.536 6
  23021177.044 8 -38410975.037 8 -25851570.809 8  23021176.682 8  23021175.955 8
  21965615.410 9 -30562149.801 9 -18855331.542 9  21965613.859 9  21965614.697 9
  20729723.297 9 -39836396.537 9 -29662099.326 9  20729723.975 9  20729722.118 9
  22489479.815 9 -32069498.705 9 -19908992.236 8  22489479.078 8  22489478.591 9
  20714092.270 9 -33463441.409 9 -25606379.225 9  20714092.215 9  20714090.977 9
 10  3 18  5  4 14.0000000  0  9G19G07G16G24G21G22G06G18G03
  22731671.363 8 -17851092.313 8 -13748696.974 8  22731670.093 8  22731670.403 8
  24687947.943 7  -4084059.574 7  -2965657.982 6  24687949.120 6  24687948.110 6
  21300020.863 9 -36740926.840 9 -28381845.178 9  21300020.619 9  21300019.944 9
  23772553.079 7 -34739513.729 7 -22118881.201 7  23772554.552 7  23772552.018 7
  23021411.906 8 -38409742.266 8 -25850610.209 8  23021411.256 8  23021410.549 8
  21965036.667 9 -30565191.163 9 -18857701.433 9  21965035.138 9  21965035.969 9
  20729334.376 9 -39838440.037 9 -29663691.664 9  20729335.144 9  20729333.245 9
  22489302.593 9 -32070430.163 9 -19909718.047 8  22489301.839 8  22489301.361 9
  20713573.997 9 -33466165.089 9 -25608501.573 9  20713573.930 9  20713572.716 9
 10  3 18  5  4 15.0000000  0  9G19G07G16G24G21G22G06G18G03
  22730984.408 8 -17854703.305 8 -13751510.733 8  22730982.927 8  22730983.204 8
  24687593.409 7  -4085921.910 7  -2967109.153 6  24687594.765 6  24687593.696 6
  21300144.248 9 -36740278.582 9 -28381340.042 9  21300143.952 9  21300143.319 9
  23772918.794 7 -34737592.619 7 -22117384.234 6  23772920.088 6  23772917.595 6
  23021646.736 8 -38408509.231 8 -25849649.404 8  23021645.881 8  23021645.201 8
  21964458.056 9 -30568231.880 9 -18860070.823 9  21964456.540 9  21964457.370 9
  20728945.480 9 -39840483.128 9 -29665283.683 9  20728946.411 9  20728944.511 9
  22489125.473 9 -32071360.894 9 -19910443.291 8  22489124.739 8  22489124.273 9
  20713055.777 9 -33468888.302 9 -25610623.557 9  20713055.714 9  20713054.493 9
 10  3 18  5  4 16.0000000  0  9G19G07G16G24G21G22G06G18G03
  22730297.254 8 -17858314.120 8 -13754324.355 8  22730295.810 8  22730296.060 8
  24687239.001 7  -4087783.616 7  -2968559.834 6  24687240.562 6  24687239.384 6
  21300267.686 9 -36739629.782 9 -28380834.483 9  21300267.356 9  21300266.823 9
  23773284.443 7 -34735671.397 7 -22115887.175 6  23773285.654 6  23773283.207 7
  23021881.470 8 -38407275.997 8 -25848688.444 8  23021880.543 8  23021879.895 8
  21963879.600 9 -30571272.070 9 -18862439.801 9  21963878.016 9  21963878.859 9
  20728556.751 9 -39842525.906 9 -29666875.458 9  20728557.743 9  20728555.843 9
  22488948.336 9 -32072291.041 9 -19911168.080 9  22488947.730 9  22488947.286 9
  20712537.547 9 -33471611.154 9 -25612745.260 9  20712537.576 9  20712536.345 9
 10  3 18  5  4 17.0000000  0  9G19G07G16G24G21G22G06G18G03
  22729610.124 8 -17861924.797 8 -13757137.869 8  22729608.710 8  22729608.933 8
  24686885.032 7  -4089644.683 7  -2970010.016 6  24686886.414 6  24686885.151 6
  21300391.395 9 -36738980.453 9 -28380328.512 9  21300390.904 9  21300390.426 9
  23773650.025 7 -34733750.040 7 -22114390.016 6  23773651.272 6  23773648.877 7
  23022116.237 8 -38406042.562 8 -25847727.327 8  23022115.237 8  23022114.600 8
  21963301.004 9 -30574311.712 9 -18864808.353 9  21963299.579 9  21963300.443 9
  20728168.014 9 -39844568.384 9 -29668466.999 9  20728169.062 9  20728167.256 9
  22488771.348 9 -32073220.572 9 -19911892.389 9  22488770.827 9  22488770.410 9
  20712019.508 9 -33474333.640 9 -25614866.677 9  20712019.534 9  20712018.286 9
 10  3 18  5  4 18.0000000  0  9G19G07G16G24G21G22G06G18G03
  22728923.148 8 -17865535.289 8 -13759951.238 8  22728921.650 8  22728921.871 8
  24686531.163 7  -4091505.156 7  -2971459.734 6  24686532.307 6  24686530.996 6
  21300515.172 9 -36738330.577 9 -28379822.116 9  21300514.601 9  21300514.135 9
  23774015.660 7 -34731828.608 7 -22112892.794 6  23774016.909 6  23774014.557 7
  23022350.980 8 -38404808.934 8 -25846766.059 8  23022349.972 8  23022349.326 8
  21962722.768 9 -30577350.854 9 -18867176.515 9  21962721.240 9  21962722.112 9
  20727779.544 9 -39846610.547 9 -29670058.294 9  20727780.441 9  20727778.726 9
  22488594.619 9 -32074149.506 9 -19912616.233 9  22488594.026 9  22488593.650 9
  20711501.497 9 -33477055.752 9 -25616987.803 9  20711501.557 9  20711500.298 9
 10  3 18  5  4 19.0000000  0  9G19G07G16G24G21G22G06G18G03
  22728236.109 8 -17869145.617 8 -13762764.479 8  22728234.616 8  22728234.833 8
  24686177.384 7  -4093364.965 7  -2972908.937 6  24686178.354 6  24686176.936 6
  21300639.035 9 -36737680.165 9 -28379315.300 9  21300638.369 9  21300637.943 9
  23774380.995 7 -34729907.065 7 -22111395.491 6  23774382.599 6  23774380.252 7
  23022585.952 8 -38403575.116 8 -25845804.643 8  23022584.755 8  23022584.098 8
  21962144.414 9 -30580389.437 9 -18869544.242 9  21962143.005 9  21962143.880 9
  20727390.967 9 -39848652.390 9 -29671649.341 9  20727391.853 9  20727390.146 9
  22488417.954 9 -32075077.836 9 -19913339.607 9  22488417.334 9  22488417.011 9
  20710983.444 9 -33479777.486 9 -25619108.635 9  20710983.637 9  20710982.375 9
 10  3 18  5  4 20.0000000  0  9G19G07G16G24G21G22G06G18G03
  22727549.084 8 -17872755.783 8 -13765577.594 8  22727547.631 8  22727547.826 8
  24685823.531 7  -4095224.117 7  -2974357.630 6  24685824.542 6  24685822.964 6
  21300762.944 9 -36737029.189 9 -28378808.046 9  21300762.209 9  21300761.849 9
  23774746.857 7 -34727985.402 7 -22109898.093 7  23774748.300 7  23774745.958 7
  23022820.773 8 -38402341.082 8 -25844843.058 8  23022819.603 8  23022818.925 8
  21961566.286 9 -30583427.487 9 -18871911.552 9  21961564.885 9  21961565.747 9
  20727002.540 9 -39850693.920 9 -29673240.143 9  20727003.323 9  20727001.626 9
  22488241.261 9 -32076005.543 9 -19914062.496 9  22488240.748 9  22488240.496 9
  20710465.520 9 -33482498.860 9 -25621229.186 9  20710465.765 9  20710464.522 9
 10  3 18  5  4 21.0000000  0  9G19G07G16G24G21G22G06G18G03
  22726862.045 8 -17876365.796 8 -13768390.590 8  22726860.675 8  22726860.847 8
  24685469.987 7  -4097082.680 7  -2975805.862 6  24685470.803 6  24685469.218 6
  21300886.870 9 -36736377.707 9 -28378300.398 9  21300886.176 9  21300885.816 9
  23775112.443 7 -34726063.663 7 -22108400.635 7  23775113.955 7  23775111.633 7
  23023055.542 8 -38401106.901 8 -25843881.359 8  23023054.468 8  23023053.775 8
  21960988.254 9 -30586465.003 9 -18874278.447 9  21960986.877 9  21960987.718 9
  20726614.042 9 -39852735.146 9 -29674830.708 9  20726614.858 9  20726613.169 9
  22488064.724 8 -32076932.662 8 -19914784.925 9  22488064.270 9  22488064.109 9
  20709947.710 9 -33485219.875 9 -25623349.457 9  20709947.926 9  20709946.737 9
 10  3 18  5  4 22.0000000  0  9G19G07G16G24G21G22G06G18G03
  22726175.056 8 -17879975.704 8 -13771203.503 8  22726173.718 8  22726173.881 8
  24685116.863 7  -4098940.666 7  -2977253.644 6  24685117.130 6  24685115.677 6
  21301010.994 9 -36735725.730 9 -28377792.364 9  21301010.271 9  21301009.847 9
  23775477.726 7 -34724141.900 7 -22106903.157 6  23775479.611 6  23775477.310 7
  23023290.483 8 -38399872.540 8 -25842919.520 8  23023289.361 8  23023288.660 8
  21960410.331 9 -30589502.057 9 -18876644.983 9  21960408.957 9  21960409.778 9
  20726225.571 9 -39854776.108 9 -29676421.068 9  20726226.444 9  20726224.764 9
  22487888.369 9 -32077859.238 9 -19915506.932 9  22487887.892 9  22487887.809 9
  20709429.940 9 -33487940.579 9 -25625469.485 9  20709430.150 9  20709429.018 9
 10  3 18  5  4 23.0000000  0  9G19G07G16G24G21G22G06G18G03
  22725488.122 8 -17883585.404 8 -13774016.256 8  22725486.804 8  22725486.959 8
  24684763.820 7  -4100798.014 7  -2978700.928 6  24684763.637 6  24684762.307 6
  21301135.169 9 -36735073.201 9 -28377283.900 9  21301134.445 9  21301134.010 9
  23775843.300 7 -34722219.972 7 -22105405.548 7  23775845.339 7  23775843.027 7
  23023525.395 8 -38398638.000 8 -25841957.541 8  23023524.283 8  23023523.601 8
  21959832.545 9 -30592538.543 9 -18879011.076 9  21959831.156 9  21959831.958 9
  20725837.261 9 -39856816.750 9 -29678011.179 9  20725838.127 9  20725836.391 9
  22487712.237 9 -32078785.185 9 -19916228.449 8  22487711.631 8  22487711.617 9
  20708912.150 9 -33490660.906 9 -25627589.220 9  20708912.459 9  20708911.388 9
 10  3 18  5  4 24.0000000  0  9G19G07G16G24G21G22G06G18G03
  22724801.254 8 -17887194.957 8 -13776828.893 8  22724799.921 8  22724800.079 8
  24684410.543 7  -4102654.691 7  -2980147.690 6  24684410.340 6  24684409.108 6
  21301259.493 9 -36734420.109 9 -28376774.997 9  21301258.700 9  21301258.300 9
  23776209.031 7 -34720297.953 7 -22103907.870 6  23776211.101 6  23776208.762 7
  23023760.315 8 -38397403.247 8 -25840995.396 8  23023759.239 8  23023758.602 8
  21959254.891 9 -30595574.486 9 -18881376.746 9  21959253.408 9  21959254.234 9
  20725449.025 9 -39858857.079 9 -29679601.045 9  20725449.866 9  20725448.080 9
  22487536.154 9 -32079710.510 9 -19916949.480 8  22487535.522 8  22487535.535 9
  20708394.631 9 -33493380.831 9 -25629708.642 9  20708394.875 9  20708393.822 9
 10  3 18  5  4 25.0000000  0  9G19G07G16G24G21G22G06G18G03
  22724114.347 8 -17890804.329 8 -13779641.390 8  22724113.074 8  22724113.237 8
  24684057.343 7  -4104510.735 7  -2981593.960 6  24684057.160 6  24684055.968 6
  21301383.982 9 -36733766.478 9 -28376265.674 9  21301383.101 9  21301382.699 9
  23776574.535 7 -34718375.835 7 -22102410.118 7  23776577.004 7  23776574.554 7
  23023995.072 8 -38396168.291 8 -25840033.092 8  23023994.256 8  23023993.637 8
  21958677.228 9 -30598609.886 9 -18883741.992 9  21958675.741 9  21958676.615 9
  20725060.730 9 -39860897.063 9 -29681190.643 9  20725061.664 9  20725059.902 9
  22487360.254 8 -32080635.249 8 -19917670.056 8  22487359.552 8  22487359.552 9
  20707877.099 9 -33496100.391 9 -25631827.780 9  20707877.416 9  20707876.305 9
 10  3 18  5  4 26.0000000  0  9G19G07G16G24G21G22G06G18G03
  22723427.516 8 -17894413.661 8 -13782453.855 8  22723426.286 8  22723426.406 8
  24683703.991 7  -4106366.281 7  -2983039.843 6  24683704.066 6  24683702.861 6
  21301508.395 9 -36733112.424 9 -28375756.022 9  21301507.627 9  21301507.182 9
  23776940.419 7 -34716453.725 7 -22100912.373 6  23776942.878 6  23776940.334 7
  23024230.002 8 -38394933.268 8 -25839070.735 8  23024229.311 8  23024228.678 8
  21958099.622 9 -30601644.894 9 -18886106.934 9  21958098.193 9  21958099.059 9
  20724672.615 9 -39862936.873 9 -29682780.105 9  20724673.491 9  20724671.751 9
  22487184.406 9 -32081559.489 9 -19918390.242 8  22487183.675 8  22487183.672 9
  20707359.728 9 -33498819.713 9 -25633946.732 9  20707359.989 9  20707358.841 9
 10  3 18  5  4 27.0000000  0  9G19G07G16G24G21G22G06G18G03
  22722740.681 8 -17898022.819 8 -13785266.186 8  22722739.533 8  22722739.607 8
  24683350.985 7  -4108221.193 7  -2984485.231 6  24683351.090 6  24683349.880 6
  21301633.026 9 -36732457.837 9 -28375245.954 9  21301632.217 9  21301631.767 9
  23777306.145 7 -34714531.513 7 -22099414.547 6  23777308.656 6  23777306.121 7
  23024464.956 8 -38393698.043 8 -25838108.222 8  23024464.399 8  23024463.761 8
  21957521.967 9 -30604679.340 9 -18888471.436 9  21957520.781 9  21957521.611 9
  20724284.541 9 -39864976.380 9 -29684369.331 9  20724285.349 9  20724283.630 9
  22487008.646 8 -32082483.125 8 -19919109.959 8  22487007.903 8  22487007.907 9
  20706842.276 9 -33501538.665 9 -25636065.396 9  20706842.607 9  20706841.462 9
 10  3 18  5  4 28.0000000  0  9G19G07G16G24G21G22G06G18G03
  22722054.013 8 -17901631.839 8 -13788078.408 8  22722052.721 8  22722052.820 8
  24682997.929 7  -4110075.538 7  -2985930.174 6  24682998.210 6  24682997.002 6
  21301757.590 9 -36731802.743 9 -28374735.491 9  21301756.862 9  21301756.448 9
  23777671.896 7 -34712609.233 7 -22097916.667 6  23777674.454 6  23777671.918 6
  23024699.991 8 -38392462.674 8 -25837145.598 8  23024699.499 8  23024698.867 8
  21956944.623 9 -30607713.300 9 -18890835.561 9  21956943.438 9  21956944.232 9
  20723896.589 9 -39867015.608 9 -29685958.340 9  20723897.258 9  20723895.563 9
  22486833.004 8 -32083406.193 8 -19919829.232 8  22486832.222 8  22486832.252 9
  20706325.039 9 -33504257.290 9 -25638183.805 9  20706325.286 9  20706324.142 9
 10  3 18  5  4 29.0000000  0  9G19G07G16G24G21G22G06G18G03
  22721367.554 8 -17905240.718 8 -13790890.521 8  22721365.931 8  22721366.055 8
  24682645.081 7  -4111929.268 7  -2987374.638 6  24682645.458 6  24682644.233 6
  21301882.466 9 -36731147.113 9 -28374224.611 9  21301881.642 9  21301881.221 9
  23778037.780 7 -34710686.846 7 -22096418.701 6  23778040.319 6  23778037.737 6
  23024935.296 8 -38391227.121 8 -25836182.828 8  23024934.631 8  23024934.026 8
  21956367.311 9 -30610746.740 9 -18893199.280 9  21956366.187 9  21956366.949 9
  20723508.581 9 -39869054.529 9 -29687547.109 9  20723509.279 9  20723507.552 9
  22486657.663 8 -32084328.664 8 -19920548.041 8  22486656.624 8  22486656.701 9
  20705807.759 9 -33506975.564 9 -25640301.940 9  20705808.036 9  20705806.884 9
 10  3 18  5  4 30.0000000  0  9G19G07G16G24G21G22G06G18G03
  22720681.039 8 -17908849.442 8 -13793702.512 8  22720679.171 8  22720679.350 8
  24682291.980 7  -4113782.330 7  -2988818.581 6  24682292.841 6  24682291.580 6
  21302007.435 9 -36730490.960 9 -28373713.323 9  21302006.561 9  21302006.093 9
  23778403.692 7 -34708764.372 7 -22094920.670 6  23778406.191 6  23778403.563 7
  23025170.485 8 -38389991.371 8 -25835219.905 8  23025169.795 8  23025169.240 8
  21955790.120 9 -30613779.640 9 -18895562.577 9  21955789.044 9  21955789.780 9
  20723120.628 9 -39871093.183 9 -29689135.671 9  20723121.356 9  20723119.595 9
  22486482.245 8 -32085250.539 8 -19921266.384 8  22486481.174 8  22486481.283 8
  20705290.551 9 -33509693.473 9 -25642419.792 9  20705290.844 9  20705289.693 9
 10  3 18  5  4 31.0000000  0  9G19G07G16G24G21G22G06G18G03
  22719994.191 8 -17912457.899 8 -13796514.296 8  22719992.462 8  22719992.698 8
  24681939.180 7  -4115634.682 7  -2990261.971 6  24681940.402 6  24681939.048 6
  21302132.582 9 -36729834.147 9 -28373201.521 9  21302131.582 9  21302131.086 9
  23778769.520 7 -34706841.708 7 -22093422.491 6  23778772.025 6  23778769.366 7
  23025405.629 8 -38388755.326 8 -25834256.753 8  23025404.989 8  23025404.487 8
  21955213.188 9 -30616811.904 9 -18897925.380 9  21955212.028 9  21955212.738 9
  20722732.770 9 -39873131.373 9 -29690723.871 9  20722733.511 9  20722731.741 9
  22486307.004 8 -32086171.687 8 -19921984.161 9  22486305.898 9  22486306.012 8
  20704773.416 9 -33512410.905 9 -25644537.271 9  20704773.733 9  20704772.600 9
 10  3 18  5  4 32.0000000  0  9G19G07G16G24G21G22G06G18G03
  22719307.789 8 -17916066.235 8 -13799325.984 8  22719305.783 8  22719306.088 8
  24681587.209 7  -4117486.456 7  -2991704.913 6  24681588.119 6  24681586.614 6
  21302257.708 9 -36729176.868 9 -28372689.355 9  21302256.675 9  21302256.168 9
  23779135.605 7 -34704918.974 7 -22091924.259 6  23779137.892 6  23779135.213 6
  23025640.851 8 -38387519.149 8 -25833293.498 8  23025640.174 8  23025639.735 8
  21954636.396 9 -30619843.712 9 -18900287.827 9  21954635.121 9  21954635.824 9
  20722344.977 9 -39875169.349 9 -29692311.903 9  20722345.706 9  20722343.927 9
  22486131.685 8 -32087092.301 8 -19922701.522 8  22486130.725 8  22486130.847 9
  20704256.414 9 -33515128.036 9 -25646654.516 9  20704256.685 9  20704255.561 9
 10  3 18  5  4 33.0000000  0  9G19G07G16G24G21G22G06G18G03
  22718621.113 8 -17919674.367 8 -13802137.516 8  22718619.153 8  22718619.525 8
  24681234.751 7  -4119337.551 7  -2993147.325 6  24681235.918 6  24681234.328 6
  21302382.792 9 -36728518.997 9 -28372176.729 9  21302381.900 9  21302381.372 9
  23779501.538 7 -34702996.108 7 -22090425.923 6  23779503.861 6  23779501.173 6
  23025876.218 8 -38386282.738 8 -25832330.061 8  23025875.432 8  23025875.046 8
  21954059.576 9 -30622874.942 9 -18902649.824 9  21954058.327 9  21954059.028 9
  20721957.260 9 -39877206.956 9 -29693899.649 9  20721957.959 9  20721956.208 9
  22485956.502 8 -32088012.263 8 -19923418.375 8  22485955.667 8  22485955.798 9
  20703739.425 9 -33517844.760 9 -25648771.444 9  20703739.729 9  20703738.602 9
 10  3 18  5  4 34.0000000  0  9G19G07G16G24G21G22G06G18G03
  22717934.809 8 -17923282.402 8 -13804948.971 8  22717932.531 8  22717932.966 8
  24680882.631 7  -4121188.085 7  -2994589.300 6  24680883.760 6  24680882.155 6
  21302508.014 9 -36727860.659 9 -28371663.738 9  21302507.238 9  21302506.668 9
  23779867.755 7 -34701073.203 7 -22088927.554 6  23779869.825 6  23779867.115 6
  23026111.410 8 -38385046.201 8 -25831366.526 8  23026110.735 8  23026110.392 8
  21953482.964 9 -30625905.699 9 -18905011.453 9  21953481.596 9  21953482.297 9
  20721569.650 9 -39879244.310 9 -29695487.197 9  20721570.258 9  20721568.537 9
  22485781.425 8 -32088931.689 8 -19924134.811 9  22485780.731 9  22485780.853 9
  20703222.447 9 -33520561.189 9 -25650888.141 9  20703222.821 9  20703221.684 9
 10  3 18  5  4 35.0000000  0  9G19G07G16G24G21G22G06G18G03
  22717248.176 8 -17926890.232 8 -13807760.266 8  22717245.938 8  22717246.437 8
  24680530.933 7  -4123037.929 7  -2996030.735 6  24680531.740 6  24680530.131 6
  21302633.441 9 -36727201.721 9 -28371150.280 9  21302632.633 9  21302632.090 9
  23780233.581 7 -34699150.144 7 -22087429.068 6  23780235.769 6  23780233.015 6
  23026346.748 8 -38383809.413 8 -25830402.793 8  23026346.098 8  23026345.775 8
  21952906.497 9 -30628935.872 9 -18907372.627 9  21952904.963 9  21952905.666 9
  20721182.039 9 -39881281.288 9 -29697074.454 9  20721182.603 9  20721180.952 9
  22485606.467 8 -32089850.448 8 -19924850.726 9  22485605.924 9  22485606.022 9
  20702705.713 9 -33523277.194 9 -25653004.509 9  20702705.970 9  20702704.824 9
 10  3 18  5  4 36.0000000  0  9G19G07G16G24G21G22G06G18G03
  22716561.549 8 -17930497.879 8 -13810571.418 8  22716559.441 8  22716559.914 8
  24680179.107 7  -4124887.159 7  -2997471.692 6  24680179.839 6  24680178.231 6
  21302759.008 9 -36726542.255 9 -28370636.411 9  21302758.066 9  21302757.617 9
  23780599.432 7 -34697226.968 7 -22085930.491 6  23780601.729 6  23780598.936 6
  23026582.259 8 -38382572.446 8 -25829438.921 8  23026581.497 8  23026581.175 8
  21952330.163 9 -30631965.505 9 -18909733.380 9  21952328.452 9  21952329.163 9
  20720794.489 9 -39883317.956 9 -29698661.467 9  20720795.009 9  20720793.424 9
  22485431.685 8 -32090768.604 8 -19925566.172 9  22485431.218 9  22485431.310 9
  20702188.864 9 -33525992.828 9 -25655120.587 9  20702189.183 9  20702188.036 9
 10  3 18  5  4 37.0000000  0  9G19G07G16G24G21G22G06G18G03
  22715875.109 8 -17934105.381 8 -13813382.459 8  22715872.967 8  22715873.415 8
  24679827.340 7  -4126735.757 7  -2998912.155 6  24679828.088 6  24679826.518 6
  21302884.490 9 -36725882.235 9 -28370122.110 9  21302883.636 9  21302883.216 9
  23780965.251 7 -34695303.694 7 -22084431.838 6  23780967.677 6  23780964.877 6
  23026817.769 8 -38381335.292 8 -25828474.905 8  23026816.917 8  23026816.631 8
  21951753.804 9 -30634994.599 9 -18912093.712 9  21951752.050 9  21951752.770 9
  20720406.999 9 -39885354.301 9 -29700248.230 9  20720407.513 9  20720405.933 9
  22485256.946 8 -32091686.169 8 -19926281.158 9  22485256.605 9  22485256.709 9
  20701672.272 9 -33528708.098 9 -25657236.381 9  20701672.464 9  20701671.329 9
 10  3 18  5  4 38.0000000  0  9G19G07G16G24G21G22G06G18G03
  22715188.689 8 -17937712.719 8 -13816193.371 8  22715186.489 8  22715186.954 8
  24679475.436 7  -4128583.724 7  -3000352.126 6  24679476.484 6  24679474.977 6
  21303010.058 9 -36725221.693 9 -28369607.402 9  21303009.340 9  21303008.888 9
  23781331.284 7 -34693380.360 7 -22082933.137 6  23781333.653 6  23781330.832 6
  23027053.259 8 -38380097.946 8 -25827510.738 8  23027052.353 8  23027052.128 8
  21951177.459 9 -30638023.175 9 -18914453.641 9  21951175.709 9  21951176.450 9
  20720019.573 9 -39887390.346 9 -29701834.758 9  20720020.072 9  20720018.499 9
  22485082.446 8 -32092603.126 8 -19926995.671 9  22485082.115 9  22485082.207 9
  20701155.712 9 -33531423.013 9 -25659351.900 9  20701155.834 9  20701154.672 9
 10  3 18  5  4 39.0000000  0  9G19G07G16G24G21G22G06G18G03
  22714502.117 8 -17941319.884 8 -13819004.148 8  22714500.050 8  22714500.534 8
  24679124.480 7  -4130431.037 7  -3001791.585 6  24679125.017 6  24679123.510 6
  21303135.860 9 -36724560.610 9 -28369092.273 9  21303135.149 9  21303134.704 9
  23781697.202 7 -34691456.887 7 -22081434.326 6  23781699.780 6  23781696.854 6
  23027288.725 8 -38378860.400 8 -25826546.416 8  23027287.847 8  23027287.644 8
  21950601.311 9 -30641051.206 9 -18916813.145 9  21950599.459 9  21950600.226 9
  20719632.053 9 -39889426.099 9 -29703421.059 9  20719632.680 9  20719631.123 9
  22484908.091 8 -32093519.472 8 -19927709.707 9  22484907.757 9  22484907.815 9
  20700639.166 9 -33534137.565 9 -25661467.135 9  20700639.316 9  20700638.054 9
 10  3 18  5  4 40.0000000  0  9G19G07G16G24G21G22G06G18G03
  22713815.793 8 -17944927.016 8 -13821814.898 8  22713813.628 8  22713814.108 8
  24678772.496 7  -4132277.880 7  -3003230.680 6  24678773.653 6  24678772.085 6
  21303261.698 9 -36723899.123 9 -28368576.828 9  21303261.034 9  21303260.628 9
  23782063.017 7 -34689533.467 7 -22079935.555 6  23782065.874 6  23782062.868 6
  23027524.392 8 -38377622.791 8 -25825582.045 8  23027523.365 8  23027523.147 8
  21950025.150 9 -30644078.837 9 -18919172.339 9  21950023.315 9  21950024.099 9
  20719244.685 9 -39891461.669 9 -29705007.218 9  20719245.327 9  20719243.787 9
  22484733.827 8 -32094435.354 8 -19928423.381 9  22484733.471 9  22484733.503 9
  20700122.633 9 -33536851.878 9 -25663582.184 9  20700122.822 9  20700121.507 9
 10  3 18  5  4 41.0000000  0  9G19G07G16G24G21G22G06G18G03
  22713129.259 8 -17948534.003 8 -13824625.537 8  22713127.243 8  22713127.717 8
  24678421.357 7  -4134124.105 7  -3004669.294 6  24678422.379 6  24678420.779 6
  21303387.650 9 -36723237.098 9 -28368060.965 9  21303387.011 9  21303386.616 9
  23782429.188 7 -34687609.957 7 -22078436.717 6  23782431.869 6  23782428.911 6
  23027759.980 8 -38376385.026 8 -25824617.553 8  23027758.917 8  23027758.673 8
  21949449.126 9 -30647105.956 9 -18921531.132 9  21949447.272 9  21949448.067 9
  20718857.385 9 -39893496.941 9 -29706593.144 9  20718857.965 9  20718856.505 9
  22484559.624 8 -32095350.645 8 -19929136.595 9  22484559.287 9  22484559.297 8
  20699606.119 9 -33539565.837 9 -25665696.956 9  20699606.370 9  20699605.073 9
 10  3 18  5  4 42.0000000  0  9G19G07G16G24G21G22G06G18G03
  22712442.636 8 -17952140.840 8 -13827436.059 8  22712440.868 8  22712441.328 8
  24678070.156 7  -4135969.687 7  -3006107.406 6  24678071.187 6  24678069.588 5
  21303513.694 9 -36722574.550 9 -28367544.694 9  21303513.075 9  21303512.674 9
  23782795.156 7 -34685686.347 7 -22076937.799 6  23782797.885 6  23782794.968 6
  23027995.563 8 -38375147.056 8 -25823652.901 8  23027994.514 8  23027994.234 8
  21948873.124 9 -30650132.544 9 -18923889.512 9  21948871.321 9  21948872.146 9
  20718470.168 9 -39895531.916 9 -29708178.838 9  20718470.661 9  20718469.277 9
  22484385.598 8 -32096265.342 8 -19929849.346 9  22484385.215 9  22484385.213 9
  20699089.679 9 -33542279.442 9 -25667811.454 9  20699089.990 9  20699088.700 9
 10  3 18  5  4 43.0000000  0  9G19G07G16G24G21G22G06G18G03
  22711756.129 8 -17955747.525 8 -13830246.463 8  22711754.520 8  22711754.966 8
  24677719.440 7  -4137814.674 7  -3007545.055 6  24677720.120 6  24677718.495 5
  21303639.853 9 -36721911.482 9 -28367028.018 9  21303639.237 9  21303638.837 9
  23783161.086 7 -34683762.645 7 -22075438.809 6  23783163.926 6  23783161.033 6
  23028231.190 8 -38373908.929 8 -25822688.127 8  23028230.106 8  23028229.835 8
  21948297.364 9 -30653158.615 9 -18926247.488 9  21948295.459 9  21948296.324 9
  20718083.005 9 -39897566.594 9 -29709764.301 9  20718083.481 9  20718082.066 9
  22484211.803 8 -32097179.457 8 -19930561.645 9  22484211.249 9  22484211.238 9
  20698573.507 9 -33544992.694 9 -25669925.677 9  20698573.682 9  20698572.381 9
 10  3 18  5  4 44.0000000  0  9G19G07G16G24G21G22G06G18G03
  22711069.642 8 -17959354.084 8 -13833056.768 8  22711068.209 8  22711068.646 8
  24677368.485 7  -4139659.023 7  -3008982.211 6  24677369.187 6  24677367.513 5
  21303766.198 9 -36721247.896 9 -28366510.938 9  21303765.494 9  21303765.104 9
  23783527.202 7 -34681838.877 7 -22073939.769 7  23783529.976 7  23783527.093 6
  23028466.924 8 -38372670.636 8 -25821723.222 8  23028465.696 8  23028465.478 8
  21947721.586 9 -30656184.164 9 -18928605.059 9  21947719.704 9  21947720.619 9
  20717695.799 9 -39899600.976 9 -29711349.534 9  20717696.360 9  20717694.916 9
  22484038.022 8 -32098092.986 8 -19931273.485 9  22484037.411 9  22484037.382 9
  20698057.159 9 -33547705.597 9 -25672039.627 9  20698057.445 9  20698056.133 9
 10  3 18  5  4 45.0000000  0  9G19G07G16G24G21G22G06G18G03
  22710383.261 8 -17962960.457 8 -13835866.928 8  22710381.933 8  22710382.361 8
  24677017.663 7  -4141502.779 7  -3010418.904 6  24677018.365 6  24677016.667 6
  21303892.596 9 -36720583.775 9 -28365993.442 9  21303891.862 9  21303891.504 9
  23783893.234 7 -34679914.995 7 -22072440.643 7  23783896.032 7  23783893.115 6
  23028702.528 8 -38371432.144 8 -25820758.164 8  23028701.340 8  23028701.169 8
  21947145.849 9 -30659209.178 9 -18930962.212 9  21947144.053 9  21947145.019 9
  20717308.632 9 -39901635.061 9 -29712934.536 9  20717309.268 9  20717307.825 9
  22483864.382 8 -32099005.902 8 -19931984.849 8  22483863.714 8  22483863.651 9
  20697541.076 9 -33550418.140 9 -25674153.296 9  20697541.272 9  20697539.952 9
 10  3 18  5  4 46.0000000  0  9G19G07G16G24G21G22G06G18G03
  22709696.879 8 -17966566.677 8 -13838676.969 8  22709695.727 8  22709696.109 8
  24676667.010 7  -4143345.894 7  -3011855.095 6  24676667.655 6  24676665.961 6
  21304018.994 9 -36719919.117 9 -28365475.526 9  21304018.342 9  21304018.030 9
  23784259.379 7 -34677991.025 7 -22070941.445 7  23784262.110 7  23784259.151 6
  23028938.138 8 -38370193.456 8 -25819792.952 8  23028937.042 8  23028936.905 8
  21946570.280 9 -30662233.680 9 -18933318.967 9  21946568.525 9  21946569.502 9
  20716921.441 9 -39903668.824 9 -29714519.286 9  20716922.242 9  20716920.801 9
  22483690.749 8 -32099918.236 8 -19932695.760 8  22483690.119 8  22483690.026 8
  20697024.903 9 -33553130.319 9 -25676266.682 9  20697025.182 9  20697023.858 9
 10  3 18  5  4 47.0000000  0  9G19G07G16G24G21G22G06G18G03
  22709010.740 8 -17970172.728 8 -13841486.877 8  22709009.559 8  22709009.889 8
  24676316.355 7  -4145188.391 7  -3013290.804 6  24676317.071 6  24676315.364 6
  21304145.648 9 -36719253.934 9 -28364957.202 9  21304144.928 9  21304144.640 9
  23784625.810 7 -34676066.968 7 -22069442.179 6  23784628.239 6  23784625.210 6
  23029173.656 8 -38368954.580 8 -25818827.594 8  23029172.787 8  23029172.671 8
  21945994.727 9 -30665257.630 9 -18935675.291 9  21945993.114 9  21945994.082 9
  20716534.462 9 -39905702.298 9 -29716103.812 9  20716535.301 9  20716533.862 9
  22483517.214 8 -32100829.948 8 -19933406.185 8  22483516.637 8  22483516.515 8
  20696508.915 9 -33555842.115 9 -25678379.769 9  20696509.173 9  20696507.846 9
 10  3 18  5  4 48.0000000  0  9G19G07G16G24G21G22G06G18G03
  22708324.612 8 -17973778.655 8 -13844296.690 8  22708323.347 8  22708323.657 8
  24675965.485 7  -4147030.284 7  -3014726.042 6  24675966.601 6  24675964.867 6
  21304272.341 9 -36718588.267 9 -28364438.500 9  21304271.607 9  21304271.323 9
  23784992.036 7 -34674142.834 7 -22067942.851 6  23784994.387 6  23784991.308 6
  23029409.439 8 -38367715.568 8 -25817862.131 8  23029408.563 8  23029408.457 8
  21945419.254 9 -30668281.134 9 -18938031.268 9  21945417.747 9  21945418.711 9
  20716147.534 9 -39907735.485 9 -29717688.113 9  20716148.413 9  20716146.974 9
  22483343.857 8 -32101741.121 8 -19934116.191 8  22483343.253 8  22483343.120 8
  20695992.928 9 -33558553.608 9 -25680492.620 9  20695993.225 9  20695991.890 9
 10  3 18  5  4 49.0000000  0  9G19G07G16G24G21G22G06G18G03
  22707638.473 8 -17977384.436 8 -13847106.390 8  22707637.163 8  22707637.452 8
  24675615.355 7  -4148871.574 7  -3016160.812 6  24675616.242 6  24675614.467 6
  21304399.116 9 -36717922.029 9 -28363919.352 9  21304398.394 9  21304398.109 9
  23785358.196 7 -34672218.608 7 -22066443.451 6  23785360.579 6  23785357.521 6
  23029645.053 8 -38366476.366 8 -25816896.519 8  23029644.401 8  23029644.291 8
  21944843.961 9 -30671304.055 9 -18940386.791 9  21944842.469 9  21944843.434 9
  20715760.748 9 -39909768.337 9 -29719272.153 9  20715761.599 9  20715760.126 9
  22483170.632 8 -32102651.679 8 -19934825.717 8  22483169.984 8  22483169.853 8
  20695477.022 9 -33561264.705 9 -25682605.163 9  20695477.362 9  20695476.009 9
 10  3 18  5  4 50.0000000  0  9G19G07G16G24G21G22G06G18G03
  22706952.482 8 -17980989.976 8 -13849915.901 8  22706951.023 8  22706951.312 8
  24675265.015 7  -4150712.168 7  -3017595.042 6  24675266.008 6  24675264.183 6
  21304525.964 9 -36717255.225 9 -28363399.766 9  21304525.295 9  21304525.007 9
  23785724.373 7 -34670294.203 7 -22064943.914 6  23785726.803 6  23785723.767 6
  23029880.924 8 -38365236.900 8 -25815930.702 8  23029880.319 8  23029880.183 8
  21944268.828 9 -30674326.391 9 -18942741.856 9  21944267.323 9  21944268.301 9
  20715373.989 9 -39911800.836 9 -29720855.918 9  20715374.852 9  20715373.346 9
  22482997.421 8 -32103561.584 8 -19935534.734 8  22482996.816 8  22482996.687 8
  20694961.147 9 -33563975.398 9 -25684717.391 9  20694961.561 9  20694960.210 9
 10  3 18  5  4 51.0000000  0  9G19G07G16G24G21G22G06G18G03
  22706266.443 8 -17984595.389 8 -13852725.313 8  22706264.906 8  22706265.197 8
  24674914.656 7  -4152552.145 7  -3019028.789 6  24674915.834 6  24674914.021 6
  21304652.962 9 -36716587.915 9 -28362879.783 9  21304652.296 9  21304652.008 9
  23786090.891 7 -34668369.777 7 -22063444.357 6  23786093.007 6  23786090.010 6
  23030116.880 8 -38363997.295 8 -25814964.774 8  23030116.244 8  23030116.088 8
  21943693.881 9 -30677348.245 9 -18945096.548 9  21943692.281 9  21943693.273 9
  20714987.223 9 -39913833.039 9 -29722439.453 9  20714988.199 9  20714986.640 9
  22482824.431 8 -32104470.910 8 -19936243.300 8  22482823.748 8  22482823.622 8
  20694445.400 9 -33566685.764 9 -25686829.364 9  20694445.797 9  20694444.484 9
 10  3 18  5  4 52.0000000  0  9G19G07G16G24G21G22G06G18G03
  22705580.350 8 -17988200.730 8 -13855534.669 8  22705578.817 8  22705579.099 8
  24674564.760 7  -4154391.591 7  -3020462.119 6  24674565.707 6  24674563.975 6
  21304780.109 9 -36715920.153 9 -28362359.450 9  21304779.397 9  21304779.111 9
  23786457.100 7 -34666445.302 7 -22061944.766 6  23786459.222 6  23786456.248 6
  23030352.899 8 -38362757.588 8 -25813998.768 8  23030352.164 8  23030351.997 8
  21943118.945 9 -30680369.645 9 -18947450.885 9  21943117.335 9  21943118.306 9
  20714600.627 9 -39915865.042 9 -29724022.832 9  20714601.580 9  20714599.970 9
  22482651.430 8 -32105379.722 8 -19936951.465 8  22482650.807 8  22482650.662 8
  20693929.688 9 -33569395.840 9 -25688941.111 9  20693930.104 9  20693928.796 9
 10  3 18  5  4 53.0000000  0  9G19G07G16G24G21G22G06G18G03
  22704893.944 8 -17991805.955 8 -13858343.935 8  22704892.745 8  22704893.016 8
  24674215.040 7  -4156230.479 7  -3021895.015 6  24674215.719 6  24674214.023 6
  21304907.371 9 -36715251.896 9 -28361838.730 9  21304906.573 9  21304906.257 9
  23786823.245 7 -34664520.803 7 -22060445.157 6  23786825.407 6  23786822.418 6
  23030588.884 8 -38361517.734 8 -25813032.648 8  23030588.113 8  23030587.971 8
  21942544.049 9 -30683390.550 9 -18949804.837 9  21942542.486 9  21942543.423 9
  20714214.156 9 -39917896.770 9 -29725605.997 9  20714214.983 9  20714213.338 9
  22482478.577 8 -32106287.968 8 -19937659.190 8  22482478.002 8  22482477.815 8
  20693414.044 9 -33572105.608 9 -25691052.618 9  20693414.494 9  20693413.142 9
 10  3 18  5  4 54.0000000  0  9G19G07G16G24G21G22G06G18G03
  22704207.850 8 -17995411.004 8 -13861153.063 8  22704206.745 8  22704206.946 8
  24673865.756 7  -4158068.680 7  -3023327.379 6  24673865.908 6  24673864.197 6
  21305034.591 9 -36714583.094 9 -28361317.586 9  21305033.836 9  21305033.473 9
  23787189.136 7 -34662596.154 7 -22058945.430 6  23787191.621 6  23787188.624 6
  23030824.973 8 -38360277.668 8 -25812066.363 8  23030824.099 8  23030824.012 8
  21941969.330 9 -30686410.917 9 -18952158.369 9  21941967.747 9  21941968.650 9
  20713827.762 9 -39919928.183 9 -29727188.916 9  20713828.444 9  20713826.763 9
  22482305.963 8 -32107195.607 8 -19938366.442 8  22482305.302 8  22482305.110 8
  20692898.387 9 -33574814.992 9 -25693163.827 9  20692898.945 9  20692897.567 9
 10  3 18  5  4 55.0000000  0  9G19G07G16G24G21G22G06G18G03
  22703521.860 8 -17999015.936 8 -13863962.101 8  22703520.762 8  22703520.893 8
  24673516.396 7  -4159906.307 7  -3024759.296 6  24673516.229 6  24673514.500 6
  21305161.895 9 -36713913.787 9 -28360796.048 9  21305161.196 9  21305160.818 9
  23787555.541 7 -34660671.483 7 -22057445.687 6  23787557.855 6  23787554.869 6
  23031061.106 8 -38359037.469 8 -25811099.974 8  23031060.099 8  23031060.055 8
  21941394.660 9 -30689430.787 9 -18954511.514 9  21941393.108 9  21941393.976 9
  20713441.334 9 -39921959.301 9 -29728771.606 9  20713441.910 9  20713440.236 9
  22482133.173 8 -32108102.674 8 -19939073.248 8  22482132.694 8  22482132.535 8
  20692382.812 9 -33577524.062 9 -25695274.790 9  20692383.431 9  20692382.065 9
 10  3 18  5  4 56.0000000  0  9G19G07G16G24G21G22G06G18G03
  22702835.883 8 -18002620.744 8 -13866771.040 8  22702834.805 8  22702834.905 8
  24673166.789 7  -4161743.359 7  -3026190.767 6  24673166.683 6  24673164.923 6
  21305289.349 9 -36713243.991 9 -28360274.129 9  21305288.653 9  21305288.285 9
  23787921.586 7 -34658746.725 7 -22055945.876 6  23787924.094 6  23787921.135 6
  23031297.025 8 -38357797.108 8 -25810133.458 8  23031296.110 8  23031296.099 8
  21940820.268 9 -30692450.163 9 -18956864.273 9  21940818.544 9  21940819.376 9
  20713054.914 9 -39923990.175 9 -29730354.105 9  20713055.428 9  20713053.761 9
  22481960.646 8 -32109009.182 8 -19939779.617 8  22481960.195 8  22481960.043 8
  20691867.362 9 -33580232.791 9 -25697385.488 9  20691867.977 9  20691866.609 9
 10  3 18  5  4 57.0000000  0  9G19G07G16G24G21G22G06G18G03
  22702150.030 8 -18006225.370 8 -13869579.838 8  22702148.880 8  22702148.948 8
  24672817.079 7  -4163579.763 7  -3027621.731 6  24672817.283 6  24672815.433 6
  21305416.959 9 -36712573.642 9 -28359751.780 9  21305416.213 9  21305415.826 9
  23788287.921 7 -34656821.860 7 -22054445.980 6  23788290.314 6  23788287.443 6
  23031533.165 8 -38356556.554 8 -25809166.791 8  23031532.172 8  23031532.170 8
  21940245.753 9 -30695468.998 9 -18959216.611 9  21940244.064 9  21940244.864 9
  20712668.481 9 -39926020.723 9 -29731936.350 9  20712669.026 9  20712667.414 9
  22481788.279 8 -32109915.074 8 -19940485.507 8  22481787.810 8  22481787.643 8
  20691351.884 9 -33582941.152 9 -25699495.899 9  20691352.589 9  20691351.198 9
 10  3 18  5  4 58.0000000  0  9G19G07G16G24G21G22G06G18G03
  22701464.325 8 -18009829.817 8 -13872388.497 8  22701463.007 8  22701463.040 8
  24672467.331 7  -4165415.507 7  -3029052.177 6  24672468.029 6  24672466.031 6
  21305544.591 9 -36711902.739 9 -28359228.999 9  21305543.886 9  21305543.451 9
  23788654.392 7 -34654896.905 7 -22052946.016 6  23788656.563 6  23788653.764 6
  23031769.309 8 -38355315.791 8 -25808199.961 8  23031768.288 8  23031768.271 8
  21939671.344 9 -30698487.270 9 -18961568.512 9  21939669.721 9  21939670.503 9
  20712282.023 9 -39928050.941 9 -29733518.338 9  20712282.688 9  20712281.130 9
  22481615.962 8 -32110820.345 8 -19941190.913 8  22481615.564 8  22481615.352 8
  20690836.496 9 -33585649.133 9 -25701606.014 9  20690837.271 9  20690835.872 9
 10  3 18  5  4 59.0000000  0  9G19G07G16G24G21G22G06G18G03
  22700778.383 8 -18013434.042 8 -13875196.983 8  22700777.176 8  22700777.170 8
  24672118.020 7  -4167250.584 7  -3030482.108 6  24672118.875 6  24672116.831 6
  21305672.249 9 -36711231.250 9 -28358705.762 9  21305671.671 9  21305671.171 9
  23789020.980 7 -34652971.771 7 -22051445.913 6  23789022.918 6  23789020.119 6
  23032005.439 8 -38354074.794 8 -25807232.950 8  23032004.436 8  23032004.431 8
  21939097.054 9 -30701504.957 9 -18963919.955 9  21939095.492 9  21939096.260 9
  20711895.797 9 -39930080.781 9 -29735100.032 9  20711896.400 9  20711894.899 9
  22481443.852 8 -32111724.953 8 -19941895.802 8  22481443.465 8  22481443.176 9
  20690321.241 9 -33588356.688 9 -25703715.797 9  20690322.033 9  20690320.644 9
 10  3 18  5  5  0.0000000  0  9G19G07G16G24G21G22G06G18G03
  22700092.410 8 -18017038.183 8 -13878005.404 8  22700091.332 8  22700091.277 8
  24671768.661 7  -4169085.068 7  -3031911.578 6  24671769.791 6  24671767.800 6
  21305800.048 9 -36710559.293 9 -28358182.159 9  21305799.544 9  21305798.964 9
  23789387.419 7 -34651046.610 7 -22049945.788 6  23789389.258 6  23789386.480 6
  23032241.712 8 -38352833.682 8 -25806265.849 8  23032240.590 8  23032240.620 8
  21938522.909 9 -30704522.190 9 -18966271.045 9  21938521.352 9  21938522.121 9
  20711509.483 9 -39932110.392 9 -29736681.547 9  20711510.158 9  20711508.708 9
  22481271.725 8 -32112629.029 8 -19942600.276 8  22481271.455 8  22481271.110 8
  20689806.111 9 -33591063.946 9 -25705825.348 9  20689806.860 9  20689805.471 9
 10  3 18  5  5  1.0000000  0  9G19G07G16G24G21G22G06G18G03
  22699406.671 8 -18020642.193 8 -13880813.722 8  22699405.507 8  22699405.406 8
  24671419.075 7  -4170919.002 7  -3033340.615 6  24671420.798 6  24671418.798 6
  21305927.891 9 -36709886.835 9 -28357658.165 9  21305927.510 9  21305926.886 9
  23789753.792 7 -34649121.384 7 -22048445.614 6  23789755.568 6  23789752.880 6
  23032477.918 8 -38351592.408 8 -25805298.623 8  23032476.778 8  23032476.845 8
  21937948.862 9 -30707538.923 9 -18968621.746 9  21937947.300 9  21937948.081 9
  20711123.231 9 -39934139.745 9 -29738262.861 9  20711123.984 9  20711122.508 9
  22481099.862 8 -32113532.541 8 -19943304.311 8  22481099.543 8  22481099.163 8
  20689290.979 9 -33593770.872 9 -25707934.641 9  20689291.775 9  20689290.362 9
 10  3 18  5  5  2.0000000  0  9G19G07G16G24G21G22G06G18G03
  22698720.951 8 -18024246.073 8 -13883621.940 8  22698719.723 8  22698719.577 8
  24671069.974 7  -4172752.340 7  -3034769.187 6  24671071.902 6  24671069.845 6
  21306055.912 9 -36709213.863 9 -28357133.772 9  21306055.564 9  21306054.928 9
  23790120.201 7 -34647196.099 7 -22046945.393 6  23790121.900 6  23790119.276 6
  23032714.071 8 -38350350.974 8 -25804331.272 8  23032712.997 8  23032713.102 8
  21937374.790 9 -30710555.146 9 -18970972.049 9  21937373.335 9  21937374.123 9
  20710736.954 9 -39936168.806 9 -29739843.947 9  20710737.869 9  20710736.367 9
  22480927.959 8 -32114435.489 8 -19944007.908 8  22480927.738 8  22480927.317 8
  20688775.952 9 -33596477.463 9 -25710043.673 9  20688776.733 9  20688775.326 9
 10  3 18  5  5  3.0000000  0  9G19G07G16G24G21G22G06G18G03
  22698035.260 8 -18027849.745 8 -13886429.995 8  22698033.975 8  22698033.784 8
  24670721.590 7  -4174584.991 7  -3036197.223 6  24670723.179 6  24670721.054 6
  21306184.086 9 -36708540.348 9 -28356608.955 9  21306183.719 9  21306183.075 9
  23790486.566 7 -34645270.680 7 -22045445.068 6  23790488.342 6  23790485.655 6
  23032950.143 8 -38349109.325 8 -25803363.752 8  23032949.264 8  23032949.384 8
  21936800.978 9 -30713570.809 9 -18973321.915 9  21936799.464 9  21936800.257 9
  20710351.041 9 -39938197.546 9 -29741424.782 9  20710351.788 9  20710350.287 9
  22480756.325 8 -32115337.826 8 -19944711.027 8  22480756.049 8  22480755.579 8
  20688261.093 9 -33599183.667 9 -25712152.403 9  20688261.729 9  20688260.372 9
 10  3 18  5  5  4.0000000  0  9G19G07G16G24G21G22G06G18G03
  22697349.415 8 -18031453.232 8 -13889237.905 8  22697348.257 8  22697348.032 8
  24670373.361 7  -4176416.987 7  -3037624.749 6  24670374.636 6  24670372.424 6
  21306312.395 9 -36707866.259 9 -28356083.691 9  21306311.973 9  21306311.327 9
  23790852.844 7 -34643345.147 7 -22043944.652 7  23790854.788 7  23790852.055 6
  23033186.531 8 -38347867.466 8 -25802396.069 8  23033185.571 8  23033185.690 8
  21936227.160 9 -30716585.907 9 -18975671.342 9  21936225.694 9  21936226.504 9
  20709964.998 9 -39940225.922 9 -29743005.336 9  20709965.775 9  20709964.276 9
  22480584.818 8 -32116239.514 8 -19945413.642 8  22480584.474 8  22480583.972 8
  20687746.187 9 -33601889.469 9 -25714260.819 9  20687746.812 9  20687745.464 9
 10  3 18  5  5  5.0000000  0  9G19G07G16G24G21G22G06G18G03
  22696663.611 8 -18035056.573 8 -13892045.703 8  22696662.568 8  22696662.310 8
  24670024.628 7  -4178248.401 7  -3039051.827 6  24670026.163 6  24670023.901 6
  21306440.686 9 -36707191.649 9 -28355558.021 9  21306440.314 9  21306439.655 9
  23791219.321 7 -34641419.526 7 -22042444.168 7  23791221.202 7  23791218.493 6
  23033422.781 8 -38346625.426 8 -25801428.245 8  23033421.927 8  23033422.053 8
  21935653.562 9 -30719600.504 9 -18978020.378 9  21935652.020 9  21935652.847 9
  20709579.093 9 -39942254.009 9 -29744585.663 9  20709579.827 9  20709578.360 9
  22480413.396 8 -32117140.629 8 -19946115.810 8  22480412.993 8  22480412.480 8
  20687231.322 9 -33604594.940 9 -25716368.979 9  20687231.975 9  20687230.577 9
 10  3 18  5  5  6.0000000  0  9G19G07G16G24G21G22G06G18G03
  22695978.118 8 -18038659.783 8 -13894853.397 8  22695976.909 8  22695976.619 8
  24669676.748 7  -4180079.203 7  -3040478.424 6  24669677.755 6  24669675.482 6
  21306569.097 9 -36706516.536 9 -28355031.959 9  21306568.738 9  21306568.060 9
  23791585.477 7 -34639493.826 7 -22040943.623 6  23791587.634 6  23791584.937 6
  23033659.152 8 -38345383.220 8 -25800460.293 8  23033658.313 8  23033658.451 8
  21935079.970 9 -30722614.580 9 -18980369.008 9  21935078.469 9  21935079.291 9
  20709193.273 9 -39944281.811 9 -29746165.768 9  20709193.935 9  20709192.500 9
  22480241.975 8 -32118041.158 8 -19946817.521 8  22480241.635 8  22480241.113 8
  20686716.643 9 -33607300.068 9 -25718476.870 9  20686717.188 9  20686715.770 9
 10  3 18  5  5  7.0000000  0  9G19G07G16G24G21G22G06G18G03
  22695292.545 8 -18042262.836 8 -13897660.970 8  22695291.275 8  22695290.955 8
  24669328.354 7  -4181909.381 7  -3041904.533 6  24669329.449 6  24669327.213 6
  21306697.599 9 -36705840.881 9 -28354505.476 9  21306697.307 9  21306696.621 9
  23791951.857 7 -34637568.029 7 -22039443.004 6  23791954.126 6  23791951.382 6
  23033895.635 8 -38344140.842 8 -25799492.207 8  23033894.739 8  23033894.875 8
  21934506.553 9 -30725628.119 9 -18982717.219 9  21934505.031 9  21934505.836 9
  20708807.514 9 -39946309.321 9 -29747745.646 9  20708808.168 9  20708806.669 9
  22480070.708 8 -32118941.093 8 -19947518.770 8  22480070.397 8  22480069.869 8
  20686201.985 9 -33610004.832 9 -25720584.479 9  20686202.438 9  20686201.047 9
 10  3 18  5  5  8.0000000  0  9G19G07G16G24G21G22G06G18G03
  22694607.311 8 -18045865.757 8 -13900468.440 8  22694605.697 8  22694605.331 8
  24668980.830 7  -4183738.944 7  -3043330.167 6  24668981.242 6  24668979.092 6
  21306826.259 9 -36705164.725 9 -28353978.601 9  21306826.009 9  21306825.318 9
  23792318.602 7 -34635642.182 7 -22037942.347 6  23792320.618 6  23792317.840 6
  23034132.083 8 -38342898.305 8 -25798523.998 8  23034131.191 8  23034131.313 8
  21933933.205 9 -30728641.163 9 -18985065.046 9  21933931.675 9  21933932.461 9
  20708421.877 9 -39948336.531 9 -29749325.290 9  20708422.455 9  20708420.896 9
  22479899.708 8 -32119840.443 8 -19948219.562 8  22479899.271 8  22479898.734 8
  20685687.464 9 -33612709.259 9 -25722691.823 9  20685687.776 9  20685686.401 9
 10  3 18  5  5  9.0000000  0  9G19G07G16G24G21G22G06G18G03
  22693921.751 8 -18049468.491 8 -13903275.763 8  22693920.154 8  22693919.741 8
  24668632.952 7  -4185567.857 7  -3044755.296 6  24668633.139 6  24668631.103 6
  21306955.008 9 -36704488.002 9 -28353451.285 9  21306954.808 9  21306954.121 9
  23792685.290 7 -34633716.197 7 -22036441.583 6  23792687.080 6  23792684.340 6
  23034368.832 8 -38341655.544 8 -25797555.613 8  23034367.688 8  23034367.814 8
  21933359.969 9 -30731653.636 9 -18987412.427 9  21933358.426 9  21933359.192 9
  20708036.109 9 -39950363.422 9 -29750904.684 9  20708036.718 9  20708035.202 9
  22479728.713 8 -32120739.156 8 -19948919.859 8  22479728.273 8  22479727.723 8
  20685172.898 9 -33615413.296 9 -25724798.865 9  20685173.241 9  20685171.852 9
 10  3 18  5  5 10.0000000  0  9G19G07G16G24G21G22G06G18G03
  22693236.349 8 -18053071.085 8 -13906082.978 8  22693234.594 8  22693234.206 8
  24668285.336 7  -4187396.185 7  -3046179.967 6  24668285.118 6  24668283.234 6
  21307083.867 9 -36703810.779 9 -28352923.579 9  21307083.691 9  21307083.021 9
  23793051.528 7 -34631790.159 7 -22034940.775 6  23793053.534 6  23793050.817 6
  23034605.156 8 -38340412.653 8 -25796587.126 8  23034604.209 8  23034604.355 8
  21932786.904 9 -30734665.615 9 -18989759.423 9  21932785.269 9  21932786.004 9
  20707650.521 9 -39952390.038 9 -29752483.865 9  20707651.036 9  20707649.561 9
  22479557.973 8 -32121637.305 8 -19949619.714 8  22479557.367 8  22479556.801 8
  20684658.379 9 -33618117.010 9 -25726905.655 9  20684658.762 9  20684657.359 9
 10  3 18  5  5 11.0000000  0  9G19G07G16G24G21G22G06G18G03
  22692550.821 8 -18056673.507 8 -13908890.057 8  22692549.067 8  22692548.703 8
  24667937.423 7  -4189223.850 7  -3047604.125 6  24667937.246 6  24667935.475 6
  21307212.918 9 -36703133.005 9 -28352395.444 9  21307212.669 9  21307212.015 9
  23793418.238 7 -34629863.993 7 -22033439.866 6  23793419.963 6  23793417.217 6
  23034841.651 8 -38339169.541 8 -25795618.468 8  23034840.796 8  23034840.921 8
  21932213.967 9 -30737677.034 9 -18992105.983 9  21932212.222 9  21932212.919 9
  20707264.982 9 -39954416.304 9 -29754062.774 9  20707265.434 9  20707263.946 9
  22479386.944 8 -32122534.846 8 -19950319.096 8  22479386.563 8  22479385.978 9
  20684143.930 9 -33620820.333 9 -25729012.140 9  20684144.349 9  20684142.931 9
 10  3 18  5  5 12.0000000  0  9G19G07G16G24G21G22G06G18G03
  22691865.374 8 -18060275.789 8 -13911697.028 8  22691863.568 8  22691863.222 8
  24667589.678 7  -4191050.940 7  -3049027.833 6  24667589.505 6  24667587.815 6
  21307342.040 9 -36702454.723 9 -28351866.913 9  21307341.726 9  21307341.092 9
  23793784.856 7 -34627937.760 7 -22031938.905 6  23793786.418 6  23793783.669 6
  23035077.964 8 -38337926.276 8 -25794649.690 8  23035077.438 8  23035077.505 8
  21931641.097 9 -30740687.958 9 -18994452.158 9  21931639.267 9  21931639.950 9
  20706879.440 9 -39956442.308 9 -29755641.478 9  20706879.886 9  20706878.387 9
  22479216.445 8 -32123431.804 8 -19951018.025 9  22479215.911 9  22479215.286 9
  20683629.576 9 -33623523.309 9 -25731118.356 9  20683630.008 9  20683628.565 9
 10  3 18  5  5 13.0000000  0  9G19G07G16G24G21G22G06G18G03
  22691179.771 8 -18063877.946 8 -13914503.902 8  22691178.092 8  22691177.762 8
  24667241.823 7  -4192877.420 7  -3050451.063 6  24667241.928 6  24667240.287 6
  21307471.220 9 -36701775.929 9 -28351337.983 9  21307470.882 9  21307470.269 9
  23794151.787 7 -34626011.424 7 -22030437.862 6  23794152.970 6  23794150.295 6
  23035314.642 8 -38336682.838 8 -25793680.779 8  23035314.089 8  23035314.128 8
  21931068.352 9 -30743698.365 9 -18996797.929 9  21931066.404 9  21931067.082 9
  20706493.940 9 -39958468.023 9 -29757219.957 9  20706494.416 9  20706492.880 9
  22479045.904 8 -32124328.192 8 -19951716.508 8  22479045.415 8  22479044.723 8
  20683115.130 9 -33626225.957 9 -25733224.315 9  20683115.735 9  20683114.253 9
 10  3 18  5  5 14.0000000  0  9G19G07G16G24G21G22G06G18G03
  22690494.330 8 -18067479.939 8 -13917310.649 8  22690492.649 8  22690492.344 8
  24666894.119 7  -4194703.295 7  -3051873.822 6  24666894.519 6  24666892.893 6
  21307600.501 9 -36701096.625 9 -28350808.656 9  21307600.135 9  21307599.546 9
  23794518.490 7 -34624085.074 7 -22028936.812 6  23794519.525 6  23794516.915 6
  23035551.553 8 -38335439.229 8 -25792711.733 8  23035550.756 8  23035550.801 8
  21930495.661 9 -30746708.254 9 -18999143.297 9  21930493.657 9  21930494.329 9
  20706108.370 9 -39960493.449 9 -29758798.211 9  20706109.005 9  20706107.434 9
  22478875.425 8 -32125223.994 8 -19952414.535 8  22478874.993 8  22478874.267 8
  20682600.827 9 -33628928.259 9 -25735330.005 9  20682601.522 9  20682600.001 9
 10  3 18  5  5 15.0000000  0  9G19G07G16G24G21G22G06G18G03
  22689809.194 8 -18071081.778 8 -13920117.276 8  22689807.233 8  22689806.953 8
  24666546.843 7  -4196528.577 7  -3053296.120 6  24666547.190 6  24666545.548 6
  21307730.010 9 -36700416.804 9 -28350278.925 9  21307729.510 9  21307728.921 9
  23794885.347 7 -34622158.600 7 -22027435.663 6  23794886.102 6  23794883.530 6
  23035788.290 8 -38334195.448 8 -25791742.553 8  23035787.440 8  23035787.504 8
  21929923.064 9 -30749717.628 9 -19001488.264 9  21929921.009 9  21929921.671 9
  20705722.996 9 -39962518.574 9 -29760376.230 9  20705723.646 9  20705722.093 9
  22478704.924 8 -32126119.213 8 -19953112.107 8  22478704.652 8  22478703.927 9
  20682086.663 9 -33631630.201 9 -25737435.414 9  20682087.385 9  20682085.819 9
 10  3 18  5  5 16.0000000  0  9G19G07G16G24G21G22G06G18G03
  22689123.711 8 -18074683.488 8 -13922923.802 8  22689121.887 8  22689121.565 8
  24666199.833 7  -4198353.208 7  -3054717.909 6  24666199.961 6  24666198.286 6
  21307859.512 9 -36699736.457 9 -28349748.786 9  21307859.012 9  21307858.398 9
  23795252.277 7 -34620232.064 7 -22025934.468 6  23795252.693 6  23795250.155 6
  23036024.967 8 -38332951.502 8 -25790773.245 8  23036024.143 8  23036024.240 8
  21929350.451 9 -30752726.487 9 -19003832.829 9  21929348.446 9  21929349.110 9
  20705337.715 9 -39964543.404 9 -29761954.020 9  20705338.345 9  20705336.808 9
  22478534.639 8 -32127013.843 8 -19953809.222 8  22478534.414 8  22478533.700 9
  20681572.578 9 -33634331.800 9 -25739540.557 9  20681573.286 9  20681571.690 9
 10  3 18  5  5 17.0000000  0  9G19G07G16G24G21G22G06G18G03
  22688438.283 8 -18078284.985 8 -13925730.161 8  22688436.583 8  22688436.218 8
  24665852.723 7  -4200177.158 7  -3056139.168 6  24665852.875 6  24665851.207 6
  21307989.069 9 -36699055.529 9 -28349218.193 9  21307988.605 9  21307987.932 9
  23795619.009 7 -34618305.372 7 -22024433.149 6  23795619.326 6  23795616.802 6
  23036261.623 8 -38331707.328 8 -25789803.759 8  23036260.906 8  23036261.032 8
  21928777.898 9 -30755734.749 9 -19006176.930 9  21928775.996 9  21928776.669 9
  20704952.528 9 -39966567.878 9 -29763531.532 9  20704953.087 9  20704951.570 9
  22478364.386 8 -32127907.811 8 -19954505.820 8  22478364.301 8  22478363.606 9
  20681058.562 9 -33637032.981 9 -25741645.372 9  20681059.232 9  20681057.630 9
 10  3 18  5  5 18.0000000  0  9G19G07G16G24G21G22G06G18G03
  22687752.693 8 -18081886.427 8 -13928536.478 8  22687751.230 8  22687750.916 8
  24665505.657 7  -4202000.609 7  -3057560.040 6  24665505.904 6  24665504.274 6
  21308118.695 9 -36698374.188 9 -28348687.278 9  21308118.249 9  21308117.495 9
  23795985.834 7 -34616378.671 7 -22022931.826 6  23795985.973 6  23795983.452 6
  23036498.242 8 -38330463.063 8 -25788834.202 8  23036497.699 8  23036497.849 8
  21928205.553 9 -30758742.591 9 -19008520.702 9  21928203.642 9  21928204.296 9
  20704567.355 9 -39968592.165 9 -29765108.898 9  20704567.865 9  20704566.365 9
  22478194.561 8 -32128801.289 8 -19955202.036 8  22478194.287 8  22478193.597 9
  20680544.734 9 -33639733.908 9 -25743749.991 9  20680545.247 9  20680543.624 9
 10  3 18  5  5 19.0000000  0  9G19G07G16G24G21G22G06G18G03
  22687067.588 8 -18085487.655 8 -13931342.629 8  22687065.912 8  22687065.649 8
  24665159.218 7  -4203823.401 7  -3058980.400 6  24665159.080 6  24665157.428 6
  21308248.479 9 -36697692.261 9 -28348155.906 9  21308247.993 9  21308247.203 9
  23796352.657 7 -34614451.871 7 -22021430.426 6  23796352.660 6  23796350.100 6
  23036735.001 8 -38329218.582 8 -25787864.477 8  23036734.530 8  23036734.707 8
  21927633.244 9 -30761749.863 9 -19010864.030 9  21927631.402 9  21927632.026 9
  20704182.216 9 -39970616.086 9 -29766685.979 9  20704182.783 9  20704181.220 9
  22478024.662 8 -32129694.139 8 -19955897.763 8  22478024.397 8  22478023.705 9
  20680030.792 9 -33642434.417 9 -25745854.283 9  20680031.396 9  20680029.719 9
 10  3 18  5  5 20.0000000  0  9G19G07G16G24G21G22G06G18G03
  22686382.148 8 -18089088.752 8 -13934148.677 8  22686380.634 8  22686380.378 8
  24664812.526 7  -4205645.571 7  -3060400.275 6  24664812.399 6  24664810.662 6
  21308378.301 9 -36697009.832 9 -28347624.144 9  21308377.819 9  21308377.039 9
  23796719.080 8 -34612524.987 8 -22019928.958 6  23796719.357 6  23796716.769 6
  23036971.825 8 -38327973.939 8 -25786894.626 8  23036971.385 8  23036971.593 8
  21927061.037 9 -30764756.627 9 -19013206.963 9  21927059.253 9  21927059.870 9
  20703797.166 9 -39972639.724 9 -29768262.839 9  20703797.755 9  20703796.129 9
  22477854.956 8 -32130586.382 8 -19956593.017 8  22477854.616 8  22477853.914 9
  20679516.913 9 -33645134.583 9 -25747958.308 9  20679517.592 9  20679515.886 9
 10  3 18  5  5 21.0000000  0  9G19G07G16G24G21G22G06G18G03
  22685696.904 8 -18092689.665 8 -13936954.582 8  22685695.390 8  22685695.144 8
  24664465.588 7  -4207467.094 7  -3061819.646 6  24664465.858 6  24664463.993 6
  21308508.226 9 -36696326.843 9 -28347091.945 9  21308507.748 9  21308506.981 9
  23797085.774 8 -34610597.980 8 -22018427.395 6  23797086.055 6  23797083.477 6
  23037208.763 8 -38326729.087 8 -25785924.611 8  23037208.286 8  23037208.475 8
  21926488.870 9 -30767762.824 9 -19015549.454 9  21926487.205 9  21926487.825 9
  20703412.160 9 -39974663.036 9 -29769839.446 9  20703412.768 9  20703411.124 9
  22477685.133 8 -32131478.019 8 -19957287.799 8  22477684.955 8  22477684.235 8
  20679003.273 9 -33647834.368 9 -25750062.036 9  20679003.821 9  20679002.139 9
 10  3 18  5  5 22.0000000  0  9G19G07G16G24G21G22G06G18G03
  22685011.810 8 -18096290.453 8 -13939760.391 8  22685010.175 8  22685009.984 8
  24664119.052 7  -4209288.044 7  -3063238.569 6  24664119.447 6  24664117.408 6
  21308638.111 9 -36695643.362 9 -28346559.362 9  21308637.766 9  21308637.018 9
  23797452.522 8 -34608670.917 8 -22016925.789 6  23797452.770 6  23797450.211 6
  23037445.631 8 -38325484.078 8 -25784954.474 8  23037445.225 8  23037445.352 8
  21925916.874 9 -30770768.538 9 -19017891.568 9  21925915.253 9  21925915.863 9
  20703027.290 9 -39976686.062 9 -29771415.829 9  20703027.835 9  20703026.168 9
  22477515.569 8 -32132369.097 8 -19957982.145 8  22477515.397 8  22477514.661 9
  20678489.548 9 -33650533.828 9 -25752165.511 9  20678490.121 9  20678488.438 9
 10  3 18  5  5 23.0000000  0  9G19G07G16G24G21G22G06G18G03
  22684326.814 8 -18099891.091 8 -13942566.081 8  22684324.985 8  22684324.850 8
  24663772.743 7  -4211108.377 7  -3064657.010 6  24663773.097 6  24663770.941 6
  21308768.157 9 -36694959.362 9 -28346026.375 9  21308767.894 9  21308767.167 9
  23797819.369 7 -34606743.771 7 -22015424.118 6  23797819.522 6  23797816.996 6
  23037682.528 8 -38324238.903 8 -25783984.208 8  23037682.189 8  23037682.282 8
  21925344.891 9 -30773773.722 9 -19020233.270 9  21925343.403 9  21925343.998 9
  20702642.345 9 -39978708.792 9 -29772991.983 9  20702642.919 9  20702641.224 9
  22477346.207 8 -32133259.592 8 -19958676.036 9  22477345.958 9  22477345.207 9
  20677975.985 9 -33653232.930 9 -25754268.706 9  20677976.507 9  20677974.790 9
 10  3 18  5  5 24.0000000  0  9G19G07G16G24G21G22G06G18G03
  22683641.675 8 -18103491.560 8 -13945371.640 8  22683639.810 8  22683639.692 8
  24663426.853 7  -4212928.067 7  -3066074.948 6  24663426.814 6  24663424.599 6
  21308898.385 9 -36694274.824 9 -28345492.970 9  21308898.123 9  21308897.422 9
  23798185.923 8 -34604816.521 8 -22013922.368 6  23798186.290 6  23798183.782 6
  23037919.594 8 -38322993.551 8 -25783013.804 8  23037919.181 8  23037919.260 8
  21924773.083 9 -30776778.367 9 -19022574.551 9  21924771.654 9  21924772.259 9
  20702257.451 9 -39980731.227 9 -29774567.906 9  20702258.063 9  20702256.338 9
  22477176.860 8 -32134149.467 8 -19959369.446 9  22477176.623 9  22477175.850 9
  20677462.440 9 -33655931.669 9 -25756371.618 9  20677462.956 9  20677461.226 9
 10  3 18  5  5 25.0000000  0  9G19G07G16G24G21G22G06G18G03
  22682956.451 8 -18107091.898 8 -13948177.099 8  22682954.661 8  22682954.563 8
  24663080.536 7  -4214747.135 7  -3067492.402 6  24663080.669 6  24663078.438 6
  21309028.720 9 -36693589.765 9 -28344959.158 9  21309028.469 9  21309027.772 9
  23798552.856 8 -34602889.206 8 -22012420.564 6  23798553.042 6  23798550.490 6
  23038156.714 8 -38321748.017 8 -25782043.259 8  23038156.211 8  23038156.290 8
  21924201.264 9 -30779782.507 9 -19024915.439 9  21924199.999 9  21924200.622 9
  20701872.657 9 -39982753.355 9 -29776143.590 9  20701873.266 9  20701871.498 9
  22477007.761 8 -32135038.766 8 -19960062.406 9  22477007.379 9  22477006.583 9
  20676948.896 9 -33658630.060 9 -25758474.260 9  20676949.453 9  20676947.741 9
 10  3 18  5  5 26.0000000  0  9G19G07G16G24G21G22G06G18G03
  22682271.627 8 -18110692.016 8 -13950982.385 8  22682269.578 8  22682269.494 8
  24662734.575 7  -4216565.528 7  -3068909.329 6  24662734.682 6  24662732.465 6
  21309159.147 9 -36692904.139 9 -28344424.905 9  21309158.935 9  21309158.220 9
  23798919.651 7 -34600961.752 7 -22010918.657 6  23798919.828 6  23798917.237 6
  23038393.792 8 -38320502.264 8 -25781072.543 8  23038393.283 8  23038393.367 8
  21923629.724 9 -30782786.062 9 -19027255.871 9  21923628.462 9  21923629.093 9
  20701487.911 9 -39984775.122 9 -29777718.992 9  20701488.538 9  20701486.731 9
  22476838.613 8 -32135927.416 8 -19960754.860 9  22476838.282 9  22476837.452 9
  20676435.376 9 -33661328.046 9 -25760576.587 9  20676436.038 9  20676434.340 9
 10  3 18  5  5 27.0000000  0  9G19G07G16G24G21G22G06G18G03
  22681586.444 8 -18114291.977 8 -13953787.548 8  22681584.526 8  22681584.456 8
  24662388.602 7  -4218383.331 7  -3070325.797 6  24662388.813 6  24662386.601 6
  21309289.776 9 -36692217.978 9 -28343890.233 9  21309289.498 9  21309288.819 9
  23799286.351 8 -34599034.212 8 -22009416.678 6  23799286.665 6  23799284.047 6
  23038630.952 8 -38319256.322 8 -25780101.679 8  23038630.399 8  23038630.480 8
  21923058.345 9 -30785789.085 9 -19029595.889 9  21923057.021 9  21923057.658 9
  20701103.260 9 -39986796.588 9 -29779294.160 9  20701103.903 9  20701102.075 9
  22476669.663 8 -32136815.474 8 -19961446.853 9  22476669.322 9  22476668.443 9
  20675921.935 9 -33664025.676 9 -25762678.635 9  20675922.722 9  20675921.025 9
 10  3 18  5  5 28.0000000  0  9G19G07G16G24G21G22G06G18G03
  22680901.193 8 -18117891.761 8 -13956592.574 8  22680899.522 8  22680899.504 8
  24662042.612 7  -4220200.460 7  -3071741.740 6  24662043.083 6  24662040.867 6
  21309420.439 9 -36691531.267 9 -28343355.134 9  21309420.157 9  21309419.557 9
  23799653.244 7 -34597106.523 7 -22007914.582 6  23799653.513 6  23799650.869 6
  23038868.168 8 -38318010.168 8 -25779130.649 8  23038867.555 8  23038867.627 8
  21922487.023 9 -30788791.557 9 -19031935.478 9  21922485.670 9  21922486.335 9
  20700718.551 9 -39988817.732 9 -29780869.078 9  20700719.323 9  20700717.476 9
  22476500.724 8 -32137702.921 8 -19962138.370 9  22476500.465 9  22476499.558 9
  20675408.641 9 -33666722.920 9 -25764780.383 9  20675409.476 9  20675407.769 9
 10  3 18  5  5 29.0000000  0  9G19G07G16G24G21G22G06G18G03
  22680215.991 8 -18121491.387 8 -13959397.476 8  22680214.550 8  22680214.578 8
  24661696.578 7  -4222016.971 7  -3073157.202 6  24661697.428 6  24661695.229 6
  21309551.206 9 -36690844.026 9 -28342819.621 9  21309550.914 9  21309550.371 9
  23800019.970 8 -34595178.765 8 -22006412.435 6  23800020.328 6  23800017.681 7
  23039105.266 8 -38316763.853 8 -25778159.495 8  23039104.730 8  23039104.789 8
  21921915.726 9 -30791793.502 9 -19034274.655 9  21921914.408 9  21921915.114 9
  20700333.937 9 -39990838.578 9 -29782443.763 9  20700334.754 9  20700332.930 9
  22476331.839 8 -32138589.762 8 -19962829.415 9  22476331.711 9  22476330.793 9
  20674895.437 9 -33669419.809 9 -25766881.854 9  20674896.289 9  20674894.557 9
 10  3 18  5  5 30.0000000  0  9G19G07G16G24G21G22G06G18G03
  22679530.888 8 -18125090.824 8 -13962202.232 8  22679529.567 8  22679529.645 8
  24661351.109 7  -4223832.848 7  -3074572.171 6  24661351.848 6  24661349.692 6
  21309682.139 9 -36690156.222 9 -28342283.670 9  21309681.764 9  21309681.257 9
  23800386.474 7 -34593250.896 7 -22004910.199 6  23800387.172 6  23800384.518 7
  23039342.453 8 -38315517.317 8 -25777188.168 8  23039341.947 8  23039341.989 8
  21921344.641 9 -30794794.881 9 -19036613.392 9  21921343.250 9  21921343.980 9
  20699949.487 9 -39992859.085 9 -29784018.184 9  20699950.248 9  20699948.450 9
  22476163.284 8 -32139475.995 8 -19963519.986 9  22476163.070 9  22476162.143 9
  20674382.355 9 -33672116.310 9 -25768983.023 9  20674383.177 9  20674381.431 9
 10  3 18  5  5 31.0000000  0  9G19G07G16G24G21G22G06G18G03
  22678846.137 8 -18128690.118 8 -13965006.877 8  22678844.614 8  22678844.740 8
  24661005.545 7  -4225648.107 7  -3075986.658 6  24661006.423 6  24661004.279 6
  21309813.167 9 -36689467.899 9 -28341747.314 9  21309812.735 9  21309812.227 9
  23800753.239 8 -34591322.948 8 -22003407.903 6  23800754.089 6  23800751.410 7
  23039579.414 8 -38314270.611 8 -25776216.708 8  23039579.189 8  23039579.199 8
  21920773.558 9 -30797795.750 9 -19038951.731 9  21920772.182 9  21920772.930 9
  20699565.080 9 -39994879.288 9 -29785592.368 9  20699565.822 9  20699564.038 9
  22475994.869 8 -32140361.627 8 -19964210.088 9  22475994.536 9  22475993.605 9
  20673869.236 9 -33674812.451 9 -25771083.912 9  20673870.126 9  20673868.382 9
 10  3 18  5  5 32.0000000  0  9G19G07G16G24G21G22G06G18G03
  22678161.353 8 -18132289.270 8 -13967811.411 8  22678159.713 8  22678159.886 8
  24660660.481 7  -4227462.743 7  -3077400.662 6  24660661.153 6  24660658.983 6
  21309944.228 9 -36688779.083 9 -28341210.575 9  21309943.814 9  21309943.270 9
  23801120.184 7 -34589394.917 7 -22001905.541 6  23801121.026 6  23801118.326 6
  23039816.589 8 -38313023.739 8 -25775245.119 8  23039816.468 8  23039816.428 8
  21920202.661 9 -30800796.110 9 -19041289.674 9  21920201.204 9  21920201.954 9
  20699180.560 9 -39996899.213 9 -29787166.336 9  20699181.448 9  20699179.680 9
  22475826.661 8 -32141246.690 8 -19964899.747 9  22475826.129 9  22475825.176 9
  20673356.303 9 -33677508.260 9 -25773184.541 9  20673357.150 9  20673355.385 9
 10  3 18  5  5 33.0000000  0  9G19G07G16G24G21G22G06G18G03
  22677476.584 8 -18135888.204 8 -13970615.774 8  22677474.850 8  22677475.070 8
  24660314.998 7  -4229276.705 7  -3078814.137 5  24660315.936 5  24660313.787 6
  21310075.506 9 -36688089.689 9 -28340673.384 9  21310075.016 9  21310074.419 9
  23801487.034 7 -34587466.759 7 -22000403.082 6  23801488.017 6  23801485.291 6
  23040053.943 8 -38311776.639 8 -25774273.353 8  23040053.804 8  23040053.702 8
  21919631.772 9 -30803795.886 9 -19043627.161 9  21919630.347 9  21919631.091 9
  20698796.139 9 -39998918.780 9 -29788740.024 9  20698797.133 9  20698795.395 9
  22475658.317 9 -32142131.103 9 -19965588.900 9  22475657.866 9  22475656.875 9
  20672843.297 9 -33680203.651 9 -25775284.845 9  20672844.268 9  20672842.450 9
 10  3 18  5  5 34.0000000  0  9G19G07G16G24G21G22G06G18G03
  22676791.613 8 -18139486.998 8 -13973420.029 8  22676789.961 8  22676790.302 8
  24659969.757 7  -4231090.071 7  -3080227.150 6  24659970.746 6  24659968.671 6
  21310206.789 9 -36687399.753 9 -28340135.771 9  21310206.324 9  21310205.656 9
  23801854.081 7 -34585538.521 7 -21998900.560 6  23801855.009 6  23801852.257 6
  23040291.406 8 -38310529.357 8 -25773301.445 8  23040291.190 8  23040291.011 8
  21919061.132 9 -30806795.132 9 -19045964.235 9  21919059.605 9  21919060.341 9
  20698411.855 9 -40000938.028 9 -29790313.464 9  20698412.879 9  20698411.173 9
  22475490.098 9 -32143014.916 9 -19966277.586 9  22475489.708 9  22475488.690 9
  20672330.465 9 -33682898.681 9 -25777384.868 9  20672331.440 9  20672329.584 9
 10  3 18  5  5 35.0000000  0  9G19G07G16G24G21G22G06G18G03
  22676106.853 8 -18143085.651 8 -13976224.172 8  22676105.096 8  22676105.558 8
  24659624.607 7  -4232902.812 7  -3081639.678 6  24659625.731 6  24659623.742 6
  21310338.179 9 -36686709.317 9 -28339597.769 9  21310337.735 9  21310337.025 9
  23802220.446 7 -34583610.166 7 -21997397.945 6  23802221.955 6  23802219.194 7
  23040528.989 8 -38309281.915 8 -25772329.413 8  23040528.601 8  23040528.367 8
  21918490.391 9 -30809793.863 9 -19048300.908 9  21918488.968 9  21918489.691 9
  20698027.607 9 -40002956.988 9 -29791886.679 9  20698028.669 9  20698026.986 9
  22475322.131 9 -32143898.148 9 -19966965.819 9  22475321.649 9  22475320.618 9
  20671817.695 9 -33685593.368 9 -25779484.624 9  20671818.654 9  20671816.782 9
 10  3 18  5  5 36.0000000  0  9G19G07G16G24G21G22G06G18G03
  22675422.220 8 -18146684.138 8 -13979028.188 8  22675420.282 8  22675420.827 8
  24659279.592 7  -4234714.949 7  -3083051.734 6  24659280.882 6  24659278.978 6
  21310469.651 9 -36686018.355 9 -28339059.357 9  21310469.248 9  21310468.519 9
  23802587.362 7 -34581681.756 7 -21995895.289 6  23802588.912 6  23802586.154 7
  23040766.397 8 -38308034.293 8 -25771357.240 8  23040766.046 8  23040765.775 8
  21917919.850 9 -30812792.081 9 -19050637.180 9  21917918.431 9  21917919.136 9
  20697643.393 9 -40004975.665 9 -29793459.675 9  20697644.513 9  20697642.856 9
  22475154.136 9 -32144780.798 9 -19967653.599 9  22475153.705 9  22475152.670 9
  20671305.032 9 -33688287.704 9 -25781584.105 9  20671305.932 9  20671304.060 9
 10  3 18  5  5 37.0000000  0  9G19G07G16G24G21G22G06G18G03
  22674737.430 8 -18150282.484 8 -13981832.093 8  22674735.494 8  22674736.117 8
  24658934.610 7  -4236526.470 7  -3084463.308 6  24658936.196 6  24658934.303 6
  21310601.238 9 -36685326.867 9 -28338520.535 9  21310600.872 9  21310600.127 9
  23802954.474 7 -34579753.263 7 -21994392.569 6  23802955.868 6  23802953.154 7
  23041003.976 8 -38306786.506 8 -25770384.939 8  23041003.496 8  23041003.209 8
  21917349.341 9 -30815789.768 9 -19052973.040 9  21917347.990 9  21917348.676 9
  20697259.376 9 -40006994.042 9 -29795032.436 9  20697260.418 9  20697258.803 9
  22474986.316 8 -32145662.858 8 -19968340.919 9  22474985.876 9  22474984.844 9
  20670792.395 9 -33690981.669 9 -25783683.298 9  20670793.275 9  20670791.412 9
 10  3 18  5  5 38.0000000  0  9G19G07G16G24G21G22G06G18G03
  22674052.885 8 -18153880.685 8 -13984635.885 8  22674050.737 8  22674051.397 8
  24658590.142 7  -4238337.366 7  -3085874.397 6  24658591.680 6  24658589.726 6
  21310732.864 9 -36684634.875 9 -28337981.320 9  21310732.599 9  21310731.840 9
  23803321.373 7 -34577824.681 7 -21992889.777 6  23803322.839 6  23803320.176 7
  23041241.559 8 -38305538.554 8 -25769412.509 8  23041240.949 8  23041240.671 8
  21916778.924 9 -30818786.949 9 -19055308.506 9  21916777.682 9  21916778.328 9
  20696875.443 9 -40009012.116 9 -29796604.961 9  20696876.383 9  20696874.808 9
  22474818.610 9 -32146544.332 9 -19969027.782 9  22474818.136 9  22474817.107 9
  20670279.869 9 -33693675.309 9 -25785782.238 9  20670280.676 9  20670278.822 9
 10  3 18  5  5 39.0000000  0  9G19G07G16G24G21G22G06G18G03
  22673368.152 8 -18157478.687 8 -13987439.523 8  22673366.022 8  22673366.717 8
  24658245.872 7  -4240147.590 7  -3087284.960 6  24658247.255 6  24658245.293 6
  21310864.596 9 -36683942.296 9 -28337441.648 9  21310864.424 9  21310863.657 9
  23803688.370 7 -34575895.970 7 -21991386.887 6  23803689.800 6  23803687.214 6
  23041479.055 8 -38304290.365 8 -25768439.894 8  23041478.456 8  23041478.178 8
  21916208.779 9 -30821783.540 9 -19057643.512 9  21916207.502 9  21916208.100 9
  20696491.516 9 -40011029.859 9 -29798177.228 9  20696492.381 9  20696490.854 9
  22474650.776 9 -32147425.167 9 -19969714.146 9  22474650.498 9  22474649.471 9
  20669767.289 9 -33696368.527 9 -25787880.849 9  20669768.155 9  20669766.314 9
 10  3 18  5  5 40.0000000  0  9G19G07G16G24G21G22G06G18G03
  22672683.470 8 -18161076.540 8 -13990243.044 8  22672681.388 8  22672682.075 8
  24657901.269 7  -4241957.231 7  -3088695.069 6  24657902.908 6  24657900.991 6
  21310996.375 9 -36683249.211 9 -28336901.582 9  21310996.323 9  21310995.553 9
  23804055.237 7 -34573967.214 7 -21989883.960 6  23804056.789 6  23804054.257 6
  23041716.770 8 -38303042.015 8 -25767467.153 8  23041716.012 8  23041715.725 8
  21915638.629 9 -30824779.624 9 -19059978.122 9  21915637.349 9  21915637.963 9
  20696107.540 9 -40013047.324 9 -29799749.278 9  20696108.434 9  20696106.952 9
  22474483.153 9 -32148305.417 9 -19970400.054 9  22474482.984 9  22474481.971 9
  20669254.796 9 -33699061.402 9 -25789979.193 9  20669255.703 9  20669253.866 9
 10  3 18  5  5 41.0000000  0  9G19G07G16G24G21G22G06G18G03
  22671998.774 8 -18164674.261 8 -13993046.461 8  22671996.779 8  22671997.457 8
  24657556.980 7  -4243766.237 7  -3090104.682 6  24657558.696 6  24657556.784 6
  21311128.290 9 -36682555.632 9 -28336361.130 9  21311128.319 9  21311127.564 9
  23804421.987 7 -34572038.356 7 -21988380.954 6  23804423.923 6  23804421.326 6
  23041954.299 8 -38301793.524 8 -25766494.305 8  23041953.571 8  23041953.312 8
  21915068.623 9 -30827775.199 9 -19062312.336 9  21915067.251 9  21915067.914 9
  20695723.739 9 -40015064.497 9 -29801321.102 9  20695724.574 9  20695723.088 9
  22474315.870 9 -32149185.110 9 -19971085.530 9  22474315.588 9  22474314.592 9
  20668742.356 9 -33701753.950 9 -25792077.282 9  20668743.330 9  20668741.482 9
 10  3 18  5  5 42.0000000  0  9G19G07G16G24G21G22G06G18G03
  22671314.326 8 -18168271.815 8 -13995849.749 8  22671312.155 8  22671312.879 8
  24657212.613 7  -4245574.644 7  -3091513.832 6  24657214.613 6  24657212.670 5
  21311260.411 9 -36681861.507 9 -28335820.254 9  21311260.411 9  21311259.690 9
  23804789.144 7 -34570109.392 7 -21986877.866 6  23804791.067 6  23804788.418 6
  23042192.010 8 -38300544.823 8 -25765521.292 8  23042191.152 8  23042190.958 8
  21914498.686 9 -30830770.231 9 -19064646.127 9  21914497.299 9  21914497.964 9
  20695339.928 9 -40017081.337 9 -29802892.666 9  20695340.776 9  20695339.289 9
  22474148.720 9 -32150064.180 9 -19971770.520 9  22474148.316 9  22474147.315 9
  20668230.058 9 -33704446.118 9 -25794175.075 9  20668231.018 9  20668229.175 9
 10  3 18  5  5 43.0000000  0  9G19G07G16G24G21G22G06G18G03
  22670629.673 8 -18171869.235 8 -13998652.933 8  22670627.563 8  22670628.332 8
  24656869.076 7  -4247382.438 7  -3092922.504 6  24656870.652 6  24656868.636 5
  21311392.543 9 -36681166.879 9 -28335278.985 9  21311392.582 9  21311391.884 9
  23805156.488 7 -34568180.377 7 -21985374.738 6  23805158.176 6  23805155.553 7
  23042429.627 8 -38299295.982 8 -25764548.167 8  23042428.790 8  23042428.602 8
  21913928.904 9 -30833764.764 9 -19066979.529 9  21913927.469 9  21913928.111 9
  20694956.341 9 -40019097.899 9 -29804464.013 9  20694957.008 9  20694955.539 9
  22473981.489 9 -32150942.673 9 -19972455.060 9  22473981.166 9  22473980.138 9
  20667717.837 9 -33707137.945 9 -25796272.602 9  20667718.755 9  20667716.938 9
 10  3 18  5  5 44.0000000  0  9G19G07G16G24G21G22G06G18G03
  22669945.064 8 -18175466.471 8 -14001455.973 8  22669943.035 8  22669943.785 8
  24656524.614 7  -4249189.594 7  -3094330.678 6  24656526.809 6  24656524.683 5
  21311524.865 9 -36680471.682 9 -28334737.272 9  21311524.840 9  21311524.166 9
  23805523.469 7 -34566251.230 7 -21983871.506 6  23805525.318 6  23805522.702 7
  23042667.385 8 -38298046.913 8 -25763574.866 8  23042666.499 8  23042666.265 8
  21913359.183 9 -30836758.719 9 -19069312.480 9  21913357.710 9  21913358.374 9
  20694572.747 9 -40021114.131 9 -29806035.102 9  20694573.298 9  20694571.850 9
  22473814.366 9 -32151820.541 9 -19973139.113 9  22473814.123 9  22473813.098 9
  20667205.632 9 -33709829.387 9 -25798369.829 9  20667206.578 9  20667204.791 9
 10  3 18  5  5 45.0000000  0  9G19G07G16G24G21G22G06G18G03
  22669260.656 8 -18179063.524 8 -14004258.870 8  22669258.552 8  22669259.284 8
  24656181.250 7  -4250996.091 7  -3095738.339 6  24656183.063 6  24656180.908 6
  21311657.272 9 -36679775.964 9 -28334195.153 9  21311657.187 9  21311656.550 9
  23805890.354 7 -34564321.998 7 -21982368.209 6  23805892.496 6  23805889.826 7
  23042905.071 8 -38296797.671 8 -25762601.430 8  23042904.235 8  23042903.996 8
  21912789.542 9 -30839752.148 9 -19071645.021 9  21912788.033 9  21912788.737 9
  20694189.100 9 -40023130.064 9 -29807605.960 9  20694189.669 9  20694188.243 9
  22473647.529 9 -32152697.817 9 -19973822.703 9  22473647.178 9  22473646.183 9
  20666693.621 9 -33712520.454 9 -25800466.764 9  20666694.493 9  20666692.738 9
 10  3 18  5  5 46.0000000  0  9G19G07G16G24G21G22G06G18G03
  22668576.340 8 -18182660.392 8 -14007061.623 8  22668574.072 8  22668574.832 8
  24655837.521 7  -4252801.919 7  -3097145.478 6  24655839.407 6  24655837.298 6
  21311789.847 9 -36679079.656 9 -28333652.576 9  21311789.633 9  21311789.046 9
  23806257.507 7 -34562392.625 7 -21980864.802 6  23806259.701 6  23806256.987 7
  23043143.025 8 -38295548.208 8 -25761627.822 8  23043142.008 8  23043141.803 8
  21912219.933 9 -30842744.991 9 -19073977.107 9  21912218.497 9  21912219.230 9
  20693805.516 9 -40025145.624 9 -29809176.525 9  20693806.113 9  20693804.710 9
  22473480.758 9 -32153574.437 9 -19974505.784 9  22473480.380 9  22473479.390 9
  20666181.734 9 -33715211.113 9 -25802563.380 9  20666182.475 9  20666180.753 9
 10  3 18  5  5 47.0000000  0  9G19G07G16G24G21G22G06G18G03
  22667892.051 8 -18186257.095 8 -14009864.248 8  22667889.620 8  22667890.406 8
  24655493.883 7  -4254607.159 7  -3098552.160 6  24655495.888 6  24655493.752 6
  21311922.513 9 -36678382.834 9 -28333109.598 9  21311922.186 9  21311921.641 9
  23806624.991 7 -34560463.167 7 -21979361.329 6  23806626.920 6  23806624.208 7
  23043380.805 8 -38294298.544 8 -25760654.058 8  23043379.829 8  23043379.640 8
  21911650.484 9 -30845737.304 9 -19076308.778 9  21911649.086 9  21911649.838 9
  20693421.946 9 -40027160.881 9 -29810746.855 9  20693422.606 9  20693421.241 9
  22473314.000 9 -32154450.465 9 -19975188.403 9  22473313.718 9  22473312.708 9
  20665669.782 9 -33717901.412 9 -25804659.717 9  20665670.508 9  20665668.825 9
 10  3 18  5  5 48.0000000  0  9G19G07G16G24G21G22G06G18G03
  22667207.683 8 -18189853.623 8 -14012666.735 8  22667205.209 8  22667205.965 8
  24655150.629 7  -4256411.772 7  -3099958.353 6  24655152.516 6  24655150.287 6
  21312055.185 9 -36677685.478 9 -28332566.203 9  21312054.842 9  21312054.333 9
  23806992.370 7 -34558533.608 7 -21977857.777 7  23806994.158 7  23806991.431 7
  23043618.536 8 -38293048.707 8 -25759680.160 8  23043617.699 8  23043617.507 8
  21911081.287 9 -30848729.091 9 -19078640.040 9  21911079.758 9  21911080.504 9
  20693038.472 9 -40029175.839 9 -29812316.951 9  20693039.157 9  20693037.833 9
  22473147.537 9 -32155325.895 9 -19975870.555 9  22473147.153 9  22473146.114 9
  20665157.932 9 -33720591.339 9 -25806755.763 9  20665158.608 9  20665156.945 9
 10  3 18  5  5 49.0000000  0  9G19G07G16G24G21G22G06G18G03
  22666523.309 8 -18193450.014 8 -14015469.117 8  22666520.822 8  22666521.552 8
  24654807.040 7  -4258215.740 7  -3101364.041 6  24654809.203 6  24654806.941 6
  21312187.957 9 -36676987.589 9 -28332022.394 9  21312187.626 9  21312187.167 9
  23807359.529 7 -34556603.938 7 -21976354.138 7  23807361.435 7  23807358.622 7
  23043856.367 8 -38291798.693 8 -25758706.124 8  23043855.587 8  23043855.366 8
  21910512.160 9 -30851720.334 9 -19080970.878 9  21910510.528 9  21910511.257 9
  20692655.085 9 -40031190.472 9 -29813886.795 9  20692655.755 9  20692654.482 9
  22472980.998 9 -32156200.723 9 -19976552.238 9  22472980.681 9  22472979.607 9
  20664646.146 9 -33723280.917 9 -25808851.538 9  20664646.754 9  20664645.093 9
 10  3 18  5  5 50.0000000  0  9G19G07G16G24G21G22G06G18G03
  22665838.843 8 -18197046.227 8 -14018271.361 8  22665836.474 8  22665837.185 8
  24654463.654 7  -4260019.084 7  -3102769.246 6  24654465.947 6  24654463.717 5
  21312320.839 9 -36676289.182 9 -28331478.180 9  21312320.533 9  21312320.128 9
  23807726.884 7 -34554674.196 7 -21974850.442 6  23807728.726 6  23807725.826 7
  23044094.245 8 -38290548.509 8 -25757731.955 8  23044093.497 8  23044093.227 8
  21909943.034 9 -30854711.053 9 -19083301.309 9  21909941.386 9  21909942.150 9
  20692271.830 9 -40033204.822 9 -29815456.418 9  20692272.409 9  20692271.185 9
  22472814.406 8 -32157074.953 8 -19977233.456 9  22472814.327 9  22472813.225 9
  20664134.313 9 -33725970.123 9 -25810947.023 9  20664134.993 9  20664133.327 9
 10  3 18  5  5 51.0000000  0  9G19G07G16G24G21G22G06G18G03
  22665154.473 8 -18200642.284 8 -14021073.482 8  22665152.159 8  22665152.854 8
  24654120.353 7  -4261821.763 7  -3104173.931 6  24654122.917 6  24654120.643 5
  21312453.918 9 -36675590.226 9 -28330933.539 9  21312453.535 9  21312453.135 9
  23808094.017 7 -34552744.362 7 -21973346.675 6  23808096.024 6  23808093.033 7
  23044332.052 8 -38289298.115 8 -25756757.622 8  23044331.436 8  23044331.144 8
  21909374.169 9 -30857701.218 9 -19085631.307 9  21909372.346 9  21909373.167 9
  20691888.584 9 -40035218.855 9 -29817025.794 9  20691889.176 9  20691887.954 9
  22472648.123 8 -32157948.576 8 -19977914.201 9  22472648.097 9  22472646.964 9
  20663622.680 9 -33728658.940 9 -25813042.205 9  20663623.324 9  20663621.636 9
 10  3 18  5  5 52.0000000  0  9G19G07G16G24G21G22G06G18G03
  22664470.559 8 -18204238.139 8 -14023875.445 8  22664467.844 8  22664468.607 8
  24653777.809 7  -4263623.812 7  -3105578.123 6  24653780.121 6  24653777.712 5
  21312587.061 9 -36674890.720 9 -28330388.468 9  21312586.632 9  21312586.197 9
  23808460.954 7 -34550814.409 7 -21971842.814 6  23808463.337 6  23808460.267 7
  23044570.065 8 -38288047.515 8 -25755783.129 8  23044569.399 8  23044569.111 8
  21908805.380 9 -30860690.826 9 -19087960.871 9  21908803.417 9  21908804.295 9
  20691505.435 9 -40037232.552 9 -29818594.909 9  20691506.008 9  20691504.785 9
  22472482.050 8 -32158821.572 8 -19978594.457 9  22472481.985 9  22472480.855 9
  20663111.164 9 -33731347.385 9 -25815137.097 9  20663111.714 9  20663110.012 9
 10  3 18  5  5 53.0000000  0  9G19G07G16G24G21G22G06G18G03
  22663786.299 8 -18207833.893 8 -14026677.330 8  22663783.552 8  22663784.381 8
  24653435.012 7  -4265425.321 7  -3106981.896 6  24653437.358 6  24653434.866 6
  21312720.179 9 -36674190.730 9 -28329843.021 9  21312719.815 9  21312719.368 9
  23808828.091 7 -34548884.406 7 -21970338.914 6  23808830.623 6  23808827.535 7
  23044807.975 8 -38286796.791 8 -25754808.539 8  23044807.398 8  23044807.104 8
  21908236.655 9 -30863679.961 9 -19090290.067 9  21908234.574 9  21908235.511 9
  20691122.418 9 -40039245.984 9 -29820163.817 9  20691122.845 9  20691121.590 9
  22472315.895 8 -32159694.035 8 -19979274.298 9  22472315.977 9  22472314.871 9
  20662599.691 9 -33734035.518 9 -25817231.745 9  20662600.132 9  20662598.427 9
 10  3 18  5  5 54.0000000  0  9G19G07G16G24G21G22G06G18G03
  22663102.005 8 -18211429.498 8 -14029479.099 8  22663099.330 8  22663100.144 8
  24653092.696 7  -4267226.178 7  -3108385.158 6  24653094.649 6  24653092.131 6
  21312853.484 9 -36673490.224 9 -28329297.172 9  21312853.096 9  21312852.660 9
  23809195.516 7 -34546954.322 7 -21968834.951 6  23809197.914 6  23809194.819 7
  23045046.047 8 -38285545.891 8 -25753833.811 8  23045045.432 8  23045045.121 8
  21907667.922 9 -30866668.570 9 -19092618.853 9  21907665.829 9  21907666.812 9
  20690739.398 9 -40041259.095 9 -29821732.475 9  20690739.749 9  20690738.463 9
  22472149.930 8 -32160565.887 8 -19979953.662 9  22472150.085 9  22472148.974 9
  20662088.345 9 -33736723.282 9 -25819326.106 9  20662088.630 9  20662086.948 9
 10  3 18  5  5 55.0000000  0  9G19G07G16G24G21G22G06G18G03
  22662418.031 8 -18215024.939 8 -14032280.740 8  22662415.141 8  22662415.942 8
  24652750.118 7  -4269026.413 7  -3109787.939 6  24652752.052 6  24652749.584 6
  21312986.961 9 -36672789.190 9 -28328750.911 9  21312986.490 9  21312986.051 9
  23809562.928 7 -34545024.149 7 -21967330.922 6  23809565.169 6  23809562.125 7
  23045283.981 8 -38284294.814 8 -25752858.946 8  23045283.507 8  23045283.177 8
  21907099.186 9 -30869656.645 9 -19094947.223 9  21907097.188 9  21907098.215 9
  20690356.431 9 -40043271.917 9 -29823300.908 9  20690356.749 9  20690355.438 9
  22471984.038 8 -32161437.160 8 -19980632.575 9  22471984.303 9  22471983.160 9
  20661576.956 9 -33739410.689 9 -25821420.189 9  20661577.194 9  20661575.574 9
 10  3 18  5  5 56.0000000  0  9G19G07G16G24G21G22G06G18G03
  22661733.833 8 -18218620.209 8 -14035082.249 8  22661730.976 8  22661731.815 8
  24652408.341 7  -4270826.002 7  -3111190.215 6  24652409.577 6  24652407.226 6
  21313120.474 9 -36672087.606 9 -28328204.223 9  21313120.002 9  21313119.544 9
  23809930.238 7 -34543093.871 7 -21965826.812 6  23809932.447 6  23809929.437 7
  23045522.110 8 -38283043.532 8 -25751883.921 8  23045521.623 8  23045521.273 8
  21906530.638 9 -30872644.181 9 -19097275.174 9  21906528.661 9  21906529.700 9
  20689973.525 9 -40045284.408 9 -29824869.083 9  20689973.811 9  20689972.477 9
  22471818.241 8 -32162307.807 8 -19981311.001 9  22471818.627 9  22471817.476 9
  20661065.688 9 -33742097.718 9 -25823513.977 9  20661065.832 9  20661064.283 9
 10  3 18  5  5 57.0000000  0  9G19G07G16G24G21G22G06G18G03
  22661049.668 8 -18222215.389 8 -14037883.687 8  22661046.832 8  22661047.710 8
  24652066.650 7  -4272625.058 7  -3112592.077 6  24652067.204 6  24652064.910 6
  21313254.100 9 -36671385.583 9 -28327657.191 9  21313253.607 9  21313253.141 9
  23810297.586 7 -34541163.592 7 -21964322.699 6  23810299.766 6  23810296.713 7
  23045760.204 8 -38281792.165 8 -25750908.830 8  23045759.763 8  23045759.397 8
  21905962.098 9 -30875631.255 9 -19099602.763 9  21905960.229 9  21905961.265 9
  20689590.594 9 -40047296.697 9 -29826437.099 9  20689590.893 9  20689589.577 9
  22471652.624 8 -32163177.945 8 -19981989.030 8  22471653.028 8  22471651.894 9
  20660554.355 9 -33744784.471 9 -25825607.550 9  20660554.538 9  20660553.066 9
 10  3 18  5  5 58.0000000  0  9G19G07G16G24G21G22G06G18G03
  22660365.353 8 -18225810.398 8 -14040684.992 8  22660362.702 8  22660363.658 8
  24651724.636 7  -4274423.482 7  -3113993.445 6  24651724.960 6  24651722.666 6
  21313387.778 9 -36670683.005 9 -28327109.728 9  21313387.330 9  21313386.858 9
  23810664.985 7 -34539233.188 7 -21962818.489 6  23810667.115 6  23810664.037 7
  23045998.269 8 -38280540.596 8 -25749933.582 8  23045997.943 8  23045997.562 8
  21905393.627 9 -30878617.779 9 -19101929.925 9  21905391.904 9  21905392.946 9
  20689207.800 9 -40049308.649 9 -29828004.854 9  20689208.036 9  20689206.736 9
  22471487.091 8 -32164047.466 8 -19982666.578 8  22471487.560 8  22471486.437 9
  20660043.152 9 -33747470.840 9 -25827700.824 9  20660043.328 9  20660041.902 9
 10  3 18  5  5 59.0000000  0  9G19G07G16G24G21G22G06G18G03
  22659681.209 8 -18229405.203 8 -14043486.137 8  22659678.609 8  22659679.644 8
  24651382.859 7  -4276221.238 7  -3115394.295 6  24651382.842 6  24651380.568 6
  21313521.636 9 -36669979.871 9 -28326561.832 9  21313521.162 9  21313520.664 9
  23811032.368 7 -34537302.657 7 -21961314.179 6  23811034.496 6  23811031.471 7
  23046236.511 8 -38279288.792 8 -25748958.150 8  23046236.163 8  23046235.784 8
  21904825.185 9 -30881603.731 9 -19104256.640 9  21904823.680 9  21904824.735 9
  20688824.978 9 -40051320.268 9 -29829572.349 9  20688825.255 9  20688823.943 9
  22471321.744 8 -32164916.348 8 -19983343.629 9  22471322.227 9  22471321.110 9
  20659532.012 9 -33750156.802 9 -25829793.781 9  20659532.227 9  20659530.792 9
 10  3 18  5  6  0.0000000  0  9G19G07G16G24G21G22G06G18G03
  22658997.035 8 -18232999.839 8 -14046287.151 8  22658994.580 8  22658995.672 8
  24651041.307 7  -4278018.370 7  -3116794.661 6  24651040.843 6  24651038.609 6
  21313655.498 9 -36669276.213 9 -28326013.526 9  21313655.093 9  21313654.550 9
  23811399.830 7 -34535372.037 7 -21959809.801 6  23811401.876 6  23811398.908 7
  23046474.818 8 -38278036.817 8 -25747982.586 8  23046474.412 8  23046474.046 8
  21904256.922 9 -30884589.151 9 -19106582.940 9  21904255.566 9  21904256.626 9
  20688442.226 9 -40053331.548 9 -29831139.580 9  20688442.537 9  20688441.211 9
  22471156.458 8 -32165784.624 8 -19984020.207 8  22471156.998 8  22471155.900 9
  20659020.963 9 -33752842.408 9 -25831886.461 9  20659021.189 9  20659019.732 9
 10  3 18  5  6  1.0000000  0  9G19G07G16G24G21G22G06G18G03
  22658312.887 8 -18236594.343 8 -14049088.064 8  22658310.572 8  22658311.721 8
  24650699.808 7  -4279814.848 7  -3118194.513 6  24650698.966 6  24650696.800 6
  21313789.497 9 -36668572.013 9 -28325464.799 9  21313789.107 9  21313788.554 9
  23811767.178 7 -34533441.338 7 -21958305.361 6  23811769.180 6  23811766.310 7
  23046712.997 8 -38276784.653 8 -25747006.874 8  23046712.672 8  23046712.331 8
  21903688.710 9 -30887574.023 9 -19108908.815 9  21903687.558 9  21903688.618 9
  20688059.354 9 -40055342.521 9 -29832706.572 9  20688059.842 9  20688058.534 9
  22470991.451 8 -32166652.319 8 -19984696.332 8  22470991.855 8  22470990.795 9
  20658509.991 9 -33755527.636 9 -25833978.846 9  20658510.207 9  20658508.716 9
 10  3 18  5  6  2.0000000  0  9G19G07G16G24G21G22G06G18G03
  22657628.800 8 -18240188.710 8 -14051888.869 8  22657626.575 8  22657627.751 8
  24650357.710 7  -4281610.768 7  -3119593.928 6  24650357.195 6  24650355.122 6
  21313923.663 9 -36667867.330 9 -28324915.696 9  21313923.180 9  21313922.650 9
  23812134.609 7 -34531510.576 7 -21956800.871 6  23812136.516 6  23812133.716 7
  23046951.289 8 -38275532.346 8 -25746031.052 8  23046950.934 8  23046950.637 8
  21903120.826 9 -30890558.411 9 -19111234.311 9  21903119.630 9  21903120.689 9
  20687676.615 9 -40057353.241 9 -29834273.366 9  20687677.200 9  20687675.908 9
  22470826.451 8 -32167519.451 8 -19985372.019 8  22470826.840 8  22470825.786 9
  20657999.013 9 -33758212.554 9 -25836070.989 9  20657999.286 9  20657997.777 9
 10  3 18  5  6  3.0000000  0  9G19G07G16G24G21G22G06G18G03
  22656944.854 8 -18243782.902 8 -14054689.536 8  22656942.606 8  22656943.809 8
  24650016.154 7  -4283406.063 7  -3120992.858 6  24650015.553 6  24650013.523 6
  21314057.957 9 -36667162.130 9 -28324366.188 9  21314057.380 9  21314056.855 9
  23812502.173 7 -34529579.737 7 -21955296.322 6  23812503.964 6  23812501.108 7
  23047189.515 8 -38274279.882 8 -25745055.107 8  23047189.255 8  23047188.958 8
  21902552.989 9 -30893542.264 9 -19113559.390 9  21902551.800 9  21902552.859 9
  20687293.949 9 -40059363.647 9 -29835839.917 9  20687294.676 9  20687293.320 9
  22470661.631 8 -32168385.998 8 -19986047.250 8  22470661.951 8  22470660.875 9
  20657488.084 9 -33760897.107 9 -25838162.849 9  20657488.428 9  20657486.926 9
 10  3 18  5  6  4.0000000  0  9G19G07G16G24G21G22G06G18G03
  22656261.247 8 -18247377.000 8 -14057490.130 8  22656258.648 8  22656259.841 8
  24649674.336 7  -4285200.772 7  -3122391.331 6  24649674.036 6  24649672.009 6
  21314192.368 9 -36666456.439 9 -28323816.300 9  21314191.692 9  21314191.150 9
  23812869.462 7 -34527648.834 7 -21953791.725 6  23812871.421 6  23812868.517 7
  23047427.813 8 -38273027.272 8 -25744079.048 8  23047427.640 8  23047427.299 8
  21901985.215 9 -30896525.624 9 -19115884.086 9  21901984.105 9  21901985.107 9
  20686911.400 9 -40061373.797 9 -29837406.267 9  20686912.203 9  20686910.789 9
  22470496.908 8 -32169251.982 8 -19986722.044 8  22470497.154 8  22470496.066 9
  20656977.219 9 -33763581.350 9 -25840254.467 9  20656977.617 9  20656976.143 9
 10  3 18  5  6  5.0000000  0  9G19G07G16G24G21G22G06G18G03
  22655577.492 8 -18250970.909 8 -14060290.578 8  22655574.728 8  22655575.911 8
  24649332.601 7  -4286994.831 7  -3123789.298 6  24649332.639 6  24649330.622 6
  21314326.837 9 -36665750.203 9 -28323265.985 9  21314326.108 9  21314325.543 9
  23813236.885 7 -34525717.816 7 -21952287.035 6  23813238.886 6  23813235.968 7
  23047666.145 8 -38271774.447 8 -25743102.822 8  23047666.047 8  23047665.710 8
  21901417.486 9 -30899508.441 9 -19118208.359 9  21901416.524 9  21901417.446 9
  20686528.915 9 -40063383.606 9 -29838972.352 9  20686529.741 9  20686528.378 9
  22470332.193 8 -32170117.340 8 -19987396.348 8  22470332.461 8  22470331.374 9
  20656466.376 9 -33766265.198 9 -25842345.777 9  20656466.863 9  20656465.451 9
 10  3 18  5  6  6.0000000  0  9G19G07G16G24G21G22G06G18G03
  22654893.638 8 -18254564.657 8 -14063090.901 8  22654890.865 8  22654892.044 8
  24648991.129 7  -4288788.278 7  -3125186.787 6  24648991.357 6  24648989.358 6
  21314461.360 9 -36665043.441 9 -28322715.262 9  21314460.622 9  21314460.032 9
  23813604.165 7 -34523786.727 7 -21950782.293 6  23813606.354 6  23813603.433 7
  23047904.640 8 -38270521.471 8 -25742126.478 8  23047904.461 8  23047904.173 8
  21900849.984 9 -30902490.716 9 -19120532.209 9  21900849.008 9  21900849.941 9
  20686146.521 9 -40065393.105 9 -29840538.196 9  20686147.340 9  20686146.027 9
  22470167.457 8 -32170982.113 8 -19988070.197 8  22470167.882 8  22470166.789 9
  20655955.799 9 -33768948.691 9 -25844436.810 9  20655956.192 9  20655954.852 9
 10  3 18  5  6  7.0000000  0  9G19G07G16G24G21G22G06G18G03
  22654209.826 8 -18258158.252 8 -14065891.105 8  22654207.033 8  22654208.208 8
  24648649.865 7  -4290581.102 7  -3126583.796 6  24648650.185 6  24648648.231 6
  21314595.984 9 -36664336.159 9 -28322164.132 9  21314595.234 9  21314594.620 9
  23813971.440 7 -34521855.546 7 -21949277.477 6  23813973.756 6  23813970.900 7
  23048143.126 8 -38269268.312 8 -25741149.991 8  23048142.907 8  23048142.644 8
  21900282.705 9 -30905472.461 9 -19122855.646 9  21900281.563 9  21900282.547 9
  20685764.180 9 -40067402.303 9 -29842103.804 9  20685765.007 9  20685763.691 9
  22470003.186 8 -32171846.290 8 -19988743.581 8  22470003.412 8  22470002.308 9
  20655445.345 9 -33771631.814 9 -25846527.555 9  20655445.626 9  20655444.363 9
 10  3 18  5  6  8.0000000  0  9G19G07G16G24G21G22G06G18G03
  22653525.761 8 -18261751.667 8 -14068691.167 8  22653523.240 8  22653524.419 8
  24648308.929 7  -4292373.265 7  -3127980.288 6  24648309.125 6  24648307.240 6
  21314730.518 9 -36663628.321 9 -28321612.569 9  21314729.948 9  21314729.312 9
  23814338.941 7 -34519924.241 7 -21947772.563 6  23814341.193 6  23814338.403 7
  23048381.605 8 -38268014.951 8 -25740173.346 8  23048381.388 8  23048381.131 8
  21899715.499 9 -30908453.648 9 -19125178.649 9  21899714.260 9  21899715.245 9
  20685382.007 9 -40069411.182 9 -29843669.165 9  20685382.734 9  20685381.418 9
  22469838.750 8 -32172709.865 8 -19989416.496 8  22469839.065 8  22469837.941 8
  20654934.905 9 -33774314.552 9 -25848618.000 9  20654935.110 9  20654933.914 9
 10  3 18  5  6  9.0000000  0  9G19G07G16G24G21G22G06G18G03
  22652841.910 8 -18265344.944 8 -14071491.122 8  22652839.477 8  22652840.658 8
  24647968.051 7  -4294164.841 7  -3129376.321 6  24647968.209 6  24647966.372 6
  21314865.224 9 -36662919.988 9 -28321060.622 9  21314864.740 9  21314864.092 9
  23814706.539 7 -34517992.909 7 -21946267.629 6  23814708.686 6  23814705.943 7
  23048619.998 8 -38266761.434 8 -25739196.580 8  23048619.915 8  23048619.671 8
  21899148.282 9 -30911434.336 9 -19127501.262 9  21899147.061 9  21899148.021 9
  20684999.911 9 -40071419.789 9 -29845234.313 9  20685000.500 9  20684999.203 9
  22469674.509 8 -32173572.846 8 -19990088.949 8  22469674.832 8  22469673.679 8
  20654424.438 9 -33776996.959 9 -25850708.186 9  20654424.629 9  20654423.484 9
 10  3 18  5  6 10.0000000  0  9G19G07G16G24G21G22G06G18G03
  22652158.286 8 -18268938.088 8 -14074290.973 8  22652155.763 8  22652156.893 8
  24647626.831 7  -4295955.805 7  -3130771.877 6  24647627.441 6  24647625.627 6
  21315000.108 9 -36662211.141 9 -28320508.273 9  21314999.611 9  21314998.963 9
  23815074.386 7 -34516061.460 7 -21944762.602 6  23815076.209 6  23815073.506 7
  23048858.568 8 -38265507.759 8 -25738219.691 8  23048858.495 8  23048858.267 8
  21898581.089 9 -30914414.501 9 -19129823.467 9  21898579.966 9  21898580.891 9
  20684617.715 9 -40073428.098 9 -29846799.229 9  20684618.319 9  20684617.046 9
  22469510.408 8 -32174435.258 8 -19990760.958 8  22469510.694 8  22469509.544 8
  20653914.230 9 -33779679.028 9 -25852798.110 9  20653914.207 9  20653913.111 9
 10  3 18  5  6 11.0000000  0  9G19G07G16G24G21G22G06G18G03
  22651474.774 8 -18272531.061 8 -14077090.691 8  22651472.076 8  22651473.157 8
  24647286.039 7  -4297746.120 7  -3132166.927 6  24647286.781 6  24647284.925 6
  21315135.135 9 -36661501.753 9 -28319955.503 9  21315134.581 9  21315133.933 9
  23815441.854 7 -34514129.960 7 -21943257.538 6  23815443.759 6  23815441.062 7
  23049097.229 8 -38264253.889 8 -25737242.649 8  23049097.109 8  23049096.861 8
  21898014.045 9 -30917394.126 9 -19132145.252 9  21898012.968 9  21898013.851 9
  20684235.740 9 -40075436.096 9 -29848363.903 9  20684236.115 9  20684235.002 9
  22469346.509 8 -32175297.069 8 -19991432.499 8  22469346.656 8  22469345.538 8
  20653404.023 9 -33782360.708 9 -25854887.730 9  20653403.853 9  20653402.799 9
 10  3 18  5  6 12.0000000  0  9G19G07G16G24G21G22G06G18G03
  22650791.147 8 -18276123.831 8 -14079890.253 8  22650788.418 8  22650789.497 8
  24646945.285 7  -4299535.819 7  -3133561.499 6  24646946.218 6  24646944.267 6
  21315270.296 9 -36660791.808 9 -28319402.300 9  21315269.664 9  21315269.013 9
  23815809.447 7 -34512198.315 7 -21941752.361 6  23815811.344 6  23815808.647 7
  23049336.027 8 -38262999.818 8 -25736265.452 8  23049335.761 8  23049335.462 8
  21897447.231 9 -30920373.191 9 -19134466.601 9  21897446.081 9  21897446.955 9
  20683853.750 9 -40077443.727 9 -29849928.290 9  20683853.978 9  20683853.017 9
  22469182.571 8 -32176158.250 8 -19992103.549 9  22469182.744 9  22469181.637 8
  20652893.846 9 -33785041.994 9 -25856977.043 9  20652893.589 9  20652892.571 9
 10  3 18  5  6 13.0000000  0  9G19G07G16G24G21G22G06G18G03
  22650107.532 8 -18279716.519 8 -14082689.750 8  22650104.773 8  22650105.847 8
  24646604.603 7  -4301324.922 7  -3134955.605 6  24646605.737 6  24646603.805 6
  21315405.548 9 -36660081.385 9 -28318848.723 9  21315404.830 9  21315404.183 9
  23816176.861 7 -34510266.625 7 -21940247.147 7  23816178.956 7  23816176.227 7
  23049574.769 8 -38261745.617 8 -25735288.152 8  23049574.411 8  23049574.105 8
  21896880.490 9 -30923351.764 9 -19136787.566 9  21896879.284 9  21896880.160 9
  20683471.873 9 -40079451.121 9 -29851492.493 9  20683471.962 9  20683470.994 9
  22469018.793 8 -32177018.898 8 -19992774.183 9  22469018.946 9  22469017.826 8
  20652383.583 9 -33787722.971 9 -25859066.116 9  20652383.415 9  20652382.422 9
 10  3 18  5  6 14.0000000  0  9G19G07G16G24G21G22G06G18G03
  22649423.995 8 -18283309.010 8 -14085489.092 8  22649421.141 8  22649422.225 8
  24646264.311 7  -4303113.405 7  -3136349.227 6  24646265.332 6  24646263.522 6
  21315540.866 9 -36659370.410 9 -28318294.717 9  21315540.103 9  21315539.461 9
  23816544.436 7 -34508334.860 7 -21938741.876 7  23816546.589 7  23816543.841 7
  23049813.606 8 -38260491.220 8 -25734310.700 8  23049813.075 8  23049812.802 8
  21896313.597 9 -30926329.790 9 -19139108.105 9  21896312.612 9  21896313.456 9
  20683089.945 9 -40081458.199 9 -29853056.450 9  20683090.006 9  20683089.035 9
  22468855.063 8 -32177878.913 8 -19993444.325 9  22468855.266 9  22468854.158 8
  20651873.349 9 -33790403.557 9 -25861154.883 9  20651873.304 9  20651872.346 9
 10  3 18  5  6 15.0000000  0  9G19G07G16G24G21G22G06G18G03
  22648740.383 8 -18286901.375 8 -14088288.337 8  22648737.536 8  22648738.628 8
  24645924.001 7  -4304901.280 7  -3137742.376 6  24645925.046 6  24645923.362 5
  21315676.258 9 -36658658.942 9 -28317740.326 9  21315675.469 9  21315674.864 9
  23816912.174 7 -34506403.025 7 -21937236.550 6  23816914.237 6  23816911.512 7
  23050052.337 8 -38259236.661 8 -25733333.123 8  23050051.785 8  23050051.532 8
  21895747.087 9 -30929307.301 9 -19141428.242 9  21895746.048 9  21895746.845 9
  20682707.972 9 -40083464.981 9 -29854620.176 9  20682708.174 9  20682707.177 9
  22468691.538 8 -32178738.367 8 -19994114.029 9  22468691.687 9  22468690.611 8
  20651363.204 9 -33793083.817 9 -25863243.398 9  20651363.248 9  20651362.341 9
 10  3 18  5  6 16.0000000  0  9G19G07G16G24G21G22G06G18G03
  22648056.862 8 -18290493.599 8 -14091087.472 8  22648053.967 8  22648055.071 8
  24645583.835 7  -4306688.550 7  -3139135.055 6  24645584.871 6  24645583.319 5
  21315811.755 9 -36657946.970 9 -28317185.542 9  21315810.930 9  21315810.391 9
  23817279.794 7 -34504471.104 7 -21935731.155 7  23817281.910 7  23817279.194 7
  23050291.086 8 -38257981.950 8 -25732355.427 8  23050290.534 8  23050290.286 8
  21895180.622 9 -30932284.316 9 -19143747.994 9  21895179.544 9  21895180.318 9
  20682326.158 9 -40085471.504 9 -29856183.700 9  20682326.395 9  20682325.373 9
  22468527.821 8 -32179597.246 8 -19994783.285 8  22468528.224 8  22468527.152 8
  20650853.272 9 -33795763.740 9 -25865331.649 9  20650853.253 9  20650852.388 9
 10  3 18  5  6 17.0000000  0  9G19G07G16G24G21G22G06G18G03
  22647373.174 8 -18294085.681 8 -14093886.496 8  22647370.428 8  22647371.542 8
  24645244.214 7  -4308475.201 7  -3140527.251 6  24645244.828 6  24645243.385 5
  21315947.232 9 -36657234.476 9 -28316630.353 9  21315946.496 9  21315945.973 9
  23817647.300 7 -34502539.125 7 -21934225.716 7  23817649.593 7  23817646.849 7
  23050529.915 8 -38256727.060 8 -25731377.591 8  23050529.329 8  23050529.072 8
  21894614.243 9 -30935260.786 9 -19146067.320 9  21894613.130 9  21894613.892 9
  20681944.313 9 -40087477.689 9 -29857746.960 9  20681944.648 9  20681943.595 9
  22468364.572 8 -32180455.524 8 -19995452.073 8  22468364.891 8  22468363.801 8
  20650343.351 9 -33798443.306 9 -25867419.622 9  20650343.329 9  20650342.487 9
