     2.11           OBSERVATION DATA    M (MIXED)           RINEX VERSION / TYPE
teqc  2011Oct11     Jaume Sanz          20140502 10:32:05UTCPGM / RUN BY / DATE
Linux 2.4.21-27.ELsmp|Opteron|gcc|Linux x86_64|=+           COMMENT
     2.10           Observation data    M (Mixed)           COMMENT
sbf2rin                                 (07-MAY-11 11:30)   COMMENT
LLI: only bit 0 (loss of lock bit) supported                COMMENT
UPC2                                                        MARKER NAME
Unknown                                                     MARKER NUMBER
gAGE / UPC          gAGE / UPC                              OBSERVER / AGENCY
1355                SEPT POLARX2        2.7.0               REC # / TYPE / VERS
Unknown             -                                       ANT # / TYPE
  4789031.3284   176583.3954  4195015.1071                  APPROX POSITION XYZ
        0.0000        0.0000        0.0000                  ANTENNA: DELTA H/E/N
     1     1                                                WAVELENGTH FACT L1/2
     5    C1    L1    L2    P2    P1                        # / TYPES OF OBSERV
     1.0000                                                 INTERVAL
teqc edited: all SBAS satellites excluded                   COMMENT
  2010     3    18     0     0    0.0000000     GPS         TIME OF FIRST OBS
    15                                                      LEAP SECONDS
                                                            END OF HEADER
 10  3 18  5  0  0.0000000  0  9G19G24G07G16G22G21G18G06G03
  22328592.731 8 -21674473.343 8 -16729991.007 9  22328591.577 9  22328591.203 9
  23101803.330 7 -52991601.016 7 -38885258.197 7  23101805.796 7  23101802.786 7
  24203242.992 7  -5399053.746 7  -4106933.395 7  24203242.914 7  24203242.025 7
  20693428.369 9 -50493676.719 9 -39223761.891 9  20693428.067 9  20693426.853 9
  21536652.609 9 -36771917.435 9 -27026412.560 9  21536651.201 9  21536651.185 9
  22384462.493 8 -57610667.415 8 -43675863.878 9  22384461.421 9  22384461.405 9
  21959445.433 9 -41753160.769 9 -32103086.865 9  21959445.681 9  21959443.984 9
  20251390.218 9 -50197911.688 9 -38063022.504 9  20251391.260 9  20251388.861 9
  20268827.634 9 -41775729.093 9 -32261931.568 9  20268827.453 9  20268825.836 9
 10  3 18  5  0  1.0000000  0  9G19G24G07G16G22G21G18G06G03
  22327713.028 8 -21679096.292 8 -16733593.305 9  22327711.859 9  22327711.483 9
  23101979.017 7 -52990679.345 7 -38884540.013 7  23101981.174 7  23101978.141 7
  24202673.077 7  -5402046.949 7  -4109265.763 7  24202673.373 7  24202672.393 7
  20693340.521 9 -50494138.134 9 -39224121.435 9  20693340.282 9  20693339.031 9
  21535863.879 9 -36776062.037 9 -27029642.119 9  21535862.530 9  21535862.489 9
  22384502.753 8 -57610456.199 8 -43675699.294 9  22384501.636 9  22384501.599 9
  21959054.251 9 -41755216.423 9 -32104688.673 9  21959054.438 9  21959052.795 9
  20250801.973 9 -50201003.910 9 -38065432.027 9  20250802.851 9  20250800.427 9
  20268107.134 9 -41779514.837 9 -32264881.498 9  20268107.045 9  20268105.412 9
 10  3 18  5  0  2.0000000  0  9G19G24G07G16G22G21G18G06G03
  22326833.369 8 -21683719.112 8 -16737195.502 9  22326832.167 9  22326831.789 9
  23102154.465 7 -52989757.615 7 -38883821.782 7  23102156.579 7  23102153.514 7
  24202103.498 7  -5405039.574 7  -4111597.679 7  24202103.911 7  24202102.888 7
  20693252.911 9 -50494599.036 9 -39224480.580 9  20693252.584 9  20693251.332 9
  21535075.266 9 -36780206.138 9 -27032871.288 9  21535073.965 9  21535073.893 9
  22384542.964 8 -57610244.796 8 -43675534.563 9  22384541.834 9  22384541.852 9
  21958663.180 9 -41757271.529 9 -32106290.054 9  21958663.290 9  21958661.706 9
  20250213.683 9 -50204095.845 9 -38067841.327 9  20250214.466 9  20250212.094 9
  20267386.670 9 -41783300.248 9 -32267831.169 9  20267386.703 9  20267385.028 9
 10  3 18  5  0  3.0000000  0  9G19G24G07G16G22G21G18G06G03
  22325953.676 8 -21688341.845 8 -16740797.631 9  22325952.490 9  22325952.109 9
  23102330.009 7 -52988835.818 7 -38883103.502 7  23102331.999 7  23102328.900 7
  24201533.854 7  -5408031.629 7  -4113929.151 7  24201534.504 7  24201533.521 7
  20693165.284 9 -50495059.443 9 -39224839.338 9  20693164.952 9  20693163.758 9
  21534286.669 9 -36784349.801 9 -27036100.116 9  21534285.483 9  21534285.393 9
  22384583.159 8 -57610033.239 8 -43675369.713 9  22384582.066 9  22384582.138 9
  21958272.143 9 -41759326.072 9 -32107890.997 9  21958272.306 9  21958270.738 9
  20249625.237 9 -50207187.545 9 -38070250.443 9  20249626.126 9  20249623.803 9
  20266666.339 9 -41787085.373 9 -32270780.617 9  20266666.421 9  20266664.703 9
 10  3 18  5  0  4.0000000  0  9G19G24G07G16G22G21G18G06G03
  22325074.103 8 -21692964.437 8 -16744399.650 9  22325072.839 9  22325072.448 9
  23102505.282 7 -52987913.936 7 -38882385.154 7  23102507.428 7  23102504.268 7
  24200964.268 7  -5411023.084 7  -4116260.155 7  24200965.244 7  24200964.248 7
  20693077.820 9 -50495519.327 9 -39225197.689 9  20693077.441 9  20693076.284 9
  21533498.209 9 -36788492.982 9 -27039328.568 9  21533497.092 9  21533496.996 9
  22384623.343 8 -57609821.497 8 -43675204.719 9  22384622.362 9  22384622.406 9
  21957881.315 9 -41761380.053 9 -32109491.503 9  21957881.433 9  21957879.873 9
  20249036.879 9 -50210278.971 9 -38072659.346 9  20249037.865 9  20249035.488 9
  20265945.928 9 -41790870.172 9 -32273729.810 9  20265946.204 9  20265944.436 9
 10  3 18  5  0  5.0000000  0  9G19G24G07G16G22G21G18G06G03
  22324194.382 8 -21697586.857 8 -16748001.535 9  22324193.221 9  22324192.821 9
  23102680.716 7 -52986991.911 7 -38881666.694 7  23102682.884 7  23102679.658 7
  24200395.428 7  -5414013.877 7  -4118590.644 7  24200396.169 7  24200395.069 7
  20692990.273 9 -50495978.643 9 -39225555.597 9  20692990.064 9  20692988.903 9
  21532709.696 9 -36792635.610 9 -27042556.589 9  21532708.806 9  21532708.679 9
  22384663.627 8 -57609609.528 8 -43675039.547 9  22384662.700 9  22384662.717 9
  21957490.655 9 -41763433.393 9 -32111091.508 9  21957490.690 9  21957489.105 9
  20248448.433 9 -50213370.070 9 -38075067.994 9  20248449.662 9  20248447.233 9
  20265225.785 9 -41794654.585 9 -32276678.704 9  20265226.065 9  20265224.254 9
 10  3 18  5  0  6.0000000  0  9G19G24G07G16G22G21G18G06G03
  22323314.912 8 -21702209.093 8 -16751603.277 9  22323313.643 9  22323313.186 9
  23102856.387 7 -52986069.747 7 -38880948.126 7  23102858.397 7  23102855.112 7
  24199826.393 7  -5417004.068 7  -4120920.664 7  24199827.190 7  24199826.016 7
  20692902.830 9 -50496437.387 9 -39225913.061 9  20692902.784 9  20692901.607 9
  21531921.397 9 -36796777.725 9 -27045784.211 9  21531920.620 9  21531920.440 9
  22384703.768 8 -57609397.347 8 -43674874.211 9  22384703.041 9  22384703.058 9
  21957100.122 9 -41765486.114 9 -32112691.031 9  21957100.065 9  21957098.453 9
  20247860.390 9 -50216460.841 9 -38077476.387 9  20247861.489 9  20247859.074 9
  20264505.756 9 -41798438.641 9 -32279627.318 9  20264506.002 9  20264504.172 9
 10  3 18  5  0  7.0000000  0  9G19G24G07G16G22G21G18G06G03
  22322435.246 8 -21706831.198 8 -16755204.917 9  22322434.089 9  22322433.558 9
  23103032.012 7 -52985147.478 7 -38880229.475 7  23103033.942 7  23103030.593 7
  24199257.859 7  -5419993.598 7  -4123250.170 7  24199258.305 7  24199257.102 7
  20692815.532 9 -50496895.573 9 -39226270.089 9  20692815.587 9  20692814.381 9
  21531133.157 9 -36800919.322 9 -27049011.429 9  21531132.514 9  21531132.305 9
  22384744.118 8 -57609184.941 8 -43674708.699 9  22384743.427 9  22384743.446 9
  21956709.624 9 -41767538.235 9 -32114290.087 9  21956709.535 9  21956707.935 9
  20247272.251 9 -50219551.320 9 -38079884.551 9  20247273.373 9  20247270.974 9
  20263785.644 9 -41802222.345 9 -32282575.659 9  20263785.997 9  20263784.161 9
 10  3 18  5  0  8.0000000  0  9G19G24G07G16G22G21G18G06G03
  22321555.846 8 -21711453.154 8 -16758806.441 9  22321554.535 9  22321553.981 9
  23103207.537 7 -52984225.101 7 -38879510.741 7  23103209.467 7  23103206.073 7
  24198689.350 7  -5422982.548 7  -4125579.222 7  24198689.528 7  24198688.321 7
  20692728.470 9 -50497353.239 9 -39226626.712 9  20692728.491 9  20692727.277 9
  21530345.171 9 -36805060.424 9 -27052238.261 9  21530344.479 9  21530344.266 9
  22384784.496 8 -57608972.355 8 -43674543.048 9  22384783.868 9  22384783.866 9
  21956319.100 9 -41769589.766 9 -32115888.683 9  21956319.115 9  21956317.532 9
  20246684.249 9 -50222641.524 9 -38082292.503 9  20246685.306 9  20246682.968 9
  20263065.638 9 -41806005.711 9 -32285523.736 9  20263066.013 9  20263064.229 9
 10  3 18  5  0  9.0000000  0  9G19G24G07G16G22G21G18G06G03
  22320676.228 8 -21716075.017 8 -16762407.892 9  22320674.985 9  22320674.431 9
  23103383.004 7 -52983302.652 7 -38878791.951 7  23103385.001 7  23103381.567 7
  24198120.500 7  -5425970.917 7  -4127907.821 7  24198120.869 7  24198119.695 7
  20692641.376 9 -50497810.427 9 -39226982.963 9  20692641.487 9  20692640.294 9
  21529557.113 9 -36809201.083 9 -27055464.748 9  21529556.524 9  21529556.295 9
  22384824.884 8 -57608759.645 8 -43674377.299 9  22384824.328 9  22384824.308 9
  21955928.808 9 -41771640.762 9 -32117486.863 9  21955928.813 9  21955927.197 9
  20246096.236 9 -50225731.493 9 -38084700.270 9  20246097.282 9  20246095.004 9
  20262345.716 9 -41809788.795 9 -32288471.593 9  20262346.090 9  20262344.346 9
 10  3 18  5  0 10.0000000  0  9G19G24G07G16G22G21G18G06G03
  22319796.715 8 -21720696.656 8 -16766009.169 9  22319795.487 9  22319794.945 9
  23103558.305 7 -52982380.023 7 -38878073.020 7  23103560.536 7  23103557.119 7
  24197552.353 7  -5428958.593 7  -4130235.880 7  24197552.339 7  24197551.198 7
  20692554.593 9 -50498266.987 9 -39227338.724 9  20692554.604 9  20692553.432 9
  21528769.381 9 -36813341.154 9 -27058690.777 9  21528768.681 9  21528768.428 9
  22384865.412 8 -57608546.647 8 -43674211.325 9  22384864.879 9  22384864.851 9
  21955538.815 9 -41773691.075 9 -32119084.509 9  21955538.645 9  21955536.991 9
  20245508.323 9 -50228821.091 9 -38087107.748 9  20245509.310 9  20245507.091 9
  20261625.902 9 -41813571.446 9 -32291419.113 9  20261626.293 9  20261624.526 9
 10  3 18  5  0 11.0000000  0  9G19G24G07G16G22G21G18G06G03
  22318917.178 8 -21725318.118 8 -16769610.308 9  22318916.025 9  22318915.498 9
  23103733.767 7 -52981457.277 7 -38877353.997 7  23103736.087 7  23103732.695 7
  24196984.377 7  -5431945.650 7  -4132563.457 7  24196983.922 7  24196982.811 7
  20692467.869 9 -50498722.989 9 -39227694.050 9  20692467.820 9  20692466.669 9
  21527981.715 9 -36817480.700 9 -27061916.396 9  21527980.946 9  21527980.678 9
  22384906.107 8 -57608333.421 8 -43674045.175 9  22384905.472 9  22384905.433 9
  21955148.757 9 -41775740.776 9 -32120681.679 9  21955148.584 9  21955146.946 9
  20244920.302 9 -50231910.369 9 -38089514.978 9  20244921.398 9  20244919.238 9
  20260906.133 9 -41817353.739 9 -32294366.354 9  20260906.570 9  20260904.785 9
 10  3 18  5  0 12.0000000  0  9G19G24G07G16G22G21G18G06G03
  22318037.758 8 -21729939.521 8 -16773211.401 9  22318036.572 9  22318036.056 9
  23103909.351 7 -52980534.509 7 -38876634.959 7  23103911.663 7  23103908.267 7
  24196416.132 7  -5434932.154 7  -4134890.603 7  24196415.606 7  24196414.502 7
  20692381.047 9 -50499178.529 9 -39228049.016 9  20692381.121 9  20692379.988 9
  21527194.057 9 -36821619.834 9 -27065141.696 9  21527193.294 9  21527193.015 9
  22384946.565 8 -57608120.100 8 -43673878.951 9  22384946.070 9  22384945.992 9
  21954758.744 9 -41777789.971 9 -32122278.455 9  21954758.617 9  21954756.996 9
  20244332.490 9 -50234999.421 9 -38091922.031 9  20244333.548 9  20244331.404 9
  20260186.420 9 -41821135.767 9 -32297313.388 9  20260186.906 9  20260185.109 9
 10  3 18  5  0 13.0000000  0  9G19G24G07G16G22G21G18G06G03
  22317158.285 8 -21734560.780 8 -16776812.381 9  22317157.145 9  22317156.639 9
  23104085.287 7 -52979611.594 7 -38875915.806 7  23104087.271 7  23104083.867 7
  24195847.856 7  -5437918.039 7  -4137217.265 7  24195847.408 7  24195846.267 7
  20692294.347 9 -50499633.543 9 -39228403.573 9  20692294.515 9  20692293.400 9
  21526406.516 9 -36825758.475 9 -27068366.611 9  21526405.720 9  21526405.475 9
  22384987.220 8 -57607906.579 8 -43673712.571 9  22384986.706 9  22384986.589 9
  21954368.974 9 -41779838.578 9 -32123874.773 9  21954368.741 9  21954367.178 9
  20243744.798 9 -50238088.175 9 -38094328.852 9  20243745.756 9  20243743.628 9
  20259466.656 9 -41824917.465 9 -32300260.166 9  20259467.304 9  20259465.503 9
 10  3 18  5  0 14.0000000  0  9G19G24G07G16G22G21G18G06G03
  22316278.994 8 -21739181.860 8 -16780413.222 9  22316277.752 9  22316277.262 9
  23104260.771 7 -52978688.577 7 -38875196.574 7  23104262.894 7  23104259.469 7
  24195279.990 7  -5440903.284 7  -4139543.429 7  24195279.343 7  24195278.184 7
  20692207.872 9 -50500087.984 9 -39228757.683 9  20692208.026 9  20692206.918 9
  21525619.056 9 -36829896.564 9 -27071591.095 9  21525618.228 9  21525618.060 9
  22385027.862 8 -57607692.832 8 -43673546.014 9  22385027.405 9  22385027.212 9
  21953979.311 9 -41781886.549 9 -32125470.594 9  21953978.979 9  21953977.477 9
  20243157.106 9 -50241176.626 9 -38096735.436 9  20243158.053 9  20243155.928 9
  20258747.063 9 -41828698.786 9 -32303206.650 9  20258747.748 9  20258745.982 9
 10  3 18  5  0 15.0000000  0  9G19G24G07G16G22G21G18G06G03
  22315399.863 8 -21743802.731 8 -16784013.900 9  22315398.394 9  22315397.922 9
  23104436.748 7 -52977765.375 7 -38874477.197 7  23104438.555 7  23104435.107 7
  24194711.866 7  -5443887.850 7  -4141869.066 7  24194711.433 7  24194710.277 7
  20692121.433 9 -50500541.826 9 -39229111.326 9  20692121.662 9  20692120.542 9
  21524831.811 9 -36834034.108 9 -27074815.156 9  21524830.851 9  21524830.708 9
  22385068.590 8 -57607478.835 8 -43673379.263 9  22385068.154 9  22385067.887 9
  21953589.835 9 -41783933.867 9 -32127065.908 9  21953589.381 9  21953587.927 9
  20242569.592 9 -50244264.729 9 -38099141.750 9  20242570.418 9  20242568.298 9
  20258027.568 9 -41832479.704 9 -32306152.819 9  20258028.263 9  20258026.529 9
 10  3 18  5  0 16.0000000  0  9G19G24G07G16G22G21G18G06G03
  22314520.453 8 -21748423.392 8 -16787614.415 9  22314519.100 9  22314518.598 9
  23104612.341 7 -52976842.034 7 -38873757.713 7  23104614.260 7  23104610.778 7
  24194143.982 7  -5446871.751 7  -4144194.184 7  24194143.653 7  24194142.483 7
  20692035.214 9 -50500995.067 9 -39229464.501 9  20692035.412 9  20692034.300 9
  21524044.611 9 -36838171.079 9 -27078038.769 9  21524043.600 9  21524043.436 9
  22385109.389 8 -57607264.587 8 -43673212.317 9  22385108.935 9  22385108.665 9
  21953200.414 9 -41785980.523 9 -32128660.706 9  21953199.918 9  21953198.511 9
  20241981.992 9 -50247352.469 9 -38101547.781 9  20241982.887 9  20241980.763 9
  20257308.205 9 -41836260.210 9 -32309098.668 9  20257308.856 9  20257307.134 9
 10  3 18  5  0 17.0000000  0  9G19G24G07G16G22G21G18G06G03
  22313641.201 8 -21753043.937 8 -16791214.839 9  22313639.834 9  22313639.281 9
  23104788.155 7 -52975918.604 7 -38873038.159 7  23104789.979 7  23104786.461 7
  24193575.847 7  -5449855.068 7  -4146518.847 7  24193575.980 7  24193574.774 7
  20691949.133 9 -50501447.802 9 -39229817.281 9  20691949.260 9  20691948.184 9
  21523257.525 9 -36842307.572 9 -27081262.010 9  21523256.429 9  21523256.251 9
  22385150.333 8 -57607050.166 8 -43673045.236 9  22385149.750 9  22385149.478 9
  21952811.014 9 -41788026.609 9 -32130255.060 9  21952810.550 9  21952809.175 9
  20241394.314 9 -50250439.935 9 -38103953.599 9  20241395.410 9  20241393.280 9
  20256588.963 9 -41840040.395 9 -32312044.267 9  20256589.504 9  20256587.787 9
 10  3 18  5  0 18.0000000  0  9G19G24G07G16G22G21G18G06G03
  22312762.064 8 -21757664.256 8 -16794815.087 9  22312760.638 9  22312760.053 9
  23104963.980 7 -52974994.966 7 -38872318.443 7  23104965.770 7  23104962.189 7
  24193008.094 7  -5452837.674 7  -4148842.954 7  24193008.415 7  24193007.204 7
  20691863.164 9 -50501899.920 9 -39230169.582 9  20691863.233 9  20691862.160 9
  21522470.487 9 -36846443.486 9 -27084484.800 9  21522469.365 9  21522469.175 9
  22385191.359 8 -57606835.466 8 -43672877.938 9  22385190.585 9  22385190.368 9
  21952421.933 9 -41790072.033 9 -32131848.897 9  21952421.308 9  21952419.962 9
  20240806.888 9 -50253527.043 9 -38106359.137 9  20240807.982 9  20240805.830 9
  20255869.614 9 -41843820.176 9 -32314989.551 9  20255870.228 9  20255868.491 9
 10  3 18  5  0 19.0000000  0  9G19G24G07G16G22G21G18G06G03
  22311883.004 8 -21762284.422 8 -16798415.215 9  22311881.483 9  22311880.873 9
  23105139.935 7 -52974071.210 7 -38871598.635 7  23105141.588 7  23105137.936 7
  24192440.535 7  -5455819.652 7  -4151166.575 7  24192440.924 7  24192439.764 7
  20691777.263 9 -50502351.479 9 -39230521.446 9  20691777.312 9  20691776.192 9
  21521683.495 9 -36850578.877 9 -27087707.183 9  21521682.400 9  21521682.211 9
  22385232.262 8 -57606620.552 8 -43672710.472 9  22385231.463 9  22385231.299 9
  21952032.801 9 -41792116.830 9 -32133442.245 9  21952032.166 9  21952030.841 9
  20240219.480 9 -50256613.826 9 -38108764.422 9  20240220.614 9  20240218.440 9
  20255150.390 9 -41847599.586 9 -32317934.545 9  20255151.014 9  20255149.265 9
 10  3 18  5  0 20.0000000  0  9G19G24G07G16G22G21G18G06G03
  22311003.756 8 -21766904.499 8 -16802015.275 9  22311002.319 9  22311001.684 9
  23105315.968 7 -52973147.410 7 -38870878.793 7  23105317.415 7  23105313.730 7
  24191873.259 7  -5458801.090 7  -4153489.775 7  24191873.564 7  24191872.411 7
  20691691.441 9 -50502802.557 9 -39230872.935 9  20691691.483 9  20691690.327 9
  21520896.531 9 -36854713.840 9 -27090929.231 9  21520895.521 9  21520895.343 9
  22385273.198 8 -57606405.511 8 -43672542.908 9  22385272.397 9  22385272.170 9
  21951643.982 9 -41794161.114 9 -32135035.194 9  21951643.122 9  21951641.815 9
  20239632.205 9 -50259700.407 9 -38111169.550 9  20239633.216 9  20239631.087 9
  20254431.279 9 -41851378.714 9 -32320879.321 9  20254431.821 9  20254430.093 9
 10  3 18  5  0 21.0000000  0  9G19G24G07G16G22G21G18G06G03
  22310124.261 8 -21771524.441 8 -16805615.229 9  22310123.171 9  22310122.516 9
  23105491.441 7 -52972223.501 7 -38870158.863 7  23105493.262 7  23105489.547 7
  24191306.284 7  -5461781.882 7  -4155812.471 7  24191306.381 7  24191305.157 7
  20691605.758 9 -50503253.086 9 -39231223.997 9  20691605.754 9  20691604.581 9
  21520109.612 9 -36858848.277 9 -27094150.871 9  21520108.771 9  21520108.595 9
  22385314.064 8 -57606190.267 8 -43672375.186 9  22385313.374 9  22385313.083 9
  21951255.093 9 -41796204.780 9 -32136627.661 9  21951254.188 9  21951252.960 9
  20239044.941 9 -50262786.646 9 -38113574.411 9  20239045.884 9  20239043.801 9
  20253712.167 9 -41855157.490 9 -32323823.822 9  20253712.700 9  20253710.997 9
 10  3 18  5  0 22.0000000  0  9G19G24G07G16G22G21G18G06G03
  22309245.050 8 -21776144.246 8 -16809215.076 9  22309244.066 9  22309243.376 9
  23105667.333 7 -52971299.531 7 -38869438.890 7  23105669.123 7  23105665.408 7
  24190739.321 7  -5464762.102 7  -4158134.720 7  24190739.278 7  24190738.028 7
  20691520.225 9 -50503703.123 9 -39231574.674 9  20691520.103 9  20691518.917 9
  21519322.976 9 -36862982.260 9 -27097372.156 9  21519322.132 9  21519321.948 9
  22385354.895 8 -57605974.879 8 -43672207.351 9  22385354.363 9  22385354.069 9
  21950866.362 9 -41798247.898 9 -32138219.701 9  21950865.361 9  21950864.219 9
  20238457.720 9 -50265872.652 9 -38115979.091 9  20238458.591 9  20238456.593 9
  20252993.165 9 -41858935.959 9 -32326768.083 9  20252993.678 9  20252992.004 9
 10  3 18  5  0 23.0000000  0  9G19G24G07G16G22G21G18G06G03
  22308366.157 8 -21780763.840 8 -16812814.759 9  22308365.008 9  22308364.276 9
  23105843.185 7 -52970375.355 7 -38868718.756 7  23105845.021 7  23105841.312 7
  24190172.644 7  -5467741.640 7  -4160456.438 7  24190172.258 7  24190171.061 7
  20691434.744 9 -50504152.539 9 -39231924.869 9  20691434.556 9  20691433.361 9
  21518536.407 9 -36867115.648 9 -27100592.978 9  21518535.606 9  21518535.395 9
  22385395.794 8 -57605759.193 8 -43672039.284 9  22385395.409 9  22385395.108 9
  21950477.632 9 -41800290.350 9 -32139811.224 9  21950476.693 9  21950475.561 9
  20237870.556 9 -50268958.295 9 -38118383.488 9  20237871.368 9  20237869.456 9
  20252274.301 9 -41862714.002 9 -32329712.013 9  20252274.738 9  20252273.087 9
 10  3 18  5  0 24.0000000  0  9G19G24G07G16G22G21G18G06G03
  22307487.196 8 -21785383.251 8 -16816414.300 9  22307485.972 9  22307485.249 9
  23106018.971 7 -52969451.055 7 -38867998.523 7  23106020.929 7  23106017.159 7
  24189605.610 7  -5470720.540 7  -4162777.659 7  24189605.388 7  24189604.211 7
  20691349.429 9 -50504601.395 9 -39232274.627 9  20691349.119 9  20691347.921 9
  21517749.878 9 -36871248.515 9 -27103813.393 9  21517749.171 9  21517748.921 9
  22385436.909 8 -57605543.316 8 -43671871.069 9  22385436.468 9  22385436.207 9
  21950089.032 9 -41802332.173 9 -32141402.255 9  21950088.145 9  21950087.015 9
  20237283.480 9 -50272043.618 9 -38120787.636 9  20237284.265 9  20237282.418 9
  20251555.349 9 -41866491.694 9 -32332655.668 9  20251555.871 9  20251554.214 9
 10  3 18  5  0 25.0000000  0  9G19G24G07G16G22G21G18G06G03
  22306608.334 8 -21790002.486 8 -16820013.703 9  22306606.963 9  22306606.269 9
  23106195.031 7 -52968526.594 7 -38867278.165 7  23106196.872 7  23106193.030 7
  24189038.874 7  -5473698.788 7  -4165098.370 7  24189038.713 7  24189037.491 7
  20691264.090 9 -50505049.661 9 -39232623.926 9  20691263.800 9  20691262.609 9
  21516963.500 9 -36875380.836 9 -27107033.383 9  21516962.826 9  21516962.572 9
  22385477.987 8 -57605327.201 8 -43671702.668 9  22385477.569 9  22385477.348 9
  21949700.571 9 -41804373.383 9 -32142992.808 9  21949699.717 9  21949698.583 9
  20236696.504 9 -50275128.607 9 -38123191.523 9  20236697.230 9  20236695.445 9
  20250836.521 9 -41870269.002 9 -32335599.026 9  20250837.078 9  20250835.414 9
 10  3 18  5  0 26.0000000  0  9G19G24G07G16G22G21G18G06G03
  22305729.279 8 -21794621.536 8 -16823612.962 9  22305728.009 9  22305727.304 9
  23106371.047 7 -52967602.039 7 -38866557.734 7  23106372.796 7  23106368.962 7
  24188472.215 7  -5476676.382 7  -4167418.573 7  24188472.138 7  24188470.905 7
  20691178.873 9 -50505497.380 9 -39232972.798 9  20691178.594 9  20691177.397 9
  21516177.188 9 -36879512.642 9 -27110252.972 9  21516176.566 9  21516176.332 9
  22385519.158 8 -57605110.867 8 -43671534.096 9  22385518.755 9  22385518.509 9
  21949312.181 9 -41806413.966 9 -32144582.873 9  21949311.411 9  21949310.274 9
  20236109.529 9 -50278213.282 9 -38125595.165 9  20236110.282 9  20236108.493 9
  20250117.806 9 -41874045.940 9 -32338542.095 9  20250118.353 9  20250116.669 9
 10  3 18  5  0 27.0000000  0  9G19G24G07G16G22G21G18G06G03
  22304850.205 8 -21799240.401 8 -16827212.077 9  22304849.096 9  22304848.363 9
  23106546.982 7 -52966677.314 7 -38865837.172 7  23106548.747 7  23106544.935 7
  24187905.437 7  -5479653.310 7  -4169738.257 7  24187905.644 7  24187904.461 7
  20691093.683 9 -50505944.505 9 -39233321.208 9  20691093.503 9  20691092.283 9
  21515391.131 9 -36883643.881 9 -27113472.119 9  21515390.407 9  21515390.196 9
  22385560.231 8 -57604894.284 8 -43671365.331 9  22385559.990 9  22385559.720 9
  21948923.963 9 -41808453.887 9 -32146172.422 9  21948923.216 9  21948922.140 9
  20235522.716 9 -50281297.607 9 -38127998.536 9  20235523.399 9  20235521.603 9
  20249399.240 9 -41877822.475 9 -32341484.849 9  20249399.706 9  20249397.997 9
 10  3 18  5  0 28.0000000  0  9G19G24G07G16G22G21G18G06G03
  22303971.503 8 -21803859.141 8 -16830811.095 9  22303970.223 9  22303969.448 9
  23106723.074 7 -52965752.495 7 -38865116.534 7  23106724.743 7  23106720.966 7
  24187339.122 7  -5482629.647 7  -4172057.480 7  24187339.260 7  24187338.111 7
  20691008.729 9 -50506391.119 9 -39233669.218 9  20691008.508 9  20691007.272 9
  21514605.190 9 -36887774.646 9 -27116690.896 9  21514604.339 9  21514604.146 9
  22385601.636 8 -57604677.556 8 -43671196.452 9  22385601.207 9  22385600.991 9
  21948535.845 9 -41810493.244 9 -32147761.532 9  21948535.128 9  21948534.121 9
  20234935.952 9 -50284381.670 9 -38130401.702 9  20234936.531 9  20234934.698 9
  20248680.664 9 -41881598.712 9 -32344427.371 9  20248681.117 9  20248679.375 9
 10  3 18  5  0 29.0000000  0  9G19G24G07G16G22G21G18G06G03
  22303092.700 8 -21808477.725 8 -16834409.990 9  22303091.388 9  22303090.563 9
  23106898.801 7 -52964827.601 7 -38864395.838 7  23106900.755 7  23106897.013 7
  24186772.946 7  -5485605.393 7  -4174376.242 7  24186772.985 7  24186771.841 7
  20690923.770 9 -50506837.192 9 -39234016.808 9  20690923.596 9  20690922.359 9
  21513819.204 9 -36891904.909 9 -27119909.282 9  21513818.366 9  21513818.168 9
  22385643.137 8 -57604460.632 8 -43671027.422 9  22385642.464 9  22385642.299 9
  21948147.992 9 -41812532.015 9 -32149350.184 9  21948147.156 9  21948146.232 9
  20234349.014 9 -50287465.431 9 -38132804.632 9  20234349.719 9  20234347.850 9
  20247962.104 9 -41885374.600 9 -32347369.621 9  20247962.600 9  20247960.820 9
 10  3 18  5  0 30.0000000  0  9G19G24G07G16G22G21G18G06G03
  22302213.926 8 -21813096.169 8 -16838008.777 9  22302212.588 9  22302211.658 9
  23107074.642 7 -52963902.573 7 -38863675.039 7  23107076.771 7  23107073.010 7
  24186206.502 7  -5488580.511 7  -4176694.515 7  24186206.849 7  24186205.682 7
  20690839.078 9 -50507282.736 9 -39234363.985 9  20690838.803 9  20690837.563 9
  21513033.354 9 -36896034.654 9 -27123127.265 9  21513032.505 9  21513032.275 9
  22385684.694 8 -57604243.481 8 -43670858.214 9  22385683.792 9  22385683.585 9
  21947760.232 9 -41814570.191 9 -32150938.373 9  21947759.303 9  21947758.460 9
  20233762.100 9 -50290548.894 9 -38135207.331 9  20233762.906 9  20233761.089 9
  20247243.632 9 -41889150.136 9 -32350311.598 9  20247244.155 9  20247242.329 9
 10  3 18  5  0 31.0000000  0  9G19G24G07G16G22G21G18G06G03
  22301335.151 8 -21817714.495 8 -16841607.471 9  22301333.816 9  22301332.762 9
  23107250.277 7 -52962977.461 7 -38862954.175 7  23107252.803 7  23107249.019 7
  24185640.347 7  -5491555.013 7  -4179012.308 7  24185640.865 7  24185639.612 7
  20690754.461 9 -50507727.753 9 -39234710.753 9  20690754.129 9  20690752.874 9
  21512247.634 9 -36900163.936 9 -27126344.886 9  21512246.716 9  21512246.480 9
  22385726.079 8 -57604026.190 8 -43670688.896 9  22385725.148 9  22385724.901 9
  21947372.405 9 -41816607.800 9 -32152526.121 9  21947371.562 9  21947370.761 9
  20233175.310 9 -50293632.118 9 -38137609.843 9  20233176.139 9  20233174.372 9
  20246525.252 9 -41892925.359 9 -32353253.330 9  20246525.782 9  20246523.909 9
 10  3 18  5  0 32.0000000  0  9G19G24G07G16G22G21G18G06G03
  22300456.198 8 -21822332.677 8 -16845206.054 9  22300455.018 9  22300453.950 9
  23107426.328 7 -52962052.246 7 -38862233.229 7  23107428.839 7  23107425.081 7
  24185074.760 7  -5494528.910 7  -4181329.628 7  24185074.984 7  24185073.681 7
  20690669.881 9 -50508172.235 9 -39235057.103 9  20690669.574 9  20690668.284 9
  21511461.813 9 -36904292.711 9 -27129562.114 9  21511461.011 9  21511460.790 9
  22385767.565 8 -57603808.712 8 -43670519.433 9  22385766.546 9  22385766.320 9
  21946984.736 9 -41818644.812 9 -32154113.403 9  21946983.931 9  21946983.167 9
  20232588.635 9 -50296715.047 9 -38140012.125 9  20232589.455 9  20232587.676 9
  20245806.873 9 -41896700.237 9 -32356194.793 9  20245807.524 9  20245805.578 9
 10  3 18  5  0 33.0000000  0  9G19G24G07G16G22G21G18G06G03
  22299577.356 8 -21826950.776 8 -16848804.572 9  22299576.210 9  22299575.178 9
  23107602.296 7 -52961126.992 7 -38861512.254 7  23107604.880 7  23107601.156 7
  24184508.855 7  -5497502.286 7  -4183646.542 7  24184509.189 7  24184507.892 7
  20690585.386 9 -50508616.253 9 -39235403.091 9  20690585.137 9  20690583.772 9
  21510676.129 9 -36908421.048 9 -27132778.999 9  21510675.394 9  21510675.189 9
  22385808.974 8 -57603591.092 8 -43670349.860 9  22385807.973 9  22385807.768 9
  21946597.166 9 -41820681.305 9 -32155700.281 9  21946596.409 9  21946595.666 9
  20232002.196 9 -50299797.761 9 -38142414.239 9  20232002.813 9  20232001.025 9
  20245088.612 9 -41900474.849 9 -32359136.050 9  20245089.304 9  20245087.291 9
 10  3 18  5  0 34.0000000  0  9G19G24G07G16G22G21G18G06G03
  22298698.684 8 -21831568.688 8 -16852402.944 9  22298697.446 9  22298696.431 9
  23107778.612 7 -52960201.601 7 -38860791.171 7  23107780.907 7  23107777.271 7
  24183942.942 7  -5500474.953 7  -4185962.905 7  24183943.518 7  24183942.228 7
  20690501.087 9 -50509059.683 9 -39235748.621 9  20690500.795 9  20690499.360 9
  21509890.641 9 -36912548.831 9 -27135995.453 9  21509889.889 9  21509889.699 9
  22385850.414 8 -57603373.247 8 -43670180.110 9  22385849.398 9  22385849.226 9
  21946209.772 9 -41822717.160 9 -32157286.661 9  21946209.009 9  21946208.285 9
  20231415.727 9 -50302880.118 9 -38144816.076 9  20231416.268 9  20231414.472 9
  20244370.403 9 -41904249.060 9 -32362076.993 9  20244371.116 9  20244369.063 9
 10  3 18  5  0 35.0000000  0  9G19G24G07G16G22G21G18G06G03
  22297820.072 8 -21836186.431 8 -16856001.184 9  22297818.721 9  22297817.713 9
  23107954.870 7 -52959276.077 7 -38860069.985 7  23107956.950 7  23107953.415 7
  24183377.398 7  -5503447.023 7  -4188278.804 7  24183377.933 7  24183376.660 7
  20690416.883 9 -50509502.563 9 -39236093.723 9  20690416.528 9  20690415.047 9
  21509105.166 9 -36916676.105 9 -27139211.511 9  21509104.497 9  21509104.292 9
  22385892.086 8 -57603155.187 8 -43670010.193 9  22385890.867 9  22385890.729 9
  21945822.548 9 -41824752.408 9 -32158872.567 9  21945821.726 9  21945821.047 9
  20230829.327 9 -50305962.163 9 -38147217.670 9  20230829.782 9  20230827.982 9
  20243652.292 9 -41908022.923 9 -32365017.665 9  20243652.997 9  20243650.903 9
 10  3 18  5  0 36.0000000  0  9G19G24G07G16G22G21G18G06G03
  22296940.873 8 -21840803.977 8 -16859599.272 9  22296940.039 9  22296939.017 9
  23108131.173 7 -52958350.374 7 -38859348.658 7  23108133.083 7  23108129.600 7
  24182811.721 7  -5506418.418 7  -4190594.176 7  24182812.498 7  24182811.192 7
  20690332.683 9 -50509944.840 9 -39236438.354 9  20690332.366 9  20690330.864 9
  21508319.764 9 -36920802.808 9 -27142427.123 9  21508319.232 9  21508318.987 9
  22385933.624 8 -57602936.871 8 -43669840.077 9  22385932.396 9  22385932.271 9
  21945435.352 9 -41826786.990 9 -32160457.956 9  21945434.573 9  21945433.938 9
  20230242.949 9 -50309043.852 9 -38149618.985 9  20230243.380 9  20230241.605 9
  20242934.219 9 -41911796.363 9 -32367958.007 9  20242934.987 9  20242932.838 9
 10  3 18  5  0 37.0000000  0  9G19G24G07G16G22G21G18G06G03
  22296062.092 8 -21845421.414 8 -16863197.274 9  22296061.384 9  22296060.337 9
  23108307.623 8 -52957424.608 8 -38858627.282 7  23108309.245 7  23108305.804 7
  24182246.300 7  -5509389.192 7  -4192909.065 7  24182247.231 7  24182245.804 7
  20690248.520 9 -50510386.622 9 -39236782.600 9  20690248.277 9  20690246.801 9
  21507534.577 9 -36924929.052 9 -27145642.377 9  21507534.051 9  21507533.777 9
  22385975.247 8 -57602718.416 8 -43669669.853 9  22385973.953 9  22385973.842 9
  21945048.354 9 -41828821.042 9 -32162042.930 9  21945047.549 9  21945046.909 9
  20229656.604 9 -50312125.291 9 -38152020.106 9  20229657.024 9  20229655.269 9
  20242216.085 9 -41915569.505 9 -32370898.118 9  20242217.022 9  20242214.821 9
 10  3 18  5  0 38.0000000  0  9G19G24G07G16G22G21G18G06G03
  22295183.732 8 -21850038.652 8 -16866795.121 9  22295182.767 9  22295181.692 9
  23108483.611 8 -52956498.718 8 -38857905.810 7  23108485.404 7  23108482.048 7
  24181680.895 7  -5512359.371 7  -4195223.490 7  24181682.055 7  24181680.560 7
  20690164.528 9 -50510827.831 9 -39237126.399 9  20690164.307 9  20690162.850 9
  21506749.431 9 -36929054.766 9 -27148857.220 9  21506748.963 9  21506748.670 9
  22386017.047 8 -57602499.730 8 -43669499.447 9  22386015.594 9  22386015.481 9
  21944661.389 9 -41830854.440 9 -32163627.396 9  21944660.653 9  21944659.999 9
  20229070.364 9 -50315206.417 9 -38154420.984 9  20229070.717 9  20229068.912 9
  20241498.072 9 -41919342.281 9 -32373837.943 9  20241499.084 9  20241496.837 9
 10  3 18  5  0 39.0000000  0  9G19G24G07G16G22G21G18G06G03
  22294305.308 8 -21854655.743 8 -16870392.853 9  22294304.178 9  22294303.075 9
  23108659.907 8 -52955572.695 8 -38857184.235 7  23108661.582 7  23108658.318 7
  24181116.218 7  -5515328.901 7  -4197537.410 7  24181116.967 7  24181115.492 7
  20690080.555 9 -50511268.496 9 -39237469.775 9  20690080.467 9  20690079.010 9
  21505964.316 9 -36933179.959 9 -27152071.656 9  21505963.973 9  21505963.667 9
  22386058.670 8 -57602280.841 8 -43669328.885 9  22386057.273 9  22386057.155 9
  21944274.642 9 -41832887.247 9 -32165211.400 9  21944273.806 9  21944273.161 9
  20228484.108 9 -50318287.230 9 -38156821.618 9  20228484.462 9  20228482.609 9
  20240780.176 9 -41923114.679 9 -32376777.474 9  20240781.216 9  20240778.915 9
 10  3 18  5  0 40.0000000  0  9G19G24G07G16G22G21G18G06G03
  22293426.503 8 -21859272.650 8 -16873990.443 9  22293425.629 9  22293424.486 9
  23108836.557 8 -52954646.563 8 -38856462.574 7  23108837.804 7  23108834.583 7
  24180551.616 7  -5518297.750 7  -4199850.798 7  24180551.985 7  24180550.553 7
  20689996.748 9 -50511708.589 9 -39237812.705 9  20689996.712 9  20689995.276 9
  21505179.513 9 -36937304.607 9 -27155285.667 9  21505179.096 9  21505178.779 9
  22386100.384 8 -57602061.708 8 -43669158.131 9  22386099.015 9  22386098.882 9
  21943888.030 9 -41834919.412 9 -32166794.905 9  21943887.077 9  21943886.444 9
  20227897.848 9 -50321367.724 9 -38159222.002 9  20227898.254 9  20227896.389 9
  20240062.399 9 -41926886.710 9 -32379716.718 9  20240063.418 9  20240061.033 9
 10  3 18  5  0 41.0000000  0  9G19G24G07G16G22G21G18G06G03
  22292547.776 8 -21863889.387 8 -16877587.899 9  22292547.115 9  22292545.928 9
  23109013.057 8 -52953720.264 8 -38855740.783 7  23109014.061 7  23109010.876 7
  24179987.022 7  -5521266.004 7  -4202163.722 7  24179987.071 7  24179985.724 7
  20689912.987 9 -50512148.109 9 -39238155.188 9  20689913.022 9  20689911.650 9
  21504394.716 9 -36941428.732 9 -27158499.271 9  21504394.307 9  21504393.969 9
  22386142.147 8 -57601842.365 8 -43668987.215 9  22386140.791 9  22386140.642 9
  21943501.500 9 -41836950.951 9 -32168377.922 9  21943500.495 9  21943499.897 9
  20227311.611 9 -50324447.876 9 -38161622.120 9  20227312.108 9  20227310.230 9
  20239344.726 9 -41930658.363 9 -32382655.667 9  20239345.691 9  20239343.239 9
 10  3 18  5  0 42.0000000  0  9G19G24G07G16G22G21G18G06G03
  22291669.464 8 -21868505.893 8 -16881185.175 9  22291668.621 9  22291667.440 9
  23109189.475 8 -52952793.797 8 -38855018.860 7  23109190.327 7  23109187.217 7
  24179422.079 7  -5524233.544 7  -4204476.091 7  24179422.321 7  24179421.046 7
  20689829.371 9 -50512587.009 9 -39238497.188 9  20689829.463 9  20689828.126 9
  21503610.039 9 -36945552.257 9 -27161712.408 9  21503609.620 9  21503609.260 9
  22386183.876 8 -57601622.743 8 -43668816.080 9  22386182.582 9  22386182.446 9
  21943115.053 9 -41838981.820 9 -32169960.417 9  21943114.047 9  21943113.484 9
  20226725.537 9 -50327527.649 9 -38164021.943 9  20226726.075 9  20226724.133 9
  20238627.093 9 -41934429.584 9 -32385594.281 9  20238628.046 9  20238625.583 9
 10  3 18  5  0 43.0000000  0  9G19G24G07G16G22G21G18G06G03
  22290791.214 8 -21873122.299 8 -16884782.374 9  22290790.134 9  22290788.983 9
  23109365.963 8 -52951867.259 8 -38854296.883 7  23109366.606 7  23109363.576 7
  24178857.203 7  -5527200.486 7  -4206787.994 7  24178857.731 7  24178856.494 7
  20689745.888 9 -50513025.426 9 -39238838.812 9  20689746.020 9  20689744.661 9
  21502825.455 9 -36949675.349 9 -27164925.207 9  21502824.996 9  21502824.641 9
  22386225.586 8 -57601402.977 8 -43668644.834 9  22386224.399 9  22386224.275 9
  21942728.775 9 -41841012.150 9 -32171542.492 9  21942727.701 9  21942727.148 9
  20226139.523 9 -50330607.189 9 -38166421.584 9  20226140.090 9  20226138.085 9
  20237909.632 9 -41938200.515 9 -32388532.668 9  20237910.448 9  20237907.989 9
 10  3 18  5  0 44.0000000  0  9G19G24G07G16G22G21G18G06G03
  22289913.107 8 -21877738.625 8 -16888379.510 9  22289911.648 9  22289910.549 9
  23109542.382 8 -52950940.697 8 -38853574.886 7  23109542.922 7  23109539.926 7
  24178292.615 7  -5530166.926 7  -4209099.506 7  24178293.246 7  24178292.017 7
  20689662.317 9 -50513463.380 9 -39239180.075 9  20689662.686 9  20689661.278 9
  21502040.929 9 -36953798.002 9 -27168137.663 9  21502040.432 9  21502040.109 9
  22386267.371 8 -57601183.083 8 -43668473.488 9  22386266.270 9  22386266.118 9
  21942342.409 9 -41843041.949 9 -32173124.153 9  21942341.461 9  21942340.915 9
  20225553.553 9 -50333686.508 9 -38168821.053 9  20225554.126 9  20225552.105 9
  20237192.022 9 -41941971.180 9 -32391470.849 9  20237192.889 9  20237190.485 9
 10  3 18  5  0 45.0000000  0  9G19G24G07G16G22G21G18G06G03
  22289034.751 8 -21882354.839 8 -16891976.560 9  22289033.171 9  22289032.137 9
  23109718.383 8 -52950014.055 8 -38852852.826 7  23109719.258 7  23109716.291 7
  24177728.087 7  -5533132.755 7  -4211410.541 7  24177728.888 7  24177727.620 7
  20689579.070 9 -50513900.805 9 -39239520.926 9  20689579.481 9  20689577.975 9
  21501256.381 9 -36957920.169 9 -27171349.741 9  21501255.980 9  21501255.673 9
  22386309.234 8 -57600963.033 8 -43668302.021 9  22386308.171 9  22386307.990 9
  21941956.109 9 -41845071.184 9 -32174705.375 9  21941955.323 9  21941954.776 9
  20224967.681 9 -50336765.564 9 -38171220.317 9  20224968.214 9  20224966.178 9
  20236474.486 9 -41945741.527 9 -32394408.782 9  20236475.398 9  20236473.040 9
 10  3 18  5  0 46.0000000  0  9G19G24G07G16G22G21G18G06G03
  22288156.409 8 -21886970.910 8 -16895573.498 9  22288154.736 9  22288153.768 9
  23109894.721 8 -52949087.326 8 -38852130.700 7  23109895.595 7  23109892.679 7
  24177163.842 7  -5536097.953 7  -4213721.085 7  24177164.642 7  24177163.341 7
  20689495.872 9 -50514337.729 9 -39239861.387 9  20689496.347 9  20689494.784 9
  21500472.095 9 -36962041.852 9 -27174561.441 9  21500471.646 9  21500471.336 9
  22386351.100 8 -57600742.788 8 -43668130.401 9  22386350.106 9  22386349.929 9
  21941570.003 9 -41847099.827 9 -32176286.134 9  21941569.298 9  21941568.749 9
  20224381.813 9 -50339844.327 9 -38173619.353 9  20224382.353 9  20224380.360 9
  20235757.042 9 -41949511.541 9 -32397346.454 9  20235758.016 9  20235755.661 9
 10  3 18  5  0 47.0000000  0  9G19G24G07G16G22G21G18G06G03
  22287278.147 8 -21891586.843 8 -16899170.329 9  22287276.335 9  22287275.430 9
  23110071.213 8 -52948160.467 8 -38851408.471 7  23110071.948 7  23110069.087 7
  24176599.385 7  -5539062.573 7  -4216031.179 7  24176600.494 7  24176599.167 7
  20689412.866 9 -50514774.103 9 -39240201.419 9  20689413.280 9  20689411.726 9
  21499687.975 9 -36966163.023 9 -27177772.743 9  21499687.378 9  21499687.101 9
  22386392.995 8 -57600522.369 8 -43667958.647 9  22386392.075 9  22386391.898 9
  21941184.189 9 -41849127.893 9 -32177866.444 9  21941183.359 9  21941182.825 9
  20223795.978 9 -50342922.818 9 -38176018.177 9  20223796.544 9  20223794.592 9
  20235039.716 9 -41953281.208 9 -32400283.857 9  20235040.710 9  20235038.340 9
 10  3 18  5  0 48.0000000  0  9G19G24G07G16G22G21G18G06G03
  22286399.946 8 -21896202.579 8 -16902767.006 9  22286397.967 9  22286397.135 9
  23110247.601 8 -52947233.492 8 -38850686.150 7  23110248.331 7  23110245.520 7
  24176035.540 7  -5542026.527 7  -4218340.754 7  24176036.451 7  24176035.114 7
  20689329.978 9 -50515209.911 9 -39240541.010 9  20689330.330 9  20689328.789 9
  21498903.971 9 -36970283.659 9 -27180983.628 9  21498903.195 9  21498902.976 9
  22386435.052 8 -57600301.705 8 -43667786.701 9  22386434.089 9  22386433.874 9
  21940798.217 9 -41851155.319 9 -32179446.255 9  21940797.541 9  21940797.024 9
  20223210.314 9 -50346000.975 9 -38178416.741 9  20223210.820 9  20223208.870 9
  20234322.349 9 -41957050.495 9 -32403220.963 9  20234323.528 9  20234321.073 9
 10  3 18  5  0 49.0000000  0  9G19G24G07G16G22G21G18G06G03
  22285521.636 8 -21900818.164 8 -16906363.564 9  22285519.623 9  22285518.865 9
  23110424.036 8 -52946306.386 8 -38849963.729 7  23110424.743 7  23110421.977 7
  24175471.740 7  -5544989.852 7  -4220649.837 7  24175472.502 7  24175471.182 7
  20689247.259 9 -50515645.155 9 -39240880.161 9  20689247.516 9  20689245.987 9
  21498119.969 9 -36974403.761 9 -27184194.097 9  21498119.137 9  21498118.962 9
  22386476.817 8 -57600080.836 8 -43667614.595 9  22386476.144 9  22386475.893 9
  21940412.545 9 -41853182.141 9 -32181025.595 9  21940411.864 9  21940411.325 9
  20222624.672 9 -50349078.831 9 -38180815.070 9  20222625.150 9  20222623.203 9
  20233605.096 9 -41960819.419 9 -32406157.787 9  20233606.402 9  20233603.879 9
 10  3 18  5  0 50.0000000  0  9G19G24G07G16G22G21G18G06G03
  22284643.327 8 -21905433.603 8 -16909960.010 9  22284641.318 9  22284640.607 9
  23110600.395 8 -52945379.197 8 -38849241.244 7  23110601.138 7  23110598.477 7
  24174907.805 7  -5547952.573 7  -4222958.450 7  24174908.677 7  24174907.369 7
  20689164.750 9 -50516079.882 9 -39241218.910 9  20689164.802 9  20689163.270 9
  21497336.020 9 -36978523.380 9 -27187404.188 9  21497335.196 9  21497335.050 9
  22386518.964 8 -57599859.799 8 -43667442.360 9  22386518.219 9  22386517.977 9
  21940026.936 9 -41855208.371 9 -32182604.475 9  21940026.306 9  21940025.739 9
  20222039.008 9 -50352156.404 9 -38183213.179 9  20222039.500 9  20222037.568 9
  20232887.973 9 -41964588.003 9 -32409094.346 9  20232889.260 9  20232886.750 9
 10  3 18  5  0 51.0000000  0  9G19G24G07G16G22G21G18G06G03
  22283764.920 8 -21910048.825 8 -16913556.287 9  22283763.059 9  22283762.382 9
  23110776.826 8 -52944451.817 8 -38848518.608 7  23110777.560 7  23110775.013 7
  24174344.115 7  -5550914.606 7  -4225266.526 7  24174345.013 7  24174343.699 7
  20689082.245 9 -50516514.003 9 -39241557.186 9  20689082.204 9  20689080.646 9
  21496552.287 9 -36982642.441 9 -27190613.846 9  21496551.361 9  21496551.247 9
  22386561.136 8 -57599638.484 8 -43667269.906 9  22386560.347 9  22386560.112 9
  21939641.479 9 -41857233.948 9 -32184182.845 9  21939640.843 9  21939640.235 9
  20221453.360 9 -50355233.611 9 -38185611.002 9  20221453.921 9  20221452.003 9
  20232170.862 9 -41968356.197 9 -32412030.601 9  20232172.184 9  20232169.697 9
 10  3 18  5  0 52.0000000  0  9G19G24G07G16G22G21G18G06G03
  22282886.715 8 -21914663.951 8 -16917152.488 9  22282884.802 9  22282884.125 9
  23110953.424 8 -52943524.385 8 -38847795.932 7  23110953.997 7  23110951.517 7
  24173780.513 7  -5553876.073 7  -4227574.165 7  24173781.453 7  24173780.165 7
  20688999.786 9 -50516947.632 9 -39241895.079 9  20688999.690 9  20688998.125 9
  21495768.490 9 -36986761.023 9 -27193823.130 9  21495767.611 9  21495767.534 9
  22386603.410 8 -57599417.027 8 -43667097.343 9  22386602.516 9  22386602.244 9
  21939255.897 9 -41859258.983 9 -32185760.794 9  21939255.477 9  21939254.829 9
  20220867.760 9 -50358310.576 9 -38188008.637 9  20220868.444 9  20220866.463 9
  20231453.709 9 -41972124.072 9 -32414966.606 9  20231455.114 9  20231452.700 9
 10  3 18  5  0 53.0000000  0  9G19G24G07G16G22G21G18G06G03
  22282008.561 8 -21919278.861 8 -16920748.521 9  22282006.577 9  22282005.890 9
  23111129.928 8 -52942596.785 8 -38847073.125 7  23111130.464 7  23111128.045 7
  24173217.347 7  -5556836.827 7  -4229881.246 7  24173218.017 7  24173216.803 7
  20688917.490 9 -50517380.651 9 -39242232.497 9  20688917.266 9  20688915.722 9
  21494984.844 9 -36990879.030 9 -27197031.966 9  21494983.999 9  21494983.919 9
  22386645.708 8 -57599195.314 8 -43666924.580 9  22386644.734 9  22386644.424 9
  21938870.367 9 -41861283.342 9 -32187338.215 9  21938870.264 9  21938869.593 9
  20220282.379 9 -50361387.172 9 -38190405.985 9  20220283.040 9  20220281.000 9
  20230736.754 9 -41975891.540 9 -32417902.295 9  20230738.136 9  20230735.773 9
 10  3 18  5  0 54.0000000  0  9G19G24G07G16G22G21G18G06G03
  22281130.429 8 -21923893.583 8 -16924344.408 9  22281128.421 9  22281127.742 9
  23111306.550 8 -52941669.051 8 -38846350.215 7  23111306.949 7  23111304.623 7
  24172653.974 7  -5559796.960 7  -4232187.842 7  24172654.707 7  24172653.561 7
  20688835.209 9 -50517813.108 9 -39242569.476 9  20688834.977 9  20688833.433 9
  21494201.235 9 -36994996.499 9 -27200240.384 9  21494200.521 9  21494200.403 9
  22386687.868 8 -57598973.370 8 -43666751.636 9  22386686.966 9  22386686.684 9
  21938485.310 9 -41863307.079 9 -32188915.152 9  21938485.172 9  21938484.478 9
  20219696.872 9 -50364463.450 9 -38192803.084 9  20219697.601 9  20219695.677 9
  20230019.909 9 -41979658.632 9 -32420837.691 9  20230021.302 9  20230018.896 9
 10  3 18  5  0 55.0000000  0  9G19G24G07G16G22G21G18G06G03
  22280252.197 8 -21928508.197 8 -16927940.211 9  22280250.295 9  22280249.628 9
  23111483.365 8 -52940741.220 8 -38845627.228 7  23111483.451 7  23111481.221 7
  24172090.845 7  -5562756.500 7  -4234493.975 7  24172091.517 7  24172090.426 7
  20688752.818 9 -50518245.044 9 -39242906.050 9  20688752.841 9  20688751.250 9
  21493417.675 9 -36999113.491 9 -27203448.429 9  21493417.104 9  21493416.957 9
  22386730.156 8 -57598751.266 8 -43666578.568 9  22386729.226 9  22386728.972 9
  21938100.252 9 -41865330.247 9 -32190491.646 9  21938100.162 9  21938099.491 9
  20219111.458 9 -50367539.450 9 -38195199.967 9  20219112.217 9  20219110.406 9
  20229303.193 9 -41983425.399 9 -32423772.833 9  20229304.535 9  20229302.097 9
 10  3 18  5  0 56.0000000  0  9G19G24G07G16G22G21G18G06G03
  22279374.180 8 -21933122.652 8 -16931535.890 9  22279372.192 9  22279371.570 9
  23111659.948 8 -52939813.299 8 -38844904.171 7  23111660.043 7  23111657.826 7
  24171527.755 7  -5565715.433 7  -4236799.634 7  24171528.462 7  24171527.389 7
  20688670.687 9 -50518676.452 9 -39243242.212 9  20688670.786 9  20688669.154 9
  21492634.360 9 -37003229.976 9 -27206656.080 9  21492633.764 9  21492633.598 9
  22386772.467 8 -57598528.971 8 -43666405.350 9  22386771.561 9  22386771.274 9
  21937715.377 9 -41867352.822 9 -32192067.677 9  21937715.262 9  21937714.618 9
  20218526.246 9 -50370615.169 9 -38197596.631 9  20218526.925 9  20218525.149 9
  20228586.631 9 -41987191.836 9 -32426707.719 9  20228587.853 9  20228585.406 9
 10  3 18  5  0 57.0000000  0  9G19G24G07G16G22G21G18G06G03
  22278495.980 8 -21937736.907 8 -16935131.413 9  22278494.123 9  22278493.561 9
  23111836.542 8 -52938885.206 8 -38844180.981 7  23111836.677 7  23111834.458 7
  24170964.900 7  -5568673.645 7  -4239104.732 7  24170965.571 7  24170964.459 7
  20688588.751 9 -50519107.263 9 -39243577.909 9  20688588.818 9  20688587.156 9
  21491851.360 9 -37007345.897 9 -27209863.291 9  21491850.546 9  21491850.362 9
  22386814.757 8 -57598306.409 8 -43666231.925 9  22386813.949 9  22386813.625 9
  21937330.541 9 -41869374.752 9 -32193643.207 9  21937330.541 9  21937329.847 9
  20217940.923 9 -50373690.528 9 -38199993.015 9  20217941.703 9  20217939.961 9
  20227870.049 9 -41990957.850 9 -32429642.274 9  20227871.248 9  20227868.793 9
 10  3 18  5  0 58.0000000  0  9G19G24G07G16G22G21G18G06G03
  22277617.864 8 -21942351.011 8 -16938726.818 9  22277616.087 9  22277615.524 9
  23112012.883 8 -52937957.020 8 -38843457.719 7  23112013.306 7  23112011.148 7
  24170401.828 7  -5571631.298 7  -4241409.395 7  24170402.776 7  24170401.612 7
  20688506.758 9 -50519537.540 9 -39243913.190 9  20688506.949 9  20688505.257 9
  21491068.306 9 -37011461.308 9 -27213070.105 9  21491067.436 9  21491067.232 9
  22386857.097 8 -57598083.670 8 -43666058.364 9  22386856.368 9  22386855.969 9
  21936945.881 9 -41871396.062 9 -32195218.253 9  21936945.948 9  21936945.196 9
  20217355.840 9 -50376765.577 9 -38202389.157 9  20217356.541 9  20217354.845 9
  20227153.468 9 -41994723.520 9 -32432576.562 9  20227154.671 9  20227152.215 9
 10  3 18  5  0 59.0000000  0  9G19G24G07G16G22G21G18G06G03
  22276739.761 8 -21946964.964 8 -16942322.106 9  22276738.086 9  22276737.497 9
  23112188.973 8 -52937028.715 8 -38842734.363 7  23112189.949 7  23112187.865 7
  24169839.129 7  -5574588.295 7  -4243713.548 7  24169840.084 7  24169838.848 7
  20688424.869 9 -50519967.273 9 -39244248.047 9  20688425.183 9  20688423.462 9
  21490285.335 9 -37015576.220 9 -27216276.529 9  21490284.397 9  21490284.228 9
  22386899.575 8 -57597860.734 8 -43665884.647 9  22386898.827 9  22386898.352 9
  21936561.376 8 -41873416.785 8 -32196792.841 9  21936561.436 9  21936560.658 9
  20216770.882 9 -50379840.349 9 -38204785.083 9  20216771.433 9  20216769.776 9
  20226436.970 9 -41998488.846 9 -32435510.582 9  20226438.163 9  20226435.711 9
 10  3 18  5  1  0.0000000  0  9G19G24G07G16G22G21G18G06G03
  22275861.802 8 -21951578.742 8 -16945917.257 9  22275860.114 9  22275859.530 9
  23112365.596 8 -52936100.289 8 -38842010.913 7  23112366.623 7  23112364.565 7
  24169276.550 7  -5577544.682 7  -4246017.225 7  24169277.514 7  24169276.229 7
  20688343.135 9 -50520396.456 9 -39244582.475 9  20688343.524 9  20688341.768 9
  21489502.615 9 -37019690.595 9 -27219482.536 9  21489501.434 9  21489501.351 9
  22386942.013 8 -57597637.589 8 -43665710.769 9  22386941.337 9  22386940.763 9
  21936177.004 9 -41875436.906 9 -32198366.961 9  21936177.034 9  21936176.236 9
  20216185.937 9 -50382914.799 9 -38207180.758 9  20216186.374 9  20216184.691 9
  20225720.550 9 -42002253.800 9 -32438444.312 9  20225721.727 9  20225719.291 9
 10  3 18  5  1  1.0000000  0  9G19G24G07G16G22G21G18G06G03
  22274983.914 8 -21956192.416 8 -16949512.326 9  22274982.169 9  22274981.599 9
  23112542.103 8 -52935171.784 8 -38841287.401 7  23112543.307 7  23112541.270 7
  24168713.901 7  -5580500.449 7  -4248320.420 7  24168715.068 7  24168713.765 7
  20688261.527 9 -50520825.118 9 -39244916.498 9  20688261.979 9  20688260.172 9
  21488719.732 9 -37023804.495 9 -27222688.172 9  21488718.567 9  21488718.544 9
  22386984.494 8 -57597414.270 8 -43665536.754 9  22386983.886 9  22386983.213 9
  21935792.610 8 -41877456.454 8 -32199940.634 9  21935792.693 9  21935791.856 9
  20215600.932 9 -50385988.975 9 -38209576.220 9  20215601.371 9  20215599.666 9
  20225004.208 9 -42006018.438 9 -32441377.796 9  20225005.349 9  20225002.929 9
 10  3 18  5  1  2.0000000  0  9G19G24G07G16G22G21G18G06G03
  22274105.822 8 -21960805.928 8 -16953107.270 9  22274104.247 9  22274103.692 9
  23112718.865 8 -52934243.141 8 -38840563.782 7  23112720.034 7  23112717.981 7
  24168151.578 7  -5583455.611 7  -4250623.142 7  24168152.722 7  24168151.419 7
  20688180.003 9 -50521253.230 9 -39245250.091 9  20688180.520 9  20688178.703 9
  21487937.138 9 -37027917.875 9 -27225893.402 9  21487935.793 9  21487935.804 9
  22387026.918 8 -57597190.748 8 -43665362.582 9  22387026.387 9  22387025.707 9
  21935408.283 9 -41879475.391 9 -32201513.831 9  21935408.463 9  21935407.589 9
  20215015.957 9 -50389062.857 9 -38211971.453 9  20215016.445 9  20215014.756 9
  20224287.925 9 -42009782.707 9 -32444310.992 9  20224289.008 9  20224286.610 9
 10  3 18  5  1  3.0000000  0  9G19G24G07G16G22G21G18G06G03
  22273228.164 8 -21965419.236 8 -16956702.055 9  22273226.361 9  22273225.824 9
  23112895.692 8 -52933314.376 8 -38839840.066 7  23112896.788 7  23112894.713 7
  24167589.275 7  -5586410.111 7  -4252925.347 7  24167590.465 7  24167589.194 7
  20688098.728 9 -50521680.760 9 -39245583.232 9  20688099.134 9  20688097.372 9
  21487154.483 9 -37032030.701 9 -27229098.201 9  21487153.151 9  21487153.174 9
  22387069.383 8 -57596966.994 8 -43665188.228 9  22387068.930 9  22387068.244 9
  21935024.247 8 -41881493.698 8 -32203086.537 9  21935024.400 9  21935023.488 9
  20214431.110 9 -50392136.387 9 -38214366.410 9  20214431.587 9  20214429.909 9
  20223571.865 9 -42013546.583 9 -32447243.882 9  20223572.754 9  20223570.370 9
 10  3 18  5  1  4.0000000  0  9G19G24G07G16G22G21G18G06G03
  22272350.511 8 -21970032.385 8 -16960296.715 9  22272348.511 9  22272347.971 9
  23113072.598 8 -52932385.473 8 -38839116.244 7  23113073.571 7  23113071.475 7
  24167027.330 7  -5589363.970 7  -4255227.053 7  24167028.360 7  24167027.090 7
  20688017.516 9 -50522107.748 9 -39245915.949 9  20688017.876 9  20688016.136 9
  21486371.795 9 -37036143.009 9 -27232302.597 9  21486370.621 9  21486370.635 9
  22387111.969 8 -57596743.038 8 -43665013.717 9  22387111.536 9  22387110.873 9
  21934640.504 9 -41883511.384 9 -32204658.759 9  21934640.465 9  21934639.513 9
  20213846.080 9 -50395209.625 9 -38216761.142 9  20213846.787 9  20213845.020 9
  20222855.676 9 -42017310.116 9 -32450176.504 9  20222856.605 9  20222854.202 9
 10  3 18  5  1  5.0000000  0  9G19G24G07G16G22G21G18G06G03
  22271472.641 8 -21974645.415 8 -16963891.284 9  22271470.686 9  22271470.134 9
  23113249.723 8 -52931456.512 8 -38838392.378 7  23113250.369 7  23113248.252 7
  24166465.335 7  -5592317.233 7  -4257528.294 7  24166466.423 7  24166465.098 7
  20687936.389 9 -50522534.212 9 -39246248.258 9  20687936.751 9  20687934.979 9
  21485589.431 9 -37040254.847 9 -27235506.626 9  21485588.187 9  21485588.194 9
  22387154.474 8 -57596518.919 8 -43664839.078 9  22387154.172 9  22387153.532 9
  21934256.905 9 -41885528.499 9 -32206230.536 9  21934256.610 9  21934255.651 9
  20213261.212 9 -50398282.584 9 -38219155.655 9  20213262.047 9  20213260.192 9
  20222139.449 9 -42021073.323 9 -32453108.873 9  20222140.505 9  20222138.086 9
 10  3 18  5  1  6.0000000  0  9G19G24G07G16G22G21G18G06G03
  22270594.582 8 -21979258.316 8 -16967485.751 9  22270592.869 9  22270592.310 9
  23113426.430 8 -52930527.413 8 -38837668.403 7  23113427.200 7  23113425.052 7
  24165903.884 7  -5595269.881 7  -4259829.058 7  24165904.591 7  24165903.214 7
  20687855.415 9 -50522960.141 9 -39246580.151 9  20687855.709 9  20687853.912 9
  21484807.048 9 -37044366.197 9 -27238710.276 9  21484805.849 9  21484805.851 9
  22387197.244 8 -57596294.598 8 -43664664.284 9  22387196.850 9  22387196.234 9
  21933873.195 9 -41887545.026 9 -32207801.855 9  21933872.856 9  21933871.893 9
  20212676.408 9 -50401355.248 9 -38221549.937 9  20212677.382 9  20212675.447 9
  20221423.213 9 -42024836.193 9 -32456040.980 9  20221424.403 9  20221422.003 9
 10  3 18  5  1  7.0000000  0  9G19G24G07G16G22G21G18G06G03
  22269716.610 8 -21983871.070 8 -16971080.105 9  22269715.072 9  22269714.509 9
  23113603.147 8 -52929598.245 8 -38836944.374 7  23113604.046 7  23113601.867 7
  24165341.987 7  -5598221.964 7  -4262129.380 7  24165342.847 7  24165341.433 7
  20687774.494 9 -50523385.548 9 -39246911.637 9  20687774.718 9  20687772.921 9
  21484024.821 9 -37048477.048 9 -27241913.535 9  21484023.602 9  21484023.616 9
  22387240.073 8 -57596070.114 8 -43664489.362 9  22387239.552 9  22387238.960 9
  21933489.616 9 -41889560.978 9 -32209372.727 9  21933489.279 9  21933488.232 9
  20212091.768 9 -50404427.638 9 -38223944.007 9  20212092.765 9  20212090.751 9
  20220707.149 9 -42028598.723 9 -32458972.821 9  20220708.371 9  20220705.985 9
 10  3 18  5  1  8.0000000  0  9G19G24G07G16G22G21G18G06G03
  22268839.035 8 -21988483.747 8 -16974674.397 9  22268837.303 9  22268836.720 9
  23113779.964 8 -52928669.058 8 -38836220.332 7  23113780.869 7  23113778.692 7
  24164780.393 7  -5601173.469 7  -4264429.254 7  24164781.206 7  24164779.744 7
  20687693.635 9 -50523810.512 9 -39247242.777 9  20687693.838 9  20687692.029 9
  21483242.562 9 -37052587.487 9 -27245116.475 9  21483241.417 9  21483241.459 9
  22387282.909 8 -57595845.530 8 -43664314.361 9  22387282.297 9  22387281.669 9
  21933106.061 8 -41891576.418 8 -32210943.199 9  21933105.806 9  21933104.664 9
  20211507.145 9 -50407499.822 9 -38226337.917 9  20211508.148 9  20211506.121 9
  20219991.197 9 -42032361.008 9 -32461904.470 9  20219992.390 9  20219989.998 9
 10  3 18  5  1  9.0000000  0  9G19G24G07G16G22G21G18G06G03
  22267961.424 8 -21993096.232 8 -16978268.541 9  22267959.580 9  22267958.966 9
  23113956.760 8 -52927739.728 8 -38835496.179 7  23113957.719 7  23113955.550 7
  24164218.954 7  -5604124.334 7  -4266728.629 7  24164219.663 7  24164218.143 7
  20687612.888 9 -50524234.869 9 -39247573.445 9  20687613.121 9  20687611.269 9
  21482460.432 9 -37056697.350 9 -27248318.965 9  21482459.339 9  21482459.439 9
  22387325.598 8 -57595620.684 8 -43664139.155 9  22387325.091 9  22387324.427 9
  21932722.629 8 -41893591.215 8 -32212513.170 9  21932722.428 9  21932721.249 9
  20210922.524 9 -50410571.640 9 -38228731.541 9  20210923.595 9  20210921.559 9
  20219275.474 9 -42036122.883 9 -32464835.801 9  20219276.500 9  20219274.099 9
 10  3 18  5  1 10.0000000  0  9G19G24G07G16G22G21G18G06G03
  22267083.633 8 -21997708.629 8 -16981862.615 9  22267081.899 9  22267081.229 9
  23114133.747 8 -52926810.336 8 -38834771.977 7  23114134.601 7  23114132.416 7
  24163657.722 7  -5607074.648 7  -4269027.574 7  24163658.254 7  24163656.654 7
  20687532.280 9 -50524658.763 9 -39247903.751 9  20687532.477 9  20687530.618 9
  21481678.326 9 -37060806.775 9 -27251521.114 9  21481677.336 9  21481677.521 9
  22387368.498 8 -57595395.726 8 -43663963.862 9  22387367.910 9  22387367.211 9
  21932339.165 8 -41895605.452 8 -32214082.706 9  21932339.152 9  21932337.940 9
  20210338.023 9 -50413643.239 9 -38231124.994 9  20210339.103 9  20210337.058 9
  20218559.698 9 -42039884.465 9 -32467766.903 9  20218560.715 9  20218558.284 9
 10  3 18  5  1 11.0000000  0  9G19G24G07G16G22G21G18G06G03
  22266205.966 8 -22002320.895 8 -16985456.588 9  22266204.257 9  22266203.518 9
  23114310.564 8 -52925880.850 8 -38834047.702 7  23114311.509 7  23114309.304 7
  24163096.629 7  -5610024.347 7  -4271326.039 7  24163097.022 7  24163095.294 7
  20687451.757 9 -50525082.134 9 -39248233.652 9  20687451.908 9  20687450.092 9
  21480896.543 9 -37064915.697 9 -27254722.871 9  21480895.469 9  21480895.684 9
  22387411.247 8 -57595170.593 8 -43663788.434 9  22387410.764 9  22387410.030 9
  21931955.866 8 -41897619.139 8 -32215651.813 9  21931955.965 9  21931954.726 9
  20209753.663 9 -50416714.563 9 -38233518.234 9  20209754.664 9  20209752.609 9
  20217843.951 9 -42043645.729 9 -32470697.757 9  20217844.986 9  20217842.531 9
 10  3 18  5  1 12.0000000  0  9G19G24G07G16G22G21G18G06G03
  22265328.297 8 -22006932.929 8 -16989050.379 9  22265326.634 9  22265325.863 9
  23114487.500 8 -52924951.220 8 -38833323.316 7  23114488.444 7  23114486.219 7
  24162535.093 7  -5612973.353 7  -4273623.964 7  24162535.896 7  24162534.101 7
  20687371.439 9 -50525504.883 9 -39248563.066 9  20687371.445 9  20687369.697 9
  21480114.640 9 -37069024.046 9 -27257924.181 9  21480113.737 9  21480113.933 9
  22387454.089 8 -57594945.185 8 -43663612.791 9  22387453.614 9  22387452.867 9
  21931572.630 8 -41899632.120 8 -32217220.370 9  21931572.911 9  21931571.644 9
  20209169.314 9 -50419785.507 9 -38235911.177 9  20209170.260 9  20209168.213 9
  20217128.314 9 -42047406.560 9 -32473628.274 9  20217129.325 9  20217126.871 9
 10  3 18  5  1 13.0000000  0  9G19G24G07G16G22G21G18G06G03
  22264450.821 8 -22011544.796 8 -16992644.040 9  22264449.024 9  22264448.239 9
  23114664.516 8 -52924021.413 8 -38832598.791 7  23114665.416 7  23114663.170 7
  24161973.909 7  -5615921.721 7  -4275921.392 7  24161974.839 7  24161973.077 7
  20687291.070 9 -50525927.071 9 -39248892.043 9  20687291.061 9  20687289.428 9
  21479333.041 9 -37073131.845 9 -27261125.063 9  21479332.076 9  21479332.305 9
  22387496.979 8 -57594719.556 8 -43663436.976 9  22387496.500 9  22387495.745 9
  21931189.608 8 -41901644.497 8 -32218788.457 9  21931189.957 9  21931188.658 9
  20208585.075 9 -50422856.150 9 -38238303.885 9  20208585.915 9  20208583.876 9
  20216412.742 9 -42051167.020 9 -32476558.502 9  20216413.725 9  20216411.291 9
 10  3 18  5  1 14.0000000  0  9G19G24G07G16G22G21G18G06G03
  22263573.235 8 -22016156.467 8 -16996237.550 9  22263571.464 9  22263570.693 9
  23114841.487 8 -52923091.494 8 -38831874.178 7  23114842.379 7  23114840.119 7
  24161412.558 7  -5618869.445 7  -4278218.318 7  24161413.905 7  24161412.166 7
  20687210.872 9 -50526348.691 9 -39249220.579 9  20687210.794 9  20687209.260 9
  21478551.557 9 -37077239.101 9 -27264325.522 9  21478550.478 9  21478550.789 9
  22387540.005 8 -57594493.685 8 -43663260.973 9  22387539.506 9  22387538.703 9
  21930806.756 8 -41903656.239 8 -32220356.047 9  21930807.123 9  21930805.790 9
  20208000.842 9 -50425926.431 9 -38240696.312 9  20208001.658 9  20207999.617 9
  20215697.273 9 -42054927.097 9 -32479488.431 9  20215698.172 9  20215695.835 9
 10  3 18  5  1 15.0000000  0  9G19G24G07G16G22G21G18G06G03
  22262695.793 8 -22020767.984 8 -16999830.939 9  22262693.936 9  22262693.189 9
  23115018.427 8 -52922161.440 8 -38831149.462 7  23115019.365 7  23115017.095 7
  24160851.317 7  -5621816.512 7  -4280514.733 7  24160853.088 7  24160851.356 7
  20687130.784 9 -50526769.756 9 -39249548.681 9  20687130.652 9  20687129.190 9
  21477770.090 9 -37081345.842 9 -27267525.580 9  21477769.025 9  21477769.324 9
  22387582.971 8 -57594267.636 8 -43663084.830 9  22387582.545 9  22387581.693 9
  21930424.089 8 -41905667.372 8 -32221923.164 9  21930424.439 9  21930423.082 9
  20207416.652 9 -50428996.409 9 -38243088.502 9  20207417.458 9  20207415.416 9
  20214981.896 9 -42058686.800 9 -32482418.069 9  20214982.691 9  20214980.433 9
 10  3 18  5  1 16.0000000  0  9G19G24G07G16G22G21G18G06G03
  22261818.173 8 -22025379.348 8 -17003424.209 9  22261816.418 9  22261815.706 9
  23115195.506 8 -52921231.287 8 -38830424.666 7  23115196.385 7  23115194.068 7
  24160290.573 7  -5624762.975 7  -4282810.677 7  24160292.386 7  24160290.658 7
  20687050.806 9 -50527190.282 9 -39249876.363 9  20687050.606 9  20687049.205 9
  21476988.726 9 -37085452.066 9 -27270725.235 9  21476987.718 9  21476987.923 9
  22387625.999 8 -57594041.360 8 -43662908.512 9  22387625.595 9  22387624.745 9
  21930041.452 8 -41907677.898 8 -32223489.807 9  21930041.882 9  21930040.496 9
  20206832.501 9 -50432066.091 9 -38245480.462 9  20206833.285 9  20206831.302 9
  20214266.600 9 -42062446.159 9 -32485347.438 9  20214267.304 9  20214265.062 9
 10  3 18  5  1 17.0000000  0  9G19G24G07G16G22G21G18G06G03
  22260940.634 8 -22029990.626 8 -17007017.412 9  22260938.914 9  22260938.243 9
  23115372.534 8 -52920301.085 8 -38829699.833 7  23115373.420 7  23115371.049 7
  24159730.260 7  -5627708.881 7  -4285106.185 7  24159731.784 7  24159730.053 7
  20686970.878 9 -50527610.312 9 -39250203.660 9  20686970.648 9  20686969.287 9
  21476207.648 9 -37089557.846 9 -27273924.544 9  21476206.450 9  21476206.607 9
  22387668.994 8 -57593814.965 8 -43662732.101 9  22387668.666 9  22387667.816 9
  21929659.023 8 -41909687.891 8 -32225056.036 9  21929659.410 9  21929657.989 9
  20206248.401 9 -50435135.556 9 -38247872.252 9  20206249.152 9  20206247.231 9
  20213551.407 9 -42066205.220 9 -32488276.577 9  20213551.976 9  20213549.741 9
 10  3 18  5  1 18.0000000  0  9G19G24G07G16G22G21G18G06G03
  22260063.320 8 -22034601.714 8 -17010610.466 9  22260061.436 9  22260060.785 9
  23115549.503 8 -52919370.771 8 -38828974.913 7  23115550.491 7  23115548.095 7
  24159169.745 7  -5630654.124 7  -4287401.177 7  24159171.312 7  24159169.571 7
  20686891.124 9 -50528029.806 9 -39250530.538 9  20686890.815 9  20686889.456 9
  21475426.476 9 -37093663.087 9 -27277123.433 9  21475425.230 9  21475425.383 9
  22387712.204 8 -57593588.347 8 -43662555.516 9  22387711.782 9  22387710.897 9
  21929276.604 8 -41911697.273 8 -32226621.789 9  21929277.059 9  21929275.601 9
  20205664.141 9 -50438204.672 9 -38250263.770 9  20205665.073 9  20205663.231 9
  20212836.211 9 -42069963.923 9 -32491205.436 9  20212836.728 9  20212834.476 9
 10  3 18  5  1 19.0000000  0  9G19G24G07G16G22G21G18G06G03
  22259185.859 8 -22039212.651 8 -17014203.403 9  22259183.985 9  22259183.349 9
  23115726.541 8 -52918440.326 8 -38828249.890 7  23115727.591 7  23115725.176 7
  24158609.637 7  -5633598.732 7  -4289695.675 7  24158610.950 7  24158609.180 7
  20686811.307 9 -50528448.726 9 -39250856.968 9  20686811.134 9  20686809.706 9
  21474645.471 9 -37097767.786 9 -27280321.899 9  21474644.128 9  21474644.293 9
  22387755.276 8 -57593361.522 8 -43662378.770 9  22387754.941 9  22387754.023 9
  21928894.433 8 -41913706.032 8 -32228187.057 9  21928894.794 9  21928893.356 9
  20205080.173 9 -50441273.486 9 -38252655.054 9  20205081.050 9  20205079.289 9
  20212120.983 9 -42073722.242 9 -32494133.995 9  20212121.561 9  20212119.292 9
 10  3 18  5  1 20.0000000  0  9G19G24G07G16G22G21G18G06G03
  22258308.320 8 -22043823.468 8 -17017796.247 9  22258306.561 9  22258305.924 9
  23115903.756 8 -52917509.811 8 -38827524.813 7  23115904.700 7  23115902.286 7
  24158049.652 7  -5636542.790 7  -4291989.745 7  24158050.709 7  24158048.903 7
  20686731.633 9 -50528867.157 9 -39251183.019 9  20686731.549 9  20686730.082 9
  21473864.462 9 -37101872.037 9 -27283520.016 9  21473863.119 9  21473863.302 9
  22387798.507 8 -57593134.553 8 -43662201.911 9  22387798.085 9  22387797.201 9
  21928512.296 8 -41915714.249 8 -32229751.901 9  21928512.626 9  21928511.214 9
  20204496.266 9 -50444342.067 9 -38255046.156 9  20204497.085 9  20204495.356 9
  20211405.783 9 -42077480.264 9 -32497062.323 9  20211406.474 9  20211404.189 9
 10  3 18  5  1 21.0000000  0  9G19G24G07G16G22G21G18G06G03
  22257430.919 8 -22048434.160 8 -17021388.993 9  22257429.164 9  22257428.520 9
  23116080.955 8 -52916579.182 8 -38826799.650 7  23116081.830 7  23116079.419 7
  24157489.633 7  -5639486.211 7  -4294283.318 7  24157490.613 7  24157488.755 7
  20686652.105 9 -50529285.054 9 -39251508.652 9  20686652.067 9  20686650.603 9
  21473083.522 9 -37105975.776 9 -27286717.735 9  21473082.208 9  21473082.408 9
  22387841.696 8 -57592907.385 8 -43662024.897 9  22387841.268 9  22387840.416 9
  21928130.202 8 -41917721.866 8 -32231316.278 9  21928130.578 9  21928129.131 9
  20203912.313 9 -50447410.359 9 -38257437.033 9  20203913.171 9  20203911.478 9
  20210690.571 9 -42081237.939 9 -32499990.381 9  20210691.454 9  20210689.143 9
 10  3 18  5  1 22.0000000  0  9G19G24G07G16G22G21G18G06G03
  22256553.602 8 -22053044.646 8 -17024981.578 9  22256551.821 9  22256551.184 9
  23116258.150 8 -52915648.442 8 -38826074.399 7  23116258.947 7  23116256.537 7
  24156929.761 7  -5642428.985 7  -4296576.386 7  24156930.632 7  24156928.742 7
  20686572.631 9 -50529702.377 9 -39251833.839 9  20686572.682 9  20686571.208 9
  21472302.718 9 -37110078.966 9 -27289915.026 9  21472301.401 9  21472301.617 9
  22387884.867 8 -57592679.996 8 -43661847.711 9  22387884.503 9  22387883.655 9
  21927748.261 8 -41919728.861 8 -32232880.172 9  21927748.652 9  21927747.161 9
  20203328.387 9 -50450478.299 9 -38259827.635 9  20203329.365 9  20203327.729 9
  20209975.485 9 -42084995.222 9 -32502918.133 9  20209976.528 9  20209974.155 9
 10  3 18  5  1 23.0000000  0  9G19G24G07G16G22G21G18G06G03
  22255676.232 8 -22057654.917 8 -17028573.997 9  22255674.527 9  22255673.899 9
  23116435.081 8 -52914717.508 8 -38825348.997 7  23116436.102 7  23116433.691 7
  24156370.064 7  -5645371.075 7  -4298868.921 7  24156370.776 7  24156368.880 7
  20686493.341 9 -50530119.100 9 -39252158.558 9  20686493.378 9  20686491.885 9
  21471522.158 9 -37114181.596 9 -27293111.879 9  21471520.677 9  21471520.908 9
  22387928.374 8 -57592452.358 8 -43661670.332 9  22387927.788 9  22387926.945 9
  21927366.526 8 -41921735.178 8 -32234443.537 9  21927366.855 9  21927365.343 9
  20202744.830 9 -50453545.885 9 -38262217.961 9  20202745.627 9  20202744.044 9
  20209260.448 9 -42088752.109 9 -32505845.578 9  20209261.682 9  20209259.253 9
 10  3 18  5  1 24.0000000  0  9G19G24G07G16G22G21G18G06G03
  22254798.810 8 -22062265.015 8 -17032166.280 9  22254797.240 9  22254796.628 9
  23116612.247 8 -52913786.464 8 -38824623.511 7  23116613.311 7  23116610.897 7
  24155810.600 7  -5648312.493 7  -4301160.934 7  24155811.024 7  24155809.121 7
  20686414.083 9 -50530535.262 9 -39252482.840 9  20686414.168 9  20686412.699 9
  21470741.631 9 -37118283.669 9 -27296308.299 9  21470740.039 9  21470740.289 9
  22387971.717 8 -57592224.485 8 -43661492.770 9  22387971.166 9  22387970.302 9
  21926985.053 8 -41923740.890 8 -32236006.429 9  21926985.173 9  21926983.642 9
  20202161.196 9 -50456613.134 9 -38264608.026 9  20202161.999 9  20202160.357 9
  20208545.525 9 -42092508.609 9 -32508772.720 9  20208546.918 9  20208544.442 9
 10  3 18  5  1 25.0000000  0  9G19G24G07G16G22G21G18G06G03
  22253921.582 8 -22066874.970 8 -17035758.451 9  22253919.966 9  22253919.375 9
  23116789.484 8 -52912855.310 8 -38823897.936 7  23116790.549 7  23116788.130 7
  24155250.838 7  -5651253.321 7  -4303452.486 7  24155251.351 7  24155249.448 7
  20686334.963 9 -50530950.886 9 -39252806.702 9  20686335.032 9  20686333.658 9
  21469961.207 9 -37122385.253 9 -27299504.339 9  21469959.515 9  21469959.777 9
  22388015.084 8 -57591996.445 8 -43661315.076 9  22388014.575 9  22388013.689 9
  21926603.529 8 -41925746.011 8 -32237568.862 9  21926603.613 9  21926602.063 9
  20201577.671 9 -50459680.118 9 -38266997.883 9  20201578.420 9  20201576.718 9
  20207830.657 9 -42096264.771 9 -32511699.599 9  20207832.210 9  20207829.692 9
 10  3 18  5  1 26.0000000  0  9G19G24G07G16G22G21G18G06G03
  22253044.494 8 -22071484.758 8 -17039350.493 9  22253042.738 9  22253042.182 9
  23116966.919 8 -52911924.026 8 -38823172.261 7  23116967.793 7  23116965.345 7
  24154690.884 7  -5654193.538 7  -4305743.564 7  24154691.812 7  24154689.909 7
  20686256.053 9 -50531365.956 9 -39253130.133 9  20686256.004 9  20686254.715 9
  21469180.770 9 -37126486.307 9 -27302699.964 9  21469179.117 9  21469179.382 9
  22388058.623 8 -57591768.178 8 -43661137.206 9  22388058.003 9  22388057.075 9
  21926221.871 8 -41927750.516 8 -32239130.815 9  21926222.175 9  21926220.604 9
  20200994.169 9 -50462746.778 9 -38269387.487 9  20200994.828 9  20200993.151 9
  20207115.888 9 -42100020.565 9 -32514626.192 9  20207117.514 9  20207114.983 9
 10  3 18  5  1 27.0000000  0  9G19G24G07G16G22G21G18G06G03
  22252167.126 8 -22076094.416 8 -17042942.433 9  22252165.546 9  22252165.028 9
  23117144.141 8 -52910992.645 8 -38822446.510 7  23117145.056 7  23117142.577 7
  24154131.364 7  -5657133.116 7  -4308034.144 7  24154132.443 7  24154130.529 7
  20686177.177 9 -50531780.512 9 -39253453.164 9  20686177.077 9  20686175.866 9
  21468400.549 9 -37130586.867 9 -27305895.206 9  21468398.814 9  21468399.110 9
  22388102.185 8 -57591539.763 8 -43660959.221 9  22388101.464 9  22388100.495 9
  21925840.432 8 -41929754.440 8 -32240692.315 9  21925840.832 9  21925839.268 9
  20200410.762 9 -50465813.160 9 -38271776.875 9  20200411.290 9  20200409.634 9
  20206401.308 9 -42103776.028 9 -32517552.527 9  20206402.877 9  20206400.347 9
 10  3 18  5  1 28.0000000  0  9G19G24G07G16G22G21G18G06G03
  22251289.800 8 -22080703.930 8 -17046534.261 9  22251288.362 9  22251287.897 9
  23117321.322 8 -52910061.212 8 -38821720.719 7  23117322.300 7  23117319.833 7
  24153571.727 7  -5660072.102 7  -4310324.262 7  24153573.165 7  24153571.263 7
  20686098.436 9 -50532194.529 9 -39253775.775 9  20686098.269 9  20686097.120 9
  21467620.355 9 -37134686.920 9 -27309090.051 9  21467618.611 9  21467618.959 9
  22388145.674 8 -57591311.136 8 -43660781.071 9  22388144.977 9  22388143.996 9
  21925459.214 8 -41931757.781 8 -32242253.361 9  21925459.602 9  21925458.046 9
  20199827.408 9 -50468879.252 9 -38274166.038 9  20199827.812 9  20199826.141 9
  20205686.659 9 -42107531.146 9 -32520478.592 9  20205688.289 9  20205685.815 9
 10  3 18  5  1 29.0000000  0  9G19G24G07G16G22G21G18G06G03
  22250412.534 8 -22085313.286 8 -17050125.967 9  22250411.202 9  22250410.799 9
  23117498.661 8 -52909129.624 8 -38820994.806 7  23117499.571 7  23117497.119 7
  24153012.341 7  -5663010.438 7  -4312613.873 7  24153013.982 7  24153012.126 7
  20686019.670 9 -50532608.012 9 -39254097.970 9  20686019.597 9  20686018.480 9
  21466840.269 9 -37138786.462 9 -27312284.498 9  21466838.492 9  21466838.886 9
  22388189.117 8 -57591082.324 8 -43660602.777 9  22388188.525 9  22388187.530 9
  21925078.042 8 -41933760.517 8 -32243813.935 9  21925078.466 9  21925076.933 9
  20199243.958 9 -50471945.064 9 -38276554.982 9  20199244.390 9  20199242.702 9
  20204972.200 9 -42111285.915 9 -32523404.386 9  20204973.766 9  20204971.342 9
 10  3 18  5  1 30.0000000  0  9G19G24G07G16G22G21G18G06G03
  22249535.506 8 -22089922.551 8 -17053717.601 9  22249534.030 9  22249533.707 9
  23117675.946 8 -52908198.022 8 -38820268.881 7  23117676.881 7  23117674.386 7
  24152453.013 7  -5665948.257 7  -4314903.082 7  24152454.905 7  24152453.106 7
  20685941.104 9 -50533021.024 9 -39254419.798 9  20685941.008 9  20685939.913 9
  21466060.237 9 -37142885.554 9 -27315478.595 9  21466058.446 9  21466058.881 9
  22388232.692 8 -57590853.385 8 -43660424.384 9  22388232.065 9  22388231.067 9
  21924696.982 9 -41935762.726 9 -32245374.098 9  21924697.426 9  21924695.920 9
  20198660.498 9 -50475010.623 9 -38278943.728 9  20198661.014 9  20198659.272 9
  20204257.864 9 -42115040.401 9 -32526329.959 9  20204259.276 9  20204256.893 9
 10  3 18  5  1 31.0000000  0  9G19G24G07G16G22G21G18G06G03
  22248658.510 8 -22094531.711 8 -17057309.154 9  22248656.867 9  22248656.637 9
  23117853.271 8 -52907266.343 8 -38819542.897 7  23117854.212 7  23117851.662 7
  24151894.027 7  -5668885.490 7  -4317191.834 7  24151895.950 7  24151894.223 7
  20685862.600 9 -50533433.536 9 -39254741.236 9  20685862.498 9  20685861.419 9
  21465280.234 9 -37146984.178 9 -27318672.328 9  21465278.491 9  21465278.930 9
  22388276.315 8 -57590624.294 8 -43660245.873 9  22388275.630 9  22388274.633 9
  21924316.128 9 -41937764.378 9 -32246933.828 9  21924316.484 9  21924315.051 9
  20198077.142 9 -50478075.924 9 -38281332.275 9  20198077.688 9  20198075.897 9
  20203543.507 9 -42118794.575 9 -32529255.289 9  20203544.858 9  20203542.507 9
 10  3 18  5  1 32.0000000  0  9G19G24G07G16G22G21G18G06G03
  22247781.399 8 -22099140.731 8 -17060900.596 9  22247779.748 9  22247779.555 9
  23118030.722 8 -52906334.570 8 -38818816.840 7  23118031.551 7  23118028.972 7
  24151335.380 7  -5671822.096 7  -4319480.099 7  24151337.117 7  24151335.467 7
  20685784.250 9 -50533845.523 9 -39255062.264 9  20685784.109 9  20685783.028 9
  21464500.240 9 -37151082.302 9 -27321865.671 9  21464498.635 9  21464499.047 9
  22388319.949 8 -57590395.015 8 -43660067.215 9  22388319.233 9  22388318.245 9
  21923935.518 9 -41939765.449 9 -32248493.104 9  21923935.649 9  21923934.292 9
  20197493.780 9 -50481140.938 9 -38283720.597 9  20197494.424 9  20197492.658 9
  20202829.276 9 -42122548.420 9 -32532180.362 9  20202830.552 9  20202828.191 9
 10  3 18  5  1 33.0000000  0  9G19G24G07G16G22G21G18G06G03
  22246904.408 8 -22103749.562 8 -17064491.892 9  22246902.672 9  22246902.496 9
  23118207.710 8 -52905402.671 8 -38818090.686 7  23118208.918 7  23118206.313 7
  24150777.009 7  -5674758.054 7  -4321767.860 7  24150778.398 7  24150776.835 7
  20685705.997 9 -50534256.938 9 -39255382.847 9  20685705.859 9  20685704.742 9
  21463720.353 9 -37155179.889 9 -27325058.596 9  21463718.865 9  21463719.305 9
  22388363.552 8 -57590165.508 8 -43659888.378 9  22388362.877 9  22388361.900 9
  21923555.202 9 -41941765.896 9 -32250051.893 9  21923555.007 9  21923553.637 9
  20196910.507 9 -50484205.629 9 -38286108.667 9  20196911.223 9  20196909.478 9
  20202115.205 9 -42126301.886 9 -32535105.141 9  20202116.317 9  20202113.948 9
 10  3 18  5  1 34.0000000  0  9G19G24G07G16G22G21G18G06G03
  22246027.257 8 -22108358.291 8 -17068083.109 9  22246025.650 9  22246025.450 9
  23118384.954 8 -52904470.692 8 -38817364.470 7  23118386.247 7  23118383.667 7
  24150218.613 7  -5677693.473 7  -4324055.200 7  24150219.776 7  24150218.266 7
  20685627.887 9 -50534667.863 9 -39255703.049 9  20685627.699 9  20685626.557 9
  21462940.691 9 -37159277.007 9 -27328251.154 9  21462939.170 9  21462939.691 9
  22388407.209 8 -57589935.862 8 -43659709.434 9  22388406.564 9  22388405.595 9
  21923174.645 9 -41943765.780 9 -32251610.245 9  21923174.483 9  21923173.090 9
  20196327.398 9 -50487270.061 9 -38288496.537 9  20196328.134 9  20196326.319 9
  20201401.086 9 -42130055.045 9 -32538029.680 9  20201402.110 9  20201399.749 9
 10  3 18  5  1 35.0000000  0  9G19G24G07G16G22G21G18G06G03
  22245150.075 8 -22112966.820 8 -17071674.170 9  22245148.680 9  22245148.438 9
  23118562.229 8 -52903538.582 8 -38816638.150 7  23118563.587 7  23118561.041 7
  24149660.433 7  -5680628.201 7  -4326342.002 7  24149661.273 7  24149659.770 7
  20685549.971 9 -50535078.204 9 -39256022.795 9  20685549.647 9  20685548.493 9
  21462161.122 9 -37163373.577 9 -27331443.286 9  21462159.581 9  21462160.147 9
  22388450.938 8 -57589705.976 8 -43659530.302 9  22388450.297 9  22388449.337 9
  21922794.332 9 -41945765.027 9 -32253168.100 9  21922794.057 9  21922792.682 9
  20195744.228 9 -50490334.151 9 -38290884.139 9  20195745.111 9  20195743.227 9
  20200686.991 9 -42133807.822 9 -32540953.921 9  20200687.964 9  20200685.611 9
 10  3 18  5  1 36.0000000  0  9G19G24G07G16G22G21G18G06G03
  22244273.003 8 -22117575.247 8 -17075265.151 9  22244271.707 9  22244271.442 9
  23118739.694 8 -52902606.415 8 -38815911.787 7  23118740.937 7  23118738.436 7
  24149102.337 7  -5683562.343 7  -4328628.347 7  24149102.895 7  24149101.389 7
  20685471.931 9 -50535488.043 9 -39256342.150 9  20685471.689 9  20685470.520 9
  21461381.715 9 -37167469.662 9 -27334635.040 9  21461380.087 9  21461380.672 9
  22388494.600 8 -57589475.940 8 -43659351.055 9  22388494.055 9  22388493.092 9
  21922413.999 9 -41947763.710 9 -32254725.516 9  21922413.735 9  21922412.383 9
  20195161.224 9 -50493397.969 9 -38293271.529 9  20195162.024 9  20195160.216 9
  20199973.028 9 -42137560.275 9 -32543877.911 9  20199973.845 9  20199971.507 9
 10  3 18  5  1 37.0000000  0  9G19G24G07G16G22G21G18G06G03
  22243396.111 8 -22122183.501 8 -17078855.997 9  22243394.760 9  22243394.480 9
  23118917.225 8 -52901674.104 8 -38815185.312 7  23118918.317 7  23118915.864 7
  24148544.375 7  -5686495.855 7  -4330914.199 7  24148544.667 7  24148543.135 7
  20685394.033 9 -50535897.330 9 -39256661.076 9  20685393.851 9  20685392.656 9
  21460602.363 9 -37171565.229 9 -27337826.391 9  21460600.712 9  21460601.297 9
  22388538.552 8 -57589245.696 8 -43659171.645 9  22388537.852 9  22388536.888 9
  21922033.865 9 -41949761.781 9 -32256282.454 9  21922033.530 9  21922032.148 9
  20194578.424 9 -50496461.478 9 -38295658.678 9  20194578.995 9  20194577.259 9
  20199259.048 9 -42141312.359 9 -32546801.613 9  20199259.804 9  20199257.482 9
 10  3 18  5  1 38.0000000  0  9G19G24G07G16G22G21G18G06G03
  22242519.436 8 -22126791.608 8 -17082446.728 9  22242517.856 9  22242517.583 9
  23119094.717 8 -52900741.713 8 -38814458.774 7  23119095.658 7  23119093.330 7
  24147986.303 7  -5689428.751 7  -4333199.573 7  24147986.552 7  24147985.033 7
  20685316.293 9 -50536306.088 9 -39256979.589 9  20685316.100 9  20685314.866 9
  21459823.077 9 -37175660.293 9 -27341017.349 9  21459821.453 9  21459822.018 9
  22388582.395 8 -57589015.254 8 -43658992.081 9  22388581.756 9  22388580.722 9
  21921653.782 9 -41951759.266 9 -32257838.935 9  21921653.435 9  21921652.019 9
  20193995.580 9 -50499524.701 9 -38298045.605 9  20193996.058 9  20193994.287 9
  20198545.097 9 -42145064.110 9 -32549725.054 9  20198545.867 9  20198543.545 9
 10  3 18  5  1 39.0000000  0  9G19G24G07G16G22G21G18G06G03
  22241642.704 8 -22131399.585 8 -17086037.359 9  22241640.988 9  22241640.727 9
  23119272.208 8 -52899809.219 8 -38813732.155 7  23119273.012 7  23119270.822 7
  24147428.257 7  -5692361.022 7  -4335484.460 7  24147428.539 7  24147427.091 7
  20685238.663 9 -50536714.318 9 -39257297.691 9  20685238.432 9  20685237.143 9
  21459043.934 9 -37179754.861 9 -27344207.922 9  21459042.290 9  21459042.823 9
  22388626.141 8 -57588784.645 8 -43658812.386 9  22388625.697 9  22388624.591 9
  21921273.780 9 -41953756.171 9 -32259394.965 9  21921273.477 9  21921271.988 9
  20193412.664 9 -50502587.627 9 -38300432.299 9  20193413.181 9  20193411.377 9
  20197831.162 9 -42148815.514 9 -32552648.226 9  20197831.986 9  20197829.668 9
 10  3 18  5  1 40.0000000  0  9G19G24G07G16G22G21G18G06G03
  22240765.839 8 -22136007.455 8 -17089627.907 9  22240764.127 9  22240763.868 9
  23119449.833 8 -52898876.654 8 -38813005.482 7  23119450.472 7  23119448.304 7
  24146870.586 7  -5695292.733 7  -4337768.912 7  24146870.640 7  24146869.241 7
  20685161.059 9 -50537122.054 9 -39257615.407 9  20685160.841 9  20685159.515 9
  21458264.792 9 -37183848.956 9 -27347398.126 9  21458263.229 9  21458263.719 9
  22388670.045 8 -57588553.889 8 -43658632.576 9  22388669.606 9  22388668.471 9
  21920893.930 9 -41955752.509 9 -32260950.553 9  21920893.633 9  21920892.065 9
  20192829.982 9 -50505650.287 9 -38302818.788 9  20192830.322 9  20192828.558 9
  20197117.329 9 -42152566.613 9 -32555571.160 9  20197118.146 9  20197115.857 9
 10  3 18  5  1 41.0000000  0  9G19G24G07G16G22G21G18G06G03
  22239889.030 8 -22140615.127 8 -17093218.298 9  22239887.299 9  22239887.039 9
  23119627.422 8 -52897943.935 8 -38812278.689 7  23119627.974 7  23119625.811 7
  24146312.523 7  -5698223.772 7  -4340052.840 7  24146312.879 7  24146311.499 7
  20685083.619 9 -50537529.190 9 -39257932.657 9  20685083.333 9  20685082.003 9
  21457485.792 9 -37187942.496 9 -27350587.896 9  21457484.274 9  21457484.736 9
  22388714.164 8 -57588322.881 8 -43658452.572 9  22388713.561 9  22388712.399 9
  21920514.289 9 -41957748.194 9 -32262505.632 9  21920513.866 9  21920512.280 9
  20192247.261 9 -50508712.613 9 -38305205.015 9  20192247.522 9  20192245.798 9
  20196403.517 9 -42156317.300 9 -32558493.773 9  20196404.384 9  20196402.120 9
 10  3 18  5  1 42.0000000  0  9G19G24G07G16G22G21G18G06G03
  22239012.469 8 -22145222.672 8 -17096808.592 9  22239010.491 9  22239010.253 9
  23119804.898 8 -52897011.141 8 -38811551.837 7  23119805.504 7  23119803.311 7
  24145754.781 7  -5701154.245 7  -4342336.328 7  24145755.224 7  24145753.870 7
  20685006.278 9 -50537935.838 9 -39258249.525 9  20685005.918 9  20685004.590 9
  21456706.714 9 -37192035.555 9 -27353777.293 9  21456705.402 9  21456705.849 9
  22388758.019 8 -57588091.723 8 -43658272.449 9  22388757.596 9  22388756.387 9
  21920134.606 9 -41959743.318 9 -32264060.274 9  21920134.202 9  21920132.606 9
  20191664.490 9 -50511774.693 9 -38307591.052 9  20191664.868 9  20191663.079 9
  20195689.660 9 -42160067.685 9 -32561416.150 9  20195690.676 9  20195688.418 9
 10  3 18  5  1 43.0000000  0  9G19G24G07G16G22G21G18G06G03
  22238135.644 8 -22149830.059 8 -17100398.763 9  22238133.715 9  22238133.507 9
  23119982.443 8 -52896078.245 8 -38810824.906 7  23119983.054 7  23119980.825 7
  24145197.054 7  -5704084.078 7  -4344619.318 7  24145197.687 7  24145196.371 7
  20684929.028 9 -50538341.927 9 -39258565.958 9  20684928.609 9  20684927.292 9
  21455927.830 9 -37196128.096 9 -27356966.285 9  21455926.628 9  21455927.072 9
  22388802.022 8 -57587860.348 8 -43658092.156 9  22388801.669 9  22388800.410 9
  21919755.014 9 -41961737.830 9 -32265614.439 9  21919754.626 9  21919753.081 9
  20191081.729 9 -50514836.468 9 -38309976.850 9  20191082.271 9  20191080.417 9
  20194976.034 9 -42163817.696 9 -32564338.236 9  20194977.041 9  20194974.798 9
 10  3 18  5  1 44.0000000  0  9G19G24G07G16G22G21G18G06G03
  22237258.640 8 -22154437.318 8 -17103988.833 9  22237256.973 9  22237256.781 9
  23120159.639 8 -52895145.258 8 -38810097.904 7  23120160.607 7  23120158.419 7
  24144639.394 7  -5707013.316 7  -4346901.844 7  24144640.268 7  24144639.016 7
  20684851.827 9 -50538747.494 9 -39258881.985 9  20684851.413 9  20684850.101 9
  21455149.125 9 -37200220.135 9 -27360154.886 9  21455147.939 9  21455148.391 9
  22388845.969 8 -57587628.807 8 -43657911.736 9  22388845.756 9  22388844.451 9
  21919375.660 9 -41963731.766 9 -32267168.155 9  21919375.156 9  21919373.671 9
  20190499.074 9 -50517897.956 9 -38312362.425 9  20190499.679 9  20190497.802 9
  20194262.521 9 -42167567.380 9 -32567260.067 9  20194263.459 9  20194261.269 9
 10  3 18  5  1 45.0000000  0  9G19G24G07G16G22G21G18G06G03
  22236381.849 8 -22159044.402 8 -17107578.767 9  22236380.277 9  22236380.093 9
  23120337.091 8 -52894212.152 8 -38809370.808 7  23120338.184 7  23120336.047 7
  24144081.727 7  -5709941.887 7  -4349183.850 7  24144082.989 7  24144081.830 7
  20684774.761 9 -50539152.507 9 -39259197.580 9  20684774.362 9  20684773.036 9
  21454370.666 9 -37204311.638 9 -27363343.070 9  21454369.364 9  21454369.797 9
  22388890.280 8 -57587397.042 8 -43657731.140 8  22388889.888 8  22388888.539 9
  21918996.296 9 -41965725.075 9 -32268721.383 9  21918995.803 9  21918994.369 9
  20189916.620 9 -50520959.121 9 -38314747.749 9  20189917.147 9  20189915.251 9
  20193549.063 9 -42171316.680 9 -32570181.600 9  20193549.957 9  20193547.809 9
 10  3 18  5  1 46.0000000  0  9G19G24G07G16G22G21G18G06G03
  22235505.151 8 -22163651.293 8 -17111168.551 9  22235503.587 9  22235503.434 9
  23120514.487 8 -52893278.871 8 -38808643.577 7  23120515.778 7  23120513.688 7
  24143524.306 7  -5712869.845 7  -4351465.377 7  24143525.821 7  24143524.730 7
  20684697.742 9 -50539556.954 9 -39259512.734 9  20684697.417 9  20684696.074 9
  21453592.136 9 -37208402.596 9 -27366530.830 9  21453590.907 9  21453591.296 9
  22388934.567 8 -57587165.051 8 -43657550.368 8  22388934.028 8  22388932.706 9
  21918617.078 9 -41967717.771 9 -32270274.132 9  21918616.564 9  21918615.181 9
  20189334.061 9 -50524019.944 9 -38317132.806 9  20189334.705 9  20189332.814 9
  20192835.632 9 -42175065.613 9 -32573102.846 9  20192836.542 9  20192834.396 9
 10  3 18  5  1 47.0000000  0  9G19G24G07G16G22G21G18G06G03
  22234628.688 8 -22168257.943 8 -17114758.148 9  22234626.933 9  22234626.822 9
  23120692.069 8 -52892345.445 8 -38807916.232 7  23120693.397 7  23120691.356 7
  24142967.155 7  -5715797.079 7  -4353746.338 7  24142968.791 7  24142967.728 7
  20684620.987 9 -50539960.773 9 -39259827.398 9  20684620.594 9  20684619.233 9
  21452813.801 9 -37212492.955 9 -27369718.123 9  21452812.539 9  21452812.913 9
  22388978.891 8 -57586932.801 8 -43657369.395 8  22388978.219 8  22388976.923 9
  21918238.167 9 -41969709.771 9 -32271826.340 9  21918237.494 9  21918236.127 9
  20188751.635 9 -50527080.392 9 -38319517.570 9  20188752.331 9  20188750.446 9
  20192122.378 9 -42178814.104 9 -32576023.747 9  20192123.220 9  20192121.072 9
 10  3 18  5  1 48.0000000  0  9G19G24G07G16G22G21G18G06G03
  22233752.134 8 -22172864.566 8 -17118347.723 9  22233750.291 9  22233750.252 9
  23120869.623 8 -52891412.029 8 -38807188.894 7  23120870.994 7  23120868.972 7
  24142410.390 7  -5718723.804 7  -4356026.902 7  24142411.861 7  24142410.821 7
  20684544.271 9 -50540364.179 9 -39260141.741 9  20684543.852 9  20684542.498 9
  21452035.509 9 -37216582.941 9 -27372905.124 9  21452034.216 9  21452034.606 9
  22389022.941 8 -57586700.469 8 -43657188.357 8  22389022.457 8  22389021.144 8
  21917859.119 9 -41971701.316 9 -32273378.193 9  21917858.515 9  21917857.159 9
  20188169.156 9 -50530140.675 9 -38321902.207 9  20188169.956 9  20188168.103 9
  20191409.199 9 -42182562.378 9 -32578944.480 9  20191409.950 9  20191407.789 9
 10  3 18  5  1 49.0000000  0  9G19G24G07G16G22G21G18G06G03
  22232875.614 8 -22177471.141 8 -17121937.261 9  22232873.655 9  22232873.699 9
  23121047.144 8 -52890478.580 8 -38806461.533 7  23121048.587 7  23121046.582 7
  24141853.356 7  -5721650.049 7  -4358307.093 7  24141855.028 7  24141854.008 7
  20684467.575 9 -50540767.127 9 -39260455.727 9  20684467.201 9  20684465.893 9
  21451257.273 9 -37220672.479 9 -27376091.777 9  21451255.971 9  21451256.386 9
  22389067.184 8 -57586468.034 8 -43657007.241 8  22389066.709 8  22389065.382 8
  21917480.172 9 -41973692.345 9 -32274929.643 9  21917479.627 9  21917478.320 9
  20187586.856 9 -50533200.714 9 -38324286.654 9  20187587.626 9  20187585.804 9
  20190695.936 9 -42186310.367 9 -32581864.990 9  20190696.729 9  20190694.561 9
 10  3 18  5  1 50.0000000  0  9G19G24G07G16G22G21G18G06G03
  22231998.862 8 -22182077.593 8 -17125526.704 9  22231997.057 9  22231997.118 9
  23121224.803 8 -52889545.090 8 -38805734.139 8  23121226.222 8  23121224.243 7
  24141296.671 7  -5724575.673 7  -4360586.801 7  24141298.285 7  24141297.281 7
  20684390.994 9 -50541169.587 9 -39260769.333 9  20684390.634 9  20684389.365 9
  21450479.048 9 -37224761.568 9 -27379278.080 9  21450477.812 9  21450478.260 9
  22389111.629 8 -57586235.458 8 -43656826.013 8  22389110.977 8  22389109.651 8
  21917101.450 9 -41975682.830 9 -32276480.670 9  21917100.838 9  21917099.584 9
  20187004.662 9 -50536260.543 9 -38326670.936 9  20187005.307 9  20187003.521 9
  20189982.863 9 -42190058.069 9 -32584785.277 9  20189983.533 9  20189981.386 9
 10  3 18  5  1 51.0000000  0  9G19G24G07G16G22G21G18G06G03
  22231121.985 8 -22186683.902 8 -17129116.036 9  22231120.496 9  22231120.550 9
  23121402.769 8 -52888611.505 8 -38805006.671 8  23121403.881 8  23121401.927 7
  24140739.842 7  -5727500.681 7  -4362866.029 7  24140741.605 7  24140740.623 7
  20684314.540 9 -50541571.506 9 -39261082.516 9  20684314.139 9  20684312.903 9
  21449701.026 9 -37228850.118 9 -27382463.963 9  21449699.803 9  21449700.224 9
  22389155.933 8 -57586002.688 8 -43656644.634 8  22389155.279 8  22389153.958 9
  21916722.939 9 -41977672.705 9 -32278031.221 9  21916722.185 9  21916720.929 9
  20186422.494 9 -50539320.062 9 -38329054.977 9  20186423.049 9  20186421.298 9
  20189269.843 9 -42193805.407 9 -32587705.279 9  20189270.408 9  20189268.282 9
 10  3 18  5  1 52.0000000  0  9G19G24G07G16G22G21G18G06G03
  22230245.414 8 -22191290.022 8 -17132705.220 9  22230243.944 9  22230244.031 9
  23121580.674 8 -52887677.742 8 -38804279.063 8  23121581.597 8  23121579.628 7
  24140183.563 7  -5730425.034 7  -4365144.745 7  24140185.077 7  24140184.107 7
  20684238.157 9 -50541972.868 9 -39261395.266 9  20684237.744 9  20684236.554 9
  21448923.054 9 -37232938.138 9 -27385649.433 9  21448921.951 9  21448922.281 9
  22389200.352 8 -57585769.695 8 -43656463.081 8  22389199.651 8  22389198.354 9
  21916344.522 9 -41979661.961 9 -32279581.290 9  21916343.647 9  21916342.385 9
  20185840.388 9 -50542379.226 9 -38331438.741 9  20185840.858 9  20185839.098 9
  20188556.854 9 -42197552.371 9 -32590624.992 9  20188557.375 9  20188555.264 9
 10  3 18  5  1 53.0000000  0  9G19G24G07G16G22G21G18G06G03
  22229369.001 8 -22195895.983 8 -17136294.279 9  22229367.412 9  22229367.550 9
  23121758.494 8 -52886743.887 8 -38803551.384 8  23121759.332 8  23121757.341 7
  24139627.536 7  -5733348.752 7  -4367422.967 7  24139628.725 7  24139627.738 7
  20684161.791 9 -50542373.670 9 -39261707.581 9  20684161.435 9  20684160.312 9
  21448145.196 9 -37237025.634 9 -27388834.493 9  21448144.197 9  21448144.452 9
  22389244.605 8 -57585536.506 8 -43656281.377 9  22389244.059 9  22389242.787 9
  21915966.107 9 -41981650.597 9 -32281130.876 9  21915965.204 9  21915963.971 9
  20185258.296 9 -50545438.096 9 -38333822.276 9  20185258.722 9  20185256.957 9
  20187843.813 9 -42201298.970 9 -32593544.419 9  20187844.407 9  20187842.321 9
 10  3 18  5  1 54.0000000  0  9G19G24G07G16G22G21G18G06G03
  22228492.192 8 -22200501.817 8 -17139883.241 9  22228490.934 9  22228491.091 9
  23121936.317 8 -52885809.987 8 -38802823.670 8  23121937.023 8  23121935.066 7
  24139071.678 7  -5736271.904 7  -4369700.747 7  24139072.497 7  24139071.439 7
  20684085.516 9 -50542773.983 9 -39262019.513 9  20684085.215 9  20684084.138 9
  21447367.566 9 -37241112.656 9 -27392019.184 9  21447366.538 9  21447366.727 9
  22389289.012 8 -57585303.153 8 -43656099.543 9  22389288.461 9  22389287.208 9
  21915587.674 9 -41983638.688 9 -32282680.037 9  21915586.864 9  21915585.667 9
  20184676.094 9 -50548496.718 9 -38336205.618 9  20184676.643 9  20184674.886 9
  20187130.784 9 -42205045.276 9 -32596463.619 9  20187131.465 9  20187129.444 9
 10  3 18  5  1 55.0000000  0  9G19G24G07G16G22G21G18G06G03
  22227615.882 8 -22205107.538 8 -17143472.114 9  22227614.492 9  22227614.649 9
  23122114.066 8 -52884875.979 8 -38802095.871 8  23122114.727 8  23122112.811 7
  24138515.726 7  -5739194.435 7  -4371978.043 7  24138516.424 7  24138515.206 7
  20684009.289 9 -50543173.772 9 -39262331.038 9  20684009.097 9  20684008.033 9
  21446589.923 9 -37245199.191 9 -27395203.497 9  21446588.944 9  21446589.051 9
  22389333.479 8 -57585069.643 8 -43655917.588 8  22389332.891 8  22389331.659 9
  21915209.386 9 -41985626.201 9 -32284228.748 9  21915208.600 9  21915207.473 9
  20184094.138 9 -50551555.054 9 -38338588.737 9  20184094.616 9  20184092.869 9
  20186417.879 9 -42208791.241 9 -32599382.552 9  20186418.590 9  20186416.615 9
 10  3 18  5  1 56.0000000  0  9G19G24G07G16G22G21G18G06G03
  22226739.393 8 -22209713.102 8 -17147060.864 9  22226738.094 9  22226738.240 9
  23122291.690 8 -52883941.887 8 -38801368.008 8  23122292.481 8  23122290.585 7
  24137959.233 7  -5742116.349 7  -4374254.859 7  24137960.440 7  24137959.120 7
  20683933.325 9 -50543573.023 9 -39262642.143 9  20683933.084 9  20683932.054 9
  21445812.395 9 -37249285.207 9 -27398387.406 9  21445811.428 9  21445811.444 9
  22389377.642 8 -57584835.942 8 -43655735.483 8  22389377.360 8  22389376.148 8
  21914831.398 9 -41987613.112 9 -32285776.989 9  21914830.442 9  21914829.391 9
  20183512.212 9 -50554613.094 9 -38340971.625 9  20183512.674 9  20183510.918 9
  20185705.062 9 -42212536.853 9 -32602301.211 9  20185705.792 9  20185703.792 9
 10  3 18  5  1 57.0000000  0  9G19G24G07G16G22G21G18G06G03
  22225863.032 8 -22214318.527 8 -17150649.506 9  22225861.733 9  22225861.863 9
  23122469.549 8 -52883007.684 8 -38800640.058 8  23122470.263 8  23122468.382 7
  24137403.223 7  -5745037.645 7  -4376531.194 7  24137404.512 7  24137403.189 7
  20683857.557 9 -50543971.759 9 -39262952.847 9  20683857.180 9  20683856.210 9
  21445034.931 9 -37253370.716 9 -27401570.918 9  21445033.993 9  21445033.962 9
  22389422.045 8 -57584602.054 8 -43655553.234 8  22389421.861 8  22389420.672 8
  21914453.358 9 -41989599.434 9 -32287324.772 9  21914452.425 9  21914451.439 9
  20182930.339 9 -50557670.844 9 -38343354.288 9  20182930.786 9  20182929.025 9
  20184992.179 9 -42216282.128 9 -32605219.607 9  20184993.053 9  20184991.050 9
 10  3 18  5  1 58.0000000  0  9G19G24G07G16G22G21G18G06G03
  22224986.863 8 -22218923.806 8 -17154238.034 9  22224985.348 9  22224985.498 9
  23122647.240 8 -52882073.407 8 -38799912.051 8  23122648.043 8  23122646.186 7
  24136847.034 7  -5747958.356 7  -4378807.072 7  24136848.700 7  24136847.350 7
  20683781.806 9 -50544369.969 9 -39263263.141 9  20683781.380 9  20683780.452 9
  21444257.561 9 -37257455.730 9 -27404754.045 9  21444256.632 9  21444256.595 9
  22389466.581 8 -57584367.984 8 -43655370.842 8  22389466.417 8  22389465.241 8
  21914075.583 9 -41991585.172 9 -32288872.099 9  21914074.522 9  21914073.599 9
  20182348.616 9 -50560728.336 9 -38345736.749 9  20182348.971 9  20182347.256 9
  20184279.432 9 -42220027.068 9 -32608137.742 9  20184280.351 9  20184278.441 9
 10  3 18  5  1 59.0000000  0  9G19G24G07G16G22G21G18G06G03
  22224110.490 8 -22223528.890 8 -17157826.411 9  22224108.983 9  22224109.170 9
  23122824.928 8 -52881138.962 8 -38799183.912 8  23122825.851 8  23122824.021 7
  24136291.549 7  -5750878.390 7  -4381082.425 7  24136293.025 7  24136291.605 7
  20683706.198 9 -50544767.588 9 -39263572.974 9  20683705.705 9  20683704.796 9
  21443480.271 9 -37261540.187 9 -27407936.739 9  21443479.385 9  21443479.382 9
  22389511.072 8 -57584133.680 8 -43655188.269 8  22389511.020 8  22389509.856 8
  21913697.780 9 -41993570.276 9 -32290418.932 9  21913696.744 9  21913695.859 9
  20181766.759 9 -50563785.446 9 -38348118.913 9  20181767.227 9  20181765.560 9
  20183566.825 9 -42223771.603 9 -32611055.560 9  20183567.734 9  20183565.906 9
 10  3 18  5  2  0.0000000  0  9G19G24G07G16G22G21G18G06G03
  22223234.099 8 -22228133.857 8 -17161414.696 9  22223232.667 9  22223232.854 9
  23123002.423 8 -52880204.456 8 -38798455.726 8  23123003.684 8  23123001.870 7
  24135735.911 7  -5753797.825 7  -4383357.311 7  24135737.466 7  24135735.991 7
  20683630.694 9 -50545164.715 9 -39263882.424 9  20683630.118 9  20683629.233 9
  21442703.099 9 -37265624.166 9 -27411119.059 9  21442702.227 9  21442702.291 9
  22389555.584 8 -57583899.217 8 -43655005.570 8  22389555.640 8  22389554.471 8
  21913319.980 9 -41995554.817 9 -32291965.327 9  21913319.073 9  21913318.224 9
  20181185.157 9 -50566842.322 9 -38350500.894 9  20181185.539 9  20181183.891 9
  20182854.341 9 -42227515.828 9 -32613973.138 9  20182855.231 9  20182853.423 9
 10  3 18  5  2  1.0000000  0  9G19G24G07G16G22G21G18G06G03
  22222357.942 8 -22232738.673 8 -17165002.864 9  22222356.391 9  22222356.562 9
  23123179.979 8 -52879269.826 8 -38797727.444 8  23123181.545 8  23123179.744 7
  24135180.352 7  -5756716.644 7  -4385631.718 7  24135182.027 7  24135180.518 7
  20683555.212 9 -50545561.274 9 -39264191.431 9  20683554.631 9  20683553.783 9
  21441925.958 9 -37269707.605 9 -27414300.959 9  21441925.192 9  21441925.250 9
  22389600.248 8 -57583664.540 8 -43654822.705 8  22389600.300 8  22389599.125 8
  21912942.393 9 -41997538.739 9 -32293511.240 9  21912941.532 9  21912940.709 9
  20180603.554 9 -50569898.881 9 -38352882.628 9  20180603.910 9  20180602.284 9
  20182142.012 9 -42231259.677 9 -32616890.422 9  20182142.815 9  20182141.009 9
 10  3 18  5  2  2.0000000  0  9G19G24G07G16G22G21G18G06G03
  22221481.923 8 -22237343.339 8 -17168590.913 9  22221480.139 9  22221480.295 9
  23123357.798 8 -52878335.121 8 -38796999.103 8  23123359.375 8  23123357.619 7
  24134624.695 7  -5759634.873 7  -4387905.665 7  24134626.692 7  24134625.180 7
  20683479.751 9 -50545957.338 9 -39264500.053 9  20683479.260 9  20683478.429 9
  21441148.896 9 -37273790.571 9 -27417482.490 9  21441148.265 9  21441148.252 9
  22389644.948 8 -57583429.710 8 -43654639.721 8  22389644.971 8  22389643.798 8
  21912564.913 9 -41999522.109 9 -32295056.722 9  21912564.096 9  21912563.296 9
  20180021.994 9 -50572955.157 9 -38355264.142 9  20180022.367 9  20180020.710 9
  20181429.685 9 -42235003.209 9 -32619807.460 9  20181430.492 9  20181428.622 9
 10  3 18  5  2  3.0000000  0  9G19G24G07G16G22G21G18G06G03
  22220605.610 8 -22241947.854 8 -17172178.846 9  22220603.908 9  22220604.051 9
  23123535.771 8 -52877400.312 8 -38796270.681 7  23123537.219 7  23123535.514 7
  24134069.823 7  -5762552.461 7  -4390179.111 7  24134071.466 7  24134069.999 7
  20683404.461 9 -50546352.848 9 -39264808.243 9  20683404.017 9  20683403.171 9
  21440372.000 9 -37277872.998 9 -27420663.601 9  21440371.414 9  21440371.372 9
  22389689.737 8 -57583194.676 8 -43654456.577 8  22389689.682 8  22389688.510 8
  21912187.481 9 -42001504.856 9 -32296601.718 9  21912186.798 9  21912185.987 9
  20179440.608 9 -50576011.122 9 -38357645.413 9  20179440.882 9  20179439.195 9
  20180717.585 9 -42238746.379 9 -32622724.215 9  20180718.231 9  20180716.308 9
 10  3 18  5  2  4.0000000  0  9G19G24G07G16G22G21G18G06G03
  22219729.154 8 -22246552.150 8 -17175766.608 9  22219727.735 9  22219727.829 9
  23123713.647 8 -52876465.324 8 -38795542.119 8  23123715.123 8  23123713.414 7
  24133514.580 7  -5765469.359 7  -4392452.019 7  24133516.381 7  24133514.948 7
  20683329.352 9 -50546747.745 9 -39265115.955 9  20683328.893 9  20683328.047 9
  21439595.397 9 -37281954.835 9 -27423844.253 9  21439594.649 9  21439594.622 9
  22389734.637 8 -57582959.390 8 -43654273.238 8  22389734.452 8  22389733.302 8
  21911810.253 9 -42003486.937 9 -32298146.195 9  21911809.631 9  21911808.803 9
  20178859.224 9 -50579066.700 9 -38360026.383 9  20178859.400 9  20178857.768 9
  20180005.446 9 -42242489.122 9 -32625640.638 9  20180006.010 9  20180004.086 9
 10  3 18  5  2  5.0000000  0  9G19G24G07G16G22G21G18G06G03
  22218852.941 8 -22251156.293 8 -17179354.252 9  22218851.602 9  22218851.635 9
  23123891.605 8 -52875530.234 8 -38794813.479 7  23123893.051 7  23123891.332 7
  24132959.978 7  -5768385.665 7  -4394724.466 7  24132961.439 7  24132960.011 7
  20683254.454 9 -50547142.118 9 -39265423.259 9  20683253.861 9  20683253.043 9
  21438818.735 9 -37286036.185 9 -27427024.525 9  21438817.980 9  21438817.969 9
  22389779.408 8 -57582723.926 8 -43654089.760 8  22389779.254 8  22389778.126 8
  21911433.242 9 -42005468.444 9 -32299690.227 9  21911432.527 9  21911431.721 9
  20178277.931 9 -50582122.002 9 -38362407.137 9  20178277.972 9  20178276.395 9
  20179293.441 9 -42246231.532 9 -32628556.801 9  20179293.847 9  20179291.918 9
 10  3 18  5  2  6.0000000  0  9G19G24G07G16G22G21G18G06G03
  22217976.853 8 -22255760.315 8 -17182941.800 9  22217975.463 9  22217975.475 9
  23124069.576 8 -52874595.061 8 -38794084.772 8  23124070.992 8  23124069.281 7
  24132405.121 7  -5771301.360 7  -4396996.437 7  24132406.603 7  24132405.171 7
  20683179.554 9 -50547535.972 9 -39265730.158 9  20683178.913 9  20683178.102 9
  21438042.132 9 -37290117.019 9 -27430204.395 9  21438041.405 9  21438041.413 9
  22389824.230 8 -57582488.274 8 -43653906.134 9  22389824.137 9  22389822.993 9
  21911056.307 9 -42007449.357 9 -32301233.796 9  21911055.528 9  21911054.749 9
  20177696.633 9 -50585177.032 9 -38364787.681 9  20177696.635 9  20177695.090 9
  20178581.427 9 -42249973.601 9 -32631472.698 9  20178581.743 9  20178579.791 9
 10  3 18  5  2  7.0000000  0  9G19G24G07G16G22G21G18G06G03
  22217101.054 8 -22260364.164 8 -17186529.214 9  22217099.355 9  22217099.364 9
  23124247.600 8 -52873659.775 8 -38793355.977 8  23124248.956 8  23124247.257 7
  24131850.225 7  -5774216.383 7  -4399267.884 7  24131851.873 7  24131850.425 7
  20683104.763 9 -50547929.258 9 -39266036.615 9  20683104.049 9  20683103.218 9
  21437265.646 9 -37294197.319 9 -27433383.850 9  21437264.917 9  21437264.951 9
  22389869.218 8 -57582252.417 8 -43653722.349 9  22389869.060 9  22389867.897 9
  21910679.366 9 -42009429.667 9 -32302776.893 9  21910678.674 9  21910677.937 9
  20177115.284 9 -50588231.741 9 -38367167.974 9  20177115.357 9  20177113.842 9
  20177869.604 9 -42253715.298 9 -32634388.306 9  20177869.715 9  20177867.752 9
 10  3 18  5  2  8.0000000  0  9G19G24G07G16G22G21G18G06G03
  22216225.018 8 -22264967.869 8 -17190116.515 9  22216223.283 9  22216223.292 9
  23124425.493 8 -52872724.383 8 -38792627.101 8  23124426.932 8  23124425.232 7
  24131295.746 7  -5777130.836 7  -4401538.888 7  24131297.268 7  24131295.802 7
  20683030.050 9 -50548322.038 9 -39266342.678 9  20683029.284 9  20683028.438 9
  21436489.366 9 -37298277.142 9 -27436562.931 9  21436488.500 9  21436488.571 9
  22389914.157 8 -57582016.389 8 -43653538.431 9  22389914.001 9  22389912.791 9
  21910302.696 8 -42011409.384 8 -32304319.528 9  21910301.934 9  21910301.240 9
  20176533.932 9 -50591286.166 9 -38369548.045 9  20176534.100 9  20176532.606 9
  20177157.720 9 -42257456.667 9 -32637303.658 9  20177157.767 9  20177155.816 9
 10  3 18  5  2  9.0000000  0  9G19G24G07G16G22G21G18G06G03
  22215348.921 8 -22269571.394 8 -17193703.676 9  22215347.258 9  22215347.263 9
  23124603.502 8 -52871788.880 8 -38791898.137 8  23124604.925 8  23124603.220 7
  24130741.616 7  -5780044.632 7  -4403809.380 7  24130742.814 7  24130741.326 7
  20682955.405 9 -50548714.238 9 -39266648.289 9  20682954.625 9  20682953.779 9
  21435713.290 9 -37302356.393 9 -27439741.569 9  21435712.203 9  21435712.314 9
  22389959.147 8 -57581780.125 8 -43653354.331 8  22389958.990 8  22389957.733 8
  21909925.985 9 -42013388.468 9 -32305861.671 9  21909925.354 9  21909924.639 9
  20175952.608 9 -50594340.262 9 -38371927.860 9  20175952.905 9  20175951.429 9
  20176445.853 9 -42261197.646 9 -32640218.706 9  20176445.892 9  20176443.954 9
 10  3 18  5  2 10.0000000  0  9G19G24G07G16G22G21G18G06G03
  22214472.802 8 -22274174.774 8 -17197290.725 9  22214471.225 9  22214471.275 9
  23124781.566 8 -52870853.258 8 -38791169.082 8  23124782.930 8  23124781.268 7
  24130187.271 7  -5782957.800 7  -4406079.381 7  24130188.469 7  24130186.950 7
  20682880.800 9 -50549105.911 9 -39266953.489 9  20682880.077 9  20682879.223 9
  21434937.183 9 -37306435.137 9 -27442919.811 9  21434936.011 9  21434936.163 9
  22390004.089 8 -57581543.682 8 -43653170.089 8  22390003.965 8  22390002.716 8
  21909549.418 9 -42015366.961 9 -32307403.354 9  21909548.888 9  21909548.146 9
  20175371.383 9 -50597394.063 9 -38374307.445 9  20175371.776 9  20175370.289 9
  20175734.013 9 -42264938.288 9 -32643133.492 9  20175734.065 9  20175732.139 9
 10  3 18  5  2 11.0000000  0  9G19G24G07G16G22G21G18G06G03
  22213597.151 8 -22278777.957 8 -17200877.620 9  22213595.218 9  22213595.336 9
  23124959.926 8 -52869917.497 8 -38790439.919 8  23124960.957 8  23124959.344 7
  24129632.973 7  -5785870.335 7  -4408348.888 7  24129634.230 7  24129632.668 7
  20682806.409 9 -50549497.023 9 -39267258.251 9  20682805.650 9  20682804.766 9
  21434161.207 9 -37310513.348 9 -27446097.637 9  21434159.943 9  21434160.096 9
  22390048.938 8 -57581307.030 8 -43652985.686 9  22390048.975 9  22390047.736 8
  21909173.137 9 -42017344.841 9 -32308944.559 9  21909172.495 9  21909171.764 9
  20174790.234 9 -50600447.536 9 -38376686.775 9  20174790.712 9  20174789.214 9
  20175022.213 9 -42268678.546 9 -32646047.978 9  20175022.300 9  20175020.398 9
 10  3 18  5  2 12.0000000  0  9G19G24G07G16G22G21G18G06G03
  22212721.311 8 -22283380.957 8 -17204464.373 9  22212719.287 9  22212719.423 9
  23125137.823 8 -52868981.608 8 -38789710.656 8  23125139.043 8  23125137.396 7
  24129079.025 7  -5788782.183 7  -4410617.861 7  24129080.122 7  24129078.509 7
  20682732.059 9 -50549887.564 9 -39267562.569 9  20682731.330 9  20682730.444 9
  21433385.333 9 -37314591.014 9 -27449275.040 9  21433383.996 9  21433384.112 9
  22390093.911 8 -57581070.130 8 -43652801.088 9  22390094.050 9  22390092.826 8
  21908796.773 9 -42019322.069 9 -32310485.256 9  21908796.219 9  21908795.506 9
  20174209.140 9 -50603500.675 9 -38379065.844 9  20174209.734 9  20174208.194 9
  20174310.499 9 -42272418.422 9 -32648962.167 9  20174310.550 9  20174308.734 9
 10  3 18  5  2 13.0000000  0  9G19G24G07G16G22G21G18G06G03
  22211845.414 8 -22287983.791 8 -17208050.996 9  22211843.404 9  22211843.534 9
  23125315.826 8 -52868045.607 8 -38788981.305 8  23125317.154 8  23125315.459 7
  24128524.942 7  -5791693.411 7  -4412886.351 7  24128526.131 7  24128524.450 7
  20682657.868 9 -50550277.537 9 -39267866.444 9  20682657.111 9  20682656.259 9
  21432609.452 9 -37318668.129 9 -27452452.012 9  21432608.148 9  21432608.240 9
  22390138.932 8 -57580833.027 8 -43652616.333 9  22390139.159 9  22390137.949 8
  21908420.539 9 -42021298.685 9 -32312025.476 9  21908420.068 9  21908419.387 9
  20173628.112 9 -50606553.474 9 -38381444.648 9  20173628.824 9  20173627.243 9
  20173598.862 9 -42276157.916 9 -32651876.058 9  20173598.883 9  20173597.151 9
 10  3 18  5  2 14.0000000  0  9G19G24G07G16G22G21G18G06G03
  22210969.525 8 -22292586.408 8 -17211637.450 9  22210967.554 9  22210967.683 9
  23125493.871 8 -52867109.438 8 -38788251.824 8  23125495.295 8  23125493.579 8
  24127971.401 7  -5794603.970 7  -4415154.321 7  24127972.246 7  24127970.509 7
  20682583.830 9 -50550666.932 9 -39268169.869 9  20682583.003 9  20682582.189 9
  21431833.707 9 -37322744.688 9 -27455628.550 9  21431832.395 9  21431832.475 9
  22390184.203 8 -57580595.676 8 -43652431.384 8  22390184.316 8  22390183.095 8
  21908044.461 9 -42023274.653 9 -32313565.191 9  21908044.038 9  21908043.391 9
  20173047.202 9 -50609605.952 9 -38383823.203 9  20173047.962 9  20173046.388 9
  20172887.299 9 -42279897.003 9 -32654789.633 9  20172887.327 9  20172885.674 9
 10  3 18  5  2 15.0000000  0  9G19G24G07G16G22G21G18G06G03
  22210093.806 8 -22297188.882 8 -17215223.793 9  22210091.725 9  22210091.857 9
  23125672.010 8 -52866173.209 8 -38787522.294 8  23125673.447 8  23125671.713 8
  24127417.930 7  -5797513.940 7  -4417421.831 7  24127418.435 7  24127416.667 7
  20682509.744 9 -50551055.793 9 -39268472.878 9  20682508.993 9  20682508.220 9
  21431058.027 9 -37326820.740 9 -27458804.695 9  21431056.748 9  21431056.809 9
  22390229.555 8 -57580358.161 8 -43652246.309 8  22390229.500 8  22390228.270 8
  21907668.593 9 -42025250.044 9 -32315104.456 9  21907668.113 9  21907667.491 9
  20172466.453 9 -50612658.133 9 -38386201.525 9  20172467.160 9  20172465.592 9
  20172175.829 9 -42283635.762 9 -32657702.950 9  20172175.837 9  20172174.236 9
 10  3 18  5  2 16.0000000  0  9G19G24G07G16G22G21G18G06G03
  22209218.082 8 -22301791.173 8 -17218809.993 9  22209215.936 9  22209216.063 9
  23125850.465 8 -52865236.815 8 -38786792.637 8  23125851.652 8  23125849.913 8
  24126864.099 7  -5800423.197 7  -4419688.784 7  24126864.764 7  24126863.007 7
  20682435.777 9 -50551444.094 9 -39268775.450 9  20682435.114 9  20682434.355 9
  21430282.497 9 -37330896.252 9 -27461980.418 9  21430281.209 9  21430281.243 9
  22390274.899 8 -57580120.410 8 -43652061.049 8  22390274.817 8  22390273.528 8
  21907292.870 9 -42027224.810 9 -32316643.235 9  21907292.306 9  21907291.705 9
  20171885.840 9 -50615709.978 9 -38388579.585 9  20171886.437 9  20171884.814 9
  20171464.399 9 -42287374.133 9 -32660615.967 9  20171464.460 9  20171462.811 9
 10  3 18  5  2 17.0000000  0  9G19G24G07G16G22G21G18G06G03
  22208342.077 8 -22306393.300 8 -17222396.066 9  22208340.183 9  22208340.301 9
  23126028.737 8 -52864300.329 8 -38786062.908 8  23126029.878 8  23126028.134 8
  24126310.082 7  -5803331.878 7  -4421955.290 7  24126311.214 7  24126309.520 7
  20682362.039 9 -50551831.849 9 -39269077.597 9  20682361.376 9  20682360.579 9
  21429506.915 9 -37334971.248 9 -27465155.738 9  21429505.757 9  21429505.791 9
  22390320.152 8 -57579882.462 8 -43651875.635 8  22390320.168 8  22390318.817 8
  21906917.356 9 -42029198.968 9 -32318181.540 9  21906916.589 9  21906916.064 9
  20171305.183 9 -50618761.545 9 -38390957.430 9  20171305.768 9  20171304.090 9
  20170753.118 9 -42291112.162 9 -32663528.716 9  20170753.147 9  20170751.465 9
 10  3 18  5  2 18.0000000  0  9G19G24G07G16G22G21G18G06G03
  22207466.452 8 -22310995.264 8 -17225982.012 9  22207464.464 9  22207464.545 9
  23126207.148 8 -52863363.704 8 -38785333.071 8  23126208.171 8  23126206.338 8
  24125756.629 7  -5806239.911 7  -4424221.289 7  24125757.795 7  24125756.157 7
  20682288.346 9 -50552219.044 9 -39269379.307 9  20682287.745 9  20682286.899 9
  21428731.378 9 -37339045.707 9 -27468330.641 9  21428730.402 9  21428730.461 9
  22390365.563 8 -57579644.302 8 -43651690.056 8  22390365.446 8  22390364.126 8
  21906541.930 9 -42031172.497 9 -32319719.355 9  21906540.987 9  21906540.544 9
  20170724.668 9 -50621812.769 9 -38393335.007 9  20170725.144 9  20170723.405 9
  20170041.812 9 -42294849.809 9 -32666441.167 9  20170041.889 9  20170040.235 9
 10  3 18  5  2 19.0000000  0  9G19G24G07G16G22G21G18G06G03
  22206590.638 8 -22315597.021 8 -17229567.795 9  22206588.784 9  22206588.818 9
  23126385.454 8 -52862426.918 8 -38784603.109 8  23126386.505 8  23126384.570 8
  24125203.138 7  -5809147.274 7  -4426486.766 7  24125204.527 7  24125202.925 7
  20682214.749 9 -50552605.639 9 -39269680.549 9  20682214.226 9  20682213.316 9
  21427956.023 9 -37343119.580 9 -27471505.087 9  21427955.147 9  21427955.210 9
  22390411.167 8 -57579405.894 8 -43651504.284 8  22390410.771 8  22390409.485 9
  21906166.522 9 -42033145.377 9 -32321256.663 9  21906165.547 9  21906165.110 9
  20170144.071 9 -50624863.627 9 -38395712.299 9  20170144.592 9  20170142.795 9
  20169330.799 9 -42298587.040 9 -32669353.295 9  20169330.715 9  20169329.071 9
 10  3 18  5  2 20.0000000  0  9G19G24G07G16G22G21G18G06G03
  22205715.098 8 -22320198.663 8 -17233153.490 9  22205713.117 9  22205713.175 9
  23126563.729 8 -52861490.093 8 -38783873.117 8  23126564.810 8  23126562.801 8
  24124650.181 7  -5812054.040 7  -4428751.778 7  24124651.383 7  24124649.794 7
  20682141.309 9 -50552991.752 9 -39269981.417 9  20682140.788 9  20682139.810 9
  21427180.889 9 -37347192.999 9 -27474679.180 9  21427179.971 9  21427180.022 9
  22390456.573 8 -57579167.345 8 -43651318.403 8  22390456.126 8  22390454.877 9
  21905791.321 9 -42035117.711 9 -32322793.547 9  21905790.220 9  21905789.779 9
  20169563.469 9 -50627914.232 9 -38398089.394 9  20169564.094 9  20169562.254 9
  20168619.587 9 -42302323.981 9 -32672265.196 9  20168619.630 9  20168617.931 9
 10  3 18  5  2 21.0000000  0  9G19G24G07G16G22G21G18G06G03
  22204839.534 8 -22324800.143 8 -17236739.058 9  22204837.484 9  22204837.590 9
  23126742.024 8 -52860553.144 8 -38783143.028 8  23126743.137 8  23126741.061 8
  24124097.481 7  -5814960.166 7  -4431016.291 7  24124098.376 7  24124096.756 7
  20682067.801 9 -50553377.302 9 -39270281.846 9  20682067.445 9  20682066.391 9
  21426405.882 9 -37351265.875 9 -27477852.849 9  21426404.883 9  21426404.950 9
  22390502.086 8 -57578928.586 8 -43651132.356 8  22390501.521 8  22390500.312 9
  21905416.015 9 -42037089.423 9 -32324329.945 9  21905415.022 9  21905414.574 9
  20168983.051 9 -50630964.530 9 -38400466.250 9  20168983.657 9  20168981.776 9
  20167908.524 9 -42306060.536 9 -32675176.796 9  20167908.603 9  20167906.871 9
 10  3 18  5  2 22.0000000  0  9G19G24G07G16G22G21G18G06G03
  22203964.081 8 -22329401.440 8 -17240324.484 9  22203961.895 9  22203962.017 9
  23126920.296 8 -52859616.063 8 -38782412.835 8  23126921.492 8  23126919.348 7
  24123544.923 7  -5817865.639 7  -4433280.297 7  24123545.468 7  24123543.859 7
  20681994.509 9 -50553762.301 9 -39270581.845 9  20681994.204 9  20681993.087 9
  21425630.874 9 -37355338.214 9 -27481026.100 9  21425629.877 9  21425629.988 9
  22390547.720 8 -57578689.616 8 -43650946.147 8  22390546.993 8  22390545.824 9
  21905040.650 9 -42039060.529 9 -32325865.871 9  21905039.942 9  21905039.487 9
  20168402.672 9 -50634014.513 9 -38402842.860 9  20168403.309 9  20168401.399 9
  20167197.754 9 -42309796.709 9 -32678088.100 9  20167197.586 9  20167195.918 9
 10  3 18  5  2 23.0000000  0  9G19G24G07G16G22G21G18G06G03
  22203088.554 8 -22334002.616 8 -17243909.815 9  22203086.340 9  22203086.461 9
  23127098.535 8 -52858678.917 8 -38781682.592 8  23127099.861 8  23127097.649 8
  24122992.365 7  -5820770.557 7  -4435543.870 7  24122992.617 7  24122991.086 7
  20681921.246 9 -50554146.783 9 -39270881.441 9  20681921.067 9  20681919.895 9
  21424855.982 9 -37359410.055 9 -27484198.962 9  21424854.965 9  21424855.132 9
  22390593.140 8 -57578450.479 8 -43650759.806 9  22390592.502 9  22390591.372 9
  21904665.676 9 -42041031.051 9 -32327401.342 9  21904664.975 9  21904664.504 9
  20167822.377 9 -50637064.213 9 -38405219.249 9  20167823.015 9  20167821.076 9
  20166486.766 9 -42313532.562 9 -32680999.154 9  20166486.649 9  20166485.015 9
 10  3 18  5  2 24.0000000  0  9G19G24G07G16G22G21G18G06G03
  22202212.898 8 -22338603.701 8 -17247495.076 9  22202210.798 9  22202210.910 9
  23127276.794 8 -52857741.716 8 -38780952.306 8  23127278.232 8  23127275.950 7
  24122439.709 7  -5823674.846 7  -4437806.953 7  24122439.915 7  24122438.430 7
  20681848.120 9 -50554530.785 9 -39271180.663 9  20681848.005 9  20681846.802 9
  21424081.115 9 -37363481.432 9 -27487371.463 9  21424080.138 9  21424080.370 9
  22390638.648 8 -57578211.194 8 -43650573.351 9  22390638.073 9  22390636.941 9
  21904290.738 9 -42043001.018 9 -32328936.381 9  21904290.115 9  21904289.630 9
  20167242.053 9 -50640113.671 9 -38407595.450 9  20167242.723 9  20167240.806 9
  20165775.912 9 -42317268.111 9 -32683909.970 9  20165775.846 9  20165774.128 9
 10  3 18  5  2 25.0000000  0  9G19G24G07G16G22G21G18G06G03
  22201337.257 8 -22343204.567 8 -17251080.165 9  22201335.289 9  22201335.393 9
  23127455.207 8 -52856804.344 8 -38780221.888 8  23127456.632 8  23127454.279 8
  24121887.055 7  -5826578.485 7  -4440069.530 7  24121887.391 7  24121885.895 7
  20681775.175 9 -50554914.176 9 -39271479.410 9  20681775.032 9  20681773.833 9
  21423306.414 9 -37367552.226 9 -27490543.509 9  21423305.434 9  21423305.687 9
  22390684.046 8 -57577971.654 8 -43650386.696 9  22390683.698 9  22390682.561 9
  21903916.071 9 -42044970.333 9 -32330470.914 9  21903915.357 9  21903914.901 9
  20166661.803 9 -50643162.766 9 -38409971.368 9  20166662.501 9  20166660.608 9
  20165065.042 9 -42321003.245 9 -32686820.463 9  20165065.130 9  20165063.339 9
 10  3 18  5  2 26.0000000  0  9G19G24G07G16G22G21G18G06G03
  22200461.662 8 -22347805.240 8 -17254665.104 9  22200459.840 9  22200459.911 9
  23127633.792 8 -52855866.866 8 -38779491.387 8  23127635.017 8  23127632.664 7
  24121335.181 7  -5829481.480 7  -4442331.605 7  24121334.976 7  24121333.487 7
  20681702.328 9 -50555297.029 9 -39271777.737 9  20681702.160 9  20681700.967 9
  21422531.889 9 -37371622.512 9 -27493715.160 9  21422530.839 9  21422531.076 9
  22390729.695 8 -57577731.919 8 -43650199.890 9  22390729.295 9  22390728.167 9
  21903541.444 9 -42046939.028 9 -32332004.962 9  21903540.716 9  21903540.295 9
  20166081.624 9 -50646211.564 9 -38412347.054 9  20166082.333 9  20166080.485 9
  20164354.159 9 -42324738.017 9 -32689730.675 9  20164354.518 9  20164352.678 9
 10  3 18  5  2 27.0000000  0  9G19G24G07G16G22G21G18G06G03
  22199586.326 8 -22352405.822 8 -17258249.972 9  22199584.423 9  22199584.452 9
  23127812.371 8 -52854929.310 8 -38778760.826 8  23127813.405 8  23127811.065 8
  24120782.642 7  -5832383.929 7  -4444593.254 7  24120782.645 7  24120781.181 7
  20681629.550 9 -50555679.386 9 -39272075.677 9  20681629.379 9  20681628.196 9
  21421757.392 9 -37375692.309 9 -27496886.430 9  21421756.346 9  21421756.574 9
  22390775.388 8 -57577492.042 8 -43650012.972 9  22390774.919 9  22390773.803 9
  21903166.977 9 -42048907.172 9 -32333538.581 9  21903166.192 9  21903165.782 9
  20165501.564 9 -50649260.096 9 -38414722.534 9  20165502.214 9  20165500.409 9
  20163643.442 9 -42328472.487 9 -32692640.651 9  20163643.955 9  20163642.078 9
 10  3 18  5  2 28.0000000  0  9G19G24G07G16G22G21G18G06G03
  22198710.880 8 -22357006.302 8 -17261834.761 9  22198708.990 9  22198709.050 9
  23127990.725 8 -52853991.710 8 -38778030.230 8  23127991.859 8  23127989.474 8
  24120230.312 7  -5835285.742 7  -4446854.406 7  24120230.464 7  24120228.999 7
  20681556.835 9 -50556061.233 9 -39272373.220 9  20681556.700 9  20681555.521 9
  21420983.050 9 -37379761.624 9 -27500057.324 9  21420981.959 9  21420982.180 9
  22390821.269 8 -57577251.989 8 -43649825.919 8  22390820.582 8  22390819.494 9
  21902792.579 9 -42050874.755 9 -32335071.763 9  21902791.779 9  21902791.377 9
  20164921.551 9 -50652308.355 9 -38417097.800 9  20164922.134 9  20164920.350 9
  20162932.781 9 -42332206.631 9 -32695550.373 9  20162933.404 9  20162931.545 9
 10  3 18  5  2 29.0000000  0  9G19G24G07G16G22G21G18G06G03
  22197835.322 8 -22361606.573 8 -17265419.388 9  22197833.579 9  22197833.703 9
  23128169.122 8 -52853053.978 8 -38777299.530 8  23128170.346 8  23128167.906 8
  24119677.859 7  -5838186.929 7  -4449115.073 7  24119678.454 7  24119676.932 7
  20681484.313 9 -50556442.534 9 -39272670.338 9  20681484.136 9  20681482.950 9
  21420208.673 9 -37383830.402 9 -27503227.800 9  21420207.664 9  21420207.903 9
  22390867.040 8 -57577011.722 8 -43649638.698 8  22390866.281 8  22390865.222 9
  21902418.200 8 -42052841.714 8 -32336604.458 9  21902417.475 9  21902417.051 9
  20164341.597 9 -50655356.272 9 -38419472.800 9  20164342.117 9  20164340.353 9
  20162222.288 9 -42335940.403 9 -32698459.806 9  20162222.918 9  20162221.069 9
 10  3 18  5  2 30.0000000  0  9G19G24G07G16G22G21G18G06G03
  22196959.856 8 -22366206.758 8 -17269003.947 9  22196958.192 9  22196958.339 9
  23128347.572 8 -52852116.192 8 -38776568.788 8  23128348.804 8  23128346.348 8
  24119125.942 7  -5841087.559 7  -4451375.304 7  24119126.520 7  24119124.971 7
  20681411.816 9 -50556823.338 9 -39272967.068 9  20681411.659 9  20681410.495 9
  21419434.466 9 -37387898.715 9 -27506397.913 9  21419433.447 9  21419433.728 9
  22390912.723 8 -57576771.324 8 -43649451.375 8  22390912.023 8  22390910.980 9
  21902043.988 9 -42054808.119 9 -32338136.721 9  21902043.275 9  21902042.828 9
  20163761.650 9 -50658403.975 9 -38421847.633 9  20163762.118 9  20163760.387 9
  20161511.799 9 -42339673.867 9 -32701368.997 9  20161512.465 9  20161510.616 9
 10  3 18  5  2 31.0000000  0  9G19G24G07G16G22G21G18G06G03
  22196084.506 8 -22370806.782 8 -17272588.380 9  22196082.839 9  22196082.992 9
  23128525.721 8 -52851178.297 8 -38775837.961 8  23128527.272 8  23128524.808 8
  24118574.189 7  -5843987.543 7  -4453635.033 7  24118574.649 7  24118573.141 7
  20681339.347 9 -50557203.608 9 -39273263.382 9  20681339.261 9  20681338.161 9
  21418660.415 9 -37391966.500 9 -27509567.615 9  21418659.375 9  21418659.637 9
  22390958.460 8 -57576530.726 8 -43649263.895 8  22390957.805 8  22390956.777 9
  21901669.942 9 -42056773.938 9 -32339668.528 9  21901669.164 9  21901668.731 9
  20163181.850 9 -50661451.350 9 -38424222.211 9  20163182.180 9  20163180.480 9
  20160801.431 9 -42343406.974 9 -32704277.911 9  20160802.083 9  20160800.234 9
 10  3 18  5  2 32.0000000  0  9G19G24G07G16G22G21G18G06G03
  22195209.240 8 -22375406.655 8 -17276172.696 9  22195207.527 9  22195207.675 9
  23128704.194 8 -52850240.282 8 -38775107.040 8  23128705.781 8  23128703.343 8
  24118022.602 7  -5846886.911 7  -4455894.281 7  24118022.904 7  24118021.428 7
  20681267.091 9 -50557583.340 9 -39273559.277 9  20681266.967 9  20681265.925 9
  21417886.551 9 -37396033.775 9 -27512736.920 9  21417885.454 9  21417885.639 9
  22391004.345 8 -57576289.942 8 -43649076.270 8  22391003.622 8  22391002.584 9
  21901295.903 9 -42058739.152 9 -32341199.864 9  21901295.164 9  21901294.752 9
  20162601.984 9 -50664498.440 9 -38426596.567 9  20162602.329 9  20162600.634 9
  20160091.120 9 -42347139.736 9 -32707186.557 9  20160091.783 9  20160089.930 9
 10  3 18  5  2 33.0000000  0  9G19G24G07G16G22G21G18G06G03
  22194334.027 8 -22380006.408 8 -17279756.918 9  22194332.234 9  22194332.372 9
  23128882.686 8 -52849302.229 8 -38774376.090 8  23128884.299 8  23128881.890 8
  24117471.254 7  -5849785.713 7  -4458153.088 7  24117471.293 7  24117469.836 7
  20681194.879 9 -50557962.573 9 -39273854.783 9  20681194.782 9  20681193.788 9
  21417112.668 9 -37400100.562 9 -27515905.844 9  21417111.606 9  21417111.748 9
  22391050.057 8 -57576049.002 8 -43648888.524 8  22391049.470 8  22391048.422 8
  21900922.088 9 -42060703.803 9 -32342730.761 9  21900921.285 9  21900920.877 9
  20162022.204 9 -50667545.269 9 -38428970.719 9  20162022.531 9  20162020.839 9
  20159380.863 9 -42350872.179 9 -32710094.953 9  20159381.545 9  20159379.679 9
 10  3 18  5  2 34.0000000  0  9G19G24G07G16G22G21G18G06G03
  22193458.874 8 -22384606.067 8 -17283341.067 9  22193456.982 9  22193457.120 9
  23129061.089 8 -52848364.101 8 -38773645.082 8  23129062.845 8  23129060.438 8
  24116919.897 7  -5852683.930 7  -4460411.441 7  24116919.775 7  24116918.355 7
  20681122.876 9 -50558341.311 9 -39274149.904 9  20681122.686 9  20681121.738 9
  21416338.944 9 -37404166.899 9 -27519074.418 9  21416337.829 9  21416337.958 9
  22391095.854 8 -57575807.933 8 -43648700.678 8  22391095.397 8  22391094.300 8
  21900548.417 9 -42062667.903 9 -32344261.228 9  21900547.504 9  21900547.102 9
  20161442.366 9 -50670591.818 9 -38431344.654 9  20161442.799 9  20161441.124 9
  20158670.790 9 -42354604.314 9 -32713003.109 9  20158671.385 9  20158669.469 9
 10  3 18  5  2 35.0000000  0  9G19G24G07G16G22G21G18G06G03
  22192583.681 8 -22389205.586 8 -17286925.108 9  22192581.768 9  22192581.906 9
  23129239.725 8 -52847425.919 8 -38772914.032 8  23129241.400 8  23129238.992 8
  24116368.846 7  -5855581.539 7  -4462669.321 7  24116368.334 7  24116366.982 7
  20681050.911 9 -50558719.544 9 -39274444.631 9  20681050.675 9  20681049.773 9
  21415565.235 9 -37408232.725 9 -27522242.594 9  21415564.119 9  21415564.263 9
  22391141.649 8 -57575566.686 8 -43648512.694 9  22391141.360 9  22391140.214 8
  21900174.847 9 -42064631.433 9 -32345791.252 9  21900173.826 9  21900173.447 9
  20160862.635 9 -50673638.099 9 -38433718.378 9  20160863.117 9  20160861.454 9
  20157960.726 9 -42358336.123 9 -32715911.012 9  20157961.287 9  20157959.325 9
 10  3 18  5  2 36.0000000  0  9G19G24G07G16G22G21G18G06G03
  22191708.643 8 -22393804.890 8 -17290508.981 9  22191706.567 9  22191706.714 9
  23129418.366 8 -52846487.566 8 -38772182.849 8  23129420.018 8  23129417.530 8
  24115817.738 7  -5858478.486 7  -4464926.683 7  24115817.040 7  24115815.740 7
  20680979.040 9 -50559097.176 9 -39274738.890 9  20680978.792 9  20680977.913 9
  21414791.627 9 -37412297.989 9 -27525410.331 9  21414790.488 9  21414790.679 9
  22391187.534 8 -57575325.194 8 -43648324.518 9  22391187.296 9  22391186.181 8
  21899801.210 9 -42066594.309 9 -32347320.766 9  21899800.268 9  21899799.916 9
  20160282.989 9 -50676684.037 9 -38436091.837 9  20160283.524 9  20160281.786 9
  20157250.788 9 -42362067.515 9 -32718818.590 9  20157251.264 9  20157249.275 9
 10  3 18  5  2 37.0000000  0  9G19G24G07G16G22G21G18G06G03
  22190833.519 8 -22398404.035 8 -17294092.730 9  22190831.383 9  22190831.543 9
  23129597.340 8 -52845549.083 8 -38771451.565 8  23129598.659 8  23129596.082 8
  24115266.722 7  -5861374.791 7  -4467183.546 7  24115265.899 7  24115264.624 7
  20680907.374 9 -50559474.261 9 -39275032.722 9  20680907.037 9  20680906.147 9
  21414018.205 9 -37416362.713 9 -27528577.649 9  21414016.964 9  21414017.196 9
  22391233.357 8 -57575083.488 8 -43648136.175 9  22391233.268 9  22391232.185 8
  21899427.841 9 -42068556.569 9 -32348849.800 9  21899426.849 9  21899426.526 9
  20159703.413 9 -50679729.669 9 -38438465.057 9  20159703.991 9  20159702.176 9
  20156540.976 9 -42365798.547 9 -32721725.887 9  20156541.301 9  20156539.292 9
 10  3 18  5  2 38.0000000  0  9G19G24G07G16G22G21G18G06G03
  22189958.199 8 -22403003.057 8 -17297676.384 9  22189956.242 9  22189956.405 9
  23129776.047 8 -52844610.533 8 -38770720.229 8  23129777.294 8  23129774.696 8
  24114715.369 7  -5864270.488 7  -4469439.934 7  24114714.879 7  24114713.611 7
  20680835.715 9 -50559850.824 9 -39275326.148 9  20680835.382 9  20680834.475 9
  21413244.797 9 -37420426.929 9 -27531744.570 9  21413243.532 9  21413243.803 9
  22391279.246 8 -57574841.637 8 -43647947.719 9  22391279.323 9  22391278.212 8
  21899054.381 9 -42070518.253 9 -32350378.385 9  21899053.541 9  21899053.245 9
  20159123.946 9 -50682775.021 9 -38440838.058 9  20159124.531 9  20159122.612 9
  20155831.162 9 -42369529.234 9 -32724632.916 9  20155831.376 9  20155829.369 9
 10  3 18  5  2 39.0000000  0  9G19G24G07G16G22G21G18G06G03
  22189083.191 8 -22407601.902 8 -17301259.899 9  22189081.142 9  22189081.300 9
  23129954.695 8 -52843671.872 8 -38769988.807 8  23129955.945 8  23129953.337 8
  24114164.290 7  -5867165.553 7  -4471695.829 7  24114164.005 7  24114162.708 7
  20680764.222 9 -50560226.840 9 -39275619.147 9  20680763.836 9  20680762.904 9
  21412471.572 9 -37424490.619 9 -27534911.081 9  21412470.217 9  21412470.482 9
  22391325.222 8 -57574599.553 8 -43647759.083 8  22391325.424 8  22391324.286 8
  21898681.153 9 -42072479.315 9 -32351906.485 9  21898680.364 9  21898680.051 9
  20158544.331 9 -50685820.049 9 -38443210.806 9  20158545.134 9  20158543.119 9
  20155121.350 9 -42373259.556 9 -32727539.660 9  20155121.507 9  20155119.528 9
 10  3 18  5  2 40.0000000  0  9G19G24G07G16G22G21G18G06G03
  22188208.191 8 -22412200.630 8 -17304843.322 9  22188206.061 9  22188206.209 9
  23130133.444 8 -52842733.132 8 -38769257.323 8  23130134.583 8  23130131.981 8
  24113613.649 7  -5870060.030 7  -4473951.267 7  24113613.234 7  24113611.903 7
  20680692.808 9 -50560602.351 9 -39275911.753 9  20680692.390 9  20680691.426 9
  21411698.243 9 -37428553.826 9 -27538077.217 9  21411697.009 9  21411697.230 9
  22391371.070 8 -57574357.306 8 -43647570.319 8  22391371.536 8  22391370.404 8
  21898308.056 9 -42074439.818 9 -32353434.149 9  21898307.299 9  21898306.965 9
  20157964.926 9 -50688864.810 9 -38445583.348 9  20157965.771 9  20157963.763 9
  20154411.687 9 -42376989.563 9 -32730446.159 9  20154411.657 9  20154409.800 9
 10  3 18  5  2 41.0000000  0  9G19G24G07G16G22G21G18G06G03
  22187333.380 8 -22416799.227 8 -17308426.643 9  22187331.007 9  22187331.146 9
  23130312.193 8 -52841794.337 8 -38768525.795 8  23130313.223 8  23130310.631 8
  24113062.596 7  -5872953.903 7  -4476206.236 7  24113062.569 7  24113061.194 7
  20680621.524 9 -50560977.365 9 -39276203.971 9  20680621.045 9  20680620.035 9
  21410925.251 9 -37432616.550 9 -27541242.975 9  21410923.881 9  21410924.125 9
  22391417.230 8 -57574114.920 8 -43647381.447 8  22391417.674 8  22391416.547 9
  21897935.207 9 -42076399.755 9 -32354961.374 9  21897934.331 9  21897933.971 9
  20157385.544 9 -50691909.319 9 -38447955.692 9  20157386.460 9  20157384.455 9
  20153701.866 9 -42380719.234 9 -32733352.396 9  20153701.880 9  20153700.119 9
 10  3 18  5  2 42.0000000  0  9G19G24G07G16G22G21G18G06G03
  22186458.491 8 -22421397.707 8 -17312009.875 9  22186455.974 9  22186456.086 9
  23130490.813 8 -52840855.463 8 -38767794.206 8  23130491.910 8  23130489.301 8
  24112511.672 7  -5875847.211 7  -4478460.762 7  24112512.004 7  24112510.588 7
  20680550.354 9 -50561351.875 9 -39276495.797 9  20680549.781 9  20680548.725 9
  21410152.175 9 -37436678.789 9 -27544408.356 9  21410150.838 9  21410151.161 9
  22391463.517 8 -57573872.376 8 -43647192.452 9  22391463.823 9  22391462.710 9
  21897562.435 9 -42078359.132 9 -32356488.161 9  21897561.466 9  21897561.082 9
  20156806.311 9 -50694953.547 9 -38450327.818 9  20156807.160 9  20156805.150 9
  20152992.109 9 -42384448.594 9 -32736258.391 9  20152992.200 9  20152990.440 9
 10  3 18  5  2 43.0000000  0  9G19G24G07G16G22G21G18G06G03
  22185583.413 8 -22425995.951 8 -17315592.922 9  22185580.994 9  22185581.072 9
  23130669.482 8 -52839916.402 8 -38767062.470 8  23130670.638 8  23130668.007 8
  24111960.936 7  -5878739.801 7  -4480714.728 7  24111961.567 7  24111960.118 7
  20680479.317 9 -50561725.746 9 -39276787.125 9  20680478.610 9  20680477.518 9
  21409379.298 9 -37440740.417 9 -27547573.262 9  21409377.927 9  21409378.292 9
  22391509.866 8 -57573629.546 8 -43647003.234 9  22391510.024 9  22391508.926 9
  21897189.621 9 -42080317.813 9 -32358014.407 9  21897188.731 9  21897188.369 9
  20156227.118 9 -50697997.381 9 -38452699.637 9  20156227.938 9  20156225.923 9
  20152282.423 9 -42388177.503 9 -32739164.034 9  20152282.603 9  20152280.846 9
 10  3 18  5  2 44.0000000  0  9G19G24G07G16G22G21G18G06G03
  22184708.359 8 -22430594.048 8 -17319175.854 9  22184706.039 9  22184706.089 9
  23130848.302 8 -52838977.247 8 -38766330.661 8  23130849.364 8  23130846.698 8
  24111409.994 7  -5881631.755 7  -4482968.199 7  24111411.260 7  24111409.781 7
  20680408.185 9 -50562099.098 9 -39277078.048 9  20680407.563 9  20680406.431 9
  21408606.504 9 -37444801.541 9 -27550737.774 9  21408605.123 9  21408605.501 9
  22391556.123 8 -57573386.542 8 -43646813.879 8  22391556.324 8  22391555.155 8
  21896817.009 9 -42082275.909 9 -32359540.196 9  21896816.111 9  21896815.774 9
  20155647.947 9 -50701040.925 9 -38455071.229 9  20155648.788 9  20155646.758 9
  20151572.767 9 -42391906.075 9 -32742069.414 9  20151573.034 9  20151571.302 9
 10  3 18  5  2 45.0000000  0  9G19G24G07G16G22G21G18G06G03
  22183833.283 8 -22435192.016 8 -17322758.687 9  22183831.106 9  22183831.129 9
  23131026.917 8 -52838038.014 8 -38765598.792 8  23131028.108 8  23131025.407 8
  24110859.991 7  -5884523.140 7  -4485221.225 7  24110861.081 7  24110859.575 7
  20680337.130 9 -50562471.945 9 -39277368.578 9  20680336.660 9  20680335.469 9
  21407833.826 9 -37448862.166 9 -27553901.897 9  21407832.437 9  21407832.799 9
  22391602.540 8 -57573143.368 8 -43646624.394 9  22391602.660 9  22391601.417 8
  21896444.436 9 -42084233.438 9 -32361065.543 9  21896443.612 9  21896443.269 9
  20155068.902 9 -50704084.200 9 -38457442.612 9  20155069.694 9  20155067.646 9
  20150863.271 9 -42395634.318 9 -32744974.539 9  20150863.530 9  20150861.825 9
 10  3 18  5  2 46.0000000  0  9G19G24G07G16G22G21G18G06G03
  22182958.298 8 -22439789.843 8 -17326341.408 9  22182956.188 9  22182956.194 9
  23131205.899 8 -52837098.727 8 -38764866.882 8  23131206.834 8  23131204.165 8
  24110309.723 7  -5887413.913 7  -4487473.773 7  24110311.028 7  24110309.489 7
  20680266.284 9 -50562844.268 9 -39277658.699 9  20680265.830 9  20680264.611 9
  21407061.111 9 -37452922.304 9 -27557065.640 9  21407059.855 9  21407060.179 9
  22391648.948 8 -57572900.043 8 -43646434.792 9  22391648.977 9  22391647.735 8
  21896072.049 9 -42086190.391 9 -32362590.441 9  21896071.226 9  21896070.876 9
  20154489.776 9 -50707127.200 9 -38459813.781 9  20154490.630 9  20154488.567 9
  20150153.768 9 -42399362.229 9 -32747879.405 9  20150154.093 9  20150152.414 9
 10  3 18  5  2 47.0000000  0  9G19G24G07G16G22G21G18G06G03
  22182083.347 8 -22444387.528 8 -17329924.020 9  22182081.292 9  22182081.286 9
  23131384.731 8 -52836159.326 8 -38764134.883 8  23131385.579 8  23131382.952 8
  24109760.146 7  -5890304.071 7  -4489725.843 7  24109761.112 7  24109759.525 7
  20680195.536 9 -50563216.070 9 -39277948.415 9  20680195.049 9  20680193.851 9
  21406288.614 9 -37456981.934 9 -27560228.987 9  21406287.384 9  21406287.650 9
  22391695.294 8 -57572656.533 8 -43646245.045 9  22391695.323 9  22391694.080 8
  21895699.781 9 -42088146.765 9 -32364114.888 9  21895698.938 9  21895698.568 9
  20153910.792 9 -50710169.885 9 -38462184.704 9  20153911.624 9  20153909.552 9
  20149444.326 9 -42403089.802 9 -32750784.007 9  20149444.726 9  20149443.063 9
 10  3 18  5  2 48.0000000  0  9G19G24G07G16G22G21G18G06G03
  22181208.369 8 -22448985.081 8 -17333506.529 9  22181206.429 9  22181206.412 9
  23131563.516 8 -52835219.835 8 -38763402.813 8  23131564.353 8  23131561.722 8
  24109210.385 7  -5893193.633 7  -4491977.448 7  24109211.289 7  24109209.660 7
  20680124.895 9 -50563587.346 9 -39278237.722 9  20680124.368 9  20680123.212 9
  21405516.244 9 -37461041.065 9 -27563391.946 9  21405515.019 9  21405515.205 9
  22391741.673 8 -57572412.838 8 -43646055.153 9  22391741.698 9  22391740.449 8
  21895327.513 9 -42090102.551 9 -32365638.878 9  21895326.759 9  21895326.367 9
  20153331.771 9 -50713212.299 9 -38464555.416 9  20153332.699 9  20153330.686 9
  20148734.948 9 -42406817.032 9 -32753688.342 9  20148735.465 9  20148733.776 9
 10  3 18  5  2 49.0000000  0  9G19G24G07G16G22G21G18G06G03
  22180333.495 8 -22453582.495 8 -17337088.929 9  22180331.594 9  22180331.567 9
  23131742.116 8 -52834280.256 8 -38762670.672 8  23131743.143 8  23131740.501 8
  24108660.642 7  -5896082.586 7  -4494228.579 7  24108661.546 7  24108659.892 7
  20680054.329 9 -50563958.099 9 -39278526.620 9  20680053.781 9  20680052.698 9
  21404743.895 9 -37465099.687 9 -27566554.509 9  21404742.722 9  21404742.847 9
  22391788.064 8 -57572168.972 8 -43645865.128 9  22391788.101 9  22391786.846 8
  21894955.453 9 -42092057.749 9 -32367162.409 9  21894954.693 9  21894954.265 9
  20152752.846 9 -50716254.430 9 -38466925.907 9  20152753.830 9  20152751.873 9
  20148025.679 9 -42410543.905 9 -32756592.398 9  20148026.271 9  20148024.552 9
 10  3 18  5  2 50.0000000  0  9G19G24G07G16G22G21G18G06G03
  22179458.831 8 -22458179.700 8 -17340671.166 9  22179456.803 9  22179456.764 9
  23131920.837 8 -52833340.534 8 -38761938.420 8  23131921.959 8  23131919.344 8
  24108110.989 7  -5898970.880 7  -4496479.198 7  24108111.939 7  24108110.255 7
  20679983.919 9 -50564328.280 9 -39278815.072 9  20679983.315 9  20679982.254 9
  21403971.597 9 -37469157.747 9 -27569716.633 9  21403970.507 9  21403970.587 9
  22391834.593 8 -57571924.872 8 -43645674.922 9  22391834.545 9  22391833.310 8
  21894583.514 9 -42094012.313 9 -32368685.446 9  21894582.743 9  21894582.279 9
  20152173.985 9 -50719296.226 9 -38469296.138 9  20152175.032 9  20152173.014 9
  20147316.545 9 -42414270.396 9 -32759496.157 9  20147317.166 9  20147315.407 9
 10  3 18  5  2 51.0000000  0  9G19G24G07G16G22G21G18G06G03
  22178583.969 8 -22462776.707 8 -17344253.249 9  22178582.045 9  22178581.996 9
  23132099.573 8 -52832400.665 8 -38761206.053 8  23132100.801 8  23132098.217 8
  24107561.634 7  -5901858.502 7  -4498729.292 7  24107562.486 7  24107560.759 7
  20679913.615 9 -50564697.876 9 -39279103.069 9  20679912.992 9  20679911.876 9
  21403199.443 9 -37473215.243 9 -27572878.318 9  21403198.397 9  21403198.474 9
  22391881.276 8 -57571680.526 8 -43645484.524 8  22391881.034 8  22391879.815 8
  21894211.628 9 -42095966.225 9 -32370207.974 9  21894210.920 9  21894210.461 9
  20151595.194 9 -50722337.660 9 -38471666.087 9  20151596.304 9  20151594.229 9
  20146607.485 9 -42417996.480 9 -32762399.598 9  20146608.141 9  20146606.342 9
 10  3 18  5  2 52.0000000  0  9G19G24G07G16G22G21G18G06G03
  22177708.917 8 -22467373.585 8 -17347835.231 9  22177707.312 9  22177707.275 9
  23132278.330 8 -52831460.748 8 -38760473.649 8  23132279.634 8  23132277.125 8
  24107012.376 7  -5904745.516 7  -4500978.912 7  24107013.143 7  24107011.389 7
  20679843.490 9 -50565066.950 9 -39279390.659 9  20679842.772 9  20679841.607 9
  21402427.453 9 -37477272.237 9 -27576039.611 9  21402426.370 9  21402426.480 9
  22391927.868 8 -57571436.023 8 -43645294.002 8  22391927.586 8  22391926.338 8
  21893839.869 9 -42097919.565 9 -32371730.057 9  21893839.203 9  21893838.756 9
  20151016.569 9 -50725378.817 9 -38474035.819 9  20151017.552 9  20151015.557 9
  20145898.516 9 -42421722.232 9 -32765302.782 9  20145899.203 9  20145897.361 9
 10  3 18  5  2 53.0000000  0  9G19G24G07G16G22G21G18G06G03
  22176834.215 8 -22471970.357 8 -17351417.131 9  22176832.601 9  22176832.586 9
  23132457.084 8 -52830520.737 8 -38759741.172 8  23132458.479 8  23132456.053 8
  24106463.131 7  -5907631.973 7  -4503228.099 7  24106463.883 7  24106462.132 7
  20679773.404 9 -50565435.559 9 -39279677.887 9  20679772.645 9  20679771.442 9
  21401655.477 9 -37481328.770 9 -27579200.546 9  21401654.428 9  21401654.549 9
  22391974.363 8 -57571191.380 8 -43645103.372 8  22391974.160 8  22391972.883 8
  21893468.232 9 -42099872.368 9 -32373251.722 9  21893467.583 9  21893467.189 9
  20150437.923 9 -50728419.737 9 -38476405.367 9  20150438.843 9  20150436.924 9
  20145189.688 9 -42425447.690 9 -32768205.735 9  20145190.317 9  20145188.425 9
 10  3 18  5  2 54.0000000  0  9G19G24G07G16G22G21G18G06G03
  22175959.757 8 -22476567.019 8 -17354998.946 9  22175957.908 9  22175957.887 9
  23132635.931 8 -52829580.710 8 -38759008.683 8  23132637.335 8  23132634.964 8
  24105913.976 7  -5910517.860 7  -4505476.842 7  24105914.722 7  24105912.985 7
  20679703.303 9 -50565803.673 9 -39279964.728 9  20679702.585 9  20679701.370 9
  21400883.731 9 -37485384.821 9 -27582361.104 9  21400882.580 9  21400882.688 9
  22392021.027 8 -57570946.576 8 -43644912.617 8  22392020.779 8  22392019.464 8
  21893096.777 9 -42101824.621 9 -32374772.958 9  21893096.065 9  21893095.726 9
  20149859.378 9 -50731460.397 9 -38478774.712 9  20149860.168 9  20149858.259 9
  20144480.800 9 -42429172.832 9 -32771108.443 9  20144481.448 9  20144479.502 9
 10  3 18  5  2 55.0000000  0  9G19G24G07G16G22G21G18G06G03
  22175085.260 8 -22481163.570 8 -17358580.673 9  22175083.238 9  22175083.198 9
  23132814.693 8 -52828640.590 8 -38758276.121 8  23132816.215 8  23132813.896 8
  24105365.252 7  -5913403.162 7  -4507725.128 7  24105365.651 7  24105363.946 7
  20679633.451 9 -50566171.288 9 -39280251.182 9  20679632.569 9  20679631.393 9
  21400112.123 9 -37489440.398 9 -27585521.294 9  21400110.832 9  21400110.899 9
  22392067.394 8 -57570701.634 8 -43644721.754 8  22392067.425 8  22392066.070 8
  21892725.392 9 -42103776.312 9 -32376293.757 9  21892724.683 9  21892724.357 9
  20149280.869 9 -50734500.791 9 -38481143.850 9  20149281.543 9  20149279.650 9
  20143771.971 9 -42432897.660 9 -32774010.906 9  20143772.650 9  20143770.652 9
 10  3 18  5  2 56.0000000  0  9G19G24G07G16G22G21G18G06G03
  22174210.475 8 -22485759.941 8 -17362162.260 9  22174208.581 9  22174208.552 9
  23132993.578 8 -52827700.362 8 -38757543.475 8  23132995.177 8  23132992.840 8
  24104816.603 7  -5916287.814 7  -4509972.906 7  24104816.723 7  24104815.021 7
  20679563.524 9 -50566538.350 9 -39280537.204 9  20679562.676 9  20679561.530 9
  21399340.534 9 -37493495.433 9 -27588681.061 9  21399339.195 9  21399339.198 9
  22392113.985 8 -57570456.483 8 -43644530.727 9  22392114.092 9  22392112.665 8
  21892353.949 9 -42105727.379 9 -32377814.068 9  21892353.426 9  21892353.104 9
  20148702.390 9 -50737540.865 9 -38483512.739 9  20148703.058 9  20148701.137 9
  20143063.256 9 -42436622.117 9 -32776913.079 9  20143063.942 9  20143061.899 9
 10  3 18  5  2 57.0000000  0  9G19G24G07G16G22G21G18G06G03
  22173335.878 8 -22490356.141 8 -17365743.714 9  22173333.953 9  22173333.944 9
  23133172.227 8 -52826760.017 8 -38756810.739 8  23133174.176 8  23133171.808 8
  24104268.072 7  -5919171.803 7  -4512220.168 7  24104267.964 7  24104266.214 7
  20679493.759 9 -50566904.861 9 -39280822.798 9  20679492.925 9  20679491.790 9
  21398569.008 9 -37497549.927 9 -27591840.407 9  21398567.664 9  21398567.643 9
  22392160.679 8 -57570211.129 8 -43644339.543 9  22392160.793 9  22392159.296 8
  21891982.888 9 -42107677.837 9 -32379333.907 9  21891982.286 9  21891981.954 9
  20148123.998 9 -50740580.618 9 -38485881.377 9  20148124.635 9  20148122.686 9
  20142354.585 9 -42440346.197 9 -32779814.959 9  20142355.304 9  20142353.225 9
 10  3 18  5  2 58.0000000  0  9G19G24G07G16G22G21G18G06G03
  22172461.196 8 -22494952.183 8 -17369325.046 9  22172459.392 9  22172459.347 9
  23133351.348 8 -52825819.563 8 -38756077.917 8  23133353.147 8  23133350.800 8
  24103719.498 7  -5922055.169 7  -4514466.946 7  24103719.317 7  24103717.519 7
  20679423.966 9 -50567270.830 9 -39281107.968 9  20679423.283 9  20679422.153 9
  21397797.738 9 -37501603.911 9 -27594999.355 9  21397796.231 9  21397796.220 9
  22392207.327 8 -57569965.578 8 -43644148.205 9  22392207.530 9  22392206.013 8
  21891612.017 9 -42109627.695 9 -32380853.276 9  21891611.260 9  21891610.919 9
  20147545.644 9 -50743620.084 9 -38488249.792 9  20147546.266 9  20147544.263 9
  20141645.871 9 -42444069.928 9 -32782716.567 9  20141646.696 9  20141644.625 9
 10  3 18  5  2 59.0000000  0  9G19G24G07G16G22G21G18G06G03
  22171586.599 8 -22499548.064 8 -17372906.251 9  22171584.886 9  22171584.774 9
  23133530.627 8 -52824878.997 8 -38755345.009 8  23133532.133 8  23133529.818 8
  24103171.020 7  -5924937.904 7  -4516713.232 7  24103170.774 7  24103168.934 7
  20679354.303 9 -50567636.259 9 -39281392.719 9  20679353.769 9  20679352.631 9
  21397026.350 9 -37505657.353 9 -27598157.882 9  21397024.881 9  21397024.903 9
  22392254.034 8 -57569719.838 8 -43643956.720 9  22392254.300 9  22392252.763 8
  21891241.129 9 -42111576.942 9 -32382372.170 9  21891240.328 9  21891239.965 9
  20146967.224 9 -50746659.216 9 -38490617.947 9  20146967.963 9  20146965.907 9
  20140937.255 9 -42447793.293 9 -32785617.890 9  20140938.172 9  20140936.092 9
 10  3 18  5  3  0.0000000  0  9G19G24G07G16G22G21G18G06G03
  22170712.047 8 -22504143.802 8 -17376487.345 9  22170710.365 9  22170710.228 9
  23133709.592 8 -52823938.352 8 -38754612.040 8  23133711.140 8  23133708.845 8
  24102622.354 7  -5927820.056 7  -4518959.063 7  24102622.337 7  24102620.469 7
  20679284.746 9 -50568001.163 9 -39281677.059 9  20679284.352 9  20679283.198 9
  21396255.115 9 -37509710.309 9 -27601316.029 9  21396253.613 9  21396253.685 9
  22392300.832 8 -57569473.925 8 -43643765.102 9  22392301.064 9  22392299.545 8
  21890870.454 9 -42113525.621 9 -32383890.622 9  21890869.495 9  21890869.110 9
  20146388.985 9 -50749698.079 9 -38492985.892 9  20146389.727 9  20146387.640 9
  20140228.822 9 -42451516.310 9 -32788518.942 9  20140229.778 9  20140227.610 9
 10  3 18  5  3  1.0000000  0  9G19G24G07G16G22G21G18G06G03
  22169837.439 8 -22508739.358 8 -17380068.298 9  22169835.854 9  22169835.711 9
  23133888.619 8 -52822997.587 8 -38753878.977 8  23133890.170 8  23133887.891 8
  24102073.744 7  -5930701.547 7  -4521204.379 7  24102074.012 7  24102072.143 7
  20679215.344 9 -50568365.500 9 -39281960.959 9  20679215.035 9  20679213.852 9
  21395483.987 9 -37513762.697 9 -27604473.734 9  21395482.453 9  21395482.554 9
  22392347.706 8 -57569227.786 8 -43643573.306 8  22392347.870 8  22392346.370 8
  21890499.761 9 -42115473.654 9 -32385408.569 9  21890498.800 9  21890498.371 9
  20145810.709 9 -50752736.605 9 -38495353.574 9  20145811.556 9  20145809.437 9
  20139520.370 9 -42455238.954 9 -32791419.702 9  20139521.443 9  20139519.193 9
 10  3 18  5  3  2.0000000  0  9G19G24G07G16G22G21G18G06G03
  22168962.890 8 -22513334.768 8 -17383649.136 9  22168961.404 9  22168961.209 9
  23134067.581 8 -52822056.701 8 -38753145.819 8  23134069.235 8  23134066.968 8
  24101525.781 7  -5933582.415 7  -4523449.211 7  24101525.795 7  24101523.928 7
  20679146.020 9 -50568729.311 9 -39282244.448 9  20679145.822 9  20679144.595 9
  21394713.054 9 -37517814.584 9 -27607631.048 9  21394711.384 9  21394711.498 9
  22392394.486 8 -57568981.467 8 -43643381.369 8  22392394.760 8  22392393.247 8
  21890129.327 9 -42117421.108 9 -32386926.067 9  21890128.217 9  21890127.740 9
  20145232.542 9 -50755774.834 9 -38497721.026 9  20145233.449 9  20145231.304 9
  20138812.011 9 -42458961.243 9 -32794320.186 9  20138813.116 9  20138810.817 9
 10  3 18  5  3  3.0000000  0  9G19G24G07G16G22G21G18G06G03
  22168088.486 8 -22517929.977 8 -17387229.817 9  22168087.007 9  22168086.740 9
  23134246.655 8 -52821115.691 8 -38752412.565 8  23134248.323 8  23134246.067 8
  24100977.683 7  -5936462.610 7  -4525693.517 7  24100977.664 7  24100975.820 7
  20679076.835 9 -50569092.538 9 -39282527.483 9  20679076.719 9  20679075.427 9
  21393942.180 9 -37521865.900 9 -27610787.918 9  21393940.438 9  21393940.564 9
  22392441.275 8 -57568734.916 8 -43643189.252 8  22392441.688 8  22392440.162 8
  21889758.859 9 -42119367.915 9 -32388443.059 9  21889757.725 9  21889757.303 9
  20144654.432 9 -50758812.725 9 -38500088.214 9  20144655.406 9  20144653.236 9
  20138103.806 9 -42462683.133 9 -32797220.360 9  20138104.865 9  20138102.528 9
 10  3 18  5  3  4.0000000  0  9G19G24G07G16G22G21G18G06G03
  22167214.351 8 -22522525.019 8 -17390810.369 9  22167212.624 9  22167212.334 9
  23134425.966 8 -52820174.577 8 -38751679.229 8  23134427.415 8  23134425.164 8
  24100429.704 7  -5939342.207 7  -4527937.357 7  24100429.674 7  24100427.834 7
  20679007.840 9 -50569455.244 9 -39282810.111 9  20679007.710 9  20679006.367 9
  21393171.317 9 -37525916.707 9 -27613944.390 9  21393169.596 9  21393169.735 9
  22392488.154 8 -57568488.190 8 -43642996.999 8  22392488.647 8  22392487.131 8
  21889388.506 9 -42121314.133 9 -32389959.593 9  21889387.338 9  21889386.986 9
  20144076.423 9 -50761850.321 9 -38502455.172 9  20144077.400 9  20144075.233 9
  20137395.646 9 -42466404.679 9 -32800120.265 9  20137396.665 9  20137394.343 9
 10  3 18  5  3  5.0000000  0  9G19G24G07G16G22G21G18G06G03
  22166340.004 8 -22527119.961 8 -17394390.842 9  22166338.256 9  22166337.962 9
  23134604.991 8 -52819233.401 8 -38750945.844 8  23134606.512 8  23134604.269 8
  24099881.874 7  -5942221.194 7  -4530180.722 7  24099881.831 7  24099879.956 7
  20678938.837 9 -50569817.435 9 -39283092.338 9  20678938.783 9  20678937.413 9
  21392400.463 9 -37529967.025 9 -27617100.482 9  21392398.843 9  21392398.996 9
  22392534.929 8 -57568241.303 8 -43642804.619 8  22392535.630 8  22392534.126 8
  21889018.313 9 -42123259.795 9 -32391475.693 9  21889017.071 9  21889016.749 9
  20143498.414 9 -50764887.638 9 -38504821.912 9  20143499.448 9  20143497.283 9
  20136687.429 9 -42470125.895 9 -32803019.914 9  20136688.534 9  20136686.229 9
 10  3 18  5  3  6.0000000  0  9G19G24G07G16G22G21G18G06G03
  22165465.450 8 -22531714.757 8 -17397971.203 9  22165463.890 9  22165463.586 9
  23134784.064 8 -52818292.124 8 -38750212.380 8  23134785.665 8  23134783.372 8
  24099334.033 7  -5945099.590 7  -4532423.627 7  24099334.115 7  24099332.221 7
  20678869.943 9 -50570179.117 9 -39283374.168 9  20678869.951 9  20678868.579 9
  21391629.818 9 -37534016.844 9 -27620256.185 9  21391628.180 9  21391628.351 9
  22392581.960 8 -57567994.228 8 -43642612.094 8  22392582.629 8  22392581.138 8
  21888648.056 9 -42125204.861 9 -32392991.329 9  21888646.918 9  21888646.621 9
  20142920.446 9 -50767924.693 9 -38507188.448 9  20142921.472 9  20142919.387 9
  20135979.339 9 -42473846.773 9 -32805919.299 9  20135980.493 9  20135978.205 9
 10  3 18  5  3  7.0000000  0  9G19G24G07G16G22G21G18G06G03
  22164591.132 8 -22536309.404 8 -17401551.446 9  22164589.541 9  22164589.227 9
  23134963.106 8 -52817350.765 8 -38749478.853 8  23134964.839 8  23134962.487 8
  24098786.535 7  -5947977.344 7  -4534666.031 7  24098786.537 7  24098784.633 7
  20678801.254 9 -50570540.257 9 -39283655.576 9  20678801.219 9  20678799.879 9
  21390859.152 9 -37538066.136 9 -27623411.477 9  21390857.629 9  21390857.800 9
  22392628.947 8 -57567746.976 8 -43642419.430 8  22392629.656 8  22392628.182 8
  21888277.861 9 -42127149.339 9 -32394506.506 9  21888276.930 9  21888276.639 9
  20142342.646 9 -50770961.412 9 -38509554.723 9  20142343.557 9  20142341.551 9
  20135271.398 9 -42477567.288 9 -32808818.400 9  20135272.516 9  20135270.249 9
 10  3 18  5  3  8.0000000  0  9G19G24G07G16G22G21G18G06G03
  22163716.874 8 -22540903.862 8 -17405131.542 9  22163715.227 9  22163714.921 9
  23135142.369 8 -52816409.267 8 -38748745.217 8  23135144.039 8  23135141.669 8
  24098239.104 7  -5950854.473 7  -4536907.949 7  24098239.050 7  24098237.153 7
  20678732.770 9 -50570900.850 9 -39283936.558 9  20678732.584 9  20678731.279 9
  21390088.582 9 -37542114.898 9 -27626566.356 9  21390087.188 9  21390087.343 9
  22392676.135 8 -57567499.516 8 -43642226.604 8  22392676.747 8  22392675.278 8
  21887908.034 9 -42129093.189 9 -32396021.194 9  21887907.071 9  21887906.782 9
  20141764.906 9 -50773997.819 9 -38511920.755 9  20141765.717 9  20141763.748 9
  20134563.519 9 -42481287.431 9 -32811717.213 9  20134564.585 9  20134562.367 9
 10  3 18  5  3  9.0000000  0  9G19G24G07G16G22G21G18G06G03
  22162842.508 8 -22545498.175 8 -17408711.526 9  22162840.939 9  22162840.652 9
  23135321.489 8 -52815467.674 8 -38748011.510 8  23135323.257 8  23135320.872 8
  24097691.497 7  -5953730.991 7  -4539149.391 7  24097691.641 7  24097689.784 7
  20678664.328 9 -50571260.906 9 -39284217.122 9  20678664.037 9  20678662.778 9
  21389318.151 9 -37546163.135 9 -27629720.825 9  21389316.869 9  21389317.012 9
  22392723.271 8 -57567251.876 8 -43642033.639 8  22392723.867 8  22392722.405 8
  21887538.173 9 -42131036.447 9 -32397535.421 9  21887537.287 9  21887536.966 9
  20141187.229 9 -50777033.925 9 -38514286.552 9  20141187.935 9  20141186.002 9
  20133855.772 9 -42485007.220 9 -32814615.749 9  20133856.729 9  20133854.553 9
 10  3 18  5  3 10.0000000  0  9G19G24G07G16G22G21G18G06G03
  22161968.248 8 -22550092.348 8 -17412291.400 9  22161966.709 9  22161966.392 9
  23135500.805 8 -52814526.010 8 -38747277.746 8  23135502.460 8  23135500.073 8
  24097144.300 7  -5956606.887 7  -4541390.349 7  24097144.348 7  24097142.537 7
  20678595.963 9 -50571620.446 9 -39284497.283 9  20678595.613 9  20678594.379 9
  21388547.831 9 -37550210.866 9 -27632874.902 9  21388546.665 9  21388546.799 9
  22392770.305 8 -57567004.039 8 -43641840.519 8  22392771.027 8  22392769.588 8
  21887168.634 9 -42132979.129 9 -32399049.198 9  21887167.609 9  21887167.253 9
  20140609.569 9 -50780069.739 9 -38516652.121 9  20140610.225 9  20140608.326 9
  20133148.109 9 -42488726.663 9 -32817514.016 9  20133148.972 9  20133146.797 9
 10  3 18  5  3 11.0000000  0  9G19G24G07G16G22G21G18G06G03
  22161093.991 8 -22554686.341 8 -17415871.134 9  22161092.530 9  22161092.161 9
  23135679.958 8 -52813584.213 8 -38746543.878 8  23135681.682 8  23135679.296 8
  24096597.204 7  -5959482.158 7  -4543630.821 7  24096597.182 7  24096595.424 7
  20678527.766 9 -50571979.432 9 -39284777.013 9  20678527.331 9  20678526.083 9
  21387777.746 9 -37554258.061 9 -27636028.559 9  21387776.541 9  21387776.664 9
  22392817.553 8 -57566756.009 8 -43641647.249 8  22392818.225 8  22392816.808 8
  21886799.111 9 -42134921.185 9 -32400562.488 9  21886798.039 9  21886797.687 9
  20140031.949 9 -50783105.245 9 -38519017.450 9  20140032.575 9  20140030.705 9
  20132440.503 9 -42492445.739 9 -32820411.997 9  20132441.278 9  20132439.105 9
 10  3 18  5  3 12.0000000  0  9G19G24G07G16G22G21G18G06G03
  22160219.848 8 -22559280.191 8 -17419450.757 9  22160218.375 9  22160217.980 9
  23135859.221 8 -52812642.325 8 -38745809.939 8  23135860.895 8  23135858.524 8
  24096050.096 7  -5962356.800 7  -4545870.802 7  24096050.126 7  24096048.400 7
  20678459.623 9 -50572337.901 9 -39285056.340 9  20678459.145 9  20678457.902 9
  21387007.644 9 -37558304.752 9 -27639181.826 9  21387006.497 9  21387006.609 9
  22392864.793 8 -57566507.800 8 -43641453.840 8  22392865.468 8  22392864.020 8
  21886429.786 9 -42136862.662 9 -32402075.327 9  21886428.575 9  21886428.234 9
  20139454.271 9 -50786140.485 9 -38521382.572 9  20139455.036 9  20139453.099 9
  20131732.811 9 -42496164.477 9 -32823309.715 9  20131733.621 9  20131731.451 9
 10  3 18  5  3 13.0000000  0  9G19G24G07G16G22G21G18G06G03
  22159345.675 8 -22563873.946 8 -17423030.306 9  22159344.231 9  22159343.822 9
  23136038.429 8 -52811700.408 8 -38745075.978 8  23136040.108 8  23136037.757 8
  24095503.215 7  -5965230.903 7  -4548110.362 7  24095503.157 7  24095501.432 7
  20678391.522 9 -50572695.880 9 -39285335.285 9  20678391.041 9  20678389.826 9
  21386237.665 9 -37562350.976 9 -27642334.727 9  21386236.515 9  21386236.621 9
  22392912.014 8 -57566259.465 8 -43641260.333 8  22392912.737 8  22392911.257 8
  21886060.202 9 -42138803.590 9 -32403587.739 9  21886059.231 9  21886058.886 9
  20138876.704 9 -50789175.459 9 -38523747.487 9  20138877.550 9  20138875.548 9
  20131025.206 9 -42499882.920 9 -32826207.202 9  20131026.021 9  20131023.858 9
 10  3 18  5  3 14.0000000  0  9G19G24G07G16G22G21G18G06G03
  22158471.761 8 -22568467.506 8 -17426609.703 9  22158470.096 9  22158469.724 9
  23136217.804 8 -52810758.360 8 -38744341.915 8  23136219.382 8  23136216.986 8
  24094956.214 7  -5968104.317 7  -4550349.386 7  24094956.350 7  24094954.615 7
  20678323.566 9 -50573053.304 9 -39285613.797 9  20678323.046 9  20678321.852 9
  21385467.962 9 -37566396.643 9 -27645487.195 9  21385466.625 9  21385466.732 9
  22392959.379 8 -57566010.906 8 -43641066.652 8  22392960.027 8  22392958.567 8
  21885690.924 9 -42140743.895 9 -32405099.664 9  21885690.008 9  21885689.657 9
  20138299.213 9 -50792210.110 9 -38526112.150 9  20138300.120 9  20138298.104 9
  20130317.620 9 -42503600.978 9 -32829104.390 9  20130318.480 9  20130316.334 9
 10  3 18  5  3 15.0000000  0  9G19G24G07G16G22G21G18G06G03
  22157597.485 8 -22573060.949 8 -17430189.008 9  22157595.968 9  22157595.654 9
  23136396.917 8 -52809816.217 8 -38743607.778 8  23136398.676 8  23136396.227 8
  24094409.453 7  -5970977.145 7  -4552587.955 7  24094409.713 7  24094407.935 7
  20678255.546 9 -50573410.203 9 -39285891.900 9  20678255.149 9  20678253.962 9
  21384698.290 9 -37570441.815 9 -27648639.276 9  21384696.820 9  21384696.959 9
  22393006.822 8 -57565762.181 8 -43640872.841 8  22393007.352 8  22393005.910 8
  21885321.707 9 -42142683.616 9 -32406611.135 9  21885320.889 9  21885320.585 9
  20137721.870 9 -50795244.462 9 -38528476.580 9  20137722.745 9  20137720.715 9
  20129610.192 9 -42507318.705 9 -32832001.320 9  20129610.999 9  20129608.868 9
 10  3 18  5  3 16.0000000  0  9G19G24G07G16G22G21G18G06G03
  22156723.479 8 -22577654.233 8 -17433768.190 9  22156721.871 9  22156721.613 9
  23136576.243 8 -52808873.976 8 -38742873.564 8  23136578.035 8  23136575.499 8
  24093862.476 7  -5973849.370 7  -4554826.054 7  24093863.173 7  24093861.374 7
  20678187.738 9 -50573766.568 9 -39286169.588 9  20678187.339 9  20678186.177 9
  21383928.593 9 -37574486.456 9 -27651790.945 9  21383927.102 9  21383927.297 9
  22393054.352 8 -57565513.270 8 -43640678.885 8  22393054.706 8  22393053.293 8
  21884952.705 9 -42144622.739 9 -32408122.139 9  21884951.882 9  21884951.631 9
  20137144.503 9 -50798278.517 9 -38530840.779 9  20137145.413 9  20137143.388 9
  20128902.769 9 -42511036.069 9 -32834897.967 9  20128903.571 9  20128901.458 9
 10  3 18  5  3 17.0000000  0  9G19G24G07G16G22G21G18G06G03
  22155849.657 8 -22582247.335 8 -17437347.229 9  22155847.807 9  22155847.608 9
  23136755.624 8 -52807931.614 8 -38742139.257 8  23136757.426 8  23136754.797 8
  24093315.947 7  -5976720.931 7  -4557063.634 7  24093316.723 7  24093314.944 7
  20678120.066 9 -50574122.395 9 -39286446.855 9  20678119.609 9  20678118.501 9
  21383158.959 9 -37578530.584 9 -27654942.214 9  21383157.523 9  21383157.756 9
  22393101.722 8 -57565264.163 8 -43640484.776 8  22393102.102 8  22393100.717 8
  21884583.952 9 -42146561.252 9 -32409632.670 9  21884582.982 9  21884582.745 9
  20136567.131 9 -50801312.260 9 -38533204.734 9  20136568.142 9  20136566.121 9
  20128195.411 9 -42514753.069 9 -32837794.331 9  20128196.220 9  20128194.112 9
 10  3 18  5  3 18.0000000  0  9G19G24G07G16G22G21G18G06G03
  22154975.713 8 -22586840.246 8 -17440926.121 9  22154973.780 9  22154973.620 9
  23136934.682 8 -52806989.135 8 -38741404.858 8  23136936.753 8  23136934.117 8
  24092769.641 7  -5979591.842 7  -4559300.708 7  24092770.385 7  24092768.617 7
  20678052.431 9 -50574477.629 9 -39286723.661 9  20678052.014 9  20678050.959 9
  21382389.506 9 -37582574.133 9 -27658093.031 9  21382388.084 9  21382388.332 9
  22393149.240 8 -57565014.809 8 -43640290.472 8  22393149.552 8  22393148.193 8
  21884215.292 9 -42148499.136 9 -32411142.708 9  21884214.204 9  21884213.976 9
  20135989.932 9 -50804345.672 9 -38535568.432 9  20135990.897 9  20135988.920 9
  20127488.054 9 -42518469.670 9 -32840690.383 9  20127488.968 9  20127486.822 9
 10  3 18  5  3 19.0000000  0  9G19G24G07G16G22G21G18G06G03
  22154101.883 8 -22591433.009 8 -17444504.897 9  22154099.785 9  22154099.658 9
  23137114.078 8 -52806046.548 8 -38740670.376 8  23137116.087 8  23137113.461 8
  24092223.377 7  -5982462.129 7  -4561537.295 7  24092224.146 7  24092222.386 7
  20677984.924 9 -50574832.349 9 -39287000.066 9  20677984.551 9  20677983.541 9
  21381620.040 9 -37586617.177 9 -27661243.453 9  21381618.743 9  21381618.998 9
  22393196.911 8 -57564765.283 8 -43640096.036 8  22393197.032 8  22393195.698 8
  21883846.685 9 -42150436.419 9 -32412652.279 9  21883845.561 9  21883845.347 9
  20135412.730 9 -50807378.782 9 -38537931.894 9  20135413.710 9  20135411.773 9
  20126780.824 9 -42522185.927 9 -32843586.168 9  20126781.786 9  20126779.617 9
 10  3 18  5  3 20.0000000  0  9G19G24G07G16G22G21G18G06G03
  22153227.921 8 -22596025.634 8 -17448083.565 9  22153225.813 9  22153225.745 9
  23137293.666 8 -52805103.858 8 -38739935.813 8  23137295.499 8  23137292.812 8
  24091677.383 7  -5985331.822 7  -4563773.420 7  24091678.034 7  24091676.287 7
  20677917.486 9 -50575186.531 9 -39287276.052 9  20677917.176 9  20677916.197 9
  21380850.592 9 -37590659.706 9 -27664393.476 9  21380849.487 9  21380849.744 9
  22393244.694 8 -57564515.575 8 -43639901.459 8  22393244.574 8  22393243.214 8
  21883478.124 9 -42152373.106 9 -32414161.385 9  21883477.038 9  21883476.835 9
  20134835.670 9 -50810411.619 9 -38540295.143 9  20134836.580 9  20134834.610 9
  20126073.752 9 -42525901.832 9 -32846481.679 9  20126074.669 9  20126072.536 9
 10  3 18  5  3 21.0000000  0  9G19G24G07G16G22G21G18G06G03
  22152354.014 8 -22600618.093 8 -17451662.104 9  22152351.873 9  22152351.876 9
  23137472.984 8 -52804161.073 8 -38739201.176 8  23137474.940 8  23137472.178 8
  24091131.649 7  -5988200.864 7  -4566009.037 7  24091132.069 7  24091130.338 7
  20677850.085 9 -50575540.185 9 -39287551.626 9  20677849.882 9  20677848.916 9
  21380081.317 9 -37594701.711 9 -27667543.090 9  21380080.316 9  21380080.597 9
  22393292.420 8 -57564265.670 8 -43639706.728 8  22393292.152 8  22393290.765 8
  21883109.862 9 -42154309.202 9 -32415670.031 9  21883108.638 9  21883108.431 9
  20134258.622 9 -50813444.127 9 -38542658.137 9  20134259.510 9  20134257.510 9
  20125366.637 9 -42529617.393 9 -32849376.921 9  20125367.612 9  20125365.513 9
 10  3 18  5  3 22.0000000  0  9G19G24G07G16G22G21G18G06G03
  22151480.059 8 -22605210.393 8 -17455240.520 9  22151477.965 9  22151478.012 9
  23137652.291 8 -52803218.202 8 -38738466.473 8  23137654.396 8  23137651.606 8
  24090586.030 7  -5991069.322 7  -4568244.199 7  24090586.205 7  24090584.519 7
  20677782.955 9 -50575893.300 9 -39287826.782 9  20677782.700 9  20677781.739 9
  21379312.214 9 -37598743.195 9 -27670692.298 9  21379311.229 9  21379311.558 9
  22393340.144 8 -57564015.596 8 -43639511.865 8  22393339.708 8  22393338.330 8
  21882741.650 9 -42156244.700 9 -32417178.211 9  21882740.359 9  21882740.146 9
  20133681.605 9 -50816476.342 9 -38545020.902 9  20133682.484 9  20133680.479 9
  20124659.495 9 -42533332.584 9 -32852271.875 9  20124660.625 9  20124658.548 9
 10  3 18  5  3 23.0000000  0  9G19G24G07G16G22G21G18G06G03
  22150606.069 8 -22609802.570 8 -17458818.838 9  22150604.083 9  22150604.163 9
  23137831.705 8 -52802275.256 8 -38737731.713 8  23137833.864 8  23137831.052 8
  24090040.485 7  -5993937.145 7  -4570478.867 7  24090040.442 7  24090038.851 7
  20677715.822 9 -50576245.898 9 -39288101.533 9  20677715.622 9  20677714.650 9
  21378543.244 9 -37602784.175 9 -27673841.113 9  21378542.227 9  21378542.585 9
  22393387.659 8 -57563765.332 8 -43639316.855 8  22393387.301 8  22393385.933 8
  21882373.424 9 -42158179.615 9 -32418685.936 9  21882372.176 9  21882371.951 9
  20133104.638 9 -50819508.261 9 -38547383.437 9  20133105.518 9  20133103.509 9
  20123952.584 9 -42537047.444 9 -32855166.570 9  20123953.705 9  20123951.642 9
 10  3 18  5  3 24.0000000  0  9G19G24G07G16G22G21G18G06G03
  22149731.970 8 -22614394.590 8 -17462397.036 9  22149730.236 9  22149730.354 9
  23138011.265 8 -52801332.200 8 -38736996.865 8  23138013.356 8  23138010.485 8
  24089495.075 7  -5996804.367 7  -4572713.066 7  24089494.818 7  24089493.260 7
  20677648.869 9 -50576597.978 9 -39288375.881 9  20677648.643 9  20677647.668 9
  21377774.490 9 -37606824.634 9 -27676989.523 9  21377773.302 9  21377773.675 9
  22393435.259 8 -57563514.898 8 -43639121.713 8  22393434.965 8  22393433.604 8
  21882005.335 9 -42160113.945 9 -32420193.206 9  21882004.102 9  21882003.866 9
  20132527.708 9 -50822539.894 9 -38549745.748 9  20132528.616 9  20132526.619 9
  20123245.636 9 -42540761.955 9 -32858060.995 9  20123246.874 9  20123244.781 9
 10  3 18  5  3 25.0000000  0  9G19G24G07G16G22G21G18G06G03
  22148858.156 8 -22618986.498 8 -17465975.144 9  22148856.411 9  22148856.567 9
  23138190.507 8 -52800389.073 8 -38736261.961 8  23138192.866 8  23138189.930 8
  24088949.727 7  -5999670.982 7  -4574946.792 7  24088949.348 7  24088947.727 7
  20677581.933 9 -50576949.538 9 -39288649.824 9  20677581.756 9  20677580.791 9
  21377005.868 9 -37610864.612 9 -27680137.557 9  21377004.487 9  21377004.889 9
  22393482.899 8 -57563264.295 8 -43638926.438 8  22393482.662 8  22393481.308 8
  21881637.193 9 -42162047.710 9 -32421700.036 9  21881636.101 9  21881635.885 9
  20131950.895 9 -50825571.241 9 -38552107.836 9  20131951.771 9  20131949.785 9
  20122538.798 9 -42544476.123 9 -32860955.152 9  20122540.106 9  20122537.984 9
 10  3 18  5  3 26.0000000  0  9G19G24G07G16G22G21G18G06G03
  22147984.344 8 -22623578.225 8 -17469553.113 9  22147982.602 9  22147982.803 9
  23138370.127 8 -52799445.833 8 -38735526.971 8  23138372.377 8  23138369.415 8
  24088404.353 7  -6002536.967 7  -4577180.025 7  24088404.023 7  24088402.338 7
  20677515.099 9 -50577300.555 9 -39288923.344 9  20677514.971 9  20677514.008 9
  21376237.227 9 -37614904.048 9 -27683285.169 9  21376235.786 9  21376236.222 9
  22393530.718 8 -57563013.490 8 -43638731.005 8  22393530.390 8  22393529.024 8
  21881269.286 9 -42163980.850 9 -32423206.378 9  21881268.211 9  21881268.021 9
  20131374.117 9 -50828602.271 9 -38554469.678 9  20131374.973 9  20131372.973 9
  20121832.167 9 -42548189.934 9 -32863849.030 9  20121833.413 9  20121831.256 9
 10  3 18  5  3 27.0000000  0  9G19G24G07G16G22G21G18G06G03
  22147110.854 8 -22628169.789 8 -17473130.953 9  22147108.806 9  22147109.059 9
  23138549.580 8 -52798502.506 8 -38734791.911 8  23138551.897 8  23138548.917 8
  24087858.969 7  -6005402.321 7  -4579412.768 7  24087858.856 7  24087857.100 7
  20677448.459 9 -50577651.045 9 -39289196.453 9  20677448.283 9  20677447.308 9
  21375468.584 9 -37618942.971 9 -27686432.382 9  21375467.178 9  21375467.650 9
  22393578.526 8 -57562762.503 8 -43638535.430 8  22393578.154 8  22393576.780 8
  21880901.465 9 -42165913.404 9 -32424712.263 9  21880900.449 9  21880900.211 9
  20130797.408 9 -50831632.998 9 -38556831.283 9  20130798.234 9  20130796.219 9
  20121125.570 9 -42551903.394 9 -32866742.635 9  20121126.782 9  20121124.600 9
 10  3 18  5  3 28.0000000  0  9G19G24G07G16G22G21G18G06G03
  22146237.168 8 -22632761.225 8 -17476708.694 9  22146235.058 9  22146235.305 9
  23138729.131 8 -52797559.094 8 -38734056.786 8  23138731.459 8  23138728.414 8
  24087313.594 7  -6008267.103 7  -4581645.067 7  24087313.776 7  24087311.972 7
  20677381.881 9 -50578001.016 9 -39289469.158 9  20677381.703 9  20677380.712 9
  21374700.254 9 -37622981.393 9 -27689579.204 9  21374698.657 9  21374699.170 9
  22393626.403 8 -57562511.347 8 -43638339.725 8  22393625.959 8  22393624.595 8
  21880533.968 9 -42167845.374 9 -32426217.695 9  21880532.802 9  21880532.508 9
  20130220.748 9 -50834663.456 9 -38559192.679 9  20130221.581 9  20130219.494 9
  20120419.089 9 -42555616.517 9 -32869635.977 9  20120420.227 9  20120418.051 9
 10  3 18  5  3 29.0000000  0  9G19G24G07G16G22G21G18G06G03
  22145363.479 8 -22637352.566 8 -17480286.362 9  22145361.336 9  22145361.556 9
  23138908.464 8 -52796615.631 8 -38733321.622 8  23138911.031 8  23138907.915 8
  24086768.131 7  -6011131.304 7  -4583876.913 7  24086768.745 7  24086766.947 7
  20677315.545 9 -50578350.495 9 -39289741.478 9  20677315.221 9  20677314.200 9
  21373931.774 9 -37627019.351 9 -27692725.665 9  21373930.247 9  21373930.773 9
  22393674.162 8 -57562260.061 8 -43638143.917 8  22393673.795 8  22393672.438 8
  21880166.363 9 -42169776.801 9 -32427722.702 9  21880165.266 9  21880164.962 9
  20129644.129 9 -50837693.656 9 -38561553.873 9  20129644.975 9  20129642.822 9
  20119712.477 9 -42559329.328 9 -32872529.076 9  20119713.735 9  20119711.545 9
 10  3 18  5  3 30.0000000  0  9G19G24G07G16G22G21G18G06G03
  22144489.849 8 -22641943.826 8 -17483863.966 9  22144487.614 9  22144487.846 9
  23139087.952 8 -52795672.153 8 -38732586.446 8  23139090.565 8  23139087.460 8
  24086223.077 7  -6013994.937 7  -4586108.316 7  24086223.813 7  24086222.046 7
  20677249.146 9 -50578699.509 9 -39290013.437 9  20677248.808 9  20677247.768 9
  21373163.504 9 -37631056.849 9 -27695871.767 9  21373161.941 9  21373162.454 9
  22393721.983 8 -57562008.660 8 -43637948.021 8  22393721.622 8  22393720.275 8
  21879798.944 9 -42171707.699 9 -32429227.298 9  21879797.834 9  21879797.527 9
  20129067.565 9 -50840723.653 9 -38563914.910 9  20129068.415 9  20129066.277 9
  20119006.034 9 -42563041.844 9 -32875421.946 9  20119007.336 9  20119005.049 9
 10  3 18  5  3 31.0000000  0  9G19G24G07G16G22G21G18G06G03
  22143616.340 8 -22646534.917 8 -17487441.439 9  22143613.919 9  22143614.183 9
  23139267.472 8 -52794728.573 8 -38731851.189 8  23139270.111 8  23139267.031 8
  24085678.024 7  -6016857.988 7  -4588339.265 7  24085678.973 7  24085677.285 7
  20677182.848 9 -50579047.989 9 -39290284.980 9  20677182.466 9  20677181.427 9
  21372395.266 9 -37635093.818 9 -27699017.456 9  21372393.712 9  21372394.221 9
  22393769.975 8 -57561757.062 8 -43637751.970 8  22393769.490 8  22393768.153 8
  21879431.735 9 -42173638.001 9 -32430731.428 9  21879430.537 9  21879430.189 9
  20128490.937 9 -50843753.325 9 -38566275.693 9  20128491.915 9  20128489.791 9
  20118299.603 9 -42566754.015 9 -32878314.546 9  20118300.988 9  20118298.608 9
 10  3 18  5  3 32.0000000  0  9G19G24G07G16G22G21G18G06G03
  22142742.736 8 -22651125.841 8 -17491018.782 9  22142740.294 9  22142740.566 9
  23139446.855 8 -52793784.881 8 -38731115.846 8  23139449.715 8  23139446.555 8
  24085133.234 7  -6019720.342 7  -4590569.669 7  24085134.276 7  24085132.624 7
  20677116.661 9 -50579395.914 9 -39290556.091 9  20677116.242 9  20677115.196 9
  21371627.137 9 -37639130.256 9 -27702162.733 9  21371625.563 9  21371626.079 9
  22393817.962 8 -57561505.266 8 -43637555.766 8  22393817.384 8  22393816.092 8
  21879064.554 9 -42175567.695 9 -32432235.086 9  21879063.359 9  21879062.967 9
  20127914.501 9 -50846782.689 9 -38568636.237 9  20127915.391 9  20127913.336 9
  20117593.263 9 -42570465.816 9 -32881206.859 9  20117594.661 9  20117592.228 9
 10  3 18  5  3 33.0000000  0  9G19G24G07G16G22G21G18G06G03
  22141868.975 8 -22655716.620 8 -17494596.011 9  22141866.716 9  22141866.985 9
  23139626.428 8 -52792841.053 8 -38730380.397 8  23139629.355 8  23139626.098 8
  24084588.672 7  -6022582.110 7  -4592799.616 7  24084589.726 7  24084588.041 7
  20677050.563 9 -50579743.309 9 -39290826.789 9  20677050.144 9  20677049.078 9
  21370859.094 9 -37643166.170 9 -27705307.601 9  21370857.530 9  21370858.032 9
  22393865.909 8 -57561253.279 8 -43637359.413 8  22393865.315 8  22393864.068 8
  21878697.492 9 -42177496.782 9 -32433738.270 9  21878696.277 9  21878695.855 9
  20127337.946 9 -50849811.754 9 -38570996.547 9  20127338.919 9  20127336.933 9
  20116886.996 9 -42574177.260 9 -32884098.893 9  20116888.400 9  20116885.932 9
 10  3 18  5  3 34.0000000  0  9G19G24G07G16G22G21G18G06G03
  22140995.420 8 -22660307.263 8 -17498173.135 9  22140993.138 9  22140993.423 9
  23139806.223 8 -52791897.219 8 -38729644.945 8  23139808.976 8  23139805.667 8
  24084044.077 7  -6025443.286 7  -4595029.105 7  24084045.262 7  24084043.558 7
  20676984.622 9 -50580090.213 9 -39291097.103 9  20676984.134 9  20676983.062 9
  21370091.239 9 -37647201.604 9 -27708452.094 9  21370089.611 9  21370090.073 9
  22393913.732 8 -57561001.143 8 -43637162.943 8  22393913.286 8  22393912.089 8
  21878330.555 9 -42179425.326 9 -32435241.031 9  21878329.291 9  21878328.842 9
  20126761.528 9 -50852840.564 9 -38573356.659 9  20126762.523 9  20126760.605 9
  20116180.819 9 -42577888.396 9 -32886990.687 9  20116182.206 9  20116179.754 9
 10  3 18  5  3 35.0000000  0  9G19G24G07G16G22G21G18G06G03
  22140121.977 8 -22664897.756 8 -17501750.141 9  22140119.583 9  22140119.893 9
  23139985.993 8 -52790953.245 8 -38728909.382 8  23139988.617 8  23139985.262 8
  24083499.784 7  -6028303.827 7  -4597258.098 7  24083500.875 7  24083499.187 7
  20676918.752 9 -50580436.569 9 -39291366.991 9  20676918.218 9  20676917.167 9
  21369323.314 9 -37651236.512 9 -27711596.178 9  21369321.794 9  21369322.266 9
  22393961.656 8 -57560748.832 8 -43636966.338 8  22393961.294 8  22393960.144 8
  21877963.818 9 -42181353.250 9 -32436743.310 9  21877962.444 9  21877961.988 9
  20126185.305 9 -50855869.044 9 -38575716.513 9  20126186.191 9  20126184.340 9
  20115474.719 9 -42581599.161 9 -32889882.190 9  20115476.075 9  20115473.636 9
 10  3 18  5  3 36.0000000  0  9G19G24G07G16G22G21G18G06G03
  22139248.306 8 -22669488.096 8 -17505327.028 9  22139246.047 9  22139246.373 9
  23140165.886 8 -52790009.181 8 -38728173.749 8  23140168.257 8  23140164.920 8
  24082955.572 7  -6031163.739 7  -4599486.599 7  24082956.614 7  24082954.948 7
  20676852.918 9 -50580782.392 9 -39291636.464 9  20676852.403 9  20676851.365 9
  21368555.431 9 -37655270.889 9 -27714739.849 9  21368554.078 9  21368554.599 9
  22394009.658 8 -57560496.300 8 -43636769.561 8  22394009.338 8  22394008.213 8
  21877597.162 9 -42183280.570 9 -32438245.117 9  21877595.713 9  21877595.250 9
  20125609.093 9 -50858897.203 9 -38578076.117 9  20125609.941 9  20125608.105 9
  20114768.670 9 -42585309.562 9 -32892773.412 9  20114769.966 9  20114767.548 9
 10  3 18  5  3 37.0000000  0  9G19G24G07G16G22G21G18G06G03
  22138374.733 8 -22674078.293 8 -17508903.805 9  22138372.534 9  22138372.876 9
  23140345.697 8 -52789065.039 8 -38727438.056 8  23140347.904 8  23140344.597 8
  24082411.708 7  -6034023.069 7  -4601714.646 7  24082412.485 7  24082410.842 7
  20676787.192 9 -50581127.691 9 -39291905.528 9  20676786.684 9  20676785.656 9
  21367787.771 9 -37659304.768 9 -27717883.131 9  21367786.460 9  21367787.008 9
  22394057.537 8 -57560243.621 8 -43636572.667 8  22394057.411 8  22394056.311 8
  21877230.410 9 -42185207.314 9 -32439746.476 9  21877229.072 9  21877228.585 9
  20125032.951 9 -50861925.092 9 -38580435.510 9  20125033.744 9  20125031.921 9
  20114062.677 9 -42589019.626 9 -32895664.370 9  20114063.923 9  20114061.522 9
 10  3 18  5  3 38.0000000  0  9G19G24G07G16G22G21G18G06G03
  22137501.143 8 -22678668.322 8 -17512480.450 9  22137499.055 9  22137499.412 9
  23140525.545 8 -52788120.803 8 -38726702.290 8  23140527.617 8  23140524.290 8
  24081867.727 7  -6036881.765 7  -4603942.200 7  24081868.485 7  24081866.839 7
  20676721.711 9 -50581472.455 9 -39292174.176 9  20676721.061 9  20676720.041 9
  21367020.153 9 -37663338.111 9 -27721025.995 9  21367018.942 9  21367019.501 9
  22394105.584 8 -57559990.731 8 -43636375.611 8  22394105.545 8  22394104.447 8
  21876864.020 9 -42187133.455 9 -32441247.365 9  21876862.544 9  21876862.032 9
  20124456.826 9 -50864952.688 9 -38582794.676 9  20124457.640 9  20124455.834 9
  20113356.805 9 -42592729.329 9 -32898555.047 9  20113357.965 9  20113355.565 9
 10  3 18  5  3 39.0000000  0  9G19G24G07G16G22G21G18G06G03
  22136627.583 8 -22683258.231 8 -17516057.001 9  22136625.610 9  22136625.981 9
  23140705.547 8 -52787176.459 8 -38725966.438 8  23140707.356 8  23140704.000 8
  24081323.984 7  -6039739.831 7  -4606169.263 7  24081324.625 7  24081322.933 7
  20676656.202 9 -50581816.708 9 -39292442.425 9  20676655.520 9  20676654.513 9
  21366252.805 9 -37667370.956 9 -27724168.472 9  21366251.540 9  21366252.077 9
  22394153.689 8 -57559737.672 8 -43636178.422 8  22394153.711 8  22394152.614 8
  21876497.528 9 -42189059.003 9 -32442747.791 9  21876496.122 9  21876495.616 9
  20123880.757 9 -50867980.003 9 -38585153.623 9  20123881.588 9  20123879.793 9
  20112651.009 9 -42596438.697 9 -32901445.464 9  20112652.071 9  20112649.672 9
 10  3 18  5  3 40.0000000  0  9G19G24G07G16G22G21G18G06G03
  22135754.086 8 -22687848.045 8 -17519633.479 9  22135752.194 9  22135752.537 9
  23140885.325 8 -52786232.100 8 -38725230.575 8  23140887.095 8  23140883.723 8
  24080780.167 7  -6042597.362 7  -4608395.909 7  24080780.858 7  24080779.155 7
  20676590.770 9 -50582160.492 9 -39292710.309 9  20676590.087 9  20676589.079 9
  21365485.651 9 -37671403.354 9 -27727310.600 9  21365484.240 9  21365484.728 9
  22394201.743 8 -57559484.497 8 -43635981.143 8  22394201.892 8  22394200.818 8
  21876131.186 9 -42190984.034 9 -32444247.815 9  21876129.801 9  21876129.305 9
  20123304.727 9 -50871007.046 9 -38587512.358 9  20123305.501 9  20123303.755 9
  20111945.111 9 -42600147.766 9 -32904335.647 9  20111946.245 9  20111943.840 9
 10  3 18  5  3 41.0000000  0  9G19G24G07G16G22G21G18G06G03
  22134880.705 8 -22692437.648 8 -17523209.791 9  22134878.837 9  22134879.131 9
  23141064.965 8 -52785287.589 8 -38724494.595 8  23141066.865 8  23141063.482 8
  24080236.485 7  -6045454.230 7  -4610622.041 7  24080237.201 7  24080235.550 7
  20676525.277 9 -50582503.694 9 -39292977.739 9  20676524.793 9  20676523.756 9
  21364718.546 9 -37675435.175 9 -27730452.278 9  21364717.035 9  21364717.503 9
  22394249.853 8 -57559231.090 8 -43635783.683 8  22394250.117 8  22394249.068 8
  21875764.925 9 -42192908.420 9 -32445747.336 9  21875763.603 9  21875763.089 9
  20122728.812 9 -50874033.759 9 -38589870.835 9  20122729.477 9  20122727.782 9
  20111239.242 9 -42603856.435 9 -32907225.519 9  20111240.492 9  20111238.088 9
 10  3 18  5  3 42.0000000  0  9G19G24G07G16G22G21G18G06G03
  22134007.651 8 -22697027.115 8 -17526785.998 9  22134005.504 9  22134005.743 9
  23141244.677 8 -52784343.023 8 -38723758.571 8  23141246.637 8  23141243.250 8
  24079693.168 7  -6048310.480 7  -4612847.691 7  24079693.655 7  24079692.069 7
  20676459.936 9 -50582846.385 9 -39293244.771 9  20676459.592 9  20676458.533 9
  21363951.505 9 -37679466.504 9 -27733593.574 9  21363949.915 9  21363950.391 9
  22394298.212 8 -57558977.525 8 -43635586.099 8  22394298.370 8  22394297.321 8
  21875398.856 9 -42194832.228 9 -32447246.408 9  21875397.521 9  21875396.985 9
  20122152.824 9 -50877060.191 9 -38592229.093 9  20122153.523 9  20122151.860 9
  20110533.582 9 -42607564.777 9 -32910115.136 9  20110534.796 9  20110532.411 9
 10  3 18  5  3 43.0000000  0  9G19G24G07G16G22G21G18G06G03
  22133134.472 8 -22701616.433 8 -17530362.089 9  22133132.199 9  22133132.380 9
  23141424.398 8 -52783398.320 8 -38723022.441 8  23141426.435 8  23141423.042 8
  24079149.900 7  -6051166.126 7  -4615072.870 7  24079150.219 7  24079148.721 7
  20676394.702 9 -50583188.534 9 -39293511.380 9  20676394.488 9  20676393.414 9
  21363184.655 9 -37683497.290 9 -27736734.446 9  21363182.898 9  21363183.393 9
  22394346.378 8 -57558723.753 8 -43635388.355 8  22394346.662 8  22394345.613 8
  21875032.845 9 -42196755.436 9 -32448745.012 9  21875031.539 9  21875031.038 9
  20121576.966 9 -50880086.296 9 -38594587.097 9  20121577.633 9  20121576.003 9
  20109827.977 9 -42611272.753 9 -32913004.467 9  20109829.168 9  20109826.810 9
 10  3 18  5  3 44.0000000  0  9G19G24G07G16G22G21G18G06G03
  22132261.164 8 -22706205.640 8 -17533938.094 9  22132258.918 9  22132259.083 9
  23141604.089 8 -52782453.582 8 -38722286.282 8  23141606.223 8  23141602.799 8
  24078606.799 7  -6054021.169 7  -4617297.578 7  24078606.902 7  24078605.454 7
  20676329.633 9 -50583530.186 9 -39293777.603 9  20676329.488 9  20676328.384 9
  21362417.710 9 -37687527.594 9 -27739874.943 9  21362415.973 9  21362416.495 9
  22394394.780 8 -57558469.845 8 -43635190.505 8  22394394.962 8  22394393.945 8
  21874666.939 9 -42198678.075 9 -32450243.172 9  21874665.661 9  21874665.202 9
  20121001.088 9 -50883112.183 9 -38596944.931 9  20121001.759 9  20121000.218 9
  20109122.436 9 -42614980.404 9 -32915893.546 9  20109123.611 9  20109121.299 9
 10  3 18  5  3 45.0000000  0  9G19G24G07G16G22G21G18G06G03
  22131387.867 8 -22710794.714 8 -17537513.994 9  22131385.664 9  22131385.824 9
  23141783.771 8 -52781508.747 8 -38721550.047 8  23141786.025 8  23141782.568 8
  24078063.802 7  -6056875.613 7  -4619521.820 7  24078063.710 7  24078062.249 7
  20676264.684 9 -50583871.329 9 -39294043.429 9  20676264.606 9  20676263.449 9
  21361650.994 9 -37691557.403 9 -27743015.053 9  21361649.149 9  21361649.709 9
  22394443.070 8 -57558215.774 8 -43634992.529 8  22394443.294 8  22394442.310 8
  21874301.038 9 -42200600.146 9 -32451740.889 9  21874299.913 9  21874299.414 9
  20120425.235 9 -50886137.767 9 -38599302.529 9  20120425.947 9  20120424.491 9
  20108416.981 9 -42618687.733 9 -32918782.374 9  20108418.117 9  20108415.835 9
 10  3 18  5  3 46.0000000  0  9G19G24G07G16G22G21G18G06G03
  22130514.880 8 -22715383.533 8 -17541089.695 9  22130512.458 9  22130512.636 9
  23141963.580 8 -52780563.765 8 -38720813.698 8  23141965.847 8  23141962.360 8
  24077521.101 7  -6059729.355 7  -4621745.516 7  24077520.635 7  24077519.227 7
  20676199.779 9 -50584211.862 9 -39294308.779 9  20676199.828 9  20676198.625 9
  21360884.298 9 -37695586.619 9 -27746154.702 9  21360882.442 9  21360883.053 9
  22394491.583 8 -57557961.442 8 -43634794.348 8  22394491.674 8  22394490.733 8
  21873935.350 9 -42202521.541 9 -32453238.079 9  21873934.300 9  21873933.749 9
  20119849.524 9 -50889162.974 9 -38601659.833 9  20119850.287 9  20119848.774 9
  20107711.605 9 -42622394.624 9 -32921670.860 9  20107712.723 9  20107710.416 9
 10  3 18  5  3 47.0000000  0  9G19G24G07G16G22G21G18G06G03
  22129641.696 8 -22719972.206 8 -17544665.284 9  22129639.270 9  22129639.476 9
  23142143.097 8 -52779618.671 8 -38720077.262 8  23142145.689 8  23142142.172 8
  24076977.964 7  -6062582.485 7  -4623968.735 7  24076977.638 7  24076976.391 7
  20676135.123 9 -50584551.859 9 -39294573.712 9  20676135.127 9  20676133.891 9
  21360117.655 9 -37699615.294 9 -27749293.929 9  21360115.840 9  21360116.461 9
  22394540.059 8 -57557706.922 8 -43634596.022 8  22394540.090 8  22394539.192 8
  21873569.741 9 -42204442.334 9 -32454734.801 9  21873568.777 9  21873568.214 9
  20119273.914 9 -50892187.864 9 -38604016.890 9  20119274.689 9  20119273.123 9
  20107006.314 9 -42626101.167 9 -32924559.075 9  20107007.387 9  20107005.061 9
 10  3 18  5  3 48.0000000  0  9G19G24G07G16G22G21G18G06G03
  22128768.268 8 -22724560.721 8 -17548240.749 9  22128766.103 9  22128766.335 9
  23142322.933 8 -52778673.474 8 -38719340.748 8  23142325.539 8  23142322.032 8
  24076435.331 7  -6065434.963 7  -4626191.446 7  24076434.789 7  24076433.643 7
  20676070.587 9 -50584891.313 9 -39294838.223 9  20676070.512 9  20676069.257 9
  21359351.034 9 -37703643.458 9 -27752432.758 9  21359349.333 9  21359349.933 9
  22394588.672 8 -57557452.204 8 -43634397.542 8  22394588.548 8  22394587.672 8
  21873204.262 9 -42206362.532 9 -32456231.058 9  21873203.370 9  21873202.796 9
  20118698.383 9 -50895212.438 9 -38606373.701 9  20118699.100 9  20118697.575 9
  20106301.039 9 -42629807.334 9 -32927446.997 9  20106302.093 9  20106299.776 9
 10  3 18  5  3 49.0000000  0  9G19G24G07G16G22G21G18G06G03
  22127895.213 8 -22729149.047 8 -17551816.067 9  22127892.976 9  22127893.234 9
  23142502.820 8 -52777728.138 8 -38718604.124 8  23142505.417 8  23142501.926 8
  24075892.400 7  -6068286.801 7  -4628413.659 7  24075892.117 7  24075890.971 7
  20676006.115 9 -50585230.213 9 -39295102.301 9  20676005.982 9  20676004.733 9
  21358584.596 9 -37707671.052 9 -27755571.143 9  21358582.920 9  21358583.518 9
  22394637.212 8 -57557197.274 8 -43634198.896 8  22394637.044 8  22394636.189 8
  21872838.869 9 -42208282.089 9 -32457726.817 9  21872838.115 9  21872837.509 9
  20118122.785 9 -50898236.688 9 -38608730.259 9  20118123.572 9  20118122.083 9
  20105595.888 9 -42633513.112 9 -32930334.617 9  20105596.882 9  20105594.584 9
 10  3 18  5  3 50.0000000  0  9G19G24G07G16G22G21G18G06G03
  22127022.035 8 -22733737.186 8 -17555391.239 9  22127019.901 9  22127020.160 9
  23142682.714 8 -52776782.696 8 -38717867.418 8  23142685.337 8  23142681.762 8
  24075349.611 7  -6071138.004 7  -4630635.377 7  24075349.551 7  24075348.413 7
  20675941.786 9 -50585568.558 9 -39295365.947 9  20675941.546 9  20675940.325 9
  21357818.111 9 -37711698.119 9 -27758709.118 9  21357816.602 9  21357817.216 9
  22394685.737 8 -57556942.135 8 -43634000.086 9  22394685.589 9  22394684.744 8
  21872473.648 9 -42210201.036 9 -32459222.099 9  21872472.987 9  21872472.342 9
  20117547.615 9 -50901260.596 9 -38611086.552 9  20117548.155 9  20117546.553 9
  20104890.780 9 -42637218.516 9 -32933221.944 9  20104891.780 9  20104889.522 9
 10  3 18  5  3 51.0000000  0  9G19G24G07G16G22G21G18G06G03
  22126148.800 8 -22738325.310 8 -17558966.399 9  22126146.839 9  22126147.084 9
  23142862.481 8 -52775837.283 8 -38717130.734 8  23142865.257 8  23142861.586 8
  24074807.140 7  -6073988.700 7  -4632856.699 7  24074807.072 7  24074805.952 7
  20675877.556 9 -50585906.490 9 -39295629.270 9  20675877.175 9  20675876.016 9
  21357051.697 9 -37715724.776 9 -27761846.772 9  21357050.392 9  21357050.975 9
  22394734.599 8 -57556686.919 8 -43633801.216 9  22394734.151 9  22394733.314 8
  21872108.583 9 -42212119.496 9 -32460717.003 9  21872107.933 9  21872107.266 9
  20116972.349 9 -50904284.338 9 -38613442.714 9  20116972.767 9  20116971.054 9
  20104185.777 9 -42640923.686 9 -32936109.090 9  20104186.721 9  20104184.493 9
 10  3 18  5  3 52.0000000  0  9G19G24G07G16G22G21G18G06G03
  22125275.658 8 -22742913.281 8 -17562541.440 9  22125273.777 9  22125274.049 9
  23143042.696 8 -52774891.780 8 -38716393.980 8  23143045.169 8  23143041.516 8
  24074264.927 7  -6076838.808 7  -4635077.563 7  24074264.702 7  24074263.601 7
  20675813.465 9 -50586243.899 9 -39295892.187 9  20675812.906 9  20675811.794 9
  21356285.488 9 -37719750.929 9 -27764984.034 9  21356284.306 9  21356284.816 9
  22394783.192 8 -57556431.550 8 -43633602.227 9  22394782.755 9  22394781.905 8
  21871743.595 9 -42214037.378 9 -32462211.457 9  21871742.986 9  21871742.300 9
  20116397.141 9 -50907307.793 9 -38615798.653 9  20116397.420 9  20116395.672 9
  20103480.849 9 -42644628.512 9 -32938995.967 9  20103481.716 9  20103479.484 9
 10  3 18  5  3 53.0000000  0  9G19G24G07G16G22G21G18G06G03
  22124402.650 8 -22747501.015 8 -17566116.296 9  22124400.751 9  22124401.071 9
  23143222.717 8 -52773946.097 8 -38715657.086 8  23143225.105 8  23143221.488 8
  24073722.855 7  -6079688.172 7  -4637297.847 7  24073722.475 7  24073721.393 7
  20675749.344 9 -50586580.693 9 -39296154.624 9  20675748.766 9  20675747.671 9
  21355519.437 9 -37723776.457 9 -27768120.808 9  21355518.327 9  21355518.760 9
  22394831.883 8 -57556175.897 8 -43633403.017 9  22394831.418 9  22394830.552 8
  21871378.740 9 -42215954.581 9 -32463705.380 9  21871378.125 9  21871377.484 9
  20115821.897 9 -50910330.875 9 -38618154.301 9  20115822.146 9  20115820.365 9
  20102775.862 9 -42648332.894 9 -32941882.498 9  20102776.798 9  20102774.566 9
 10  3 18  5  3 54.0000000  0  9G19G24G07G16G22G21G18G06G03
  22123529.869 8 -22752088.617 8 -17569691.050 9  22123527.755 9  22123528.085 9
  23143402.823 8 -52773000.350 8 -38714920.142 8  23143405.065 8  23143401.445 8
  24073180.746 7  -6082536.961 7  -4639517.683 7  24073180.362 7  24073179.298 7
  20675685.318 9 -50586916.991 9 -39296416.675 9  20675684.726 9  20675683.667 9
  21354753.502 9 -37727801.506 9 -27771257.210 9  21354752.419 9  21354752.773 9
  22394880.519 8 -57555920.084 8 -43633203.682 9  22394880.096 9  22394879.224 8
  21871014.121 9 -42217871.216 9 -32465198.862 9  21871013.371 9  21871012.780 9
  20115246.680 9 -50913353.666 9 -38620509.723 9  20115246.877 9  20115245.149 9
  20102070.892 9 -42652036.958 9 -32944768.782 9  20102071.925 9  20102069.704 9
 10  3 18  5  3 55.0000000  0  9G19G24G07G16G22G21G18G06G03
  22122656.910 8 -22756676.020 8 -17573265.648 9  22122654.802 9  22122655.131 9
  23143583.016 8 -52772054.446 8 -38714183.076 8  23143585.054 8  23143581.427 8
  24072638.358 7  -6085385.086 7  -4641737.001 7  24072638.388 7  24072637.341 7
  20675621.438 9 -50587252.701 9 -39296678.268 9  20675620.803 9  20675619.805 9
  21353987.639 9 -37731825.985 9 -27774393.168 9  21353986.607 9  21353986.886 9
  22394929.086 8 -57555664.052 8 -43633004.177 9  22394928.814 9  22394927.940 8
  21870649.525 9 -42219787.211 9 -32466691.845 9  21870648.775 9  21870648.212 9
  20114671.489 9 -50916376.102 9 -38622864.867 9  20114671.671 9  20114669.999 9
  20101366.028 9 -42655740.603 9 -32947654.738 9  20101367.132 9  20101364.935 9
 10  3 18  5  3 56.0000000  0  9G19G24G07G16G22G21G18G06G03
  22121783.984 8 -22761263.237 8 -17576840.102 9  22121781.912 9  22121782.219 9
  23143762.959 8 -52771108.417 8 -38713445.912 8  23143765.069 8  23143761.459 8
  24072095.967 7  -6088232.555 7  -4643955.807 7  24072096.508 7  24072095.489 7
  20675557.589 9 -50587587.843 9 -39296939.417 9  20675556.995 9  20675556.050 9
  21353221.877 9 -37735849.908 9 -27777528.692 9  21353220.883 9  21353221.093 9
  22394977.757 8 -57555407.783 8 -43632804.487 9  22394977.603 9  22394976.727 9
  21870284.995 9 -42221702.568 9 -32468184.330 9  21870284.307 9  21870283.768 9
  20114096.373 9 -50919398.193 9 -38625219.743 9  20114096.556 9  20114094.902 9
  20100661.244 9 -42659443.853 9 -32950540.388 9  20100662.391 9  20100660.272 9
 10  3 18  5  3 57.0000000  0  9G19G24G07G16G22G21G18G06G03
  22120911.165 8 -22765850.290 8 -17580414.427 9  22120909.074 9  22120909.353 9
  23143943.105 8 -52770162.299 8 -38712708.678 8  23143945.097 8  23143941.509 8
  24071553.738 7  -6091079.400 7  -4646174.127 7  24071554.696 7  24071553.735 7
  20675493.820 9 -50587922.460 9 -39297200.158 9  20675493.305 9  20675492.398 9
  21352456.098 9 -37739873.311 9 -27780663.811 9  21352455.267 9  21352455.417 9
  22395026.637 8 -57555151.353 8 -43632604.671 9  22395026.423 9  22395025.544 9
  21869920.687 9 -42223617.328 9 -32469676.351 9  21869919.905 9  21869919.403 9
  20113521.259 9 -50922420.022 9 -38627574.416 9  20113521.497 9  20113519.861 9
  20099956.711 9 -42663146.753 9 -32953425.764 9  20099957.725 9  20099955.680 9
 10  3 18  5  3 58.0000000  0  9G19G24G07G16G22G21G18G06G03
  22120038.298 8 -22770437.236 8 -17583988.669 9  22120036.226 9  22120036.484 9
  23144123.096 8 -52769216.125 8 -38711971.400 8  23144125.148 8  23144121.572 8
  24071012.118 7  -6093925.674 7  -4648392.003 7  24071013.002 7  24071012.086 7
  20675430.100 9 -50588256.583 9 -39297460.513 9  20675429.727 9  20675428.821 9
  21351690.470 9 -37743896.219 9 -27783798.544 9  21351689.749 9  21351689.849 9
  22395075.522 8 -57554894.762 8 -43632404.730 9  22395075.278 9  22395074.352 9
  21869556.526 9 -42225531.539 9 -32471167.943 9  21869555.603 9  21869555.140 9
  20112946.211 9 -50925441.561 9 -38629928.861 9  20112946.520 9  20112944.854 9
  20099252.131 9 -42666849.343 9 -32956310.899 9  20099253.146 9  20099251.158 9
 10  3 18  5  3 59.0000000  0  9G19G24G07G16G22G21G18G06G03
  22119165.582 8 -22775024.026 8 -17587562.791 9  22119163.396 9  22119163.636 9
  23144303.257 8 -52768269.852 8 -38711234.046 8  23144305.220 8  23144301.655 8
  24070470.841 7  -6096771.321 7  -4650609.389 7  24070471.455 7  24070470.557 7
  20675366.495 9 -50588590.175 9 -39297720.455 9  20675366.285 9  20675365.321 9
  21350925.066 9 -37747918.631 9 -27786932.891 9  21350924.337 9  21350924.366 9
  22395124.223 8 -57554638.008 8 -43632204.662 9  22395124.163 9  22395123.190 8
  21869192.458 9 -42227445.153 9 -32472659.070 9  21869191.481 9  21869190.982 9
  20112371.340 9 -50928462.804 9 -38632283.077 9  20112371.598 9  20112369.905 9
  20098547.743 9 -42670551.572 9 -32959195.753 9  20098548.635 9  20098546.683 9
 10  3 18  5  4  0.0000000  0  9G19G24G07G16G22G21G18G06G03
  22118292.934 8 -22779610.631 8 -17591136.767 9  22118290.613 9  22118290.833 9
  23144483.337 8 -52767323.460 8 -38710496.598 8  23144485.340 8  23144481.763 8
  24069929.645 7  -6099616.307 7  -4652826.261 7  24069930.046 7  24069929.165 7
  20675302.917 9 -50588923.208 9 -39297979.962 9  20675302.943 9  20675301.926 9
  21350159.845 9 -37751940.487 9 -27790066.804 9  21350159.043 9  21350158.984 9
  22395173.172 8 -57554381.029 8 -43632004.419 9  22395173.063 9  22395172.089 8
  21868828.558 9 -42229358.149 9 -32474149.716 9  21868827.484 9  21868826.937 9
  20111796.479 9 -50931483.727 9 -38634637.042 9  20111796.716 9  20111795.027 9
  20097843.300 9 -42674253.421 9 -32962080.310 9  20097844.204 9  20097842.214 9
 10  3 18  5  4  1.0000000  0  9G19G24G07G16G22G21G18G06G03
  22117420.133 8 -22784197.067 8 -17594710.612 9  22117417.859 9  22117418.057 9
  23144663.467 8 -52766376.945 8 -38709759.055 8  23144665.491 8  23144661.898 8
  24069388.749 7  -6102460.647 7  -4655042.628 7  24069388.796 7  24069387.919 7
  20675239.704 9 -50589255.693 9 -39298239.041 9  20675239.686 9  20675238.630 9
  21349394.690 9 -37755961.794 9 -27793200.290 9  21349393.854 9  21349393.719 9
  22395222.227 8 -57554123.849 8 -43631804.019 9  22395221.999 9  22395221.025 8
  21868464.694 9 -42231270.515 9 -32475639.871 9  21868463.588 9  21868463.018 9
  20111221.731 9 -50934504.319 9 -38636990.750 9  20111221.896 9  20111220.210 9
  20097138.958 9 -42677954.889 9 -32964964.570 9  20097139.845 9  20097137.820 9
 10  3 18  5  4  2.0000000  0  9G19G24G07G16G22G21G18G06G03
  22116547.269 8 -22788783.351 8 -17598284.340 9  22116545.132 9  22116545.343 9
  23144843.699 8 -52765430.345 8 -38709021.446 8  23144845.604 8  23144842.039 8
  24068847.723 7  -6105304.365 7  -4657258.511 7  24068847.678 7  24068846.783 7
  20675176.556 9 -50589587.648 9 -39298497.707 9  20675176.530 9  20675175.431 9
  21348629.620 9 -37759982.590 9 -27796333.378 9  21348628.767 9  21348628.563 9
  22395271.288 8 -57553866.472 8 -43631603.466 9  22395270.989 9  22395270.015 9
  21868100.886 9 -42233182.286 9 -32477129.563 9  21868099.801 9  21868099.213 9
  20110646.982 9 -50937524.618 9 -38639344.229 9  20110647.119 9  20110645.468 9
  20096434.766 9 -42681656.008 9 -32967848.559 9  20096435.557 9  20096433.509 9
 10  3 18  5  4  3.0000000  0  9G19G24G07G16G22G21G18G06G03
  22115674.455 8 -22793369.478 8 -17601857.943 9  22115672.436 9  22115672.671 9
  23145023.709 8 -52764483.633 8 -38708283.749 8  23145025.734 8  23145022.205 8
  24068306.681 7  -6108147.468 7  -4659473.915 7  24068306.715 7  24068305.760 7
  20675113.602 9 -50589919.071 9 -39298755.959 9  20675113.478 9  20675112.336 9
  21347864.667 9 -37764002.854 9 -27799466.051 9  21347863.747 9  21347863.522 9
  22395320.279 8 -57553608.913 8 -43631402.772 9  22395320.016 9  22395319.040 9
  21867737.335 9 -42235093.471 9 -32478618.799 9  21867736.162 9  21867735.533 9
  20110072.289 9 -50940544.610 9 -38641697.470 9  20110072.400 9  20110070.786 9
  20095730.572 9 -42685356.770 9 -32970732.269 9  20095731.339 9  20095729.263 9
 10  3 18  5  4  4.0000000  0  9G19G24G07G16G22G21G18G06G03
  22114801.860 8 -22797955.420 8 -17605431.404 9  22114799.755 9  22114800.003 9
  23145203.989 8 -52763536.813 8 -38707545.968 8  23145205.884 8  23145202.388 8
  24067765.754 7  -6110989.946 7  -4661688.832 7  24067765.846 7  24067764.861 7
  20675050.754 9 -50590249.947 9 -39299013.784 9  20675050.538 9  20675049.343 9
  21347099.762 9 -37768022.588 9 -27802598.311 9  21347098.793 9  21347098.588 9
  22395369.148 8 -57553351.153 8 -43631201.920 9  22395369.062 9  22395368.105 9
  21867373.729 9 -42237004.035 9 -32480107.550 9  21867372.648 9  21867371.973 9
  20109497.582 9 -50943564.283 9 -38644050.462 9  20109497.829 9  20109496.178 9
  20095026.339 9 -42689057.158 9 -32973615.688 9  20095027.179 9  20095025.063 9
 10  3 18  5  4  5.0000000  0  9G19G24G07G16G22G21G18G06G03
  22113929.404 8 -22802541.154 8 -17609004.703 9  22113927.100 9  22113927.355 9
  23145384.182 8 -52762589.854 8 -38706808.079 8  23145386.060 8  23145382.594 8
  24067225.165 7  -6113831.736 7  -4663903.214 7  24067225.058 7  24067224.101 7
  20674987.865 9 -50590580.232 9 -39299271.149 9  20674987.713 9  20674986.453 9
  21346334.904 9 -37772041.724 9 -27805730.106 9  21346333.968 9  21346333.791 9
  22395418.275 8 -57553093.154 8 -43631000.884 9  22395418.157 9  22395417.216 9
  21867010.312 9 -42238913.943 9 -32481595.790 9  21867009.208 9  21867008.549 9
  20108922.914 9 -50946583.592 9 -38646403.171 9  20108923.329 9  20108921.641 9
  20094322.337 9 -42692757.136 9 -32976498.788 9  20094323.100 9  20094320.947 9
 10  3 18  5  4  6.0000000  0  9G19G24G07G16G22G21G18G06G03
  22113056.679 8 -22807126.719 8 -17612577.869 9  22113054.472 9  22113054.754 9
  23145564.238 8 -52761642.771 8 -38706070.094 8  23145566.274 8  23145562.826 8
  24066684.239 7  -6116672.875 7  -4666117.089 7  24066684.404 7  24066683.447 7
  20674925.216 9 -50590909.970 9 -39299528.088 9  20674924.991 9  20674923.694 9
  21345570.281 9 -37776060.333 9 -27808861.489 9  21345569.253 9  21345569.111 9
  22395467.343 8 -57552834.952 8 -43630799.688 9  22395467.305 9  22395466.354 9
  21866647.053 9 -42240823.247 9 -32483083.558 9  21866645.878 9  21866645.244 9
  20108348.243 9 -50949602.588 9 -38648755.635 9  20108348.852 9  20108347.184 9
  20093618.340 9 -42696456.735 9 -32979381.592 9  20093619.100 9  20093616.910 9
 10  3 18  5  4  7.0000000  0  9G19G24G07G16G22G21G18G06G03
  22112184.117 8 -22811712.094 8 -17616150.888 9  22112181.880 9  22112182.196 9
  23145744.692 8 -52760695.554 8 -38705332.004 8  23145746.516 8  23145743.079 8
  24066143.808 7  -6119513.358 7  -4668330.451 7  24066143.898 7  24066142.897 7
  20674862.625 9 -50591239.147 9 -39299784.589 9  20674862.359 9  20674861.074 9
  21344805.645 9 -37780078.377 9 -27811992.432 9  21344804.634 9  21344804.507 9
  22395516.646 8 -57552576.523 8 -43630598.316 9  22395516.495 9  22395515.535 9
  21866283.677 9 -42242731.919 9 -32484570.835 9  21866282.667 9  21866282.055 9
  20107773.818 9 -50952621.232 9 -38651107.825 9  20107774.439 9  20107772.791 9
  20092914.355 9 -42700155.946 9 -32982264.094 9  20092915.176 9  20092912.943 9
 10  3 18  5  4  8.0000000  0  9G19G24G07G16G22G21G18G06G03
  22111311.583 8 -22816297.284 8 -17619723.762 9  22111309.351 9  22111309.659 9
  23145924.782 8 -52759748.222 8 -38704593.826 8  23145926.750 8  23145923.384 8
  24065603.712 7  -6122353.205 7  -4670543.318 7  24065603.515 7  24065602.487 7
  20674800.066 9 -50591567.762 9 -39300040.653 9  20674799.826 9  20674798.542 9
  21344041.158 9 -37784095.873 9 -27815122.949 9  21344040.101 9  21344039.973 9
  22395565.754 8 -57552317.883 8 -43630396.779 9  22395565.727 9  22395564.777 9
  21865920.690 9 -42244639.954 9 -32486057.616 9  21865919.574 9  21865918.984 9
  20107199.434 9 -50955639.559 9 -38653459.768 9  20107200.065 9  20107198.440 9
  20092210.503 9 -42703854.772 9 -32985146.296 9  20092211.342 9  20092209.037 9
 10  3 18  5  4  9.0000000  0  9G19G24G07G16G22G21G18G06G03
  22110438.977 8 -22820882.299 8 -17623296.501 9  22110436.866 9  22110437.148 9
  23146104.876 8 -52758800.791 8 -38703855.568 8  23146106.992 8  23146103.705 8
  24065063.126 7  -6125192.400 7  -4672755.679 7  24065063.268 7  24065062.235 7
  20674737.632 9 -50591895.827 9 -39300296.288 9  20674737.381 9  20674736.095 9
  21343276.731 9 -37788112.823 9 -27818253.039 9  21343275.679 9  21343275.554 9
  22395614.873 8 -57552059.048 8 -43630195.089 9  22395614.990 9  22395614.050 9
  21865557.669 9 -42246547.387 9 -32487543.928 9  21865556.578 9  21865556.000 9
  20106624.958 9 -50958657.585 9 -38655811.477 9  20106625.745 9  20106624.142 9
  20091506.667 9 -42707553.233 9 -32988028.213 9  20091507.577 9  20091505.207 9
 10  3 18  5  4 10.0000000  0  9G19G24G07G16G22G21G18G06G03
  22109566.332 8 -22825467.176 8 -17626869.132 9  22109564.415 9  22109564.662 9
  23146285.329 8 -52757853.250 8 -38703117.225 8  23146287.288 8  23146284.013 8
  24064522.622 7  -6128030.998 7  -4674967.574 7  24064523.121 7  24064522.090 7
  20674675.320 9 -50592223.358 9 -39300551.507 9  20674675.030 9  20674673.768 9
  21342512.262 9 -37792129.262 9 -27821382.732 9  21342511.356 9  21342511.237 9
  22395664.055 8 -57551800.030 8 -43629993.258 8  22395664.282 8  22395663.318 9
  21865194.788 9 -42248454.229 9 -32489029.778 9  21865193.690 9  21865193.126 9
  20106050.708 9 -50961675.305 9 -38658162.947 9  20106051.467 9  20106049.854 9
  20090802.925 9 -42711251.343 9 -32990909.858 9  20090803.873 9  20090801.466 9
 10  3 18  5  4 11.0000000  0  9G19G24G07G16G22G21G18G06G03
  22108693.923 8 -22830051.882 8 -17630441.629 9  22108691.994 9  22108692.201 9
  23146465.828 8 -52756905.595 8 -38702378.793 8  23146467.610 8  23146464.336 8
  24063982.666 7  -6130868.941 7  -4677178.957 7  24063983.065 7  24063982.055 7
  20674612.975 9 -50592550.365 9 -39300806.318 9  20674612.767 9  20674611.567 9
  21341748.159 9 -37796145.177 9 -27824512.015 9  21341747.137 9  21341747.022 9
  22395713.288 8 -57551540.831 8 -43629791.285 8  22395713.606 8  22395712.622 9
  21864831.984 9 -42250360.464 9 -32490515.156 9  21864830.969 9  21864830.382 9
  20105476.403 9 -50964692.705 9 -38660514.168 9  20105477.245 9  20105475.630 9
  20090099.301 9 -42714949.088 9 -32993791.218 9  20090100.234 9  20090097.797 9
 10  3 18  5  4 12.0000000  0  9G19G24G07G16G22G21G18G06G03
  22107821.480 8 -22834636.401 8 -17634013.981 9  22107819.602 9  22107819.820 9
  23146646.364 8 -52755957.840 8 -38701640.284 8  23146647.995 8  23146644.688 8
  24063442.690 7  -6133706.283 7  -4679389.874 7  24063443.128 7  24063442.121 7
  20674550.733 9 -50592876.802 9 -39301060.685 9  20674550.637 9  20674549.468 9
  21340984.076 9 -37800160.531 9 -27827640.862 9  21340983.028 9  21340982.913 9
  22395762.464 8 -57551281.407 8 -43629589.136 8  22395762.967 8  22395761.988 9
  21864469.261 9 -42252266.070 9 -32492000.043 9  21864468.378 9  21864467.764 9
  20104902.353 9 -50967709.776 9 -38662865.132 9  20104903.052 9  20104901.533 9
  20089395.569 9 -42718646.457 9 -32996672.284 9  20089396.654 9  20089394.215 9
 10  3 18  5  4 13.0000000  0  9G19G24G07G16G22G21G18G06G03
  22106948.950 8 -22839220.794 8 -17637586.235 9  22106947.232 9  22106947.480 9
  23146826.970 8 -52755010.010 8 -38700901.715 8  23146828.405 8  23146825.057 8
  24062903.017 7  -6136542.985 7  -4681600.291 7  24062903.332 7  24062902.293 7
  20674488.684 9 -50593202.719 9 -39301314.646 9  20674488.665 9  20674487.473 9
  21340220.029 9 -37804175.373 9 -27830769.309 9  21340219.008 9  21340218.918 9
  22395811.814 8 -57551021.826 8 -43629386.865 8  22395812.360 8  22395811.384 8
  21864106.676 9 -42254171.102 9 -32493484.483 9  21864105.867 9  21864105.240 9
  20104328.402 9 -50970726.551 9 -38665215.865 9  20104328.916 9  20104327.491 9
  20088692.069 9 -42722343.475 9 -32999553.077 9  20088693.150 9  20088690.705 9
 10  3 18  5  4 14.0000000  0  9G19G24G07G16G22G21G18G06G03
  22106076.512 8 -22843804.988 8 -17641158.333 9  22106074.910 9  22106075.175 9
  23147007.453 8 -52754062.031 8 -38700163.032 8  23147008.816 8  23147005.474 8
  24062363.399 7  -6139379.026 7  -4683810.193 7  24062363.660 7  24062362.619 7
  20674426.774 9 -50593528.065 9 -39301568.162 9  20674426.797 9  20674425.576 9
  21339456.124 9 -37808189.647 9 -27833897.313 9  21339455.084 9  21339455.041 9
  22395861.162 8 -57550762.008 8 -43629184.409 8  22395861.810 8  22395860.784 8
  21863744.171 9 -42256075.477 9 -32494968.411 9  21863743.480 9  21863742.841 9
  20103754.510 9 -50973742.999 9 -38667566.344 9  20103754.894 9  20103753.467 9
  20087988.606 9 -42726040.091 9 -33002433.556 9  20087989.737 9  20087987.279 9
 10  3 18  5  4 15.0000000  0  9G19G24G07G16G22G21G18G06G03
  22105204.262 8 -22848389.073 8 -17644730.346 9  22105202.611 9  22105202.885 9
  23147187.845 8 -52753114.000 8 -38699424.307 8  23147189.230 8  23147185.905 8
  24061823.786 7  -6142214.503 7  -4686019.656 7  24061824.105 7  24061823.095 7
  20674364.870 9 -50593852.929 9 -39301821.303 9  20674365.022 9  20674363.759 9
  21338692.361 9 -37812203.465 9 -27837024.963 9  21338691.274 9  21338691.238 9
  22395910.669 8 -57550502.065 8 -43628981.857 8  22395911.286 8  22395910.212 8
  21863381.956 9 -42257979.324 9 -32496451.928 9  21863381.153 9  21863380.558 9
  20103180.579 9 -50976759.190 9 -38669916.624 9  20103180.919 9  20103179.494 9
  20087285.248 9 -42729736.404 9 -33005313.801 9  20087286.374 9  20087283.916 9
 10  3 18  5  4 16.0000000  0  9G19G24G07G16G22G21G18G06G03
  22104332.043 8 -22852972.968 8 -17648302.211 9  22104330.310 9  22104330.619 9
  23147368.190 8 -52752165.849 8 -38698685.489 8  23147369.651 8  23147366.342 8
  24061284.698 7  -6145049.305 7  -4688228.592 7  24061284.668 7  24061283.665 7
  20674303.120 9 -50594177.239 9 -39302074.012 9  20674303.335 9  20674302.031 9
  21337928.783 9 -37816216.723 9 -27840152.177 9  21337927.594 9  21337927.530 9
  22395960.228 8 -57550241.891 8 -43628779.125 8  22395960.767 8  22395959.725 8
  21863019.898 9 -42259882.526 9 -32497934.942 9  21863018.941 9  21863018.400 9
  20102606.643 9 -50979775.037 9 -38672266.634 9  20102607.048 9  20102605.627 9
  20086581.881 9 -42733432.331 9 -33008193.743 9  20086583.045 9  20086580.636 9
 10  3 18  5  4 17.0000000  0  9G19G24G07G16G22G21G18G06G03
  22103459.608 8 -22857556.774 8 -17651874.007 9  22103458.008 9  22103458.367 9
  23147548.425 8 -52751217.657 8 -38697946.638 8  23147550.079 8  23147546.786 8
  24060745.196 7  -6147883.574 7  -4690437.113 7  24060745.317 7  24060744.284 7
  20674241.529 9 -50594501.066 9 -39302326.345 9  20674241.708 9  20674240.370 9
  21337165.128 9 -37820229.514 9 -27843279.026 9  21337164.006 9  21337163.931 9
  22396009.798 8 -57549981.596 8 -43628576.299 8  22396010.271 8  22396009.259 8
  21862657.883 9 -42261785.205 9 -32499417.549 9  21862656.881 9  21862656.349 9
  20102032.700 9 -50982790.656 9 -38674616.466 9  20102033.225 9  20102031.806 9
  20085878.705 9 -42737127.950 9 -33011073.446 9  20085879.775 9  20085877.409 9
 10  3 18  5  4 18.0000000  0  9G19G24G07G16G22G21G18G06G03
  22102587.495 8 -22862140.348 8 -17655445.624 9  22102585.777 9  22102586.141 9
  23147728.832 8 -52750269.314 8 -38697207.670 8  23147730.545 8  23147727.266 8
  24060205.951 7  -6150717.124 7  -4692645.072 7  24060206.104 7  24060205.053 7
  20674179.981 9 -50594824.296 9 -39302578.213 9  20674180.192 9  20674178.818 9
  21336401.566 9 -37824241.707 9 -27846405.410 9  21336400.536 9  21336400.464 9
  22396059.637 8 -57549721.050 8 -43628373.277 8  22396059.805 8  22396058.824 8
  21862295.978 9 -42263687.216 9 -32500899.635 9  21862294.955 9  21862294.427 9
  20101458.962 9 -50985805.913 9 -38676966.017 9  20101459.476 9  20101458.046 9
  20085175.524 9 -42740823.158 9 -33013952.829 9  20085176.598 9  20085174.254 9
 10  3 18  5  4 19.0000000  0  9G19G24G07G16G22G21G18G06G03
  22101715.431 8 -22866723.840 8 -17659017.174 9  22101713.578 9  22101713.927 9
  23147909.305 8 -52749320.936 8 -38696468.674 8  23147911.017 8  23147907.752 8
  24059667.066 7  -6153550.147 7  -4694852.621 7  24059667.000 7  24059665.941 7
  20674118.635 9 -50595147.064 9 -39302829.720 9  20674118.758 9  20674117.351 9
  21335638.076 9 -37828253.446 9 -27849531.440 9  21335637.127 9  21335637.099 9
  22396109.265 8 -57549460.391 8 -43628170.166 8  22396109.353 8  22396108.405 8
  21861934.140 9 -42265588.698 9 -32502381.308 9  21861933.122 9  21861932.571 9
  20100885.223 9 -50988820.909 9 -38679315.364 9  20100885.777 9  20100884.335 9
  20084472.506 9 -42744518.049 9 -33016831.964 9  20084473.487 9  20084471.158 9
 10  3 18  5  4 20.0000000  0  9G19G24G07G16G22G21G18G06G03
  22100843.250 8 -22871307.106 8 -17662588.550 9  22100841.390 9  22100841.737 9
  23148089.651 8 -52748372.387 8 -38695729.546 8  23148091.560 8  23148088.263 8
  24059127.939 7  -6156382.481 7  -4697059.635 7  24059128.027 7  24059126.958 7
  20674057.413 9 -50595469.239 9 -39303080.766 9  20674057.446 9  20674056.016 9
  21334874.733 9 -37832264.591 9 -27852657.008 9  21334873.808 9  21334873.862 9
  22396158.924 8 -57549199.476 8 -43627966.856 8  22396158.993 8  22396158.035 8
  21861572.484 9 -42267489.520 9 -32503862.469 9  21861571.410 9  21861570.835 9
  20100311.643 9 -50991835.560 9 -38681664.442 9  20100312.125 9  20100310.638 9
  20083769.509 9 -42748212.537 9 -33019710.785 9  20083770.476 9  20083768.133 9
 10  3 18  5  4 21.0000000  0  9G19G24G07G16G22G21G18G06G03
  22099970.914 8 -22875890.216 8 -17666159.804 9  22099969.224 9  22099969.577 9
  23148270.052 8 -52747423.766 8 -38694990.361 8  23148272.124 8  23148268.785 8
  24058588.732 7  -6159214.167 7  -4699266.142 7  24058589.160 7  24058588.082 7
  20673996.302 9 -50595790.883 9 -39303331.398 9  20673996.251 9  20673994.810 9
  21334111.368 9 -37836275.222 9 -27855782.175 9  21334110.587 9  21334110.716 9
  22396208.546 8 -57548938.388 8 -43627763.412 8  22396208.664 8  22396207.694 8
  21861210.935 9 -42269389.739 9 -32505343.159 9  21861209.777 9  21861209.224 9
  20099737.988 9 -50994849.900 9 -38684013.279 9  20099738.528 9  20099737.001 9
  20083066.584 9 -42751906.660 9 -33022589.322 9  20083067.535 9  20083065.172 9
 10  3 18  5  4 22.0000000  0  9G19G24G07G16G22G21G18G06G03
  22099098.652 8 -22880473.103 8 -17669730.885 9  22099097.140 9  22099097.452 9
  23148450.492 8 -52746474.963 8 -38694251.034 8  23148452.688 8  23148449.319 8
  24058050.074 7  -6162045.189 7  -4701472.132 7  24058050.433 7  24058049.337 7
  20673935.328 9 -50596111.916 9 -39303581.554 9  20673935.176 9  20673933.736 9
  21333348.242 9 -37840285.251 9 -27858906.872 9  21333347.474 9  21333347.679 9
  22396258.274 8 -57548677.030 8 -43627559.757 8  22396258.367 8  22396257.402 8
  21860849.453 9 -42271289.300 9 -32506823.336 9  21860848.264 9  21860847.740 9
  20099164.502 9 -50997863.850 9 -38686361.812 9  20099164.929 9  20099163.486 9
  20082363.720 9 -42755600.349 9 -33025467.520 9  20082364.714 9  20082362.299 9
 10  3 18  5  4 23.0000000  0  9G19G24G07G16G22G21G18G06G03
  22098226.587 8 -22885055.818 8 -17673301.831 9  22098225.101 9  22098225.353 9
  23148631.166 8 -52745526.049 8 -38693511.623 8  23148633.264 8  23148629.865 8
  24057511.177 7  -6164875.544 7  -4703677.604 7  24057511.874 7  24057510.731 7
  20673874.342 9 -50596432.412 9 -39303831.291 9  20673874.216 9  20673872.792 9
  21332585.247 9 -37844294.741 9 -27862031.149 9  21332584.465 9  21332584.704 9
  22396308.080 8 -57548415.482 8 -43627355.954 8  22396308.106 8  22396307.149 8
  21860487.935 9 -42273188.237 9 -32508303.027 9  21860486.908 9  21860486.357 9
  20098591.003 9 -51000877.477 9 -38688710.092 9  20098591.391 9  20098590.029 9
  20081660.853 9 -42759293.666 9 -33028345.429 9  20081661.949 9  20081659.497 9
 10  3 18  5  4 24.0000000  0  9G19G24G07G16G22G21G18G06G03
  22097354.793 8 -22889638.391 8 -17676872.667 9  22097353.055 9  22097353.285 9
  23148811.798 8 -52744577.103 8 -38692772.184 8  23148813.831 8  23148810.442 8
  24056972.415 7  -6167705.335 7  -4705882.636 7  24056973.414 7  24056972.249 7
  20673813.491 9 -50596752.392 9 -39304080.627 9  20673813.335 9  20673811.948 9
  21331822.472 9 -37848303.715 9 -27865155.024 9  21331821.551 9  21331821.794 9
  22396357.920 8 -57548153.749 8 -43627152.007 8  22396357.901 8  22396356.950 8
  21860126.532 9 -42275086.611 9 -32509782.280 9  21860125.664 9  21860125.074 9
  20098017.554 9 -51003890.846 9 -38691058.173 9  20098017.942 9  20098016.589 9
  20080958.117 9 -42762986.639 9 -33031223.070 9  20080959.183 9  20080956.772 9
 10  3 18  5  4 25.0000000  0  9G19G24G07G16G22G21G18G06G03
  22096482.901 8 -22894220.799 8 -17680443.374 9  22096481.029 9  22096481.257 9
  23148992.406 8 -52743628.008 8 -38692032.631 8  23148994.423 8  23148991.049 8
  24056434.172 7  -6170534.455 7  -4708087.145 7  24056435.063 7  24056433.918 7
  20673752.692 9 -50597071.825 9 -39304329.536 9  20673752.516 9  20673751.207 9
  21331059.812 9 -37852312.173 9 -27868278.497 9  21331058.730 9  21331058.987 9
  22396407.894 8 -57547891.851 8 -43626947.931 8  22396407.733 8  22396406.787 8
  21859765.474 9 -42276984.378 9 -32511261.059 9  21859764.535 9  21859763.906 9
  20097444.248 9 -51006903.868 9 -38693405.982 9  20097444.563 9  20097443.219 9
  20080255.523 9 -42766679.246 9 -33034100.425 9  20080256.480 9  20080254.117 9
 10  3 18  5  4 26.0000000  0  9G19G24G07G16G22G21G18G06G03
  22095610.908 8 -22898803.063 8 -17684013.968 9  22095609.040 9  22095609.262 9
  23149173.016 8 -52742678.829 8 -38691293.012 8  23149175.043 8  23149171.690 8
  24055895.922 7  -6173362.995 7  -4710291.203 7  24055896.804 7  24055895.711 7
  20673692.053 9 -50597390.741 9 -39304578.042 9  20673691.803 9  20673690.529 9
  21330297.208 9 -37856320.099 9 -27871401.556 9  21330296.000 9  21330296.284 9
  22396457.794 8 -57547629.754 8 -43626743.700 8  22396457.616 8  22396456.666 8
  21859404.261 9 -42278881.554 9 -32512739.378 9  21859403.519 9  21859402.851 9
  20096870.859 9 -51009916.631 9 -38695753.589 9  20096871.211 9  20096869.879 9
  20079552.912 9 -42770371.509 9 -33036977.513 9  20079553.815 9  20079551.541 9
 10  3 18  5  4 27.0000000  0  9G19G24G07G16G22G21G18G06G03
  22094738.568 8 -22903385.154 8 -17687584.427 9  22094737.101 9  22094737.312 9
  23149353.719 8 -52741729.556 8 -38690553.319 8  23149355.683 8  23149352.353 8
  24055357.631 7  -6176190.847 7  -4712494.724 7  24055358.643 7  24055357.658 7
  20673631.558 9 -50597709.100 9 -39304826.114 9  20673631.215 9  20673629.911 9
  21329534.710 9 -37860327.467 9 -27874524.180 9  21329533.401 9  21329533.698 9
  22396507.709 8 -57547367.466 8 -43626539.321 8  22396507.535 8  22396506.581 8
  21859043.489 9 -42280778.112 9 -32514217.215 9  21859042.665 9  21859041.910 9
  20096297.675 9 -51012929.071 9 -38698100.945 9  20096297.923 9  20096296.604 9
  20078850.365 9 -42774063.392 9 -33039854.304 9  20078851.233 9  20078849.032 9
 10  3 18  5  4 28.0000000  0  9G19G24G07G16G22G21G18G06G03
  22093866.483 8 -22907967.099 8 -17691154.773 9  22093865.189 9  22093865.386 9
  23149534.208 8 -52740780.193 8 -38689813.556 8  23149536.336 8  23149533.006 8
  24054819.673 7  -6179018.155 7  -4714697.820 7  24054820.591 7  24054819.681 7
  20673571.159 9 -50598026.951 9 -39305073.791 9  20673570.708 9  20673569.408 9
  21328772.241 9 -37864334.335 9 -27877646.415 9  21328770.915 9  21328771.214 9
  22396557.711 8 -57547105.010 8 -43626334.809 8  22396557.479 8  22396556.534 8
  21858682.609 9 -42282674.099 9 -32515694.608 9  21858681.928 9  21858681.079 9
  20095724.357 9 -51015941.216 9 -38700448.071 9  20095724.762 9  20095723.413 9
  20078147.753 9 -42777754.934 9 -33042730.830 9  20078148.739 9  20078146.555 9
 10  3 18  5  4 29.0000000  0  9G19G24G07G16G22G21G18G06G03
  22092994.961 8 -22912548.869 8 -17694724.983 9  22092993.311 9  22092993.493 9
  23149714.697 8 -52739830.719 8 -38689073.706 8  23149717.010 8  23149713.678 8
  24054281.630 7  -6181844.777 7  -4716900.382 7  24054282.698 7  24054281.802 7
  20673510.761 9 -50598344.251 9 -39305321.038 9  20673510.282 9  20673509.040 9
  21328009.699 9 -37868340.675 9 -27880768.238 9  21328008.552 9  21328008.853 9
  22396607.588 8 -57546842.367 8 -43626130.153 8  22396607.457 8  22396606.519 8
  21858321.999 9 -42284569.462 9 -32517171.514 9  21858321.231 9  21858320.411 9
  20095151.124 9 -51018953.039 9 -38702794.946 9  20095151.664 9  20095150.281 9
  20077445.282 9 -42781446.099 9 -33045607.062 9  20077446.319 9  20077444.156 9
 10  3 18  5  4 30.0000000  0  9G19G24G07G16G22G21G18G06G03
  22092123.121 8 -22917130.557 8 -17698295.129 9  22092121.442 9  22092121.583 9
  23149895.259 8 -52738881.225 8 -38688333.842 8  23149897.707 8  23149894.323 8
  24053743.849 7  -6184670.874 7  -4719102.534 7  24053744.902 7  24053744.007 7
  20673450.323 9 -50598661.096 9 -39305567.930 9  20673449.938 9  20673448.768 9
  21327247.397 9 -37872346.549 9 -27883889.697 9  21327246.292 9  21327246.594 9
  22396657.653 8 -57546579.595 8 -43625925.397 8  22396657.446 8  22396656.475 8
  21857961.340 9 -42286464.301 9 -32518648.013 9  21857960.620 9  21857959.845 9
  20094578.071 9 -51021964.657 9 -38705141.661 9  20094578.576 9  20094577.167 9
  20076742.978 9 -42785136.990 9 -33048483.080 9  20076743.939 9  20076741.819 9
 10  3 18  5  4 31.0000000  0  9G19G24G07G16G22G21G18G06G03
  22091251.053 8 -22921712.150 8 -17701865.201 9  22091249.586 9  22091249.679 9
  23150076.076 8 -52737931.666 8 -38687593.926 8  23150078.423 8  23150074.980 8
  24053206.222 7  -6187496.405 7  -4721304.246 7  24053207.225 7  24053206.307 7
  20673390.044 9 -50598977.446 9 -39305814.436 9  20673389.687 9  20673388.604 9
  21326485.175 9 -37876351.949 9 -27887010.787 9  21326484.106 9  21326484.417 9
  22396707.707 8 -57546316.668 8 -43625720.519 8  22396707.463 8  22396706.462 8
  21857600.704 9 -42288358.585 9 -32520124.078 9  21857600.140 9  21857599.396 9
  20094005.113 9 -51024975.988 9 -38707488.152 9  20094005.539 9  20094004.105 9
  20076040.629 9 -42788827.554 9 -33051358.843 9  20076041.621 9  20076039.544 9
 10  3 18  5  4 32.0000000  0  9G19G24G07G16G22G21G18G06G03
  22090379.187 8 -22926293.424 8 -17705435.024 9  22090377.813 9  22090377.878 9
  23150256.705 8 -52736981.885 8 -38686853.838 8  23150259.168 8  23150255.682 8
  24052668.702 7  -6190321.145 7  -4723505.342 7  24052669.705 7  24052668.749 7
  20673329.951 9 -50599293.129 9 -39306060.423 9  20673329.585 9  20673328.566 9
  21325723.133 9 -37880356.675 9 -27890131.353 9  21325722.028 9  21325722.354 9
  22396757.661 8 -57546053.427 8 -43625515.397 8  22396757.563 8  22396756.559 8
  21857240.362 9 -42290252.147 9 -32521599.581 9  21857239.808 9  21857239.088 9
  20093432.060 9 -51027986.900 9 -38709834.317 9  20093432.647 9  20093431.119 9
  20075338.481 9 -42792517.629 9 -33054234.226 9  20075339.411 9  20075337.372 9
 10  3 18  5  4 33.0000000  0  9G19G24G07G16G22G21G18G06G03
  22089507.545 8 -22930874.675 8 -17709004.829 9  22089506.047 9  22089506.092 9
  23150437.497 8 -52736032.142 8 -38686113.778 8  23150439.905 8  23150436.377 8
  24052131.429 7  -6193145.399 7  -4725706.058 7  24052132.285 7  24052131.271 7
  20673269.909 9 -50599608.406 9 -39306306.094 9  20673269.609 9  20673268.611 9
  21324961.117 9 -37884361.014 9 -27893251.618 9  21324960.011 9  21324960.375 9
  22396807.739 8 -57545790.146 8 -43625310.244 8  22396807.669 8  22396806.663 8
  21856880.208 9 -42292145.217 9 -32523074.701 9  21856879.568 9  21856878.840 9
  20092859.211 9 -51030997.627 9 -38712180.338 9  20092859.789 9  20092858.169 9
  20074636.472 9 -42796207.468 9 -33057109.425 9  20074637.253 9  20074635.250 9
 10  3 18  5  4 34.0000000  0  9G19G24G07G16G22G21G18G06G03
  22088635.634 8 -22935455.754 8 -17712574.500 9  22088634.316 9  22088634.343 9
  23150618.116 8 -52735082.291 8 -38685373.635 8  23150620.649 8  23150617.107 8
  24051594.396 7  -6195969.023 7  -4727906.285 7  24051594.968 7  24051593.922 7
  20673209.968 9 -50599923.137 9 -39306551.339 9  20673209.737 9  20673208.732 9
  21324199.369 9 -37888364.820 9 -27896371.466 9  21324198.071 9  21324198.494 9
  22396857.937 8 -57545526.660 8 -43625104.932 8  22396857.844 8  22396856.802 8
  21856520.080 9 -42294037.691 9 -32524549.357 9  21856519.441 9  21856518.700 9
  20092286.234 9 -51034008.025 9 -38714526.103 9  20092286.954 9  20092285.308 9
  20073934.465 9 -42799896.941 9 -33059984.338 9  20073935.203 9  20073933.206 9
 10  3 18  5  4 35.0000000  0  9G19G24G07G16G22G21G18G06G03
  22087763.728 8 -22940036.728 8 -17716144.090 9  22087762.601 9  22087762.612 9
  23150798.650 8 -52734132.379 8 -38684633.445 8  23150801.399 8  23150797.848 8
  24051057.108 7  -6198792.036 7  -4730106.036 7  24051057.738 7  24051056.713 7
  20673150.119 9 -50600237.380 9 -39306796.204 9  20673149.963 9  20673148.912 9
  21323437.684 9 -37892368.134 9 -27899490.932 9  21323436.263 9  21323436.721 9
  22396908.134 8 -57545263.021 8 -43624899.498 8  22396908.047 8  22396906.969 8
  21856160.065 9 -42295929.601 9 -32526023.573 9  21856159.433 9  21856158.642 9
  20091713.351 9 -51037018.158 9 -38716871.661 9  20091714.165 9  20091712.496 9
  20073232.412 9 -42803586.099 9 -33062859.006 9  20073233.207 9  20073231.208 9
 10  3 18  5  4 36.0000000  0  9G19G24G07G16G22G21G18G06G03
  22086892.130 8 -22944617.547 8 -17719713.558 9  22086890.925 9  22086890.914 9
  23150979.419 8 -52733182.381 8 -38683893.186 8  23150982.179 8  23150978.599 8
  24050519.886 7  -6201614.473 7  -4732305.337 7  24050520.624 7  24050519.624 7
  20673090.461 9 -50600551.109 9 -39307040.668 9  20673090.280 9  20673089.206 9
  21322675.839 9 -37896370.930 9 -27902609.994 9  21322674.586 9  21322675.051 9
  22396958.502 8 -57544999.218 8 -43624693.937 8  22396958.260 8  22396957.145 8
  21855800.169 9 -42297820.919 9 -32527497.327 9  21855799.537 9  21855798.694 9
  20091140.650 9 -51040028.002 9 -38719216.994 9  20091141.387 9  20091139.762 9
  20072530.472 9 -42807274.908 9 -33065733.403 9  20072531.270 9  20072529.240 9
 10  3 18  5  4 37.0000000  0  9G19G24G07G16G22G21G18G06G03
  22086020.314 8 -22949198.226 8 -17723282.916 9  22086019.275 9  22086019.243 9
  23151160.324 8 -52732232.313 8 -38683152.875 8  23151162.976 8  23151159.361 8
  24049982.926 7  -6204436.293 7  -4734504.159 7  24049983.636 7  24049982.672 7
  20673030.865 9 -50600864.309 9 -39307284.720 9  20673030.691 9  20673029.630 9
  21321914.375 9 -37900373.213 9 -27905728.656 9  21321912.995 9  21321913.481 9
  22397008.784 8 -57544735.255 8 -43624488.252 8  22397008.507 8  22397007.356 8
  21855440.586 9 -42299711.673 9 -32528970.642 9  21855439.775 9  21855438.897 9
  20090568.026 9 -51043037.539 9 -38721562.087 9  20090568.671 9  20090567.086 9
  20071828.631 9 -42810963.366 9 -33068607.525 9  20071829.389 9  20071827.347 9
 10  3 18  5  4 38.0000000  0  9G19G24G07G16G22G21G18G06G03
  22085148.808 8 -22953778.741 8 -17726852.148 9  22085147.661 9  22085147.559 9
  23151340.964 8 -52731282.134 8 -38682412.475 8  23151343.798 8  23151340.163 8
  24049446.200 7  -6207257.441 7  -4736702.456 7  24049446.785 7  24049445.816 7
  20672971.379 9 -50601176.967 9 -39307528.349 9  20672971.199 9  20672970.152 9
  21321152.880 9 -37904374.964 9 -27908846.903 9  21321151.489 9  21321152.013 9
  22397059.169 8 -57544471.078 8 -43624282.401 8  22397058.740 8  22397057.595 8
  21855080.977 9 -42301601.809 9 -32530443.475 9  21855080.134 9  21855079.221 9
  20089995.438 9 -51046046.760 9 -38723906.935 9  20089996.026 9  20089994.395 9
  20071126.778 9 -42814651.458 9 -33071481.363 9  20071127.511 9  20071125.533 9
 10  3 18  5  4 39.0000000  0  9G19G24G07G16G22G21G18G06G03
  22084277.135 8 -22958359.075 8 -17730421.239 9  22084276.079 9  22084275.890 9
  23151521.680 8 -52730331.858 8 -38681672.001 8  23151524.640 8  23151520.985 8
  24048909.538 7  -6210078.008 7  -4738900.301 7  24048910.064 7  24048909.031 7
  20672912.007 9 -50601489.078 9 -39307771.553 9  20672911.816 9  20672910.780 9
  21320391.485 9 -37908376.153 9 -27911964.713 9  21320390.073 9  21320390.635 9
  22397109.448 8 -57544206.705 8 -43624076.396 8  22397109.009 8  22397107.872 8
  21854721.497 9 -42303491.322 9 -32531915.823 9  21854720.612 9  21854719.668 9
  20089422.981 9 -51049055.680 9 -38726251.548 9  20089423.435 9  20089421.760 9
  20070425.011 9 -42818339.175 9 -33074354.908 9  20070425.717 9  20070423.787 9
 10  3 18  5  4 40.0000000  0  9G19G24G07G16G22G21G18G06G03
  22083405.641 8 -22962939.253 8 -17733990.207 9  22083404.546 9  22083404.259 9
  23151702.778 8 -52729381.469 8 -38680931.438 8  23151705.500 8  23151701.817 8
  24048373.151 7  -6212897.888 7  -4741097.610 7  24048373.481 7  24048372.397 7
  20672852.758 9 -50601800.654 9 -39308014.339 9  20672852.535 9  20672851.508 9
  21319630.173 9 -37912376.823 9 -27915082.118 9  21319628.751 9  21319629.352 9
  22397159.755 8 -57543942.141 8 -43623870.243 8  22397159.355 8  22397158.224 8
  21854362.029 9 -42305380.241 9 -32533387.707 9  21854361.203 9  21854360.226 9
  20088850.482 9 -51052064.288 9 -38728595.917 9  20088850.907 9  20088849.203 9
  20069723.390 9 -42822026.528 9 -33077228.170 9  20069724.060 9  20069722.104 9
 10  3 18  5  4 41.0000000  0  9G19G24G07G16G22G21G18G06G03
  22082534.288 8 -22967519.301 8 -17737559.075 9  22082533.048 9  22082532.660 9
  23151883.755 8 -52728431.029 8 -38680190.835 8  23151886.370 8  23151882.657 8
  24047836.718 7  -6215717.193 7  -4743294.470 7  24047837.024 7  24047835.907 7
  20672793.551 9 -50602111.724 9 -39308256.731 9  20672793.341 9  20672792.322 9
  21318869.033 9 -37916376.993 9 -27918199.134 9  21318867.521 9  21318868.120 9
  22397210.010 8 -57543677.433 8 -43623663.978 8  22397209.731 8  22397208.605 8
  21854002.758 9 -42307268.594 9 -32534859.151 9  21854001.874 9  21854000.862 9
  20088278.163 9 -51055072.633 9 -38730940.082 9  20088278.426 9  20088276.699 9
  20069021.764 9 -42825713.554 9 -33080101.177 9  20069022.467 9  20069020.483 9
 10  3 18  5  4 42.0000000  0  9G19G24G07G16G22G21G18G06G03
  22081662.739 8 -22972099.221 8 -17741127.844 9  22081661.546 9  22081661.105 9
  23152064.721 8 -52727480.508 8 -38679450.170 8  23152067.250 8  23152063.564 8
  24047300.258 7  -6218535.945 7  -4745490.903 7  24047300.635 7  24047299.510 7
  20672734.481 9 -50602422.282 9 -39308498.724 9  20672734.250 9  20672733.241 9
  21318108.072 9 -37920376.656 9 -27921315.755 9  21318106.392 9  21318106.958 9
  22397260.307 8 -57543412.552 8 -43623457.578 8  22397260.103 8  22397259.013 8
  21853643.412 9 -42309156.376 9 -32536330.150 9  21853642.648 9  21853641.602 9
  20087705.792 9 -51058080.689 9 -38733284.021 9  20087706.015 9  20087704.335 9
  20068320.152 9 -42829400.244 9 -33082973.922 9  20068320.940 9  20068318.918 9
 10  3 18  5  4 43.0000000  0  9G19G24G07G16G22G21G18G06G03
  22080791.217 8 -22976678.960 8 -17744696.471 9  22080790.053 9  22080789.588 9
  23152245.879 8 -52726529.874 8 -38678709.417 8  23152248.153 8  23152244.502 8
  24046764.128 7  -6221354.009 7  -4747686.799 7  24046764.302 7  24046763.224 7
  20672675.270 9 -50602732.292 9 -39308740.291 9  20672675.276 9  20672674.277 9
  21317347.232 9 -37924375.778 9 -27924431.954 9  21317345.382 9  21317345.924 9
  22397310.726 8 -57543147.484 8 -43623251.031 8  22397310.512 8  22397309.457 8
  21853284.262 9 -42311043.538 9 -32537800.666 9  21853283.514 9  21853282.493 9
  20087133.523 9 -51061088.424 9 -38735627.711 9  20087133.668 9  20087132.030 9
  20067618.548 9 -42833086.550 9 -33085846.368 9  20067619.476 9  20067617.412 9
 10  3 18  5  4 44.0000000  0  9G19G24G07G16G22G21G18G06G03
  22079919.728 8 -22981258.523 8 -17748264.962 9  22079918.564 9  22079918.117 9
  23152426.915 8 -52725579.120 8 -38677968.571 8  23152429.096 8  23152425.417 8
  24046227.866 7  -6224171.443 7  -4749882.202 7  24046228.118 7  24046227.059 7
  20672616.380 9 -50603041.759 9 -39308981.433 9  20672616.414 9  20672615.381 9
  21316586.263 9 -37928374.350 9 -27927547.724 9  21316584.483 9  21316585.004 9
  22397361.123 8 -57542882.207 8 -43623044.320 8  22397361.011 8  22397359.945 8
  21852925.060 9 -42312930.084 9 -32539270.702 9  21852924.492 9  21852923.503 9
  20086561.242 9 -51064095.831 9 -38737971.144 9  20086561.375 9  20086559.729 9
  20066917.127 9 -42836772.479 9 -33088718.520 9  20066918.024 9  20066915.925 9
 10  3 18  5  4 45.0000000  0  9G19G24G07G16G22G21G18G06G03
  22079048.375 8 -22985837.993 8 -17751833.379 9  22079047.070 9  22079046.667 9
  23152607.806 8 -52724628.360 8 -38677227.722 8  23152610.045 8  23152606.329 8
  24045691.826 7  -6226988.293 7  -4752077.150 7  24045692.105 7  24045691.011 7
  20672557.471 9 -50603350.763 9 -39309222.216 9  20672557.651 9  20672556.511 9
  21315825.494 9 -37932372.459 9 -27930663.134 9  21315823.697 9  21315824.178 9
  22397411.905 8 -57542616.810 8 -43622837.517 8  22397411.536 8  22397410.456 8
  21852566.267 9 -42314816.107 9 -32540740.330 9  21852565.636 9  21852564.630 9
  20085988.916 9 -51067103.008 9 -38740314.400 9  20085989.124 9  20085987.469 9
  20066215.829 9 -42840458.119 9 -33091590.447 9  20066216.620 9  20066214.501 9
 10  3 18  5  4 46.0000000  0  9G19G24G07G16G22G21G18G06G03
  22078176.861 8 -22990417.335 8 -17755401.697 9  22078175.636 9  22078175.236 9
  23152788.679 8 -52723677.531 8 -38676486.816 8  23152790.979 8  23152787.252 8
  24045155.781 7  -6229804.606 7  -4754271.681 7  24045156.183 7  24045155.074 7
  20672498.836 9 -50603659.263 9 -39309462.605 9  20672498.960 9  20672497.756 9
  21315064.884 9 -37936370.080 9 -27933778.163 9  21315063.031 9  21315063.453 9
  22397462.393 8 -57542351.260 8 -43622630.595 8  22397462.069 8  22397460.968 8
  21852207.532 9 -42316701.562 9 -32542209.515 9  21852206.902 9  21852205.867 9
  20085416.592 9 -51070109.896 9 -38742657.430 9  20085416.922 9  20085415.260 9
  20065514.554 9 -42844143.419 9 -33094462.109 9  20065515.266 9  20065513.177 9
 10  3 18  5  4 47.0000000  0  9G19G24G07G16G22G21G18G06G03
  22077305.372 8 -22994996.471 8 -17758969.853 9  22077304.257 9  22077303.841 9
  23152969.344 8 -52722726.547 8 -38675745.792 8  23152971.935 8  23152968.201 8
  24044619.633 7  -6232620.203 7  -4756465.653 7  24044620.379 7  24044619.293 7
  20672440.212 9 -50603967.192 9 -39309702.550 9  20672440.329 9  20672439.133 9
  21314304.386 9 -37940367.135 9 -27936892.752 9  21314302.462 9  21314302.853 9
  22397512.820 8 -57542085.483 8 -43622423.496 8  22397512.641 8  22397511.523 8
  21851848.690 9 -42318586.372 9 -32543678.199 9  21851848.241 9  21851847.205 9
  20084844.382 9 -51073116.469 9 -38745000.213 9  20084844.779 9  20084843.112 9
  20064813.368 9 -42847828.324 9 -33097333.462 9  20064813.997 9  20064811.935 9
 10  3 18  5  4 48.0000000  0  9G19G24G07G16G22G21G18G06G03
  22076433.886 8 -22999575.488 8 -17762537.917 9  22076432.892 9  22076432.505 9
  23153150.386 8 -52721775.513 8 -38675004.726 8  23153152.942 8  23153149.211 8
  24044083.819 7  -6235435.239 7  -4758659.188 7  24044084.674 7  24044083.618 7
  20672381.789 9 -50604274.619 9 -39309942.104 9  20672381.807 9  20672380.628 9
  21313543.893 9 -37944363.685 9 -27940006.946 9  21313541.990 9  21313542.369 9
  22397563.352 8 -57541819.536 8 -43622216.265 8  22397563.251 8  22397562.151 8
  21851490.295 9 -42320470.609 9 -32545146.436 9  21851489.682 9  21851488.648 9
  20084272.193 9 -51076122.727 9 -38747342.752 9  20084272.729 9  20084271.047 9
  20064112.369 9 -42851512.891 9 -33100204.553 9  20064112.842 9  20064110.776 9
 10  3 18  5  4 49.0000000  0  9G19G24G07G16G22G21G18G06G03
  22075562.482 8 -23004154.318 8 -17766105.836 9  22075561.557 9  22075561.217 9
  23153331.355 8 -52720824.359 8 -38674263.567 8  23153333.978 8  23153330.251 8
  24043548.312 7  -6238249.593 7  -4760852.193 7  24043549.076 7  24043548.069 7
  20672323.378 9 -50604581.501 9 -39310181.232 9  20672323.410 9  20672322.259 9
  21312783.391 9 -37948359.687 9 -27943120.714 9  21312781.596 9  21312781.994 9
  22397613.972 8 -57541553.413 8 -43622008.897 8  22397613.897 8  22397612.813 8
  21851131.801 9 -42322354.243 9 -32546614.202 9  21851131.210 9  21851130.227 9
  20083700.078 9 -51079128.665 9 -38749685.041 9  20083700.737 9  20083699.037 9
  20063411.203 9 -42855197.067 9 -33103075.339 9  20063411.757 9  20063409.699 9
 10  3 18  5  4 50.0000000  0  9G19G24G07G16G22G21G18G06G03
  22074691.205 8 -23008733.023 8 -17769673.657 9  22074690.260 9  22074689.919 9
  23153512.460 8 -52719873.134 8 -38673522.355 8  23153514.986 8  23153511.296 8
  24043013.156 7  -6241063.371 7  -4763044.747 7  24043013.593 7  24043012.622 7
  20672265.036 9 -50604887.872 9 -39310419.963 9  20672265.118 9  20672263.954 9
  21312023.126 9 -37952355.176 9 -27946234.083 9  21312021.274 9  21312021.721 9
  22397664.461 8 -57541287.102 8 -43621801.381 8  22397664.596 8  22397663.490 8
  21850773.413 9 -42324237.295 9 -32548081.515 9  21850772.846 9  21850771.921 9
  20083128.089 9 -51082134.327 9 -38752027.115 9  20083128.842 9  20083127.050 9
  20062710.161 9 -42858880.919 9 -33105945.872 9  20062710.704 9  20062708.705 9
 10  3 18  5  4 51.0000000  0  9G19G24G07G16G22G21G18G06G03
  22073819.962 8 -23013311.584 8 -17773241.366 9  22073818.995 9  22073818.632 9
  23153693.622 8 -52718921.840 8 -38672781.088 8  23153695.998 8  23153692.351 8
  24042478.156 7  -6243876.538 7  -4765236.825 7  24042478.248 7  24042477.285 7
  20672206.855 9 -50605193.738 9 -39310658.300 9  20672206.945 9  20672205.701 9
  21311262.919 9 -37956350.169 9 -27949347.063 9  21311261.031 9  21311261.519 9
  22397715.096 8 -57541020.632 8 -43621593.741 8  22397715.327 8  22397714.199 8
  21850415.186 9 -42326119.766 9 -32549548.376 9  21850414.651 9  21850413.697 9
  20082556.096 9 -51085139.677 9 -38754368.946 9  20082557.005 9  20082555.122 9
  20062009.177 9 -42862564.429 9 -33108816.139 9  20062009.718 9  20062007.777 9
 10  3 18  5  4 52.0000000  0  9G19G24G07G16G22G21G18G06G03
  22072948.540 8 -23017889.963 8 -17776808.933 9  22072947.787 9  22072947.396 9
  23153874.570 8 -52717970.410 8 -38672039.714 8  23153877.074 8  23153873.422 8
  24041942.711 7  -6246689.073 7  -4767428.412 7  24041943.043 7  24041942.099 7
  20672148.694 9 -50605499.039 9 -39310896.197 9  20672148.884 9  20672147.565 9
  21310502.767 9 -37960344.606 9 -27952459.611 9  21310500.887 9  21310501.412 9
  22397765.742 8 -57540753.973 8 -43621385.955 8  22397766.102 8  22397764.916 8
  21850057.066 9 -42328001.616 9 -32551014.752 9  21850056.578 9  21850055.585 9
  20081984.224 9 -51088144.712 9 -38756710.531 9  20081985.189 9  20081983.278 9
  20061308.283 9 -42866247.550 9 -33111686.103 9  20061308.835 9  20061306.936 9
 10  3 18  5  4 53.0000000  0  9G19G24G07G16G22G21G18G06G03
  22072077.547 8 -23022468.184 8 -17780376.377 9  22072076.618 9  22072076.196 9
  23154055.542 8 -52717018.914 8 -38671298.289 8  23154058.168 8  23154054.503 8
  24041407.600 7  -6249500.972 7  -4769619.503 7  24041407.980 7  24041407.071 7
  20672090.761 9 -50605803.807 9 -39311133.678 9  20672090.940 9  20672089.552 9
  21309742.638 9 -37964338.514 9 -27955571.747 9  21309740.846 9  21309741.409 9
  22397816.476 8 -57540487.118 8 -43621178.016 8  22397816.910 8  22397815.667 8
  21849699.185 9 -42329882.868 9 -32552480.663 9  21849698.596 9  21849697.645 9
  20081412.460 9 -51091149.452 9 -38759051.888 9  20081413.429 9  20081411.494 9
  20060607.458 9 -42869930.317 9 -33114555.792 9  20060608.022 9  20060606.158 9
 10  3 18  5  4 54.0000000  0  9G19G24G07G16G22G21G18G06G03
  22071206.299 8 -23027046.266 8 -17783943.713 9  22071205.477 9  22071205.024 9
  23154236.853 8 -52716067.326 8 -38670556.793 8  23154239.269 8  23154235.583 8
  24040872.655 7  -6252312.248 7  -4771810.109 7  24040873.043 7  24040872.142 7
  20672032.880 9 -50606108.067 9 -39311370.764 9  20672033.067 9  20672031.625 9
  21308982.675 9 -37968331.903 9 -27958683.479 9  21308980.908 9  21308981.509 9
  22397867.279 8 -57540220.112 8 -43620969.960 8  22397867.706 8  22397866.473 8
  21849341.280 9 -42331763.530 9 -32553946.115 9  21849340.728 9  21849339.828 9
  20080840.734 9 -51094153.898 9 -38761393.014 9  20080841.756 9  20080839.797 9
  20059906.732 9 -42873612.734 9 -33117425.206 9  20059907.273 9  20059905.429 9
 10  3 18  5  4 55.0000000  0  9G19G24G07G16G22G21G18G06G03
  22070335.122 8 -23031624.173 8 -17787510.912 9  22070334.364 9  22070333.885 9
  23154418.029 8 -52715115.629 8 -38669815.212 8  23154420.389 8  23154416.681 8
  24040337.631 7  -6255122.900 7  -4774000.228 7  24040338.227 7  24040337.292 7
  20671975.081 9 -50606411.766 9 -39311607.412 9  20671975.249 9  20671973.788 9
  21308222.733 9 -37972324.748 9 -27961794.786 9  21308221.109 9  21308221.695 9
  22397918.263 8 -57539952.879 8 -43620761.726 8  22397918.543 8  22397917.320 8
  21848983.537 9 -42333643.584 9 -32555411.091 9  21848982.942 9  21848982.121 9
  20080269.150 9 -51097157.997 9 -38763733.870 9  20080270.156 9  20080268.170 9
  20059206.028 9 -42877294.779 9 -33120294.332 9  20059206.603 9  20059204.765 9
 10  3 18  5  4 56.0000000  0  9G19G24G07G16G22G21G18G06G03
  22069463.910 8 -23036201.985 8 -17791078.037 9  22069463.252 9  22069462.759 9
  23154599.125 8 -52714163.882 8 -38669073.591 8  23154601.506 8  23154597.819 8
  24039802.734 7  -6257933.005 7  -4776189.922 7  24039803.499 7  24039802.546 7
  20671917.324 9 -50606715.004 9 -39311843.701 9  20671917.521 9  20671916.064 9
  21307462.875 9 -37976317.130 9 -27964905.733 9  21307461.438 9  21307461.964 9
  22397969.246 8 -57539685.535 8 -43620553.406 8  22397969.406 8  22397968.192 8
  21848625.908 9 -42335523.100 9 -32556875.649 9  21848625.253 9  21848624.518 9
  20079697.749 9 -51100161.881 9 -38766074.559 9  20079698.544 9  20079696.547 9
  20058505.466 9 -42880976.527 9 -33123163.227 9  20058506.014 9  20058504.133 9
 10  3 18  5  4 57.0000000  0  9G19G24G07G16G22G21G18G06G03
  22068593.051 8 -23040779.605 8 -17794645.012 9  22068592.165 9  22068591.668 9
  23154780.418 8 -52713212.034 8 -38668331.891 8  23154782.641 8  23154778.983 8
  24039268.239 7  -6260742.448 7  -4778379.099 7  24039268.864 7  24039267.922 7
  20671859.764 9 -50607017.688 9 -39312079.560 9  20671859.896 9  20671858.477 9
  21306703.281 9 -37980308.958 9 -27968016.249 9  21306701.853 9  21306702.329 9
  22398020.181 8 -57539417.983 8 -43620344.923 8  22398020.308 8  22398019.103 8
  21848268.422 9 -42337401.990 9 -32558339.719 9  21848267.715 9  21848266.993 9
  20079126.166 9 -51103165.440 9 -38768414.994 9  20079126.997 9  20079124.990 9
  20057805.071 9 -42884657.892 9 -33126031.822 9  20057805.491 9  20057803.567 9
 10  3 18  5  4 58.0000000  0  9G19G24G07G16G22G21G18G06G03
  22067722.134 8 -23045357.081 8 -17798211.876 9  22067721.116 9  22067720.592 9
  23154961.533 8 -52712260.108 8 -38667590.131 8  23154963.786 8  23154960.155 8
  24038733.924 7  -6263551.267 7  -4780567.791 8  24038734.336 8  24038733.420 7
  20671802.269 9 -50607319.840 9 -39312315.003 9  20671802.400 9  20671800.994 9
  21305943.785 9 -37984300.263 9 -27971126.356 9  21305942.354 9  21305942.792 9
  22398071.201 8 -57539150.256 8 -43620136.303 8  22398071.286 8  22398070.026 8
  21847911.019 9 -42339280.289 9 -32559803.329 9  21847910.292 9  21847909.571 9
  20078554.670 9 -51106168.685 9 -38770755.185 9  20078555.483 9  20078553.488 9
  20057104.529 9 -42888338.905 9 -33128900.143 9  20057105.016 9  20057103.050 9
 10  3 18  5  4 59.0000000  0  9G19G24G07G16G22G21G18G06G03
  22066851.137 8 -23049934.359 8 -17801778.584 9  22066850.112 9  22066849.551 9
  23155142.691 8 -52711308.049 8 -38666848.267 8  23155144.960 8  23155141.356 8
  24038199.525 7  -6266359.425 7  -4782755.966 7  24038199.909 7  24038199.044 7
  20671744.896 9 -50607621.439 9 -39312550.016 9  20671745.052 9  20671743.616 9
  21305184.502 9 -37988291.010 9 -27974236.029 9  21305182.966 9  21305183.374 9
  22398122.020 8 -57538882.313 8 -43619927.516 8  22398122.305 8  22398120.989 8
  21847553.565 9 -42341157.954 9 -32561266.445 9  21847553.032 9  21847552.272 9
  20077983.269 9 -51109171.592 9 -38773095.113 9  20077984.034 9  20077982.049 9
  20056404.171 9 -42892019.517 9 -33131768.153 9  20056404.612 9  20056402.619 9
 10  3 18  5  5  0.0000000  0  9G19G24G07G16G22G21G18G06G03
  22065980.127 8 -23054511.508 8 -17805345.193 9  22065979.142 9  22065978.593 9
  23155323.956 8 -52710355.896 8 -38666106.330 8  23155326.178 8  23155322.553 8
  24037665.642 7  -6269166.983 7  -4784943.674 7  24037665.615 7  24037664.781 7
  20671687.680 9 -50607922.511 9 -39312784.618 9  20671687.774 9  20671686.329 9
  21304425.114 9 -37992281.237 9 -27977345.296 9  21304423.674 9  21304424.060 9
  22398173.005 8 -57538614.196 8 -43619718.593 8  22398173.340 8  22398171.999 8
  21847196.397 9 -42343035.035 9 -32562729.105 9  21847195.886 9  21847195.081 9
  20077411.851 9 -51112174.206 9 -38775434.811 9  20077412.652 9  20077410.655 9
  20055703.958 9 -42895699.779 9 -33134635.889 9  20055704.247 9  20055702.277 9
 10  3 18  5  5  1.0000000  0  9G19G24G07G16G22G21G18G06G03
  22065109.220 8 -23059088.483 8 -17808911.666 9  22065108.209 9  22065107.687 9
  23155505.110 8 -52709403.643 8 -38665364.315 8  23155507.418 8  23155503.766 8
  24037131.413 7  -6271973.937 7  -4787130.910 7  24037131.470 7  24037130.631 7
  20671630.560 9 -50608223.053 9 -39313018.806 9  20671630.543 9  20671629.136 9
  21303666.082 9 -37996270.940 9 -27980454.155 9  21303664.495 9  21303664.845 9
  22398224.129 8 -57538345.896 8 -43619509.529 8  22398224.408 8  22398223.040 8
  21846839.364 9 -42344911.526 9 -32564191.305 9  21846838.818 9  21846837.997 9
  20076840.476 9 -51115176.535 9 -38777774.288 9  20076841.322 9  20076839.314 9
  20055003.670 9 -42899379.684 9 -33137503.347 9  20055003.964 9  20055002.012 9
 10  3 18  5  5  2.0000000  0  9G19G24G07G16G22G21G18G06G03
  22064238.274 8 -23063665.308 8 -17812478.022 9  22064237.283 9  22064236.755 9
  23155686.238 8 -52708451.322 8 -38664622.247 8  23155688.626 8  23155684.968 8
  24036597.430 7  -6274780.227 7  -4789317.630 7  24036597.480 7  24036596.617 7
  20671573.546 9 -50608523.076 9 -39313252.591 9  20671573.425 9  20671572.037 9
  21302907.139 9 -38000260.118 9 -27983562.605 9  21302905.414 9  21302905.717 9
  22398275.167 8 -57538077.413 8 -43619300.321 8  22398275.481 8  22398274.110 8
  21846482.422 9 -42346787.438 9 -32565653.055 9  21846481.857 9  21846481.025 9
  20076269.211 9 -51118178.560 9 -38780113.529 9  20076270.031 9  20076268.068 9
  20054303.462 9 -42903059.236 9 -33140370.530 9  20054303.808 9  20054301.831 9
 10  3 18  5  5  3.0000000  0  9G19G24G07G16G22G21G18G06G03
  22063367.379 8 -23068242.019 8 -17816044.290 9  22063366.369 9  22063365.824 9
  23155867.328 8 -52707498.962 8 -38663880.147 8  23155869.829 8  23155866.173 8
  24036063.624 7  -6277585.970 7  -4791503.923 8  24036063.641 8  24036062.718 7
  20671516.595 9 -50608822.619 9 -39313486.001 9  20671516.422 9  20671515.026 9
  21302148.122 9 -38004248.823 9 -27986670.686 9  21302146.419 9  21302146.672 9
  22398326.301 8 -57537808.802 8 -43619091.013 8  22398326.578 8  22398325.206 8
  21846125.499 9 -42348662.800 9 -32567114.376 9  21846124.978 9  21846124.163 9
  20075698.018 9 -51121180.329 9 -38782452.569 9  20075698.787 9  20075696.868 9
  20053603.303 9 -42906738.475 9 -33143237.470 9  20053603.715 9  20053601.716 9
 10  3 18  5  5  4.0000000  0  9G19G24G07G16G22G21G18G06G03
  22062496.394 8 -23072818.619 8 -17819610.471 9  22062495.483 9  22062494.920 9
  23156048.474 8 -52706546.535 8 -38663137.996 8  23156051.048 8  23156047.447 8
  24035529.926 7  -6280391.117 7  -4793689.752 8  24035529.893 8  24035528.928 7
  20671459.632 9 -50609121.668 9 -39313719.026 9  20671459.498 9  20671458.123 9
  21301389.166 9 -38008237.037 9 -27989778.384 9  21301387.517 9  21301387.717 9
  22398377.579 8 -57537540.053 8 -43618881.597 8  22398377.725 8  22398376.338 8
  21845768.599 9 -42350537.598 9 -32568575.256 9  21845768.202 9  21845767.407 9
  20075126.869 9 -51124181.820 9 -38784791.393 9  20075127.697 9  20075125.730 9
  20052903.232 9 -42910417.393 9 -33146104.158 9  20052903.701 9  20052901.684 9
 10  3 18  5  5  5.0000000  0  9G19G24G07G16G22G21G18G06G03
  22061625.648 8 -23077395.127 8 -17823176.581 9  22061624.620 9  22061624.038 9
  23156229.708 8 -52705594.085 8 -38662395.828 8  23156232.271 8  23156228.731 8
  24034996.267 7  -6283195.732 7  -4795875.165 8  24034996.198 8  24034995.234 7
  20671402.739 9 -50609420.256 9 -39313951.691 9  20671402.631 9  20671401.324 9
  21300630.194 9 -38012224.791 9 -27992885.725 9  21300628.700 9  21300628.856 9
  22398428.879 8 -57537271.185 8 -43618672.090 8  22398428.892 8  22398427.487 8
  21845411.827 9 -42352411.881 9 -32570035.737 9  21845411.528 9  21845410.761 9
  20074555.782 9 -51127183.072 9 -38787130.031 9  20074556.652 9  20074554.640 9
  20052203.083 9 -42914096.035 9 -33148970.632 9  20052203.725 9  20052201.692 9
 10  3 18  5  5  6.0000000  0  9G19G24G07G16G22G21G18G06G03
  22060754.937 8 -23081971.473 8 -17826742.565 9  22060753.770 9  22060753.185 9
  23156410.833 8 -52704641.557 8 -38661653.598 8  23156413.485 8  23156410.006 8
  24034462.525 7  -6285999.727 7  -4798060.096 8  24034462.629 8  24034461.639 7
  20671346.008 9 -50609718.326 9 -39314183.954 9  20671345.885 9  20671344.627 9
  21299871.362 9 -38016212.012 9 -27995992.650 9  21299869.981 9  21299870.101 9
  22398480.020 8 -57537002.149 8 -43618462.451 8  22398480.075 8  22398478.657 8
  21845055.196 8 -42354285.557 8 -32571495.744 9  21845054.971 9  21845054.233 9
  20073984.787 9 -51130184.043 9 -38789468.450 9  20073985.598 9  20073983.608 9
  20051503.025 9 -42917774.315 9 -33151836.824 9  20051503.753 9  20051501.720 9
 10  3 18  5  5  7.0000000  0  9G19G24G07G16G22G21G18G06G03
  22059884.027 8 -23086547.628 8 -17830308.400 9  22059882.954 9  22059882.371 9
  23156591.894 8 -52703688.868 8 -38660911.243 8  23156594.718 8  23156591.299 8
  24033928.972 7  -6288803.021 7  -4800244.479 8  24033929.218 8  24033928.162 8
  20671289.328 9 -50610015.792 9 -39314415.745 9  20671289.287 9  20671288.039 9
  21299112.649 9 -38020198.655 9 -27999099.124 9  21299111.391 9  21299111.453 9
  22398531.480 8 -57536732.853 8 -43618252.610 8  22398531.311 8  22398529.880 8
  21844698.784 9 -42356158.589 9 -32572955.249 9  21844698.546 9  21844697.800 9
  20073413.961 9 -51133184.649 9 -38791806.584 9  20073414.612 9  20073412.643 9
  20050802.994 9 -42921452.177 9 -33154702.690 9  20050803.865 9  20050801.839 9
 10  3 18  5  5  8.0000000  0  9G19G24G07G16G22G21G18G06G03
  22059013.171 8 -23091123.648 8 -17833874.130 9  22059012.162 9  22059011.581 9
  23156773.196 8 -52702736.116 8 -38660168.838 8  23156775.992 8  23156772.603 8
  24033395.904 7  -6291605.724 7  -4802428.402 8  24033395.912 8  24033394.820 8
  20671232.917 9 -50610312.752 9 -39314647.142 9  20671232.782 9  20671231.556 9
  21298354.115 9 -38024184.779 9 -28002205.194 9  21298352.929 9  21298352.912 9
  22398582.798 8 -57536463.412 8 -43618042.657 8  22398582.544 8  22398581.128 8
  21844342.451 9 -42358031.026 9 -32574414.291 9  21844342.238 9  21844341.480 9
  20072843.015 9 -51136184.960 9 -38794144.488 9  20072843.636 9  20072841.741 9
  20050103.078 9 -42925129.701 9 -33157568.293 9  20050104.030 9  20050102.026 9
 10  3 18  5  5  9.0000000  0  9G19G24G07G16G22G21G18G06G03
  22058142.467 8 -23095699.465 8 -17837439.700 9  22058141.406 9  22058140.828 9
  23156954.653 8 -52701783.227 8 -38659426.328 8  23156957.295 8  23156953.930 8
  24032862.611 7  -6294407.783 7  -4804611.824 8  24032862.707 8  24032861.632 8
  20671176.579 9 -50610609.166 9 -39314878.114 9  20671176.368 9  20671175.181 9
  21297595.760 9 -38028170.354 9 -28005310.836 9  21297594.539 9  21297594.491 9
  22398634.222 8 -57536193.756 8 -43617832.535 8  22398633.820 8  22398632.421 8
  21843986.174 8 -42359902.843 8 -32575872.849 9  21843986.020 9  21843985.258 9
  20072272.193 9 -51139184.942 9 -38796482.136 9  20072272.722 9  20072270.899 9
  20049403.372 9 -42928806.845 9 -33160433.599 9  20049404.277 9  20049402.292 9
 10  3 18  5  5 10.0000000  0  9G19G24G07G16G22G21G18G06G03
  22057271.897 8 -23100275.160 8 -17841005.175 9  22057270.677 9  22057270.116 9
  23157136.113 8 -52700830.298 8 -38658683.786 8  23157138.649 8  23157135.286 8
  24032329.346 7  -6297209.238 7  -4806794.776 8  24032329.625 8  24032328.559 8
  20671120.379 9 -50610905.061 9 -39315108.682 9  20671120.063 9  20671118.910 9
  21296837.476 9 -38032155.417 9 -28008416.080 9  21296836.220 9  21296836.180 9
  22398685.527 8 -57535923.951 8 -43617622.298 8  22398685.142 8  22398683.756 8
  21843630.238 8 -42361774.086 8 -32577330.961 9  21843629.913 9  21843629.149 9
  20071701.301 9 -51142184.652 9 -38798819.572 9  20071701.903 9  20071700.060 9
  20048703.817 9 -42932483.650 9 -33163298.642 9  20048704.624 9  20048702.639 9
 10  3 18  5  5 11.0000000  0  9G19G24G07G16G22G21G18G06G03
  22056400.863 8 -23104850.687 8 -17844570.521 9  22056399.980 9  22056399.440 9
  23157317.562 8 -52699877.244 8 -38657941.147 8  23157320.036 8  23157316.667 8
  24031796.163 7  -6300010.066 7  -4808977.239 8  24031796.673 8  24031795.604 8
  20671064.275 9 -50611200.420 9 -39315338.832 9  20671063.862 9  20671062.739 9
  21296079.268 9 -38036139.941 9 -28011520.903 9  21296078.009 9  21296077.948 9
  22398736.945 8 -57535653.935 8 -43617411.896 8  22398736.503 8  22398735.129 8
  21843274.158 9 -42363644.719 9 -32578788.596 9  21843273.933 9  21843273.162 9
  20071130.512 9 -51145184.031 9 -38801156.751 9  20071131.151 9  20071129.288 9
  20048004.320 9 -42936160.073 9 -33166163.388 9  20048005.043 9  20048003.043 9
 10  3 18  5  5 12.0000000  0  9G19G24G07G16G22G21G18G06G03
  22055530.176 8 -23109425.965 8 -17848135.672 9  22055529.326 9  22055528.784 9
  23157499.158 8 -52698924.027 8 -38657198.381 8  23157501.438 8  23157498.043 8
  24031263.151 7  -6302810.181 7  -4811159.146 8  24031263.865 8  24031262.795 8
  20671008.260 9 -50611495.165 9 -39315568.504 9  20671007.779 9  20671006.661 9
  21295320.956 9 -38040123.869 9 -28014625.261 9  21295319.926 9  21295319.815 9
  22398788.329 8 -57535383.680 8 -43617201.308 8  22398787.927 8  22398786.548 8
  21842918.200 8 -42365514.690 8 -32580245.716 9  21842918.080 9  21842917.304 9
  20070559.842 9 -51148183.044 9 -38803493.644 9  20070560.464 9  20070558.566 9
  20047304.831 9 -42939836.071 9 -33169027.801 9  20047305.548 9  20047303.480 9
 10  3 18  5  5 13.0000000  0  9G19G24G07G16G22G21G18G06G03
  22054659.501 8 -23114001.105 8 -17851700.716 9  22054658.694 9  22054658.141 9
  23157680.525 8 -52697970.714 8 -38656455.539 8  23157682.855 8  23157679.434 8
  24030730.404 7  -6305609.702 7  -4813340.591 8  24030731.187 8  24030730.112 8
  20670952.341 9 -50611789.391 9 -39315797.771 9  20670951.785 9  20670950.639 9
  21294562.872 9 -38044107.265 9 -28017729.206 9  21294561.958 9  21294561.749 9
  22398839.783 8 -57535113.227 8 -43616990.566 8  22398839.392 8  22398838.008 8
  21842562.403 8 -42367384.071 8 -32581702.376 9  21842562.353 9  21842561.594 9
  20069989.260 9 -51151181.744 9 -38805830.294 9  20069989.835 9  20069987.901 9
  20046605.271 9 -42943511.706 9 -33171891.932 9  20046606.125 9  20046603.995 9
 10  3 18  5  5 14.0000000  0  9G19G24G07G16G22G21G18G06G03
  22053788.839 8 -23118576.092 8 -17855265.640 9  22053788.098 9  22053787.535 9
  23157862.057 8 -52697017.340 8 -38655712.649 8  23157864.268 8  23157860.880 8
  24030197.801 7  -6308408.582 7  -4815521.536 8  24030198.605 8  24030197.525 8
  20670896.524 9 -50612083.109 9 -39316026.642 9  20670895.891 9  20670894.725 9
  21293804.736 9 -38048090.138 9 -28020832.742 9  21293804.101 9  21293803.754 9
  22398891.331 8 -57534842.630 8 -43616779.711 8  22398890.872 8  22398889.484 8
  21842206.798 8 -42369252.860 8 -32583158.575 9  21842206.743 9  21842206.004 9
  20069418.654 9 -51154180.170 9 -38808166.729 9  20069419.249 9  20069417.294 9
  20045905.919 9 -42947186.997 9 -33174755.795 9  20045906.755 9  20045904.586 9
 10  3 18  5  5 15.0000000  0  9G19G24G07G16G22G21G18G06G03
  22052918.107 8 -23123150.978 8 -17858830.485 9  22052917.516 9  22052916.944 9
  23158043.436 8 -52696063.900 8 -38654969.709 8  23158045.689 8  23158042.344 8
  24029665.232 7  -6311206.910 7  -4817702.051 8  24029666.077 8  24029665.001 8
  20670840.832 9 -50612376.344 9 -39316255.137 9  20670840.093 9  20670838.917 9
  21293046.881 9 -38052072.544 9 -28023935.915 9  21293046.317 9  21293045.849 9
  22398942.830 8 -57534571.888 8 -43616568.743 8  22398942.384 8  22398940.990 8
  21841851.283 8 -42371121.121 8 -32584614.361 9  21841851.221 9  21841850.461 9
  20068848.058 9 -51157178.336 9 -38810502.962 9  20068848.708 9  20068846.736 9
  20045206.624 9 -42950861.982 9 -33177619.420 9  20045207.448 9  20045205.240 9
 10  3 18  5  5 16.0000000  0  9G19G24G07G16G22G21G18G06G03
  22052047.600 8 -23127725.674 8 -17862395.183 9  22052046.961 9  22052046.379 9
  23158224.942 8 -52695110.348 8 -38654226.681 8  23158227.118 8  23158223.772 8
  24029132.732 7  -6314004.583 7  -4819882.056 8  24029133.686 8  24029132.618 8
  20670785.283 9 -50612669.009 9 -39316483.188 9  20670784.397 9  20670783.245 9
  21292289.369 9 -38056054.378 9 -28027038.643 9  21292288.615 9  21292288.047 9
  22398994.498 8 -57534300.927 8 -43616357.605 8  22398993.924 8  22398992.513 8
  21841495.868 8 -42372988.727 8 -32586069.639 9  21841495.820 9  21841495.036 9
  20068277.429 9 -51160176.147 9 -38812838.918 9  20068278.242 9  20068276.299 9
  20044507.523 9 -42954536.561 9 -33180482.728 9  20044508.229 9  20044505.975 9
 10  3 18  5  5 17.0000000  0  9G19G24G07G16G22G21G18G06G03
  22051177.131 8 -23132300.095 8 -17865959.667 9  22051176.448 9  22051175.858 9
  23158406.031 8 -52694156.593 8 -38653483.495 8  23158408.584 8  23158405.234 8
  24028600.607 7  -6316801.518 7  -4822061.486 8  24028601.443 8  24028600.386 8
  20670729.658 9 -50612961.049 9 -39316710.752 9  20670728.795 9  20670727.727 9
  21291531.772 9 -38060035.576 9 -28030140.874 9  21291531.061 9  21291530.394 9
  22399046.063 8 -57534029.684 8 -43616146.247 8  22399045.513 8  22399044.089 8
  21841140.678 8 -42374855.622 8 -32587524.363 9  21841140.524 9  21841139.753 9
  20067706.985 9 -51163173.567 9 -38815174.571 9  20067707.849 9  20067705.934 9
  20043808.334 9 -42958210.676 9 -33183345.674 9  20043809.085 9  20043806.805 9
 10  3 18  5  5 18.0000000  0  9G19G24G07G16G22G21G18G06G03
  22050306.813 8 -23136874.432 8 -17869524.084 9  22050305.952 9  22050305.368 9
  23158587.715 8 -52693202.818 8 -38652740.293 8  23158590.075 8  23158586.716 8
  24028068.387 7  -6319597.906 7  -4824240.489 8  24028069.311 8  24028068.274 8
  20670673.989 9 -50613252.627 9 -39316937.955 9  20670673.300 9  20670672.292 9
  21290774.249 9 -38064016.316 9 -28033242.750 9  21290773.613 9  21290772.848 9
  22399097.504 8 -57533758.315 8 -43615934.791 8  22399097.160 8  22399095.727 8
  21840785.457 8 -42376722.005 8 -32588978.687 9  21840785.322 9  21840784.570 9
  20067136.514 9 -51166170.743 9 -38817510.032 9  20067137.469 9  20067135.626 9
  20043109.254 9 -42961884.504 9 -33186208.397 9  20043109.929 9  20043107.715 9
 10  3 18  5  5 19.0000000  0  9G19G24G07G16G22G21G18G06G03
  22049436.541 8 -23141448.635 8 -17873088.396 9  22049435.479 9  22049434.905 9
  23158769.293 8 -52692248.964 8 -38651997.031 8  23158771.589 8  23158768.217 8
  24027536.481 7  -6322393.703 7  -4826419.030 8  24027537.289 8  24027536.291 8
  20670618.504 9 -50613543.701 9 -39317164.766 9  20670617.924 9  20670616.941 9
  21290016.879 9 -38067996.549 9 -28036344.229 9  21290016.265 9  21290015.438 9
  22399149.124 8 -57533486.804 8 -43615723.224 8  22399148.828 8  22399147.387 8
  21840430.239 8 -42378587.807 8 -32590432.559 9  21840430.272 9  21840429.479 9
  20066566.233 9 -51169167.639 9 -38819845.276 9  20066567.143 9  20066565.369 9
  20042410.159 9 -42965557.978 9 -33189070.844 9  20042410.849 9  20042408.676 9
 10  3 18  5  5 20.0000000  0  9G19G24G07G16G22G21G18G06G03
  22048566.190 8 -23146022.685 8 -17876652.590 9  22048565.017 9  22048564.472 9
  23158950.695 8 -52691295.045 8 -38651253.719 8  23158953.132 8  23158949.737 8
  24027004.667 7  -6325188.879 7  -4828597.088 8  24027005.398 8  24027004.427 8
  20670563.158 9 -50613834.254 9 -39317391.172 9  20670562.660 9  20670561.693 9
  21289259.464 9 -38071976.256 9 -28039445.300 9  21289259.020 9  21289258.157 9
  22399200.797 8 -57533215.117 8 -43615511.520 8  22399200.506 8  22399199.115 8
  21840075.274 8 -42380453.022 8 -32591885.974 9  21840075.345 9  21840074.502 9
  20065996.143 9 -51172164.242 9 -38822180.291 9  20065996.896 9  20065995.138 9
  20041711.155 9 -42969231.111 9 -33191933.025 9  20041711.861 9  20041709.653 9
 10  3 18  5  5 21.0000000  0  9G19G24G07G16G22G21G18G06G03
  22047695.832 8 -23150596.559 8 -17880216.647 9  22047694.580 9  22047694.070 9
  23159132.323 8 -52690341.010 8 -38650510.316 8  23159134.698 8  23159131.276 8
  24026473.086 7  -6327983.399 7  -4830774.636 8  24026473.650 8  24026472.683 8
  20670507.961 9 -50614124.263 9 -39317617.153 9  20670507.515 9  20670506.548 9
  21288502.387 9 -38075955.430 9 -28042545.954 9  21288501.836 9  21288500.960 9
  22399252.567 8 -57532943.227 8 -43615299.659 8  22399252.224 8  22399250.882 8
  21839720.532 8 -42382317.618 8 -32593338.905 9  21839720.465 9  21839719.653 9
  20065426.023 9 -51175160.522 9 -38824515.054 9  20065426.710 9  20065424.969 9
  20041012.190 9 -42972903.864 9 -33194794.910 9  20041012.938 9  20041010.711 9
 10  3 18  5  5 22.0000000  0  9G19G24G07G16G22G21G18G06G03
  22046825.425 8 -23155170.303 8 -17883780.602 9  22046824.215 9  22046823.695 9
  23159313.857 8 -52689386.910 8 -38649766.862 8  23159316.227 8  23159312.812 8
  24025941.454 7  -6330777.332 7  -4832951.726 8  24025942.002 8  24025941.034 8
  20670452.794 9 -50614413.762 9 -39317842.737 9  20670452.439 9  20670451.480 9
  21287745.153 9 -38079934.081 9 -28045646.201 9  21287744.709 9  21287743.842 9
  22399304.323 8 -57532671.187 8 -43615087.680 8  22399303.998 8  22399302.650 8
  21839365.825 8 -42384181.656 8 -32594791.402 9  21839365.682 9  21839364.911 9
  20064855.902 9 -51178156.505 9 -38826849.587 9  20064856.538 9  20064854.896 9
  20040313.288 9 -42976576.271 9 -33197656.526 9  20040314.062 9  20040311.871 9
 10  3 18  5  5 23.0000000  0  9G19G24G07G16G22G21G18G06G03
  22045955.087 8 -23159743.827 8 -17887344.386 9  22045953.917 9  22045953.359 9
  23159495.362 8 -52688432.636 8 -38649023.273 8  23159497.783 8  23159494.380 8
  24025410.073 7  -6333570.570 7  -4835128.273 8  24025410.476 8  24025409.502 8
  20670397.822 9 -50614702.675 9 -39318067.863 9  20670397.422 9  20670396.491 9
  21286988.148 9 -38083912.153 9 -28048745.997 9  21286987.690 9  21286986.858 9
  22399356.202 8 -57532398.912 8 -43614875.517 8  22399355.818 8  22399354.461 8
  21839011.275 8 -42386045.020 8 -32596243.375 9  21839011.074 9  21839010.314 9
  20064285.975 9 -51181152.122 9 -38829183.834 9  20064286.442 9  20064284.894 9
  20039614.456 9 -42980248.267 9 -33200517.821 9  20039615.269 9  20039613.091 9
 10  3 18  5  5 24.0000000  0  9G19G24G07G16G22G21G18G06G03
  22045084.882 8 -23164317.203 8 -17890908.056 9  22045083.652 9  22045083.043 9
  23159677.016 8 -52687478.317 8 -38648279.651 7  23159679.366 7  23159675.960 8
  24024878.836 7  -6336363.206 7  -4837304.352 8  24024879.041 8  24024878.068 8
  20670342.917 9 -50614991.067 9 -39318292.585 9  20670342.522 9  20670341.619 9
  21286231.118 9 -38087889.705 9 -28051845.388 9  21286230.768 9  21286229.993 9
  22399408.164 8 -57532126.451 8 -43614663.210 8  22399407.654 8  22399406.331 8
  21838656.923 8 -42387907.807 8 -32597694.897 9  21838656.583 9  21838655.828 9
  20063715.906 9 -51184147.458 9 -38831517.861 9  20063716.500 9  20063714.881 9
  20038915.664 9 -42983919.914 9 -33203378.845 9  20038916.564 9  20038914.318 9
 10  3 18  5  5 25.0000000  0  9G19G24G07G16G22G21G18G06G03
  22044214.675 8 -23168890.461 8 -17894471.633 9  22044213.405 9  22044212.740 9
  23159858.552 8 -52686523.916 8 -38647535.963 7  23159860.966 7  23159857.559 7
  24024347.367 7  -6339155.256 7  -4839479.974 8  24024347.697 8  24024346.740 8
  20670288.061 9 -50615278.969 9 -39318516.924 9  20670287.753 9  20670286.870 9
  21285474.180 9 -38091866.766 9 -28054944.395 9  21285473.928 9  21285473.184 9
  22399459.960 8 -57531853.857 8 -43614450.799 8  22399459.517 8  22399458.227 8
  21838302.595 8 -42389770.039 8 -32599145.988 9  21838302.195 9  21838301.447 9
  20063145.969 9 -51187142.519 9 -38833851.675 9  20063146.613 9  20063144.920 9
  20038216.993 9 -42987591.234 9 -33206239.614 9  20038217.924 9  20038215.630 9
 10  3 18  5  5 26.0000000  0  9G19G24G07G16G22G21G18G06G03
  22043344.459 8 -23173463.527 8 -17898035.061 9  22043343.171 9  22043342.498 9
  23160040.329 8 -52685569.425 8 -38646792.205 7  23160042.591 7  23160039.171 7
  24023816.334 7  -6341946.644 7  -4841655.080 8  24023816.488 8  24023815.545 8
  20670233.418 9 -50615566.315 9 -39318740.830 9  20670233.083 9  20670232.200 9
  21284717.410 9 -38095843.267 9 -28058042.967 9  21284717.179 9  21284716.451 9
  22399511.951 8 -57531581.042 8 -43614238.217 8  22399511.437 8  22399510.167 8
  21837948.336 8 -42391631.635 8 -32600596.582 9  21837947.925 9  21837947.182 9
  20062576.210 9 -51190137.239 9 -38836185.223 9  20062576.779 9  20062575.006 9
  20037518.504 9 -42991262.174 9 -33209100.086 9  20037519.367 9  20037517.087 9
 10  3 18  5  5 27.0000000  0  9G19G24G07G16G22G21G18G06G03
  22042474.302 8 -23178036.488 8 -17901598.406 9  22042472.946 9  22042472.287 9
  23160221.938 8 -52684614.876 8 -38646048.403 7  23160224.229 7  23160220.795 7
  24023285.218 7  -6344737.472 7  -4843829.749 8  24023285.414 8  24023284.472 8
  20670178.832 9 -50615853.189 9 -39318964.368 9  20670178.481 9  20670177.578 9
  21283960.865 9 -38099819.293 9 -28061141.169 9  21283960.544 9  21283959.816 9
  22399563.955 8 -57531308.113 8 -43614025.544 8  22399563.381 8  22399562.130 8
  21837594.187 8 -42393492.695 8 -32602046.759 9  21837593.763 9  21837593.010 9
  20062006.326 9 -51193131.710 9 -38838518.577 9  20062006.986 9  20062005.137 9
  20036819.947 9 -42994932.811 9 -33211960.323 9  20036820.872 9  20036818.613 9
 10  3 18  5  5 28.0000000  0  9G19G24G07G16G22G21G18G06G03
  22041603.956 8 -23182609.722 8 -17905161.964 9  22041602.694 9  22041602.055 9
  23160403.347 8 -52683660.668 8 -38645304.865 7  23160405.784 7  23160402.366 7
  24022753.866 7  -6347528.106 7  -4846004.268 8  24022754.394 8  24022753.447 8
  20670124.227 9 -50616139.951 9 -39319187.819 9  20670123.930 9  20670122.989 9
  21283204.361 9 -38103795.216 9 -28064239.290 9  21283203.948 9  21283203.204 9
  22399615.904 8 -57531035.426 8 -43613813.060 8  22399615.285 8  22399614.064 8
  21837240.098 8 -42395353.590 8 -32603496.807 9  21837239.632 9  21837238.867 9
  20061436.325 9 -51196126.311 9 -38840852.032 9  20061437.122 9  20061435.269 9
  20036121.475 9 -42998603.516 9 -33214820.612 9  20036122.374 9  20036120.156 9
 10  3 18  5  5 29.0000000  0  9G19G24G07G16G22G21G18G06G03
  22040733.776 8 -23187182.326 8 -17908725.031 9  22040732.577 9  22040731.955 9
  23160585.307 8 -52682705.897 8 -38644560.888 7  23160587.440 7  23160584.046 7
  24022223.144 7  -6350317.644 7  -4848177.935 8  24022223.621 8  24022222.646 8
  20670069.923 9 -50616425.713 9 -39319410.491 9  20670069.613 9  20670068.602 9
  21282447.833 9 -38107770.141 9 -28067336.633 9  21282447.547 9  21282446.785 9
  22399667.917 8 -57530762.071 8 -43613600.056 8  22399667.317 8  22399666.123 8
  21836886.202 8 -42397213.418 8 -32604946.024 9  21836885.720 9  21836884.951 9
  20060866.611 9 -51199120.142 9 -38843184.887 9  20060867.408 9  20060865.552 9
  20035423.074 9 -43002273.391 9 -33217680.254 9  20035424.029 9  20035421.843 9
 10  3 18  5  5 30.0000000  0  9G19G24G07G16G22G21G18G06G03
  22039863.677 8 -23191754.808 8 -17912288.004 9  22039862.473 9  22039861.842 9
  23160767.021 8 -52681751.078 8 -38643816.874 7  23160769.110 7  23160765.724 7
  24021692.196 7  -6353106.582 7  -4850351.134 8  24021692.950 8  24021691.961 8
  20670015.646 9 -50616710.988 9 -39319632.783 9  20670015.384 9  20670014.320 9
  21281691.406 9 -38111744.568 9 -28070433.588 9  21281691.246 9  21281690.463 9
  22399719.876 8 -57530488.590 8 -43613386.954 8  22399719.356 8  22399718.164 8
  21836532.477 8 -42399072.680 8 -32606394.799 9  21836531.923 9  21836531.151 9
  20060296.953 9 -51202113.690 9 -38845517.521 9  20060297.769 9  20060295.911 9
  20034724.697 9 -43005942.933 9 -33220539.636 9  20034725.718 9  20034723.550 9
 10  3 18  5  5 31.0000000  0  9G19G24G07G16G22G21G18G06G03
  22038993.695 8 -23196327.112 8 -17915850.837 9  22038992.396 9  22038991.748 9
  23160948.748 8 -52680796.140 8 -38643072.767 7  23160950.798 7  23160947.419 7
  24021161.921 7  -6355894.877 7  -4852523.830 8  24021162.378 8  24021161.390 8
  20669961.525 9 -50616995.717 9 -39319854.650 9  20669961.235 9  20669960.154 9
  21280935.156 9 -38115718.441 9 -28073530.112 9  21280935.023 9  21280934.254 9
  22399771.797 8 -57530214.902 8 -43613173.690 8  22399771.432 8  22399770.245 8
  21836178.883 8 -42400931.330 8 -32607843.098 9  21836178.214 9  21836177.424 9
  20059727.334 9 -51205106.930 9 -38847849.917 9  20059728.192 9  20059726.329 9
  20034026.522 9 -43009612.091 9 -33223398.721 9  20034027.473 9  20034025.327 9
 10  3 18  5  5 32.0000000  0  9G19G24G07G16G22G21G18G06G03
  22038123.677 8 -23200899.276 8 -17919413.562 9  22038122.315 9  22038121.659 9
  23161130.487 8 -52679841.145 8 -38642328.617 7  23161132.511 7  23161129.116 7
  24020631.457 7  -6358682.576 7  -4854696.061 8  24020631.918 8  24020630.904 8
  20669907.518 9 -50617279.932 9 -39320076.116 9  20669907.171 9  20669906.073 9
  21280179.072 9 -38119691.808 9 -28076626.241 9  21280178.871 9  21280178.150 9
  22399823.732 8 -57529941.042 8 -43612960.293 8  22399823.549 8  22399822.365 8
  21835825.273 8 -42402789.411 8 -32609290.953 9  21835824.611 9  21835823.803 9
  20059157.780 9 -51208099.861 9 -38850182.071 9  20059158.636 9  20059156.798 9
  20033328.326 9 -43013280.913 9 -33226257.543 9  20033329.291 9  20033327.185 9
 10  3 18  5  5 33.0000000  0  9G19G24G07G16G22G21G18G06G03
  22037253.434 8 -23205471.269 8 -17922976.154 9  22037252.253 9  22037251.598 9
  23161312.280 8 -52678886.035 8 -38641584.378 7  23161314.250 7  23161310.835 7
  24020101.263 7  -6361469.640 7  -4856867.798 8  24020101.594 8  24020100.500 8
  20669853.542 9 -50617563.611 9 -39320297.165 9  20669853.171 9  20669852.073 9
  21279423.015 9 -38123664.627 9 -28079721.944 9  21279422.837 9  21279422.148 9
  22399876.103 8 -57529666.994 8 -43612746.749 8  22399875.703 8  22399874.522 8
  21835471.814 8 -42404646.864 8 -32610738.320 9  21835471.157 9  21835470.378 9
  20058588.260 9 -51211092.481 9 -38852513.982 9  20058589.138 9  20058587.329 9
  20032630.353 9 -43016949.359 9 -33229116.072 9  20032631.183 9  20032629.107 9
 10  3 18  5  5 34.0000000  0  9G19G24G07G16G22G21G18G06G03
  22036383.233 8 -23210043.123 8 -17926538.637 9  22036382.240 9  22036381.592 9
  23161494.053 8 -52677930.863 8 -38640840.088 7  23161495.959 7  23161492.628 7
  24019571.049 7  -6364256.115 7  -4859039.076 8  24019571.371 8  24019570.234 8
  20669799.659 9 -50617846.789 9 -39320517.823 9  20669799.308 9  20669798.185 9
  21278667.088 9 -38127636.945 9 -28082817.256 9  21278666.913 9  21278666.242 9
  22399928.220 8 -57529392.800 8 -43612533.092 8  22399927.878 8  22399926.724 8
  21835118.480 8 -42406503.747 8 -32612185.242 9  21835117.814 9  21835117.067 9
  20058018.886 9 -51214084.809 9 -38854845.666 9  20058019.694 9  20058017.926 9
  20031932.268 9 -43020617.462 9 -33231974.333 9  20031933.171 9  20031931.075 9
 10  3 18  5  5 35.0000000  0  9G19G24G07G16G22G21G18G06G03
  22035513.195 8 -23214614.816 8 -17930100.994 9  22035512.264 9  22035511.624 9
  23161675.919 8 -52676975.559 8 -38640095.697 7  23161677.689 7  23161674.458 7
  24019040.870 7  -6367041.924 7  -4861209.836 8  24019041.266 8  24019040.141 8
  20669745.847 9 -50618129.415 9 -39320738.051 9  20669745.615 9  20669744.416 9
  21277911.282 9 -38131608.718 9 -28085912.144 9  21277911.067 9  21277910.421 9
  22399980.415 8 -57529118.393 8 -43612319.268 8  22399980.093 8  22399978.965 8
  21834765.166 8 -42408360.021 8 -32613631.690 9  21834764.569 9  21834763.814 9
  20057449.584 9 -51217076.808 9 -38857177.093 9  20057450.313 9  20057448.587 9
  20031234.314 9 -43024285.192 9 -33234832.304 9  20031235.229 9  20031233.108 9
 10  3 18  5  5 36.0000000  0  9G19G24G07G16G22G21G18G06G03
  22034643.202 8 -23219186.317 8 -17933663.202 9  22034642.331 9  22034641.693 9
  23161857.811 8 -52676020.159 8 -38639351.229 7  23161859.441 7  23161856.263 7
  24018510.930 7  -6369827.129 7  -4863380.125 8  24018511.271 8  24018510.167 8
  20669691.965 9 -50618411.477 9 -39320957.840 9  20669691.983 9  20669690.744 9
  21277155.630 9 -38135579.930 9 -28089006.595 9  21277155.306 9  21277154.694 9
  22400032.802 8 -57528843.776 8 -43612105.281 8  22400032.336 8  22400031.211 8
  21834412.158 8 -42410215.675 8 -32615077.655 9  21834411.441 9  21834410.674 9
  20056880.446 9 -51220068.488 9 -38859508.272 9  20056881.065 9  20056879.289 9
  20030536.465 9 -43027952.536 9 -33237689.974 9  20030537.364 9  20030535.203 9
 10  3 18  5  5 37.0000000  0  9G19G24G07G16G22G21G18G06G03
  22033773.190 8 -23223757.664 8 -17937225.290 9  22033772.429 9  22033771.791 9
  23162039.812 8 -52675064.675 8 -38638606.697 7  23162041.215 7  23162038.083 7
  24017981.282 7  -6372611.648 7  -4865549.880 8  24017981.405 8  24017980.334 8
  20669638.308 9 -50618693.020 9 -39321177.225 9  20669638.377 9  20669637.159 9
  21276400.047 9 -38139550.613 9 -28092100.632 9  21276399.679 9  21276399.079 9
  22400085.299 8 -57528568.995 8 -43611891.167 8  22400084.613 8  22400083.492 8
  21834059.103 9 -42412070.729 9 -32616523.151 9  21834058.426 9  21834057.695 9
  20056311.246 9 -51223059.870 9 -38861839.219 9  20056311.876 9  20056310.046 9
  20029838.624 9 -43031619.508 9 -33240547.355 9  20029839.558 9  20029837.374 9
 10  3 18  5  5 38.0000000  0  9G19G24G07G16G22G21G18G06G03
  22032903.723 8 -23228328.808 8 -17940787.221 9  22032902.560 9  22032901.906 9
  23162221.693 8 -52674109.063 8 -38637862.065 7  23162223.027 7  23162219.926 7
  24017451.485 7  -6375395.558 7  -4867719.161 8  24017451.645 8  24017450.618 8
  20669584.691 9 -50618974.004 9 -39321396.173 9  20669584.872 9  20669583.662 9
  21275644.623 9 -38143520.749 9 -28095194.244 9  21275644.190 9  21275643.577 9
  22400137.673 8 -57528293.986 8 -43611676.874 8  22400136.920 8  22400135.819 8
  21833706.206 8 -42413925.160 8 -32617968.163 9  21833705.529 9  21833704.834 9
  20055742.078 9 -51226050.907 9 -38864169.897 9  20055742.701 9  20055740.840 9
  20029140.909 9 -43035286.098 9 -33243404.437 9  20029141.807 9  20029139.650 9
 10  3 18  5  5 39.0000000  0  9G19G24G07G16G22G21G18G06G03
  22032033.967 8 -23232899.860 8 -17944349.078 9  22032032.702 9  22032032.030 9
  23162403.587 8 -52673153.406 8 -38637117.397 7  23162404.847 7  23162401.776 7
  24016921.995 7  -6378178.871 7  -4869887.977 8  24016921.971 8  24016921.011 8
  20669531.252 9 -50619254.508 9 -39321614.748 9  20669531.456 9  20669530.236 9
  21274889.366 9 -38147490.382 9 -28098287.464 9  21274888.788 9  21274888.185 9
  22400190.103 8 -57528018.848 8 -43611462.480 8  22400189.252 8  22400188.172 8
  21833353.503 9 -42415779.033 9 -32619412.740 9  21833352.723 9  21833352.031 9
  20055172.966 9 -51229041.703 9 -38866500.387 9  20055173.573 9  20055171.680 9
  20028443.227 9 -43038952.373 9 -33246261.274 9  20028444.118 9  20028441.980 9
 10  3 18  5  5 40.0000000  0  9G19G24G07G16G22G21G18G06G03
  22031164.205 8 -23237470.816 8 -17947910.861 9  22031162.863 9  22031162.184 9
  23162585.359 8 -52672197.717 8 -38636372.703 7  23162586.676 7  23162583.598 7
  24016392.228 7  -6380961.625 7  -4872056.358 8  24016392.416 8  24016391.486 8
  20669477.972 9 -50619534.547 9 -39321832.961 9  20669478.125 9  20669476.914 9
  21274134.079 9 -38151459.563 9 -28101380.332 9  21274133.464 9  21274132.889 9
  22400242.443 8 -57527743.614 8 -43611248.012 8  22400241.593 8  22400240.548 8
  21833000.829 9 -42417632.386 9 -32620856.913 9  21833000.009 9  21832999.318 9
  20054603.958 9 -51232032.260 9 -38868830.692 9  20054604.470 9  20054602.555 9
  20027745.570 9 -43042618.353 9 -33249117.882 9  20027746.483 9  20027744.340 9
 10  3 18  5  5 41.0000000  0  9G19G24G07G16G22G21G18G06G03
  22030294.536 8 -23242041.552 8 -17951472.473 9  22030293.069 9  22030292.386 9
  23162767.397 8 -52671241.891 8 -38635627.903 7  23162768.531 7  23162765.444 7
  24015862.827 7  -6383743.715 7  -4874224.220 8  24015863.005 8  24015862.052 8
  20669424.889 9 -50619814.005 9 -39322050.721 9  20669424.897 9  20669423.722 9
  21273378.781 9 -38155428.155 9 -28104472.741 9  21273378.204 9  21273377.696 9
  22400294.732 8 -57527468.131 8 -43611033.350 8  22400293.979 8  22400292.972 8
  21832648.244 9 -42419485.083 9 -32622300.573 9  21832647.445 9  21832646.761 9
  20054034.927 9 -51235022.454 9 -38871160.713 9  20054035.433 9  20054033.496 9
  20027047.995 9 -43046283.913 9 -33251974.162 9  20027048.942 9  20027046.784 9
 10  3 18  5  5 42.0000000  0  9G19G24G07G16G22G21G18G06G03
  22029424.802 8 -23246612.102 8 -17955033.940 9  22029423.310 9  22029422.628 9
  23162949.567 8 -52670285.946 8 -38634883.012 7  23162950.414 7  23162947.333 7
  24015333.775 7  -6386525.132 7  -4876391.559 8  24015333.719 8  24015332.755 8
  20669371.837 9 -50620092.917 9 -39322268.055 9  20669371.788 9  20669370.644 9
  21272623.817 9 -38159396.205 9 -28107564.728 9  21272622.998 9  21272622.599 9
  22400347.241 8 -57527192.457 8 -43610818.538 8  22400346.472 8  22400345.465 8
  21832295.868 9 -42421337.168 9 -32623743.757 9  21832295.003 9  21832294.323 9
  20053466.003 9 -51238012.301 9 -38873490.464 9  20053466.491 9  20053464.531 9
  20026350.572 9 -43049949.097 9 -33254830.149 9  20026351.521 9  20026349.294 9
 10  3 18  5  5 43.0000000  0  9G19G24G07G16G22G21G18G06G03
  22028555.114 8 -23251182.495 8 -17958595.284 9  22028553.583 9  22028552.902 9
  23163131.564 8 -52669329.902 8 -38634138.043 7  23163132.312 7  23163129.238 7
  24014804.554 7  -6389305.939 7  -4878558.422 8  24014804.542 8  24014803.590 8
  20669318.851 9 -50620371.284 9 -39322484.965 9  20669318.815 9  20669317.689 9
  21271869.051 9 -38163363.690 9 -28110656.274 9  21271867.940 9  21271867.592 9
  22400399.722 8 -57526916.577 8 -43610603.567 8  22400399.005 8  22400397.996 8
  21831943.607 9 -42423188.637 9 -32625186.460 9  21831942.691 9  21831942.035 9
  20052897.098 9 -51241001.850 9 -38875819.983 9  20052897.606 9  20052895.623 9
  20025653.242 9 -43053613.903 9 -33257685.841 9  20025654.161 9  20025651.874 9
 10  3 18  5  5 44.0000000  0  9G19G24G07G16G22G21G18G06G03
  22027685.462 8 -23255752.778 8 -17962156.544 9  22027683.886 9  22027683.185 9
  23163313.464 8 -52668373.803 8 -38633393.031 7  23163314.202 7  23163311.181 7
  24014275.284 7  -6392086.168 7  -4880724.835 8  24014275.478 8  24014274.537 8
  20669265.952 9 -50620649.165 9 -39322701.496 9  20669265.937 9  20669264.812 9
  21271114.128 9 -38167330.692 9 -28113747.445 9  21271113.018 9  21271112.664 9
  22400452.325 8 -57526640.564 8 -43610388.491 8  22400451.520 8  22400450.529 8
  21831591.564 9 -42425039.545 9 -32626628.727 9  21831590.484 9  21831589.853 9
  20052328.305 9 -51243991.121 9 -38878149.285 9  20052328.726 9  20052326.818 9
  20024956.003 9 -43057278.385 9 -33260541.281 9  20024956.820 9  20024954.505 9
 10  3 18  5  5 45.0000000  0  9G19G24G07G16G22G21G18G06G03
  22026815.944 8 -23260322.862 8 -17965717.648 9  22026814.239 9  22026813.507 9
  23163495.523 8 -52667417.608 8 -38632647.945 7  23163496.108 7  23163493.145 7
  24013746.066 7  -6394865.766 7  -4882890.756 8  24013746.544 8  24013745.610 8
  20669213.298 9 -50620926.500 9 -39322917.602 9  20669213.170 9  20669212.022 9
  21270359.377 9 -38171297.139 9 -28116838.183 9  21270358.193 9  21270357.875 9
  22400504.716 8 -57526364.348 8 -43610173.258 8  22400504.075 8  22400503.102 8
  21831239.588 9 -42426889.845 9 -32628070.519 9  21831238.395 9  21831237.755 9
  20051759.479 9 -51246980.092 9 -38880478.353 9  20051759.902 9  20051758.066 9
  20024258.742 9 -43060942.496 9 -33263396.431 9  20024259.549 9  20024257.222 9
 10  3 18  5  5 46.0000000  0  9G19G24G07G16G22G21G18G06G03
  22025946.400 8 -23264892.834 8 -17969278.665 9  22025944.625 9  22025943.857 9
  23163677.371 8 -52666461.364 8 -38631902.819 7  23163678.067 7  23163675.106 7
  24013216.678 7  -6397644.761 7  -4885056.208 8  24013217.724 8  24013216.778 8
  20669160.597 9 -50621203.347 9 -39323133.328 9  20669160.498 9  20669159.337 9
  21269604.584 9 -38175263.097 9 -28119928.539 9  21269603.461 9  21269603.212 9
  22400557.434 8 -57526087.999 8 -43609957.920 8  22400556.656 8  22400555.670 8
  21830887.563 9 -42428739.592 9 -32629511.880 9  21830886.404 9  21830885.753 9
  20051190.690 9 -51249968.779 9 -38882807.199 9  20051191.170 9  20051189.339 9
  20023561.545 9 -43064606.271 9 -33266251.320 9  20023562.353 9  20023560.064 9
 10  3 18  5  5 47.0000000  0  9G19G24G07G16G22G21G18G06G03
  22025076.635 8 -23269462.625 8 -17972839.540 9  22025075.047 9  22025074.241 9
  23163859.218 8 -52665504.982 8 -38631157.585 7  23163860.065 7  23163857.092 7
  24012687.860 7  -6400423.079 7  -4887221.132 8  24012689.026 8  24012688.044 8
  20669107.971 9 -50621479.630 9 -39323348.614 9  20669107.922 9  20669106.765 9
  21268849.977 9 -38179228.503 9 -28123018.466 9  21268848.845 9  21268848.645 9
  22400610.062 8 -57525811.429 8 -43609742.411 8  22400609.281 8  22400608.287 8
  21830535.721 9 -42430588.705 9 -32630952.748 9  21830534.544 9  21830533.878 9
  20050621.858 9 -51252957.122 9 -38885135.779 9  20050622.507 9  20050620.677 9
  20022864.529 9 -43068269.653 9 -33269105.903 9  20022865.228 9  20022862.977 9
 10  3 18  5  5 48.0000000  0  9G19G24G07G16G22G21G18G06G03
  22024207.067 8 -23274032.214 8 -17976400.258 9  22024205.505 9  22024204.693 9
  23164040.972 8 -52664548.481 8 -38630412.259 7  23164042.110 7  23164039.135 7
  24012159.312 7  -6403200.781 7  -4889385.576 8  24012160.446 8  24012159.427 8
  20669055.453 9 -50621755.351 9 -39323563.462 9  20669055.451 9  20669054.257 9
  21268095.370 9 -38183193.329 9 -28126107.940 9  21268094.347 9  21268094.185 9
  22400662.820 8 -57525534.644 8 -43609526.734 8  22400661.955 8  22400660.979 8
  21830183.950 9 -42432437.177 9 -32632393.116 9  21830182.808 9  21830182.124 9
  20050053.070 9 -51255945.118 9 -38887464.087 9  20050053.877 9  20050052.073 9
  20022167.486 9 -43071932.639 9 -33271960.177 9  20022168.163 9  20022165.952 9
 10  3 18  5  5 49.0000000  0  9G19G24G07G16G22G21G18G06G03
  22023337.682 8 -23278601.690 8 -17979960.888 9  22023335.982 9  22023335.172 9
  23164222.836 8 -52663591.943 8 -38629666.906 7  23164224.166 7  23164221.188 7
  24011630.790 7  -6405977.885 7  -4891549.553 8  24011631.988 8  24011630.925 8
  20669003.121 9 -50622030.597 9 -39323777.940 9  20669003.069 9  20669001.782 9
  21267340.927 9 -38187157.674 9 -28129197.040 9  21267339.955 9  21267339.790 9
  22400715.651 8 -57525257.737 8 -43609310.963 8  22400714.650 8  22400713.692 8
  21829832.359 9 -42434285.106 9 -32633833.061 9  21829831.158 9  21829830.482 9
  20049484.486 9 -51258932.860 9 -38889792.198 9  20049485.297 9  20049483.520 9
  20021470.515 9 -43075595.312 9 -33274814.208 9  20021471.161 9  20021468.988 9
 10  3 18  5  5 50.0000000  0  9G19G24G07G16G22G21G18G06G03
  22022468.066 8 -23283171.054 8 -17983521.431 9  22022466.495 9  22022465.666 9
  23164404.732 8 -52662635.346 8 -38628921.505 7  23164406.190 7  23164403.237 7
  24011102.672 7  -6408754.417 7  -4893713.083 8  24011103.628 8  24011102.540 8
  20668950.754 9 -50622305.356 9 -39323992.038 9  20668950.807 9  20668949.418 9
  21266586.840 9 -38191121.535 9 -28132285.762 9  21266585.669 9  21266585.462 9
  22400768.462 8 -57524980.684 8 -43609095.079 8  22400767.349 8  22400766.404 8
  21829480.842 9 -42436132.483 9 -32635272.576 9  21829479.612 9  21829478.946 9
  20048916.000 9 -51261920.361 9 -38892120.121 9  20048916.823 9  20048915.033 9
  20020773.664 9 -43079257.663 9 -33277667.988 9  20020774.228 9  20020772.081 9
 10  3 18  5  5 51.0000000  0  9G19G24G07G16G22G21G18G06G03
  22021598.444 8 -23287740.210 8 -17987081.812 9  22021597.052 9  22021596.193 9
  23164586.891 8 -52661678.618 8 -38628176.003 7  23164588.230 7  23164585.308 7
  24010574.349 7  -6411530.257 7  -4895876.077 8  24010575.395 8  24010574.305 8
  20668898.559 9 -50622579.532 9 -39324205.683 9  20668898.701 9  20668897.197 9
  21265832.722 9 -38195084.801 9 -28135374.021 9  21265831.489 9  21265831.264 9
  22400821.058 8 -57524703.409 8 -43608879.020 8  22400820.089 8  22400819.159 8
  21829129.321 9 -42437979.211 9 -32636711.585 9  21829128.197 9  21829127.559 9
  20048347.549 9 -51264907.502 9 -38894447.763 9  20048348.417 9  20048346.613 9
  20020076.847 9 -43082919.604 9 -33280521.448 9  20020077.373 9  20020075.260 9
 10  3 18  5  5 52.0000000  0  9G19G24G07G16G22G21G18G06G03
  22020729.209 8 -23292309.145 8 -17990642.021 9  22020727.650 9  22020726.759 9
  23164768.999 8 -52660721.725 8 -38627430.371 7  23164770.304 7  23164767.405 7
  24010046.271 7  -6414305.427 7  -4898038.548 8  24010047.278 8  24010046.183 8
  20668846.507 9 -50622853.130 9 -39324418.876 9  20668846.678 9  20668845.096 9
  21265078.691 9 -38199047.485 9 -28138461.827 9  21265077.417 9  21265077.189 9
  22400873.677 8 -57524425.877 8 -43608662.761 8  22400872.883 8  22400871.985 8
  21828778.017 9 -42439825.279 9 -32638150.080 9  21828776.909 9  21828776.302 9
  20047779.218 9 -51267894.285 9 -38896775.125 9  20047780.047 9  20047778.291 9
  20019380.088 9 -43086581.117 9 -33283374.575 9  20019380.596 9  20019378.542 9
 10  3 18  5  5 53.0000000  0  9G19G24G07G16G22G21G18G06G03
  22019859.819 8 -23296877.968 8 -17994202.141 9  22019858.272 9  22019857.349 9
  23164951.046 8 -52659764.811 8 -38626684.724 7  23164952.380 7  23164949.503 7
  24009518.712 7  -6417080.018 7  -4900200.567 8  24009519.253 8  24009518.149 8
  20668794.504 9 -50623126.230 9 -39324631.682 9  20668794.707 9  20668793.109 9
  21264324.774 9 -38203009.676 9 -28141549.249 9  21264323.439 9  21264323.233 9
  22400926.676 8 -57524148.231 8 -43608446.412 8  22400925.704 8  22400924.840 8
  21828426.817 9 -42441670.803 9 -32639588.151 9  21828425.757 9  21828425.119 9
  20047210.940 9 -51270880.775 9 -38899102.261 9  20047211.729 9  20047210.022 9
  20018683.390 9 -43090242.310 9 -33286227.453 9  20018683.878 9  20018681.862 9
 10  3 18  5  5 54.0000000  0  9G19G24G07G16G22G21G18G06G03
  22018990.290 8 -23301446.650 8 -17997762.153 9  22018988.926 9  22018987.967 9
  23165133.163 8 -52658807.824 8 -38625939.020 7  23165134.502 7  23165131.589 7
  24008990.982 7  -6419854.008 7  -4902362.116 8  24008991.349 8  24008990.234 8
  20668742.578 9 -50623398.846 9 -39324844.110 9  20668742.822 9  20668741.224 9
  21263570.887 9 -38206971.374 9 -28144636.285 9  21263569.564 9  21263569.395 9
  22400979.549 8 -57523870.423 8 -43608229.939 8  22400978.576 8  22400977.729 8
  21828075.772 9 -42443515.747 9 -32641025.770 9  21828074.722 9  21828074.045 9
  20046642.912 9 -51273866.980 9 -38901429.174 9  20046643.462 9  20046641.831 9
  20017986.729 9 -43093903.173 9 -33289080.072 9  20017987.212 9  20017985.175 9
 10  3 18  5  5 55.0000000  0  9G19G24G07G16G22G21G18G06G03
  22018120.910 8 -23306015.202 8 -18001322.064 9  22018119.604 9  22018118.607 9
  23165315.417 8 -52657850.765 8 -38625193.261 7  23165316.644 7  23165313.685 7
  24008463.208 7  -6422627.396 7  -4904523.197 8  24008463.571 8  24008462.444 8
  20668690.841 9 -50623670.947 9 -39325056.137 9  20668691.036 9  20668689.453 9
  21262816.992 9 -38210932.557 9 -28147722.921 9  21262815.795 9  21262815.628 9
  22401032.392 8 -57523592.453 8 -43608013.338 8  22401031.480 8  22401030.651 8
  21827724.834 9 -42445360.128 9 -32642462.950 9  21827723.779 9  21827723.091 9
  20046074.821 9 -51276852.913 9 -38903755.875 9  20046075.248 9  20046073.692 9
  20017290.144 9 -43097563.687 9 -33291932.421 9  20017290.619 9  20017288.563 9
 10  3 18  5  5 56.0000000  0  9G19G24G07G16G22G21G18G06G03
  22017251.546 8 -23310583.594 8 -18004881.848 9  22017250.315 9  22017249.292 9
  23165497.765 8 -52656893.626 8 -38624447.438 7  23165498.761 7  23165495.828 7
  24007935.754 7  -6425400.155 7  -4906683.788 8  24007935.917 8  24007934.772 8
  20668639.201 9 -50623942.525 9 -39325267.757 9  20668639.349 9  20668637.783 9
  21262063.158 9 -38214893.213 9 -28150809.147 9  21262062.144 9  21262061.943 9
  22401085.272 8 -57523314.300 8 -43607796.596 8  22401084.387 8  22401083.625 8
  21827373.850 9 -42447203.913 9 -32643899.665 9  21827372.951 9  21827372.256 9
  20045506.738 9 -51279838.534 9 -38906082.333 9  20045507.104 9  20045505.614 9
  20016593.625 9 -43101223.859 9 -33294784.502 9  20016594.120 9  20016592.053 9
 10  3 18  5  5 57.0000000  0  9G19G24G07G16G22G21G18G06G03
  22016382.190 8 -23315151.750 8 -18008441.450 9  22016381.067 9  22016380.023 9
  23165679.846 8 -52655936.314 8 -38623701.480 7  23165680.902 7  23165678.007 7
  24007408.127 7  -6428172.225 7  -4908843.841 8  24007408.402 8  24007407.234 8
  20668587.723 9 -50624213.496 9 -39325478.903 9  20668587.775 9  20668586.233 9
  21261309.492 9 -38218853.263 9 -28153894.900 9  21261308.592 9  21261308.374 9
  22401138.247 8 -57523035.903 8 -43607579.662 8  22401137.345 8  22401136.650 8
  21827023.149 9 -42449047.013 9 -32645335.847 9  21827022.241 9  21827021.540 9
  20044938.662 9 -51282823.798 9 -38908408.513 9  20044939.027 9  20044937.597 9
  20015897.173 9 -43104883.584 9 -33297636.235 9  20015897.704 9  20015895.631 9
 10  3 18  5  5 58.0000000  0  9G19G24G07G16G22G21G18G06G03
  22015513.096 8 -23319719.688 8 -18012000.881 9  22015511.844 9  22015510.784 9
  23165862.014 8 -52654978.867 8 -38622955.417 7  23165863.068 7  23165860.249 7
  24006880.782 7  -6430943.604 7  -4911003.357 8  24006881.023 8  24006879.831 8
  20668536.266 9 -50624483.891 9 -39325689.601 9  20668536.326 9  20668534.786 9
  21260555.906 9 -38222812.706 9 -28156980.180 9  21260555.138 9  21260554.919 9
  22401191.247 8 -57522757.270 8 -43607362.545 8  22401190.344 8  22401189.713 8
  21826672.471 9 -42450889.473 9 -32646771.531 9  21826671.650 9  21826670.943 9
  20044370.800 9 -51285808.699 9 -38910734.410 9  20044371.082 9  20044369.567 9
  20015200.918 9 -43108542.890 9 -33300487.641 9  20015201.385 9  20015199.306 9
 10  3 18  5  5 59.0000000  0  9G19G24G07G16G22G21G18G06G03
  22014643.798 8 -23324287.445 8 -18015560.172 9  22014642.648 9  22014641.577 9
  23166044.245 8 -52654021.294 8 -38622209.255 7  23166045.257 7  23166042.517 7
  24006353.576 7  -6433714.334 7  -4913162.367 8  24006353.776 8  24006352.558 8
  20668484.899 9 -50624753.728 9 -39325899.863 9  20668485.017 9  20668483.441 9
  21259802.554 9 -38226771.606 9 -28160065.036 9  21259801.798 9  21259801.547 9
  22401244.187 8 -57522478.423 8 -43607145.262 8  22401243.382 8  22401242.816 8
  21826321.937 9 -42452731.297 9 -32648206.718 9  21826321.169 9  21826320.460 9
  20043802.781 9 -51288793.258 9 -38913060.040 9  20043803.207 9  20043801.606 9
  20014504.655 9 -43112201.810 9 -33303338.747 9  20014505.141 9  20014503.054 9
 10  3 18  5  6  0.0000000  0  9G19G24G07G16G22G21G18G06G03
  22013774.668 8 -23328855.099 8 -18019119.382 9  22013773.473 9  22013772.386 9
  23166226.442 8 -52653063.687 8 -38621463.068 7  23166227.466 7  23166224.755 7
  24005826.503 7  -6436484.499 7  -4915320.937 8  24005826.632 8  24005825.400 8
  20668433.645 9 -50625023.089 9 -39326109.755 9  20668433.785 9  20668432.160 9
  21259049.262 9 -38230730.025 9 -28163149.519 9  21259048.558 9  21259048.250 9
  22401297.266 8 -57522199.451 8 -43606927.883 8  22401296.499 8  22401295.931 8
  21825971.525 9 -42454572.581 9 -32649641.484 9  21825970.786 9  21825970.077 9
  20043234.838 9 -51291777.554 9 -38915385.465 9  20043235.344 9  20043233.704 9
  20013808.558 9 -43115860.414 9 -33306189.607 9  20013808.970 9  20013806.863 9
 10  3 18  5  6  1.0000000  0  9G19G24G07G16G22G21G18G06G03
  22012905.542 8 -23333422.543 8 -18022678.428 9  22012904.340 9  22012903.235 9
  23166408.793 8 -52652105.960 8 -38620716.787 7  23166409.704 7  23166407.014 7
  24005299.779 7  -6439254.024 7  -4917479.008 8  24005299.604 8  24005298.377 8
  20668382.381 9 -50625291.906 9 -39326319.223 9  20668382.645 9  20668380.955 9
  21258296.142 9 -38234687.880 9 -28166233.561 9  21258295.440 9  21258295.074 9
  22401350.289 8 -57521920.262 8 -43606710.333 8  22401349.658 8  22401349.087 8
  21825621.165 9 -42456413.242 9 -32651075.766 9  21825620.545 9  21825619.827 9
  20042667.039 9 -51294761.512 9 -38917710.627 9  20042667.545 9  20042665.869 9
  20013112.366 9 -43119518.625 9 -33309040.160 9  20013112.876 9  20013110.755 9
 10  3 18  5  6  2.0000000  0  9G19G24G07G16G22G21G18G06G03
  22012036.560 8 -23337989.878 8 -18026237.389 9  22012035.195 9  22012034.109 9
  23166590.927 8 -52651148.166 8 -38619970.456 7  23166591.952 7  23166589.308 7
  24004772.751 7  -6442022.950 7  -4919636.612 8  24004772.696 8  24004771.453 8
  20668331.339 9 -50625560.220 9 -39326528.299 9  20668331.602 9  20668329.853 9
  21257543.218 9 -38238645.233 9 -28169317.212 9  21257542.435 9  21257542.007 9
  22401403.583 8 -57521640.940 8 -43606492.679 8  22401402.836 8  22401402.241 8
  21825271.102 9 -42458253.346 9 -32652509.613 9  21825270.413 9  21825269.683 9
  20042099.238 9 -51297745.189 9 -38920035.571 9  20042099.764 9  20042098.121 9
  20012416.393 9 -43123176.517 9 -33311890.465 9  20012416.842 9  20012414.728 9
 10  3 18  5  6  3.0000000  0  9G19G24G07G16G22G21G18G06G03
  22011167.218 8 -23342557.034 8 -18029796.211 9  22011166.072 9  22011165.020 9
  23166773.255 8 -52650190.271 8 -38619224.045 7  23166774.216 7  23166771.620 7
  24004245.934 7  -6444791.225 7  -4921793.710 8  24004245.922 8  24004244.631 8
  20668280.303 9 -50625827.998 9 -39326736.957 9  20668280.667 9  20668278.866 9
  21256790.327 9 -38242602.029 9 -28172400.429 9  21256789.501 9  21256789.060 9
  22401456.777 8 -57521361.412 8 -43606274.866 8  22401456.054 8  22401455.437 8
  21824921.093 9 -42460092.838 9 -32653942.983 9  21824920.394 9  21824919.679 9
  20041531.356 9 -51300728.544 9 -38922360.263 9  20041532.043 9  20041530.428 9
  20011720.335 9 -43126834.024 9 -33314740.470 9  20011720.867 9  20011718.769 9
 10  3 18  5  6  4.0000000  0  9G19G24G07G16G22G21G18G06G03
  22010297.966 8 -23347124.055 8 -18033354.929 9  22010296.970 9  22010295.969 9
  23166955.560 8 -52649232.307 8 -38618477.579 7  23166956.497 7  23166953.937 7
  24003719.505 7  -6447558.904 7  -4923950.344 8  24003719.262 8  24003717.929 8
  20668229.452 9 -50626095.268 9 -39326945.219 9  20668229.822 9  20668227.997 9
  21256037.510 9 -38246558.317 9 -28175483.251 9  21256036.634 9  21256036.222 9
  22401510.013 8 -57521081.742 8 -43606056.941 8  22401509.243 8  22401508.708 8
  21824571.174 9 -42461931.748 9 -32655375.899 9  21824570.484 9  21824569.787 9
  20040963.663 9 -51303711.625 9 -38924684.742 9  20040964.428 9  20040962.684 9
  20011024.297 9 -43130491.192 9 -33317590.211 9  20011024.893 9  20011022.863 9
 10  3 18  5  6  5.0000000  0  9G19G24G07G16G22G21G18G06G03
  22009428.808 8 -23351690.939 8 -18036913.538 9  22009427.889 9  22009426.941 9
  23167137.849 8 -52648274.287 8 -38617731.069 7  23167138.788 7  23167136.265 7
  24003192.792 7  -6450325.980 7  -4926106.507 7  24003192.719 7  24003191.352 8
  20668178.615 9 -50626362.034 9 -39327153.089 9  20668179.058 9  20668177.254 9
  21255284.939 9 -38250514.100 9 -28178565.679 9  21255283.901 9  21255283.464 9
  22401563.313 8 -57520801.907 8 -43605838.887 8  22401562.458 8  22401562.006 8
  21824221.551 9 -42463770.093 9 -32656808.376 9  21824220.663 9  21824219.950 9
  20040396.038 9 -51306694.419 9 -38927008.997 9  20040396.869 9  20040395.000 9
  20010328.388 9 -43134148.017 9 -33320439.684 9  20010328.982 9  20010327.021 9
 10  3 18  5  6  6.0000000  0  9G19G24G07G16G22G21G18G06G03
  22008559.984 8 -23356257.613 8 -18040471.984 9  22008558.860 9  22008557.958 9
  23167320.339 8 -52647316.113 8 -38616984.440 7  23167321.093 7  23167318.557 7
  24002666.078 7  -6453092.381 7  -4928262.144 7  24002666.297 7  24002664.906 8
  20668127.873 9 -50626628.224 9 -39327360.509 9  20668128.417 9  20668126.644 9
  21254532.330 9 -38254469.288 9 -28181647.644 9  21254531.324 9  21254530.807 9
  22401616.706 8 -57520521.844 8 -43605620.656 8  22401615.718 8  22401615.308 8
  21823871.966 9 -42465607.782 9 -32658240.342 9  21823870.963 9  21823870.231 9
  20039828.511 9 -51309676.845 9 -38929332.966 9  20039829.364 9  20039827.456 9
  20009632.543 9 -43137804.426 9 -33323288.834 9  20009633.155 9  20009631.262 9
 10  3 18  5  6  7.0000000  0  9G19G24G07G16G22G21G18G06G03
  22007690.935 8 -23360824.163 8 -18044030.333 9  22007689.861 9  22007689.000 9
  23167502.635 8 -52646357.903 8 -38616237.782 7  23167503.399 7  23167500.845 7
  24002139.902 7  -6455858.203 7  -4930417.328 7  24002139.972 7  24002138.577 8
  20668077.212 9 -50626893.923 9 -39327567.547 9  20668077.883 9  20668076.152 9
  21253779.775 9 -38258423.991 9 -28184729.231 9  21253778.811 9  21253778.232 9
  22401670.099 8 -57520241.644 8 -43605402.319 8  22401669.005 8  22401668.636 8
  21823522.322 9 -42467444.928 9 -32659671.884 9  21823521.364 9  21823520.616 9
  20039261.008 9 -51312659.007 9 -38931656.728 9  20039261.911 9  20039259.966 9
  20008936.765 9 -43141460.518 9 -33326137.736 9  20008937.391 9  20008935.571 9
 10  3 18  5  6  8.0000000  0  9G19G24G07G16G22G21G18G06G03
  22006821.810 8 -23365390.601 8 -18047588.596 9  22006820.886 9  22006820.052 9
  23167684.671 7 -52645399.632 7 -38615491.077 7  23167685.769 7  23167683.186 7
  24001613.477 7  -6458623.429 7  -4932572.048 7  24001613.776 7  24001612.368 8
  20668026.792 9 -50627159.147 9 -39327774.215 9  20668027.423 9  20668025.694 9
  21253027.264 9 -38262378.195 9 -28187810.429 9  21253026.364 9  21253025.742 9
  22401723.457 8 -57519961.311 8 -43605183.878 8  22401722.357 8  22401722.013 8
  21823172.886 9 -42469281.510 9 -32661102.986 9  21823171.874 9  21823171.112 9
  20038693.649 9 -51315640.913 9 -38933980.291 9  20038694.481 9  20038692.536 9
  20008241.016 9 -43145116.287 9 -33328986.387 9  20008241.697 9  20008239.955 9
 10  3 18  5  6  9.0000000  0  9G19G24G07G16G22G21G18G06G03
  22005952.897 8 -23369956.860 8 -18051146.719 9  22005951.943 9  22005951.129 9
  23167867.223 7 -52644441.292 7 -38614744.319 7  23167868.160 7  23167865.545 7
  24001087.114 7  -6461388.039 7  -4934726.289 8  24001087.722 8  24001086.282 8
  20667976.463 9 -50627423.818 9 -39327980.452 9  20667977.039 9  20667975.264 9
  21252274.848 9 -38266331.865 9 -28190891.210 9  21252274.003 9  21252273.364 9
  22401776.810 8 -57519680.782 8 -43604965.283 8  22401775.740 8  22401775.422 8
  21822823.502 9 -42471117.484 9 -32662533.616 9  21822822.529 9  21822821.765 9
  20038126.294 9 -51318622.505 9 -38936303.609 9  20038127.111 9  20038125.161 9
  20007545.394 9 -43148771.677 9 -33331834.742 9  20007546.079 9  20007544.406 9
 10  3 18  5  6 10.0000000  0  9G19G24G07G16G22G21G18G06G03
  22005084.082 8 -23374523.012 8 -18054704.758 9  22005083.049 9  22005082.230 9
  23168049.377 7 -52643482.893 7 -38613997.515 7  23168050.537 7  23168047.934 7
  24000561.209 7  -6464152.043 7  -4936880.059 7  24000561.761 7  24000560.314 8
  20667926.133 9 -50627688.004 9 -39328186.312 9  20667926.747 9  20667924.938 9
  21251522.532 9 -38270285.045 9 -28193971.609 9  21251521.724 9  21251521.093 9
  22401830.241 8 -57519400.129 8 -43604746.592 8  22401829.139 8  22401828.857 8
  21822474.331 9 -42472952.912 9 -32663963.819 9  21822473.290 9  21822472.526 9
  20037558.927 9 -51321603.830 9 -38938626.720 9  20037559.804 9  20037557.775 9
  20006849.825 9 -43152426.758 9 -33334682.857 9  20006850.539 9  20006848.890 9
 10  3 18  5  6 11.0000000  0  9G19G24G07G16G22G21G18G06G03
  22004215.181 8 -23379089.045 8 -18058262.705 9  22004214.190 9  22004213.354 9
  23168231.385 7 -52642524.432 7 -38613250.662 7  23168232.920 7  23168230.335 7
  24000035.480 7  -6466915.488 7  -4939033.393 7  24000035.852 7  24000034.448 8
  20667876.092 9 -50627951.704 9 -39328391.792 9  20667876.540 9  20667874.712 9
  21250770.200 9 -38274237.732 9 -28197051.624 9  21250769.560 9  21250768.911 9
  22401883.645 8 -57519119.320 8 -43604527.780 8  22401882.565 8  22401882.318 8
  21822125.063 9 -42474787.780 9 -32665393.587 9  21822124.134 9  21822123.380 9
  20036991.687 9 -51324584.884 9 -38940949.618 9  20036992.547 9  20036990.444 9
  20006154.381 9 -43156081.500 9 -33337530.708 9  20006155.073 9  20006153.445 9
 10  3 18  5  6 12.0000000  0  9G19G24G07G16G22G21G18G06G03
  22003346.265 8 -23383654.932 8 -18061820.539 9  22003345.340 9  22003344.486 9
  23168413.858 7 -52641565.873 7 -38612503.734 7  23168415.338 7  23168412.716 7
  23999509.476 7  -6469678.288 7  -4941186.225 7  23999510.089 7  23999508.697 8
  20667826.015 9 -50628214.885 9 -39328596.868 9  20667826.427 9  20667824.588 9
  21250018.004 9 -38278189.888 9 -28200131.226 9  21250017.520 9  21250016.828 9
  22401937.148 8 -57518838.354 8 -43604308.845 9  22401936.045 9  22401935.800 8
  21821775.945 9 -42476622.063 9 -32666822.898 9  21821775.085 9  21821774.344 9
  20036424.409 9 -51327565.626 9 -38943272.275 9  20036425.356 9  20036423.255 9
  20005458.982 9 -43159735.892 9 -33340378.286 9  20005459.711 9  20005458.078 9
 10  3 18  5  6 13.0000000  0  9G19G24G07G16G22G21G18G06G03
  22002477.273 8 -23388220.708 8 -18065378.285 9  22002476.505 9  22002475.637 9
  23168596.010 7 -52640607.317 7 -38611756.806 7  23168597.758 7  23168595.092 7
  23998983.821 7  -6472440.535 7  -4943338.626 7  23998984.470 7  23998983.030 8
  20667776.065 9 -50628477.592 9 -39328801.575 9  20667776.392 9  20667774.557 9
  21249266.111 9 -38282141.555 9 -28203210.446 9  21249265.565 9  21249264.856 9
  22401990.571 8 -57518557.249 8 -43604089.802 9  22401989.552 9  22401989.310 8
  21821426.977 9 -42478455.795 9 -32668251.779 9  21821426.146 9  21821425.425 9
  20035857.323 9 -51330546.114 9 -38945594.733 9  20035858.214 9  20035856.115 9
  20004763.610 9 -43163389.962 9 -33343225.613 9  20004764.408 9  20004762.765 9
 10  3 18  5  6 14.0000000  0  9G19G24G07G16G22G21G18G06G03
  22001608.329 8 -23392786.254 8 -18068935.852 9  22001607.704 9  22001606.837 9
  23168778.743 7 -52639648.608 7 -38611009.760 7  23168780.177 7  23168777.522 7
  23998457.854 7  -6475202.105 7  -4945490.498 7  23998458.964 7  23998457.493 7
  20667726.072 9 -50628739.714 9 -39329005.826 9  20667726.489 9  20667724.656 9
  21248514.234 9 -38286092.640 9 -28206289.213 9  21248513.720 9  21248513.014 9
  22402044.120 8 -57518275.911 8 -43603870.578 9  22402043.056 9  22402042.859 8
  21821078.118 9 -42480288.888 9 -32669680.164 9  21821077.328 9  21821076.629 9
  20035290.267 9 -51333526.263 9 -38947916.927 9  20035291.094 9  20035289.041 9
  20004068.409 9 -43167043.624 9 -33346072.622 9  20004069.179 9  20004067.516 9
 10  3 18  5  6 15.0000000  0  9G19G24G07G16G22G21G18G06G03
  22000739.605 8 -23397351.633 8 -18072493.289 9  22000738.940 9  22000738.078 9
  23168961.114 7 -52638689.779 7 -38610262.621 7  23168962.612 7  23168959.978 7
  23997932.371 7  -6477963.035 7  -4947641.871 7  23997933.566 7  23997932.093 7
  20667676.218 9 -50629001.285 9 -39329209.647 9  20667676.729 9  20667674.892 9
  21247762.518 9 -38290043.171 9 -28209367.548 9  21247761.972 9  21247761.252 9
  22402097.685 8 -57517994.375 8 -43603651.199 9  22402096.592 9  22402096.438 8
  21820729.241 9 -42482121.349 9 -32671108.055 9  21820728.598 9  21820727.920 9
  20034723.136 9 -51336506.064 9 -38950238.850 9  20034724.040 9  20034722.031 9
  20003373.290 9 -43170696.904 9 -33348919.333 9  20003374.008 9  20003372.322 9
 10  3 18  5  6 16.0000000  0  9G19G24G07G16G22G21G18G06G03
  21999870.819 8 -23401916.866 8 -18076050.613 9  21999870.177 9  21999869.337 9
  23169143.461 7 -52637730.876 7 -38609515.424 7  23169145.045 7  23169142.462 7
  23997406.942 7  -6480723.355 7  -4949792.770 7  23997408.303 7  23997406.799 7
  20667626.399 9 -50629262.342 9 -39329413.068 9  20667627.068 9  20667625.225 9
  21247010.837 9 -38293993.176 9 -28212445.473 9  21247010.321 9  21247009.573 9
  22402151.157 8 -57517712.671 8 -43603431.689 8  22402150.214 8  22402150.033 8
  21820380.513 9 -42483953.226 9 -32672535.490 9  21820379.975 9  21820379.318 9
  20034156.039 9 -51339485.587 9 -38952560.557 9  20034157.018 9  20034155.032 9
  20002678.263 9 -43174349.819 9 -33351765.761 9  20002678.868 9  20002677.158 9
 10  3 18  5  6 17.0000000  0  9G19G24G07G16G22G21G18G06G03
  21999002.239 8 -23406481.938 8 -18079607.811 9  21999001.437 9  21999000.625 9
  23169325.970 7 -52636771.906 7 -38608768.176 7  23169327.489 7  23169324.961 7
  23996881.883 7  -6483483.052 7  -4951943.183 7  23996883.199 7  23996881.615 7
  20667576.847 9 -50629522.880 9 -39329616.085 9  20667577.519 9  20667575.661 9
  21246259.291 9 -38297942.654 9 -28215522.988 9  21246258.773 9  21246257.998 9
  22402204.791 8 -57517430.787 8 -43603212.040 8  22402203.868 8  22402203.662 8
  21820031.896 9 -42485784.513 9 -32673962.467 9  21820031.487 9  21820030.822 9
  20033589.150 9 -51342464.784 9 -38954882.009 9  20033590.059 9  20033588.099 9
  20001983.270 9 -43178002.391 9 -33354611.921 9  20001983.795 9  20001982.064 9
