     2.10           OBSERVATION DATA    G (GPS)             RINEX VERSION / TYPE
teqc  2004Jan6      UNAVCO Archive Ops  20040107 14:50:57UTCPGM / RUN BY / DATE
Solaris 2.7|Ultra 2|cc SC5.0|=+-|*Sparc                     COMMENT
BIT 2 OF LLI FLAGS DATA COLLECTED UNDER A/S CONDITION       COMMENT
CHPI                                                        MARKER NAME
41609M003                                                   MARKER NUMBER
GGN                 JPL                                     OBSERVER / AGENCY
ZR220014902         ASHTECH UZ-12       CJ12                REC # / TYPE / VERS
CR620004602         ASH701945C_M    NONE                    ANT # / TYPE
  4164613.8847 -4162456.8801 -2445028.8318                  APPROX POSITION XYZ
        0.0792        0.0000        0.0000                  ANTENNA: DELTA H/E/N
     1     1                                                WAVELENGTH FACT L1/2
     5    L1    L2    C1    P2    P1                        # / TYPES OF OBSERV
    30.0000                                                 INTERVAL
RINEX file created by UNAVCO GPS Archive.                   COMMENT
For more information contact archive@unavco.org             COMMENT
Monument ID: 00000000-15666-2001a                           COMMENT
UNAVCO 4-char name:   CHPI                                  COMMENT
4-char name from Log or data file: CHPI                     COMMENT
Visit ID: 69352                                             COMMENT
End of DB comments                                          COMMENT
Version: Version:                                           COMMENT
Project: A__________________________                        COMMENT
 SNR is mapped to RINEX snr flag value [0-9]                COMMENT
  L1 & L2:  2-19 dBHz = 1, 20-27 dBHz = 2, 28-31 dBHz = 3   COMMENT
           32-35 dBHz = 4, 36-38 dBHz = 5, 39-41 dBHz = 6   COMMENT
           42-44 dBHz = 7, 45-48 dBHz = 8, >= 49 dBHz = 9   COMMENT
pseudorange smoothing corrections not applied               COMMENT
  2004     1     1     0     0    0.0000000     GPS         TIME OF FIRST OBS
                                                            END OF HEADER
 04  1  1  0  0  0.0000000  0  8G10G29G 8G27G28G 4G 7G26
  -8143028.44648  -6297003.27846  23687676.5244   23687681.5694   23687675.6744
 -23494347.20049 -18268582.33748  20921181.4914   20921183.4744   20921181.6654
 -17344804.57449 -13469395.41348  21782038.2394   21782039.2444   21782037.6424
  -9134242.98848  -7057945.86146  23654606.3524   23654608.4934   23654606.7694
 -22818213.27149 -17716077.92948  21197752.2804   21197752.6744   21197751.8134
  -1881489.89546  -1445741.81544  25301028.0484   25301036.7844   25301028.4594
 -28971261.79549 -22537153.96049  20164090.3644   20164092.7654   20164090.1484
 -16999308.65449 -13202866.93547  22395352.9894   22395356.2064   22395353.3764
 04  1  1  0  0 30.0000000  0  8G10G29G 8G27G28G 4G 7G26
  -8081683.39448  -6249201.95446  23699351.1874   23699354.5574   23699350.1894
 -23539190.75749 -18303525.35548  20912648.1524   20912649.9164   20912648.3644
 -17329086.69149 -13457147.70548  21785029.2444   21785030.4474   21785028.6794
  -9071627.66548  -7009154.69846  23666522.4274   23666523.2444   23666522.8994
 -22765431.91549 -17674949.58348  21207796.1354   21207796.7784   21207795.9844
  -1935139.68745  -1487546.86544  25290818.8884   25290831.3634   25290821.3414
 -29015145.95649 -22571349.38349  20155739.6044   20155741.3364   20155739.0694
 -17088476.53649 -13272348.36947  22378384.9254   22378387.8734   22378384.8494
 04  1  1  0  1  0.0000000  0  8G10G29G 8G27G28G 4G 7G26
  -8020220.49148  -6201308.79546  23711047.0054   23711051.6644   23711046.6484
 -23583477.28649 -18338034.32948  20904220.8624   20904222.5534   20904221.0094
 -17313207.57849 -13444774.34948  21788050.4454   21788052.0944   21788050.2874
  -9008852.34548  -6960238.87346  23678467.6334   23678469.7134   23678468.8214
 -22712505.91349 -17633708.52448  21217868.0354   21217867.8744   21217867.5744
  -1989059.33855  -1529562.21854  25280558.3704   25280567.3984   25280559.2914
 -29058469.93849 -22605108.30349  20147495.0394   20147497.3204   20147494.8114
 -17177305.38949 -13341565.62847  22361481.5734   22361483.7424   22361482.0684
 04  1  1  0  1 30.0000000  0  8G10G29G 8G27G28G 4G 7G26
  -7958650.28748  -6153332.02346  23722763.0934   23722767.9784   23722762.4684
 -23627212.51249 -18372113.71648  20895897.9394   20895899.9524   20895898.0804
 -17297173.80849 -13432280.50448  21791101.6784   21791103.0914   21791101.3304
  -8945924.31448  -6911204.04846  23690442.7504   23690445.6564   23690443.0684
 -22659444.40049 -17592361.87248  21227964.7654   21227965.1704   21227964.8934
  -2043254.90946  -1571792.59044  25270247.0764   25270254.5874   25270245.2534
 -29101239.88449 -22638435.50549  20139356.3064   20139358.5354   20139356.0814
 -17265799.85749 -13410522.32547  22344641.4664   22344643.7844   22344641.1174
 04  1  1  0  2  0.0000000  0  8G10G29G 8G27G28G 4G 7G26
  -7896972.90048  -6105271.71846  23734499.9724   23734504.0994   23734499.5084
 -23670391.97549 -18405760.04148  20887681.1134   20887682.7184   20887681.2944
 -17280981.19149 -13419662.88048  21794183.0714   21794184.2254   21794182.3194
  -8882840.50148  -6862047.84446  23702447.4504   23702449.7424   23702445.7844
 -22606246.89849 -17550909.25348  21238088.4234   21238088.5334   21238088.2694
  -2097721.62746  -1614234.22144  25259883.2004   25259889.1024   25259881.9824
 -29143451.45649 -22671327.61149  20131323.5214   20131325.9384   20131323.4704
 -17353954.33649 -13479214.09947  22327866.2434   22327869.0824   22327866.8634
 04  1  1  0  2 30.0000000  0  8G10G29G 8G27G28G 4G 7G26
  -7835190.87048  -6057129.90246  23746257.3344   23746261.3364   23746256.6764
 -23713013.13649 -18438971.32148  20879570.3244   20879572.2764   20879570.3574
 -17264627.86449 -13406920.02648  21797295.0544   21797296.2444   21797294.7174
  -8819600.03348  -6812769.55446  23714481.7364   23714483.4864   23714482.1584
 -22552914.71049 -17509351.68948  21248236.8804   21248237.1614   21248236.3714
  -2152457.74446  -1656885.76645  25249466.4634   25249472.0824   25249466.7834
 -29185102.41949 -22703782.88049  20123397.7824   20123399.8304   20123397.5824
 -17441765.08549 -13547638.02547  22311156.5584   22311158.2364   22311156.8284
 04  1  1  0  3  0.0000000  0  8G10G29G 8G27G28G 4G 7G26
  -7773311.09847  -6008911.91746  23758032.8654   23758036.7664   23758031.4574
 -23755077.77149 -18471748.94948  20871565.8344   20871567.2424   20871566.0704
 -17248116.08249 -13394053.69948  21800437.1414   21800438.8664   21800436.9054
  -8756206.17548  -6763371.73146  23726545.2584   23726547.1744   23726544.7094
 -22499452.95349 -17467693.15348  21258410.3484   21258410.7124   21258410.5774
  -2207465.10446  -1699748.70745  25238998.9244   25239006.5054   25239000.2104
 -29226194.66649 -22735802.79049  20115578.1684   20115580.3484   20115577.9194
 -17529232.64749 -13615794.54647  22294512.0054   22294513.9624   22294512.7154
 04  1  1  0  3 30.0000000  0  8G10G29G 8G27G28G 4G 7G26
  -7711328.53347  -5960613.81746  23769826.0044   23769831.8364   23769826.3714
 -23796576.04549 -18504085.25448  20863669.3344   20863670.4824   20863669.1774
 -17231436.76049 -13381056.81648  21803611.2844   21803612.2834   21803610.9244
  -8692650.91647  -6713848.14046  23738638.5414   23738640.9384   23738638.5974
 -22445855.30549 -17425928.74048  21268609.4514   21268609.8564   21268609.0424
  -2262733.51147  -1742815.05245  25228481.1774   25228488.8144   25228480.8304
 -29266718.87549 -22767380.07049  20107866.6674   20107868.6904   20107866.4814
 -17616346.22649 -13683675.23847  22277934.7234   22277936.6254   22277935.0384
 04  1  1  0  4  0.0000000  0  8G10G29G 8G27G28G 4G 7G26
  -7649251.16047  -5912241.85346  23781639.7064   23781643.9024   23781638.7014
 -23837511.39149 -18535982.91948  20855879.3444   20855881.3774   20855879.2354
 -17214593.75349 -13367932.39148  21806816.3404   21806817.6184   21806816.1894
  -8628939.00148  -6664202.49446  23750762.8744   23750764.9194   23750763.7214
 -22392129.01249 -17384064.07448  21278833.5544   21278833.5344   21278833.2484
  -2318266.91247  -1786087.93445  25217913.8914   25217922.9674   25217912.7814
 -29306678.66649 -22798517.54049  20100262.5294   20100264.5284   20100262.1604
 -17703107.90149 -13751281.71847  22261425.0334   22261426.6774   22261424.9854
 04  1  1  0  4 30.0000000  0  8G10G29G 8G27G28G 4G 7G26
  -7587085.41747  -5863801.03946  23793470.4864   23793474.3434   23793469.0724
 -23877885.48249 -18567443.23448  20848196.7064   20848198.0974   20848196.6874
 -17197589.16049 -13354682.05548  21810052.1814   21810053.6684   21810051.7164
  -8565073.43747  -6614437.12846  23762915.7054   23762919.0884   23762915.1984
 -22338278.90749 -17342102.93548  21289080.3884   21289081.0184   21289080.1814
  -2374066.86646  -1829568.47845  25207294.5784   25207302.4284   25207293.9424
 -29346075.92549 -22829216.68449  20092765.5844   20092767.4134   20092765.2444
 -17789518.01349 -13818614.24847  22244980.9624   22244983.6934   22244980.9384
 04  1  1  0  5  0.0000000  0  8G10G29G 8G27G28G 4G 7G26
  -7524830.11148  -5815290.43146  23805316.9514   23805320.9384   23805316.5454
 -23917692.53149 -18598461.70948  20840621.4434   20840623.5004   20840621.5484
 -17180417.67549 -13341301.67648  21813319.6834   21813320.8844   21813319.5334
  -8501049.98447  -6564548.71146  23775099.5074   23775103.7734   23775098.8444
 -22284302.67449 -17300043.51348  21299352.0744   21299352.4904   21299351.6004
  -2430127.35447  -1873252.04345  25196627.5894   25196635.2514   25196626.2434
 -29384904.88049 -22859472.98949  20085376.4334   20085378.6874   20085376.1144
 -17875569.46849 -13885667.31247  22228606.1314   22228608.6154   22228606.1904
 04  1  1  0  5 30.0000000  0  8G10G29G 8G27G28G 4G 7G26
  -7462488.38247  -5766712.47346  23817180.0614   23817183.8994   23817179.7814
 -23956930.95649 -18629037.08348  20833154.4974   20833156.4474   20833154.5194
 -17163078.13749 -13327790.34148  21816619.4744   21816620.4794   21816619.1334
  -8436868.70447  -6514537.34045  23787313.1984   23787314.7794   23787312.2084
 -22230202.39749 -17257887.42948  21309646.6644   21309646.9324   21309646.4104
  -2486446.93747  -1917137.52545  25185909.8964   25185919.3924   25185913.1804
 -29423164.41249 -22889285.59349  20078096.0964   20078097.9714   20078095.6954
 -17961259.79749 -13952438.97347  22212300.1704   22212301.9414   22212299.9884
 04  1  1  0  6  0.0000000  0  8G10G29G 8G27G28G 4G 7G26
  -7400063.16547  -5718069.47046  23829058.2864   23829063.9674   23829058.0384
 -23995599.01649 -18659168.03748  20825796.5134   20825798.2344   20825796.3744
 -17145569.33149 -13314147.10948  21819951.2734   21819952.3164   21819951.3204
  -8372529.30348  -6464402.75646  23799556.1854   23799557.7564   23799556.1104
 -22175979.68449 -17215635.94548  21319965.0794   21319965.3254   21319964.6434
  -2543023.85947  -1961223.53745  25175145.4874   25175152.0314   25175143.9254
 -29460853.03949 -22918653.33749  20070923.8254   20070926.0544   20070923.6324
 -18046585.83749 -14018926.77147  22196062.4974   22196065.1214   22196063.1034
 04  1  1  0  6 30.0000000  0  8G10G29G 8G27G28G 4G 7G26
  -7337557.77048  -5669363.98946  23840953.3224   23840958.1134   23840952.4164
 -24033695.13949 -18688853.31248  20818546.8824   20818548.4314   20818546.9254
 -17127890.02049 -13300371.01048  21823315.4934   21823316.3794   21823314.4674
  -8308031.64947  -6414144.83945  23811829.6794   23811832.3414   23811830.0934
 -22121636.47749 -17173290.57148  21330306.1524   21330306.7354   21330305.8304
  -2599856.40447  -2005508.73444  25164329.3264   25164335.7234   25164329.8764
 -29497969.57049 -22947575.28949  20063860.9194   20063863.0494   20063860.8294
 -18131544.68849 -14085128.45047  22179895.4844   22179897.4164   22179895.8574
 04  1  1  0  7  0.0000000  0  8G10G29G 8G27G28G 4G 7G26
  -7274978.12248  -5620600.64546  23852862.2394   23852866.0704   23852860.9604
 -24071220.84149 -18718094.11348  20811406.2174   20811407.7594   20811405.9664
 -17110041.92449 -13286463.39848  21826712.1284   21826713.3834   21826711.4604
  -8243378.44647  -6363765.74645  23824133.4054   23824134.0294   23824132.3954
 -22067177.41949 -17130854.92448  21340669.6584   21340669.5964   21340669.3664
  -2656945.77847  -2049994.03545  25153466.0574   25153472.8494   25153463.9034
 -29534515.50949 -22976052.62149  20056906.4484   20056908.4944   20056906.2054
 -18216136.36149 -14151044.01348  22163798.7784   22163800.5044   22163798.3534
 04  1  1  0  7 30.0000000  0  8G10G29G 8G27G28G 4G 7G26
  -7212323.79048  -5571779.11146  23864784.4244   23864788.4334   23864783.4104
 -24108170.99249 -18746886.43249  20804374.6704   20804376.5404   20804374.4784
 -17092020.56049 -13272420.76848  21830141.2384   21830142.1304   21830141.0214
  -8178566.20447  -6313262.70145  23836466.5144   23836467.6514   23836466.0184
 -22012601.02549 -17088327.84748  21351055.1714   21351054.8744   21351054.6054
  -2714286.89347  -2094675.47044  25142554.9524   25142561.8364   25142555.5724
 -29570486.17949 -23004081.69649  20050061.2874   20050063.4044   20050061.1014
 -18300354.58649 -14216668.57647  22147772.3294   22147774.3354   22147772.1134
 04  1  1  0  8  0.0000000  0  8G10G29G 8G27G28G 4G 7G26
  -7149600.45248  -5522903.79046  23876720.6344   23876724.9414   23876718.7734
 -24144547.16149 -18775231.48749  20797452.1844   20797454.1604   20797452.3724
 -17073827.61149 -13258244.44348  21833603.1974   21833604.0894   21833602.7984
  -8113597.56147  -6262637.77545  23848829.6764   23848830.9694   23848830.1834
 -21957911.91649 -17045712.94148  21361461.9304   21361462.5454   21361462.0594
  -2771880.71847  -2139553.78645  25131593.7424   25131601.1904   25131594.1514
 -29605883.24049 -23031663.80449  20043325.6574   20043327.6194   20043325.4034
 -18384199.39549 -14282002.17248  22131817.3214   22131818.5064   22131817.1924
 04  1  1  0  8 30.0000000  0  8G10G29G 8G27G28G 4G 7G26
  -7086806.52448  -5473973.49646  23888670.5394   23888674.4084   23888670.1314
 -24180342.68949 -18803124.09749  20790640.7104   20790642.7004   20790640.8354
 -17055456.87849 -13243929.58648  21837099.1814   21837100.1714   21837098.4474
  -8048467.66047  -6211887.20945  23861223.3294   23861226.1344   23861222.2284
 -21903107.00149 -17003007.80248  21371890.9954   21371890.9824   21371890.8534
  -2829720.87946  -2184624.03645  25120587.4674   25120597.0654   25120587.6574
 -29640700.60449 -23058794.19649  20036700.0854   20036701.9524   20036699.8684
 -18467663.14949 -14347038.83648  22115934.4434   22115936.4104   22115935.2034
 04  1  1  0  9  0.0000000  0  8G10G29G 8G27G28G 4G 7G26
  -7023948.51448  -5424993.24446  23900631.3814   23900635.3204   23900630.8424
 -24215560.14649 -18830566.25849  20783939.2784   20783940.4644   20783939.2244
 -17036911.01349 -13229478.25448  21840628.2604   21840629.7224   21840627.5724
  -7983179.86347  -6161013.60545  23873647.0424   23873648.9384   23873646.1074
 -21848191.58049 -16960216.55048  21382341.1704   21382341.0504   21382340.8114
  -2887809.00047  -2229887.46444  25109533.9854   25109539.4644   25109533.5294
 -29674940.65849 -23085474.74049  20030184.3964   20030186.5434   20030184.0914
 -18550746.47149 -14411779.06048  22100123.8784   22100126.0164   22100124.0154
 04  1  1  0  9 30.0000000  0  8G10G29G 8G27G28G 4G 7G26
  -6961029.94748  -5375965.79446  23912604.4124   23912608.6534   23912604.1784
 -24250198.00149 -18857556.79049  20777348.0154   20777349.4254   20777347.9204
 -17018188.95549 -13214889.62748  21844190.9074   21844191.5834   21844190.1434
  -7917734.41647  -6110017.14745  23886100.9604   23886102.1154   23886100.4054
 -21793167.68649 -16917340.77148  21392811.8694   21392811.7164   21392811.4184
  -2946143.77247  -2275343.05444  25098432.4964   25098437.5904   25098431.9204
 -29708602.56749 -23111704.78149  20023778.7504   20023780.7904   20023778.5004
 -18633446.87449 -14476220.91048  22084386.4804   22084389.6274   22084386.8064
 04  1  1  0 10  0.0000000  0  8G10G29G 8G27G28G 4G 7G26
  -6898053.58548  -5326893.31945  23924588.0644   23924592.7044   23924587.2824
 -24284254.57349 -18884094.37049  20770866.9604   20770868.5844   20770866.9134
 -16999289.18549 -13200162.52648  21847787.2884   21847788.6614   21847787.1694
  -7852130.81147  -6058897.48745  23898584.6924   23898586.4534   23898584.5104
 -21738036.75049 -16874381.59448  21403302.8244   21403303.3764   21403303.1574
  -3004722.79047  -2320988.95544  25087285.9374   25087291.4954   25087287.0244
 -29741684.67449 -23137483.03049  20017483.5844   20017485.4004   20017483.0654
 -18715760.91649 -14540361.70448  22068722.4774   22068724.4724   22068722.6794
 04  1  1  0 10 30.0000000  0  8G10G29G 8G27G28G 4G 7G26
  -6835020.17148  -5277776.38545  23936583.5494   23936587.3114   23936582.7164
 -24317726.32149 -18910176.24149  20764497.3024   20764499.2964   20764497.3564
 -16980208.39149 -13185294.36248  21851418.2384   21851419.3154   21851418.0414
  -7786366.68246  -6007652.71745  23911098.4724   23911101.8194   23911097.4434
 -21682798.11349 -16831338.47948  21413814.7054   21413814.7274   21413814.1214
  -3063542.22447  -2366822.12544  25076092.4394   25076101.3754   25076095.4284
 -29774183.85649 -23162807.04949  20011298.9754   20011301.2014   20011298.5534
 -18797683.74549 -14604197.65148  22053133.1654   22053135.6054   22053133.7694
 04  1  1  0 11  0.0000000  0  8G10G29G 8G27G28G 4G 7G26
  -6771933.89347  -5228618.26045  23948587.6294   23948591.9494   23948588.1344
 -24350613.15349 -18935802.33749  20758239.3514   20758240.7514   20758239.3284
 -16960946.65749 -13170285.21748  21855083.7904   21855085.2654   21855084.0464
  -7720443.37147  -5956283.90445  23923643.8104   23923646.8754   23923644.6844
 -21627454.85949 -16788213.85248  21424345.8964   21424346.1774   21424345.3534
  -3122601.74047  -2412842.31144  25064853.6314   25064861.6134   25064854.8814
 -29806100.22249 -23187676.93249  20005225.4324   20005227.5224   20005225.4124
 -18879213.96849 -14667727.68648  22037619.2094   22037620.6454   22037619.1974
 04  1  1  0 11 30.0000000  0  8G10G29G 8G27G28G 4G 7G26
  -6708800.84347  -5179423.68445  23960601.4034   23960606.4444   23960602.4124
 -24382916.87049 -18960974.05449  20752092.1634   20752093.9184   20752092.2284
 -16941505.90949 -13155136.56948  21858783.1764   21858784.6344   21858783.3074
  -7654363.88847  -5904793.42045  23936218.9364   23936220.3794   23936218.9054
 -21572012.06649 -16745011.66448  21434896.5274   21434896.4314   21434896.0204
  -3181902.56946  -2459050.51444  25053568.1784   25053576.4544   25053566.2804
 -29837435.93849 -23212094.35249  19999262.5444   19999264.4544   19999262.1134
 -18960351.87849 -14730952.01348  22022178.8244   22022180.1864   22022178.9884
 04  1  1  0 12  0.0000000  0  8G10G29G 8G27G28G 4G 7G26
  -6645620.32447  -5130192.12545  23972624.9494   23972628.6924   23972623.9664
 -24414632.53449 -18985687.55449  20746056.9264   20746058.1414   20746056.8284
 -16921881.45649 -13139844.78348  21862517.6304   21862518.7914   21862517.2014
  -7588124.54147  -5853178.36045  23948823.9094   23948825.9124   23948824.0124
 -21516467.59749 -16701730.24748  21445466.0314   21445466.2954   21445465.7194
  -3241439.11447  -2505442.35244  25042238.1824   25042247.3454   25042240.2674
 -29868186.03149 -23236055.44649  19993410.8974   19993412.8684   19993410.8764
 -19041090.87749 -14793865.49648  22006814.9674   22006817.0844   22006814.9574
 04  1  1  0 12 30.0000000  0  8G10G29G 8G27G28G 4G 7G26
  -6582394.77247  -5080925.46545  23984655.7894   23984660.9734   23984657.5344
 -24445758.10449 -19009941.23549  20740134.1604   20740135.8064   20740134.1824
 -16902071.33449 -13124408.31448  21866287.4064   21866288.4494   21866287.0114
  -7521724.62747  -5801438.14645  23961458.7574   23961460.8184   23961458.5784
 -21460822.73149 -16658370.60548  21456054.7784   21456055.1234   21456054.5174
  -3301208.91347  -2552015.91744  25030865.9834   25030873.2104   25030866.0924
 -29898348.98149 -23259559.02349  19987671.0774   19987673.0204   19987670.8664
 -19121427.47949 -14856465.42248  21991527.0944   21991529.4904   21991527.6514
 04  1  1  0 13  0.0000000  0  8G10G29G 8G27G28G 4G 7G26
  -6519128.57747  -5031627.15745  23996694.3614   23996698.5974   23996692.3244
 -24476293.53049 -19033735.06249  20734323.1164   20734324.7524   20734322.7674
 -16882075.53849 -13108827.16548  21870092.1984   21870092.9544   21870091.8264
  -7455165.07847  -5749573.56945  23974125.2704   23974127.8624   23974124.3614
 -21405080.13949 -16614934.80648  21466662.3294   21466662.0924   21466661.8724
  -3361211.42047  -2598770.80545  25019447.2584   25019453.6734   25019449.3924
 -29927924.95849 -23282605.22049  19982043.0944   19982045.1674   19982042.8374
 -19201360.08449 -14918750.54448  21976316.1684   21976318.4624   21976316.8364
 04  1  1  0 13 30.0000000  0  8G10G29G 8G27G28G 4G 7G26
  -6455826.96147  -4982301.24045  24008741.2324   24008745.9864   24008739.7114
 -24506239.94549 -19057069.92349  20728624.7744   20728626.1054   20728624.8744
 -16861895.09649 -13093102.13748  21873932.5524   21873933.5694   21873932.0844
  -7388448.19847  -5697586.41145  23986820.7924   23986822.3404   23986819.8904
 -21349243.71549 -16571425.87948  21477287.9434   21477288.0244   21477287.1204
  -3421447.02847  -2645707.30944  25007984.7934   25007993.1194   25007986.0934
 -29956915.29749 -23305195.07349  19976526.2794   19976528.1834   19976525.9634
 -19280888.26349 -14980720.53548  21961182.6324   21961184.4384   21961182.4714
 04  1  1  0 14  0.0000000  0  8G10G29G 8G27G28G 4G 7G26
  -6392490.70847  -4932948.35945  24020793.3064   24020798.7404   24020792.2304
 -24535594.11249 -19079943.29549  20723038.7004   20723040.2584   20723038.7084
 -16841527.23249 -13077231.06448  21877808.3864   21877809.2654   21877808.6044
  -7321572.10747  -5645475.18046  23999546.7684   23999548.3764   23999546.8484
 -21293313.24649 -16527843.69048  21487930.7374   21487931.6694   21487930.5594
  -3481912.09246  -2692822.54844  24996476.4114   24996486.5994   24996478.5184
 -29985317.18549 -23327326.40149  19971121.4844   19971123.6714   19971121.4044
 -19360007.25449 -15042371.67848  21946126.6994   21946128.8604   21946126.9894
 04  1  1  0 14 30.0000000  0  8G10G29G 8G27G28G 4G 7G26
  -6329122.34047  -4883570.42945  24032852.4344   24032857.3034   24032852.0064
 -24564354.41249 -19102353.91249  20717565.4234   20717567.2474   20717565.7004
 -16820970.06549 -13061212.48648  21881720.3084   21881721.3844   21881719.9994
  -7254536.15847  -5593239.37746  24012303.9964   24012305.1474   24012303.4764
 -21237290.11549 -16484189.29048  21498591.8774   21498592.2664   21498591.5854
  -3542604.10046  -2740114.63945  24984928.3564   24984934.9844   24984928.4384
 -30013129.10149 -23348998.00649  19965829.1004   19965831.2444   19965829.0754
 -19438713.64149 -15103701.31448  21931149.5534   21931151.4664   21931149.7294
 04  1  1  0 15  0.0000000  0  8G10G29G 8G27G28G 4G 7G26
  -6265725.77647  -4834170.55545  24044916.6864   24044921.1024   24044916.4274
 -24592520.36849 -19124301.40449  20712206.0534   20712207.5144   20712206.0164
 -16800223.37449 -13045046.22348  21885668.1994   21885668.9534   21885667.4914
  -7187341.11347  -5540879.60545  24025090.2374   24025091.0874   24025089.4444
 -21181176.50549 -16440464.38748  21509269.8804   21509270.0574   21509269.8124
  -3603522.01346  -2787582.72845  24973334.8554   24973342.7984   24973336.2764
 -30040351.10449 -23370209.94249  19960649.0224   19960650.7594   19960648.6774
 -19517005.73049 -15164708.11648  21916251.1954   21916252.5184   21916251.5004
 04  1  1  0 15 30.0000000  0  8G10G29G 8G27G28G 4G 7G26
  -6202302.42347  -4784749.79645  24056985.2444   24056989.7554   24056984.4324
 -24620089.12649 -19145783.54749  20706959.9314   20706961.3184   20706960.1354
 -16779284.07449 -13028729.88248  21889652.8234   21889654.2054   21889652.4894
  -7119985.23647  -5488394.51245  24037907.2894   24037908.7944   24037906.5024
 -21124972.57049 -16396669.09948  21519965.1344   21519965.5394   21519964.6344
  -3664662.19547  -2835224.02045  24961701.5824   24961708.6014   24961701.5294
 -30066980.55049 -23390960.13649  19955581.6464   19955583.3774   19955581.2644
 -19594878.92449 -15225388.50948  21901431.6404   21901433.9984   21901432.1454
 04  1  1  0 16  0.0000000  0  8G10G29G 8G27G28G 4G 7G26
  -6138856.92747  -4735311.77745  24069057.7274   24069062.9714   24069058.3344
 -24647061.56349 -19166801.02649  20701827.2464   20701828.7054   20701827.0874
 -16758153.18249 -13012264.25348  21893673.9124   21893674.8904   21893673.6394
  -7052470.44348  -5435785.61846  24050755.8054   24050756.8664   24050755.8544
 -21068681.74849 -16352806.11048  21530676.9814   21530677.0124   21530676.3154
  -3726024.66446  -2883038.51545  24950021.8564   24950030.5464   24950021.8654
 -30093018.45149 -23411249.39649  19950626.6024   19950628.5404   19950626.5834
 -19672332.39949 -15285741.84748  21886692.9994   21886695.1844   21886693.0404
 04  1  1  0 16 30.0000000  0  8G10G29G 8G27G28G 4G 7G26
  -6075392.60747  -4685859.08045  24081135.8534   24081139.8844   24081135.6144
 -24673436.75149 -19187353.11649  20696807.8674   20696809.6184   20696808.1194
 -16736829.49549 -12995648.38548  21897731.6594   21897733.1904   21897731.7024
  -6984796.79947  -5383052.89946  24063632.9254   24063634.6834   24063632.9304
 -21012305.70349 -16308876.70348  21541405.1134   21541405.0584   21541404.5574
  -3787607.65046  -2931024.83545  24938303.4814   24938310.4584   24938303.8124
 -30118464.18449 -23431077.21549  19945784.3544   19945786.4554   19945784.0754
 -19749363.53249 -15345766.09248  21872034.6934   21872036.6954   21872035.1014
 04  1  1  0 17  0.0000000  0  8G10G29G 8G27G28G 4G 7G26
  -6011910.57047  -4636392.59345  24093216.8864   24093220.5494   24093215.1404
 -24699211.83449 -19207437.58949  20691903.1364   20691904.8794   20691903.1714
 -16715310.34849 -12978880.21148  21901826.3974   21901827.9944   21901826.4064
  -6916962.66448  -5330195.09346  24076541.8824   24076544.3034   24076542.0384
 -20955844.45149 -16264880.90648  21552148.7944   21552149.4134   21552148.3864
  -3849407.53646  -2979180.13645  24926542.5674   24926551.2264   24926544.2494
 -30143315.32449 -23450441.71649  19941055.4934   19941057.3814   19941055.2154
 -19825967.90449 -15405457.78448  21857457.4934   21857459.8204   21857457.7474
 04  1  1  0 17 30.0000000  0  8G10G29G 8G27G28G 4G 7G26
  -5948416.38747  -4586916.65145  24105298.9274   24105302.8414   24105297.1384
 -24724388.58749 -19227055.83949  20687112.2014   20687113.8774   20687112.4274
 -16693597.04749 -12961960.75248  21905958.4544   21905959.9564   21905958.6634
  -6848970.59048  -5277214.27346  24089480.2294   24089481.9264   24089481.8054
 -20899302.30849 -16220822.09048  21562908.6544   21562908.5484   21562908.4064
  -3911425.14846  -3027505.12545  24914742.4874   24914748.1034   24914743.3414
 -30167573.70149 -23469344.32549  19936439.1404   19936441.4794   19936439.1334
 -19902145.40349 -15464816.85848  21842961.1924   21842962.8504   21842961.6394
 04  1  1  0 18  0.0000000  0  8G10G29G 8G27G28G 4G 7G26
  -5884908.44947  -4537429.96645  24117383.2914   24117388.3234   24117382.5014
 -24748961.34449 -19246203.43249  20682436.1254   20682437.9194   20682436.0894
 -16671683.89849 -12944885.56848  21910128.2314   21910129.5474   21910128.6134
  -6780816.16747  -5224106.94446  24102449.3244   24102451.8684   24102449.3294
 -20842676.34249 -16176697.94748  21573684.1184   21573684.4294   21573683.8874
  -3973653.93946  -3075994.65145  24902898.3664   24902907.2134   24902897.6574
 -30191233.98649 -23487780.88749  19931936.8304   19931938.7584   19931936.5574
 -19977888.83049 -15523837.69348  21828547.7144   21828549.8984   21828547.4954
 04  1  1  0 18 30.0000000  0  8G10G29G 8G27G28G 4G 7G26
  -5821393.03847  -4487937.47245  24129470.1624   24129475.4364   24129469.6784
 -24772932.39749 -19264882.16949  20677874.6994   20677876.6184   20677874.9384
 -16649573.22649 -12927656.47348  21914336.0464   21914336.7874   21914335.6624
  -6712502.64447  -5170875.64246  24115448.1694   24115451.0954   24115448.6864
 -20785971.16249 -16132512.08648  21584474.9094   21584475.5274   21584474.8654
  -4036094.96146  -3124649.56545  24891016.9314   24891022.9944   24891017.7654
 -30214298.85449 -23505753.49049  19927547.6254   19927549.5584   19927547.5084
 -20053198.78049 -15582520.75748  21814216.1134   21814218.6154   21814216.9344
 04  1  1  0 19  0.0000000  0  8G10G29G 8G27G28G 4G 7G26
  -5757874.11047  -4438442.23745  24141556.8454   24141561.8714   24141555.6284
 -24796301.99249 -19283092.23249  20673427.2314   20673429.0834   20673427.4694
 -16627265.06049 -12910273.48048  21918580.8304   21918582.2654   21918580.6094
  -6644031.02648  -5117521.14746  24128478.2374   24128480.6184   24128478.6974
 -20729189.60049 -16088266.70848  21595279.7984   21595280.6844   21595279.5224
  -4098747.83346  -3173469.56945  24879093.3494   24879100.8834   24879093.7064
 -30236768.71849 -23523262.45149  19923271.9994   19923273.8164   19923271.6464
 -20128073.63649 -15640864.77448  21799968.2224   21799970.3174   21799968.4264
 04  1  1  0 19 30.0000000  0  8G10G29G 8G27G28G 4G 7G26
  -5694350.82647  -4388943.63145  24153646.3814   24153650.0184   24153645.6924
 -24819065.40549 -19300829.95249  20669095.7824   20669097.6564   20669095.7904
 -16604754.21849 -12892732.55548  21922864.5754   21922865.6614   21922864.1914
  -6575397.81547  -5064040.71146  24141538.6104   24141541.6224   24141539.4884
 -20672329.60349 -16043960.20248  21606100.4104   21606100.7904   21606100.2424
  -4161606.52646  -3222449.93245  24867132.2334   24867140.0754   24867132.6694
 -30258639.28049 -23540304.42049  19919110.1044   19919111.7604   19919109.8074
 -20202507.07549 -15698864.84748  21785804.4154   21785806.5534   21785804.6164
 04  1  1  0 20  0.0000000  0  8G10G29G 8G27G28G 4G 7G26
  -5630831.48447  -4339448.07545  24165733.3114   24165736.8664   24165732.4724
 -24841227.13149 -19318098.82349  20664878.3074   20664880.3164   20664878.5434
 -16582045.06449 -12875037.10948  21927186.3294   21927186.9194   21927185.6554
  -6506608.28347  -5010438.47446  24154629.6054   24154630.8204   24154628.9914
 -20615397.93849 -15999597.85548  21616933.8444   21616934.0674   21616933.8944
  -4224674.46947  -3271593.37145  24855131.3024   24855137.1614   24855130.6064
 -30279915.19149 -23556883.03349  19915061.0584   19915063.2064   19915061.1234
 -20276501.71449 -15756522.98948  21771723.5724   21771724.8864   21771723.8004
 04  1  1  0 20 30.0000000  0  8G10G29G 8G27G28G 4G 7G26
  -5567314.09647  -4289954.02445  24177819.6254   24177824.4674   24177819.2064
 -24862781.22449 -19334894.21649  20660777.1084   20660778.5484   20660777.1384
 -16559131.56449 -12857182.42548  21931546.1574   21931547.6934   21931545.7184
  -6437657.36747  -4956710.50746  24167750.6574   24167752.5244   24167750.5164
 -20558391.14349 -15955176.96248  21627781.8344   21627782.1854   21627781.9334
  -4287944.68447  -3320894.43145  24843091.4734   24843096.5254   24843090.9194
 -30300590.93549 -23572993.97949  19911126.9154   19911128.9584   19911126.6364
 -20350050.00849 -15813833.33048  21757727.7784   21757729.5494   21757728.0914
 04  1  1  0 21  0.0000000  0  8G10G29G 8G27G28G 4G 7G26
  -5503809.01247  -4240469.58445  24189905.1884   24189908.6204   24189904.1144
 -24883734.16249 -19351221.17949  20656789.9644   20656791.4594   20656789.9614
 -16536020.11349 -12839173.50048  21935944.3884   21935945.1724   21935943.9364
  -6368552.60447  -4902862.65446  24180900.8934   24180903.0034   24180900.5804
 -20501318.30949 -15910704.61448  21638642.4704   21638642.4804   21638642.6594
  -4351422.63147  -3370357.35545  24831011.0194   24831016.6574   24831011.7614
 -30320673.26449 -23588642.52449  19907305.2614   19907306.9384   19907305.0744
 -20423156.51049 -15870799.42048  21743816.3064   21743817.8864   21743816.8254
 04  1  1  0 21 30.0000000  0  8G10G29G 8G27G28G 4G 7G26
  -5440305.31847  -4190986.21945  24201988.6814   24201994.4664   24201988.1814
 -24904071.46249 -19367068.42149  20652919.4904   20652921.2474   20652919.6044
 -16512695.50149 -12820998.47048  21940382.7284   21940383.8744   21940382.2834
  -6299280.20747  -4848884.17346  24194082.4334   24194085.3334   24194082.0934
 -20444167.14749 -15866171.22048  21649517.4224   21649518.7404   21649517.0504
  -4415092.26847  -3419969.67445  24818894.9834   24818900.3024   24818894.4374
 -30340147.85649 -23603817.50849  19903599.1894   19903601.4594   19903598.9524
 -20495804.90849 -15927408.54948  21729991.2184   21729993.1204   21729991.6174
 04  1  1  0 22  0.0000000  0  8G10G29G 8G27G28G 4G 7G26
  -5376817.85048  -4141515.51245  24214071.2614   24214074.7814   24214070.3674
 -24923804.40049 -19382444.72549  20649164.6864   20649165.9544   20649164.4624
 -16489168.99449 -12802666.12848  21944859.7264   21944860.7614   21944859.8834
  -6229852.39947  -4794784.59045  24207293.7114   24207296.7944   24207293.3124
 -20386951.13549 -15821587.31348  21660405.6134   21660405.7514   21660405.5834
  -4478963.82347  -3469739.33145  24806740.5164   24806745.4814   24806739.9804
 -30359026.23549 -23618527.91549  19900006.9764   19900008.7664   19900006.7114
 -20568004.60749 -15983668.04648  21716252.4744   21716254.0704   21716252.4844
 04  1  1  0 22 30.0000000  0  8G10G29G 8G27G28G 4G 7G26
  -5313342.44047  -4092054.16845  24226148.9434   24226154.2454   24226148.8234
 -24942925.18849 -19397344.03449  20645526.1854   20645527.7034   20645526.3204
 -16465432.38249 -12784170.05748  21949376.8854   21949378.2594   21949376.8264
  -6160262.16847  -4740558.46845  24220537.0044   24220538.0354   24220536.6164
 -20329664.65049 -15776948.48148  21671307.0804   21671307.1144   21671306.9064
  -4543028.22647  -3519659.26645  24794548.8784   24794554.4334   24794549.9024
 -30377300.93949 -23632767.92049  19896529.2484   19896531.1874   19896529.1254
 -20639746.01249 -16039570.42548  21702600.2714   21702602.4424   21702600.4804
 04  1  1  0 23  0.0000000  0  8G10G29G 8G27G28G 4G 7G26
  -5249887.51347  -4042608.82945  24238225.4334   24238229.4494   24238224.1764
 -24961438.56049 -19411770.03449  20642003.0424   20642004.4694   20642003.0554
 -16441489.73249 -12765513.44948  21953933.0324   21953934.2544   21953932.8814
  -6090514.99147  -4686210.02245  24233808.9244   24233811.1214   24233808.4004
 -20272314.81849 -15732260.29348  21682220.0714   21682220.5034   21682219.6984
  -4607288.74847  -3569732.05645  24782319.6214   24782326.1414   24782319.9004
 -30394976.95949 -23646541.42149  19893165.8654   19893167.6094   19893165.6554
 -20711031.86049 -16095117.83048  21689035.1824   21689036.7114   21689035.1134
 04  1  1  0 23 30.0000000  0  8G10G29G 8G27G28G 4G 7G26
  -5186453.11147  -3993179.46545  24250295.8244   24250299.2744   24250293.8944
 -24979340.86749 -19425719.88149  20638596.5914   20638597.9814   20638596.5244
 -16417337.32249 -12746693.37948  21958528.9794   21958530.1714   21958528.0794
  -6020608.13147  -4631737.14345  24247112.3344   24247115.5214   24247111.6624
 -20214900.25749 -15687521.67448  21693146.1954   21693146.0464   21693145.7914
  -4671740.64547  -3619953.94945  24770054.9024   24770059.7114   24770054.6504
 -30412051.11749 -23659845.94149  19889916.5374   19889918.7074   19889916.5644
 -20781856.88749 -16150306.14348  21675557.8154   21675559.6154   21675558.1254
 04  1  1  0 24  0.0000000  0  8G10G29G 8G27G28G 4G 7G26
  -5123041.11947  -3943767.54845  24262362.5754   24262367.3504   24262363.2814
 -24996630.85049 -19439192.58949  20635306.0834   20635307.9474   20635306.1144
 -16392973.05749 -12727708.23448  21963165.2084   21963166.5204   21963164.7474
  -5950540.93347  -4577139.34545  24260446.2364   24260447.3724   24260444.8034
 -20157421.67649 -15642733.14948  21704083.5224   21704083.9684   21704083.4914
  -4736380.89447  -3670322.62045  24757754.2184   24757759.7844   24757754.1084
 -30428522.04649 -23672680.40849  19886782.3644   19886783.9084   19886781.7614
 -20852217.63649 -16205132.68948  21662168.1554   21662170.3924   21662168.3054
 04  1  1  0 24 30.0000000  0  8G10G29G 8G27G28G 4G 7G26
  -5059656.01647  -3894376.60545  24274424.3374   24274429.1584   24274425.1614
 -25013309.09949 -19452188.62649  20632132.6294   20632134.1104   20632132.6364
 -16368397.57349 -12708558.51148  21967841.9294   21967843.3634   21967841.2984
  -5880314.98746  -4522417.83245  24273808.9774   24273810.7964   24273809.0114
 -20099881.71449 -15597896.81348  21715033.3934   21715033.2534   21715033.0884
  -4801208.99847  -3720837.65945  24745416.6654   24745423.2994   24745418.1884
 -30444390.98449 -23685045.79849  19883762.2734   19883764.2164   19883761.9984
 -20922112.97749 -16259596.57448  21648867.6504   21648869.7704   21648867.6974
 04  1  1  0 25  0.0000000  0  8G10G29G 8G27G28G 4G 7G26
  -4996300.48747  -3845008.69945  24286480.3504   24286485.0674   24286479.7594
 -25029374.81649 -19464707.36049  20629075.2184   20629076.8874   20629075.1244
 -16343609.42949 -12689243.06748  21972558.7824   21972559.5904   21972558.4434
  -5809930.03847  -4467572.39745  24287203.3064   24287205.4364   24287202.8444
 -20042281.89749 -15553013.83148  21725994.3854   21725994.1894   21725993.8204
  -4866222.58447  -3771497.24045  24733044.0414   24733050.8414   24733045.5854
 -30459657.31949 -23696941.62149  19880857.4054   19880858.9814   19880857.1654
 -20991540.28449 -16313695.75948  21635656.0514   21635657.7494   21635655.9114
 04  1  1  0 25 30.0000000  0  9G10G29G 8G27G28G 4G 7G 9G26
  -4932979.47447  -3795667.67645  24298529.7954   24298534.9714   24298528.1634
 -25044829.70449 -19476750.12449  20626134.3074   20626135.4614   20626134.3694
 -16318609.64949 -12669762.71748  21977316.1194   21977316.6884   21977315.2564
  -5739388.40946  -4412604.91245  24300626.1224   24300627.8594   24300625.7754
 -19984625.80249 -15508086.99648  21736965.5004   21736965.9514   21736965.5294
  -4931421.65947  -3822301.36445  24720638.4294   24720643.3504   24720638.8644
 -30474322.91549 -23708369.34149  19878066.6024   19878068.4374   19878066.5144
  -1098912.23757   -708247.65955  25847689.0854   25847692.7194   25847688.7044
 -21060498.98949 -16367429.80348  21622533.6414   21622535.8294   21622533.4324
 04  1  1  0 26  0.0000000  0  9G10G29G 8G27G28G 4G 7G 9G26
  -4869689.83847  -3746351.13245  24310575.1724   24310578.2724   24310574.2724
 -25059666.97049 -19488311.62849  20623310.7604   20623311.9634   20623310.9994
 -16293391.17549 -12650111.96548  21982114.7914   21982116.2534   21982114.4324
  -5668684.25646  -4357510.79645  24314081.0674   24314084.2864   24314081.8624
 -19926908.68549 -15463112.61348  21747948.9644   21747948.5844   21747948.6474
  -4996798.12847  -3873243.74945  24708198.2854   24708202.7664   24708199.1044
 -30488381.38049 -23719323.97149  19875391.0764   19875393.1654   19875390.8944
  -1174538.41146   -767177.07445  25833297.0934   25833303.8474   25833297.1824
 -21128980.60349 -16420792.08848  21609501.8814   21609504.1954   21609502.3154
 04  1  1  0 26 30.0000000  0  9G10G29G 8G27G28G 4G 7G 9G26
  -4806440.97147  -3697066.32845  24322609.0664   24322615.4994   24322608.5694
 -25073892.69049 -19499396.60449  20620603.7504   20620605.3014   20620603.6414
 -16267959.28849 -12630294.90948  21986954.8024   21986955.7434   21986953.8854
  -5597823.96447  -4302295.00445  24327566.0714   24327567.5144   24327565.4474
 -19869138.65349 -15418096.99448  21758942.2234   21758942.3454   21758942.1744
  -5062356.17347  -3924327.60845  24695721.9204   24695726.2044   24695722.0064
 -30501839.03449 -23729810.43949  19872830.4894   19872832.2694   19872830.0914
  -1250333.15246   -826237.81244  25818873.5984   25818878.6594   25818874.6644
 -21196989.21149 -16473785.79848  21596560.0544   21596562.0454   21596560.2414
 04  1  1  0 27  0.0000000  0  9G10G29G 8G27G28G 4G 7G 9G26
  -4743231.20047  -3647811.98745  24334637.9974   24334643.0664   24334637.7904
 -25087501.98249 -19510001.24049  20618013.9104   20618015.8214   20618014.1034
 -16242309.01749 -12610307.69148  21991836.2824   21991836.3964   21991835.8884
  -5526803.81746  -4246954.63545  24341079.8224   24341081.9154   24341079.2454
 -19811312.84349 -15373037.91148  21769946.1204   21769945.4974   21769945.9664
  -5128089.83747  -3975548.32545  24683212.9774   24683217.3974   24683212.9874
 -30514691.34549 -23739825.20349  19870384.5154   19870386.4224   19870384.2674
  -1326291.91246   -885426.35545  25804419.6024   25804423.9864   25804418.8824
 -21264518.08749 -16526405.69348  21583709.9434   21583712.3644   21583710.1694
 04  1  1  0 27 30.0000000  0  9G10G29G 8G27G28G 4G 7G 9G26
  -4680067.21447  -3598593.34345  24346657.7824   24346664.3264   24346657.3194
 -25100498.50049 -19520128.39449  20615540.7944   20615542.5104   20615540.8724
 -16216442.93549 -12590152.30548  21996758.0354   21996758.8674   21996757.7754
  -5455627.48747  -4191492.58845  24354625.9274   24354626.9984   24354624.9344
 -19753436.39049 -15327939.37448  21780959.1424   21780959.9454   21780959.6064
  -5194000.40047  -4026906.89245  24670669.9144   24670674.0434   24670670.6994
 -30526941.88949 -23749371.05649  19868053.4234   19868055.1254   19868053.2114
  -1402418.35146   -944745.54944  25789932.2424   25789937.8274   25789932.9774
 -21331568.55849 -16578652.79848  21570950.9184   21570952.6044   21570950.8984
 04  1  1  0 28  0.0000000  0  9G10G29G 8G27G28G 4G 7G 9G26
  -4616947.85646  -3549409.47645  24358668.6374   24358672.7644   24358667.3874
 -25112877.47649 -19529774.34549  20613185.1954   20613186.4464   20613185.0584
 -16190356.01949 -12569824.83848  22001722.2664   22001723.3364   22001721.3974
  -5384291.21947  -4135905.91045  24368199.8674   24368201.3164   24368199.6244
 -19695506.69749 -15282799.34748  21791983.1624   21791983.1954   21791982.9774
  -5260081.88047  -4078398.63645  24658096.0214   24658098.9614   24658095.2664
 -30538586.62449 -23758444.85849  19865837.4444   19865839.3944   19865837.1614
  -1478707.78346  -1004191.77844  25775416.0134   25775420.6334   25775414.4814
 -21398134.00349 -16630521.97148  21558283.7404   21558286.0774   21558284.0104
 04  1  1  0 28 30.0000000  0  9G10G29G 8G27G28G 4G 7G 9G26
  -4553878.78746  -3500264.80745  24370670.2434   24370675.0574   24370671.6284
 -25124641.78749 -19538941.33249  20610946.4714   20610948.0314   20610946.5094
 -16164050.19549 -12549326.79848  22006728.2074   22006728.9614   22006728.0234
  -5312798.29147  -4080197.10945  24381804.3604   24381806.6584   24381804.4754
 -19637528.05649 -15237621.18048  21803016.3864   21803016.6784   21803016.0164
  -5326335.15248  -4130024.27245  24645488.9474   24645492.7254   24645488.9154
 -30549628.34549 -23767048.77649  19863736.1344   19863738.1194   19863736.0064
  -1555162.86947  -1063767.07545  25760865.0394   25760871.0184   25760865.8124
 -21464215.24049 -16682013.83648  21545708.9834   21545711.3014   21545709.3084
 04  1  1  0 29  0.0000000  0  9G10G29G 8G27G28G 4G 7G 9G26
  -4490862.10747  -3451160.92145  24382662.8664   24382666.8734   24382662.6324
 -25135789.84349 -19547628.12849  20608824.8824   20608826.5844   20608824.9934
 -16137523.49149 -12528656.63248  22011775.9294   22011777.2664   22011775.7554
  -5241147.63647  -4024365.45445  24395439.7514   24395440.3804   24395438.7064
 -19579501.11049 -15192405.37748  21814058.2384   21814058.2884   21814058.3564
  -5392757.18747  -4181781.43645  24632847.3764   24632851.3484   24632847.9594
 -30560065.96149 -23775181.95949  19861750.0484   19861751.9014   19861749.9484
  -1631782.63446  -1123470.70744  25746286.3384   25746290.0934   25746286.0154
 -21529808.77649 -16733125.67248  21533226.6984   21533229.1164   21533226.9774
 04  1  1  0 29 30.0000000  0  9G10G29G 8G27G28G 4G 7G 9G26
  -4427897.67947  -3402097.75145  24394643.2144   24394650.5364   24394643.4084
 -25146318.42649 -19555832.21649  20606821.4804   20606823.3304   20606821.5824
 -16110771.73949 -12507811.11048  22016866.3474   22016867.1354   22016866.0004
  -5169336.73446  -3968408.91745  24409102.9314   24409106.1804   24409101.9474
 -19521424.30249 -15147150.71148  21825110.3164   21825110.2134   21825110.0394
  -5459342.81347  -4233666.04945  24620176.3174   24620180.3714   24620176.7304
 -30569896.46949 -23782842.06849  19859879.4344   19859880.9594   19859879.2324
  -1708563.23746  -1183299.61644  25731675.1074   25731678.9204   25731675.5754
 -21594909.19849 -16783853.26748  21520838.8554   21520840.3724   21520838.9894
 04  1  1  0 30  0.0000000  0  9G10G29G 8G27G28G 4G 7G 9G26
  -4364990.11147  -3353078.91145  24406615.1494   24406619.5764   24406614.4274
 -25156229.38049 -19563555.03549  20604935.3594   20604937.2154   20604935.3674
 -16083796.19049 -12486791.20448  22021999.8674   22022000.9304   22021999.2574
  -5097367.62647  -3912329.08445  24422799.7054   24422801.2734   24422799.3254
 -19463300.79849 -15101859.65148  21836170.8564   21836170.9524   21836171.2604
  -5526091.68647  -4285677.87245  24607473.6604   24607478.3184   24607473.6014
 -30579121.87949 -23790030.67449  19858123.7124   19858125.2294   19858123.4154
  -1785506.65245  -1243255.46544  25717032.5544   25717036.7124   25717031.6104
 -21659516.17449 -16834196.35448  21508544.4024   21508546.5914   21508544.9294
 04  1  1  0 30 30.0000000  0  9G10G29G 8G27G28G 4G 7G 9G26
  -4302145.59547  -3304109.20945  24418573.7604   24418577.3654   24418573.1694
 -25165525.54549 -19570798.79949  20603166.4434   20603168.0924   20603166.1984
 -16056599.09449 -12465598.65548  22027175.0424   22027175.9594   22027173.9734
  -5025244.01446  -3856128.88645  24436522.5004   24436525.0144   24436522.3474
 -19405135.42649 -15056535.97548  21847238.8614   21847239.0894   21847238.9424
  -5593005.11947  -4337817.95345  24594740.9154   24594745.9084   24594742.0414
 -30587745.45349 -23796750.32149  19856482.8594   19856484.2874   19856482.3774
  -1862615.64345  -1303340.31444  25702359.1134   25702366.7874   25702360.7144
 -21723630.76349 -16884155.76648  21496343.8374   21496346.0564   21496344.1224
 04  1  1  0 31  0.0000000  0  9G10G29G 8G27G28G 4G 7G 9G26
  -4239361.65247  -3255186.68545  24430521.9354   24430526.2984   24430522.3284
 -25174201.49649 -19577559.28049  20601515.4754   20601517.3344   20601515.6054
 -16029174.21849 -12444228.61548  22032394.1634   22032395.0744   22032393.5874
  -4952960.81047  -3799804.34545  24450278.5064   24450280.2974   24450278.1414
 -19346924.25249 -15011176.61348  21858316.0694   21858316.9324   21858315.6104
  -5660075.63747  -4390080.43245  24581977.2144   24581983.3794   24581978.2134
 -30595762.07249 -23802997.01449  19854957.0344   19854959.1334   19854956.7804
  -1939884.36846  -1363549.60444  25687655.4884   25687660.6714   25687654.2824
 -21787245.20049 -16933725.44648  21484238.3384   21484240.3464   21484238.5114
 04  1  1  0 31 30.0000000  0  9G10G29G 8G27G28G 4G 7G 9G26
  -4176646.38047  -3206317.67445  24442455.2874   24442460.2814   24442455.5584
 -25182262.58249 -19583840.64349  20599981.4064   20599983.1544   20599981.2714
 -16001525.97249 -12422684.52648  22037655.5584   22037655.7924   22037655.2024
  -4880523.77947  -3743359.90845  24464062.9284   24464065.0694   24464062.7004
 -19288674.00249 -14965786.80848  21869401.1024   21869401.3284   21869401.2704
  -5727306.47847  -4442467.86945  24569184.6954   24569188.4354   24569183.8194
 -30603177.12549 -23808774.95949  19853546.1114   19853547.9544   19853545.8264
  -2017318.05145  -1423887.45644  25672920.5354   25672923.9354   25672918.3114
 -21850362.70349 -16982907.90648  21472227.4654   21472229.6084   21472227.6954
 04  1  1  0 32  0.0000000  0  9G10G29G 8G27G28G 4G 7G 9G26
  -4113996.59847  -3157499.70445  24454378.0454   24454383.5974   24454377.1224
 -25189702.26049 -19589637.79649  20598565.9904   20598567.7524   20598565.9254
 -15973647.05649 -12400960.69948  22042960.5894   22042961.0294   22042959.9834
  -4807926.73247  -3686790.76345  24477877.7484   24477880.4344   24477876.9754
 -19230379.81049 -14920362.75548  21880493.3574   21880493.6964   21880493.5674
  -5794689.02947  -4494973.52345  24556359.8784   24556365.5444   24556361.2234
 -30609984.42349 -23814079.32949  19852250.6184   19852252.5784   19852250.5434
  -2094910.11546  -1484348.70944  25658154.8014   25658161.8034   25658156.0604
 -21912974.66649 -17031696.43548  21460312.7784   21460315.1104   21460313.2404
 04  1  1  0 32 30.0000000  0  9G10G29G 8G27G28G 4G 7G 9G26
  -4051417.84447  -3108737.10245  24466287.3254   24466292.0914   24466285.1474
 -25196523.33649 -19594952.91449  20597267.6494   20597269.5364   20597267.9384
 -15945539.66849 -12379058.83048  22048308.8934   22048310.0744   22048308.8244
  -4735172.97147  -3630099.53345  24491722.5064   24491724.4254   24491723.6534
 -19172046.12949 -14874907.93448  21891594.3564   21891594.4244   21891594.3144
  -5862224.29847  -4547598.14945  24543508.6254   24543513.4304   24543509.2314
 -30616187.03349 -23818912.50849  19851070.4174   19851072.3554   19851070.1374
  -2172662.99845  -1544935.28744  25643360.2264   25643366.6774   25643358.5854
 -21975081.90849 -17080091.68748  21448494.2864   21448495.8544   21448494.4434
 04  1  1  0 33  0.0000000  0  9G10G29G 8G27G28G 4G 7G 9G26
  -3988913.40847  -3060032.40045  24478179.8134   24478185.2364   24478179.7404
 -25202726.22449 -19599786.33349  20596087.4214   20596088.9044   20596087.5184
 -15917203.14849 -12356978.42048  22053701.0574   22053702.3024   22053700.7474
  -4662263.23947  -3573286.74645  24505596.0364   24505599.6804   24505595.6424
 -19113674.49949 -14829423.54448  21902702.2844   21902702.1244   21902701.9024
  -5929910.42547  -4600340.37345  24530630.0394   24530632.9464   24530629.2974
 -30621785.72249 -23823275.09949  19850005.0744   19850006.9494   19850004.7114
  -2250576.81146  -1605647.18644  25628532.7914   25628538.2454   25628534.7934
 -22036682.55449 -17128092.17948  21436772.0824   21436773.5354   21436772.3464
 04  1  1  0 33 30.0000000  0  9G10G29G 8G27G28G 4G 7G 9G26
  -3926486.07047  -3011387.80545  24490059.9224   24490064.5154   24490059.5914
 -25208310.72349 -19604137.89149  20595024.5214   20595026.2554   20595024.6624
 -15888636.51549 -12334718.70248  22059137.0784   22059138.7444   22059136.2524
  -4589197.67847  -3516352.55345  24519500.9534   24519502.8354   24519501.0724
 -19055266.44549 -14783910.77548  21913816.6724   21913817.3454   21913816.2794
  -5997745.35948  -4653198.53345  24517721.5094   24517725.2344   24517721.4344
 -30626780.46249 -23827167.08749  19849054.5534   19849056.2814   19849054.2604
  -2328650.96146  -1666484.13944  25613676.0214   25613679.8264   25613675.3404
 -22097774.28749 -17175696.12548  21425146.7434   21425148.5094   21425146.9404
 04  1  1  0 34  0.0000000  0  9G10G29G 8G27G28G 4G 7G 9G26
  -3864138.82847  -2962805.62945  24501925.1684   24501930.1694   24501924.2774
 -25213277.14649 -19608007.83649  20594079.9814   20594081.5474   20594079.8874
 -15859839.13549 -12312279.18948  22064617.0704   22064618.0764   22064615.7924
  -4515977.09647  -3459297.57445  24533433.1644   24533435.3234   24533433.1104
 -18996823.57449 -14738370.86448  21924938.3024   21924937.6554   21924938.4974
  -6065726.95548  -4706171.00245  24504783.8774   24504788.8684   24504785.0784
 -30631171.84949 -23830588.92349  19848218.7784   19848220.3834   19848218.8154
  -2406885.57246  -1727446.09044  25598787.9084   25598793.5854   25598787.7254
 -22158355.43149 -17222902.20148  21413618.0544   21413620.1424   21413618.1794
 04  1  1  0 34 30.0000000  0  9G10G29G 8G27G28G 4G 7G 9G26
  -3801873.36947  -2914287.13745  24513773.6124   24513778.9454   24513772.1174
 -25217624.62649 -19611395.47749  20593252.0694   20593254.0414   20593252.4304
 -15830809.30549 -12289658.54848  22070141.7014   22070142.2824   22070141.0024
  -4442600.82947  -3402121.26945  24547396.4314   24547397.4934   24547394.3474
 -18938346.28949 -14692804.13748  21936066.0384   21936066.4004   21936065.5494
  -6133852.24047  -4759255.43045  24491819.8064   24491823.5014   24491819.8754
 -30634959.27649 -23833540.14249  19847497.9724   19847500.0374   19847497.8024
  -2485279.10546  -1788531.86444  25583869.5184   25583875.9744   25583871.5634
 -22218422.61149 -17269707.78548  21402187.7064   21402189.9034   21402187.9294
 04  1  1  0 35  0.0000000  0  9G10G29G 8G27G28G 4G 7G 9G26
  -3739690.78847  -2865833.23345  24525606.0184   24525610.0244   24525604.0424
 -25221351.38949 -19614299.44749  20592543.2504   20592544.6974   20592543.2914
 -15801544.26049 -12266854.61948  22075710.6124   22075711.6974   22075710.1754
  -4369067.40947  -3344822.54145  24561389.7204   24561391.5504   24561389.5064
 -18879833.93349 -14647210.09248  21947200.4014   21947200.0754   21947199.7594
  -6202117.09847  -4812448.59345  24478828.5974   24478833.4164   24478829.5234
 -30638141.28949 -23836019.61249  19846892.8244   19846894.4394   19846892.4434
  -2563829.21546  -1849739.66444  25568922.9694   25568928.6724   25568922.2504
 -22277972.00749 -17316109.90348  21390856.0604   21390858.2404   21390855.9154
 04  1  1  0 35 30.0000000  0  9G10G29G 8G27G28G 4G 7G 9G26
  -3677595.84947  -2817447.62445  24537421.7204   24537426.5634   24537422.0474
 -25224459.52849 -19616721.37049  20591951.7054   20591953.3964   20591951.6284
 -15772045.22349 -12243868.35248  22081324.3604   22081325.2804   22081323.7684
  -4295379.25946  -3287403.20245  24575412.2044   24575413.5724   24575412.9914
 -18821289.92849 -14601591.38248  21958340.6754   21958340.6694   21958340.7564
  -6270521.37947  -4865750.43545  24465811.7994   24465816.4684   24465812.3914
 -30640720.15349 -23838029.09749  19846401.8264   19846403.5464   19846401.6414
  -2642537.65847  -1911070.82344  25553944.9034   25553950.1254   25553943.9804
 -22337003.60849 -17362108.54948  21379622.8924   21379624.5724   21379623.2484
 04  1  1  0 36  0.0000000  0  9G10G29G 8G27G28G 4G 7G 9G26
  -3615579.71047  -2769123.42445  24549223.3014   24549229.2274   24549223.2184
 -25226937.17849 -19618652.00549  20591480.1634   20591481.8584   20591480.2624
 -15742299.20749 -12220689.64048  22086984.9954   22086985.4264   22086984.4834
  -4221524.72047  -3229854.22745  24589466.6994   24589467.2314   24589465.9964
 -18762703.65549 -14555939.73748  21969489.3634   21969490.6904   21969488.7144
  -6339051.16248  -4919150.06245  24452771.4474   24452775.2294   24452770.9244
 -30642684.27449 -23839559.56149  19846028.1714   19846029.6964   19846028.0704
  -2721391.85547  -1972515.60445  25538938.9104   25538945.3864   25538938.8014
 -22395503.22349 -17407692.65548  21368490.2724   21368492.5154   21368490.7914
 04  1  1  0 36 30.0000000  0  9G10G29G 8G27G28G 4G 7G 9G26
  -3553669.57147  -2720881.83745  24561006.5834   24561010.2354   24561005.9124
 -25228809.16949 -19620110.70049  20591123.9884   20591125.8864   20591123.9004
 -15712330.16049 -12197337.12748  22092687.6394   22092688.5764   22092687.1374
  -4147528.73747  -3172195.03145  24603547.5144   24603548.8274   24603547.5394
 -18704101.06549 -14510275.37748  21980641.5434   21980641.9684   21980640.8154
  -6407728.37448  -4972664.58546  24439703.0684   24439706.6154   24439703.5964
 -30644058.69649 -23840630.52549  19845766.4414   19845768.2664   19845766.3144
  -2800416.18047  -2034092.91945  25523902.3564   25523906.4774   25523901.8544
 -22453493.47649 -17452879.86048  21357455.5404   21357457.2364   21357455.5044
 04  1  1  0 37  0.0000000  0  9G10G29G 8G27G28G 4G 7G 9G26
  -3491853.62547  -2672713.64645  24572769.8404   24572773.6474   24572766.7134
 -25230061.16449 -19621086.28349  20590885.7604   20590887.5464   20590885.9304
 -15682122.58549 -12173798.75748  22098435.6134   22098436.9084   22098435.5254
  -4073377.30447  -3114414.70745  24617658.1944   24617660.5314   24617658.3354
 -18645469.11849 -14464588.14448  21991798.2254   21991799.2994   21991798.2684
  -6476536.71648  -5026281.28846  24426609.2174   24426612.2964   24426608.7024
 -30644829.33049 -23841231.00349  19845619.8184   19845621.4104   19845619.8504
  -2879595.56047  -2095791.04945  25508834.3234   25508837.1124   25508834.7054
 -22510957.85849 -17497657.30148  21346520.2074   21346522.3014   21346520.7134
 04  1  1  0 37 30.0000000  0  9G10G29G 8G27G28G 4G 7G 9G26
  -3430133.85847  -2624620.39145  24584514.7364   24584518.0124   24584514.1314
 -25230692.81249 -19621578.47349  20590765.4584   20590767.1974   20590765.4974
 -15651675.15149 -12150073.48148  22104229.5114   22104230.4344   22104228.7554
  -3999070.23947  -3056513.09445  24631798.1854   24631799.2904   24631798.2054
 -18586808.43349 -14418878.51647  22002961.1944   22002961.1644   22002960.4664
  -6545473.15548  -5079997.80746  24413489.6234   24413494.4814   24413489.9104
 -30644996.08249 -23841360.92149  19845588.2224   19845590.0724   19845587.7814
  -2958928.75447  -2157609.03844  25493737.2384   25493742.1394   25493735.7184
 -22567893.61749 -17542022.81848  21335685.9174   21335687.7654   21335685.9854
 04  1  1  0 38  0.0000000  0  9G10G29G 8G27G28G 4G 7G 9G26
  -3368514.27146  -2576605.19745  24596239.0874   24596244.0374   24596236.6824
 -25230705.49649 -19621588.36049  20590763.5114   20590764.3364   20590763.4684
 -15620988.12149 -12126161.50448  22110068.9894   22110069.7834   22110068.3784
  -3924609.10247  -2998491.42145  24645967.4754   24645971.2104   24645968.9124
 -18528121.52649 -14373148.44147  22014128.7464   22014129.2834   22014127.7464
  -6614536.74548  -5133813.41346  24400347.0874   24400351.6314   24400347.4124
 -30644560.63349 -23841021.59649  19845670.8994   19845672.6774   19845670.7384
  -3038416.73847  -2219547.63344  25478611.7764   25478617.1484   25478611.6404
 -22624299.98049 -17585975.82548  21324951.8134   21324953.9074   21324951.9494
 04  1  1  0 38 30.0000000  0  9G10G29G 8G27G28G 4G 7G 9G26
  -3306998.54046  -2528670.93545  24607945.2504   24607950.0254   24607944.5064
 -25230100.19049 -19621116.69349  20590878.3994   20590880.2724   20590878.3134
 -15590061.39349 -12102062.76048  22115954.4424   22115954.8334   22115953.9274
  -3849995.06747  -2940350.61345  24660165.6604   24660169.2914   24660165.4884
 -18469410.24249 -14327399.40047  22025301.1404   22025301.2154   22025300.9184
  -6683725.81248  -5187726.79446  24387180.5044   24387184.5674   24387181.3414
 -30643524.29449 -23840214.04349  19845868.1344   19845869.8114   19845867.8494
  -3118059.66747  -2281606.97344  25463456.3434   25463460.0564   25463455.0884
 -22680175.74349 -17629515.37748  21314319.2544   21314321.4894   21314319.8164
 04  1  1  0 39  0.0000000  0  9G10G29G 8G27G28G 4G 7G 9G26
  -3245586.84646  -2480817.75445  24619630.2704   24619634.6564   24619629.1784
 -25228875.22149 -19620162.17649  20591111.5894   20591113.2804   20591111.4984
 -15558891.97949 -12077774.90248  22121885.7604   22121886.7094   22121886.0134
  -3775226.31747  -2882089.24545  24674394.9274   24674396.0884   24674393.4984
 -18410673.65049 -14281630.63247  22036478.3154   22036478.0014   22036477.4854
  -6753036.06248  -5241734.61246  24373992.1904   24373994.8764   24373991.5774
 -30641885.26949 -23838936.86449  19846180.3844   19846181.6684   19846179.8454
  -3197854.71547  -2343784.82844  25448271.8484   25448275.3824   25448272.3034
 -22735516.72649 -17672638.21648  21303788.2844   21303789.9244   21303788.1434
 04  1  1  0 39 30.0000000  0  9G10G29G 8G27G28G 4G 7G 9G26
  -3184283.97046  -2433049.34245  24631296.0064   24631301.5374   24631294.7974
 -25227032.58149 -19618726.35349  20591462.1574   20591463.8854   20591462.4804
 -15527481.01849 -12053298.83148  22127862.8274   22127864.0884   22127862.8824
  -3700305.12447  -2823709.10545  24688651.1764   24688653.1704   24688650.4884
 -18351915.09649 -14235844.74147  22047659.8924   22047659.4634   22047659.4514
  -6822467.17248  -5295836.62846  24360779.8764   24360782.0484   24360779.7774
 -30639645.96549 -23837191.93949  19846605.9444   19846608.0394   19846605.8524
  -3277803.43546  -2406082.46744  25433056.4354   25433061.9314   25433057.1264
 -22790322.70349 -17715344.17148  21293358.7834   21293361.0334   21293359.4974
 04  1  1  0 40  0.0000000  0  9G10G29G 8G27G28G 4G 7G 9G26
  -3123093.45446  -2385368.51945  24642941.3314   24642946.8654   24642940.5624
 -25224573.55249 -19616810.22849  20591929.9124   20591931.6924   20591930.0404
 -15495828.48449 -12028634.51148  22133886.1774   22133886.7534   22133885.6644
  -3625232.80747  -2765211.21345  24702936.9064   24702938.6904   24702937.5634
 -18293136.42449 -14190043.17748  22058845.4734   22058845.1374   22058845.5094
  -6892017.42848  -5350031.47446  24347544.0794   24347547.8284   24347545.2374
 -30636807.95849 -23834980.49149  19847146.4564   19847147.8854   19847145.9904
  -3357906.08846  -2468500.01444  25417814.9594   25417818.8254   25417813.6544
 -22844592.62149 -17757632.41348  21283031.8884   21283033.8584   21283032.0434
 04  1  1  0 40 30.0000000  0  9G10G29G 8G27G28G 4G 7G 9G26
  -3062016.11746  -2337775.88245  24654563.2934   24654569.6954   24654562.3194
 -25221496.81449 -19614412.77149  20592515.6754   20592517.2464   20592515.7904
 -15463931.62749 -12003779.81948  22139955.9814   22139956.7744   22139956.1254
  -3550008.02847  -2706594.50545  24717253.1924   24717253.4484   24717251.7884
 -18234337.10049 -14144225.52048  22070034.5794   22070034.6034   22070034.5054
  -6961682.92647  -5404316.13346  24334286.1544   24334290.5014   24334287.2954
 -30633370.01249 -23832301.55849  19847800.5314   19847802.0184   19847800.0054
  -3438160.64646  -2531035.91744  25402540.9984   25402543.5644   25402541.6214
 -22898322.85649 -17799500.12448  21272807.5844   21272808.8794   21272807.5044
 04  1  1  0 41  0.0000000  0  9G10G29G 8G27G28G 4G 7G 9G26
  -3001052.97046  -2290272.22645  24666164.9444   24666169.2284   24666164.1844
 -25217800.70449 -19611532.68449  20593218.8294   20593220.4414   20593219.0344
 -15431788.10349 -11978732.92648  22146072.9764   22146073.9444   22146071.8264
  -3474629.29947  -2647857.82945  24731596.6074   24731598.3674   24731597.1034
 -18175516.60149 -14098391.36347  22081227.5534   22081227.8744   22081227.3914
  -7031459.63347  -5458687.42845  24321007.0564   24321012.8954   24321008.2834
 -30629330.80549 -23829154.10949  19848568.9294   19848570.6794   19848568.4734
  -3518564.50746  -2593688.16144  25387242.0734   25387246.2104   25387242.7364
 -22951509.47649 -17840944.24348  21262686.0834   21262688.1654   21262686.2274
 04  1  1  0 41 30.0000000  0  9G10G29G 8G27G28G 4G 7G 9G26
  -2940209.78647  -2242862.01245  24677743.2364   24677748.6544   24677742.6104
 -25213488.86849 -19608172.81349  20594039.3294   20594040.8974   20594039.4354
 -15399400.04549 -11953495.48248  22152236.2944   22152236.5144   22152235.6404
  -3399100.46247  -2589004.19545  24745969.4934   24745971.2224   24745968.7724
 -18116679.28649 -14052544.10847  22092423.6894   22092423.3774   22092423.4394
  -7101348.16847  -5513145.88045  24307709.7544   24307712.4844   24307710.3954
 -30624694.41749 -23825541.32749  19849451.3244   19849452.8904   19849450.9424
  -3599120.35246  -2656458.81544  25371911.9384   25371915.9814   25371911.5124
 -23004154.00949 -17881965.95048  21252668.2174   21252670.3254   21252668.5584
 04  1  1  0 42  0.0000000  0  9G10G29G 8G27G28G 4G 7G 9G26
  -2879487.72847  -2195546.21945  24689299.1294   24689304.0484   24689296.5804
 -25208560.43649 -19604332.47849  20594977.3354   20594978.9164   20594977.4674
 -15366765.39749 -11928065.88548  22158446.2934   22158447.9474   22158446.1934
  -3323420.42346  -2530032.75645  24760369.8764   24760371.0064   24760369.0224
 -18057824.74849 -14006683.42147  22103623.1254   22103623.3934   22103623.5774
  -7171345.02447  -5567688.73245  24294388.8524   24294393.4494   24294389.0204
 -30619459.89249 -23821462.46149  19850447.2724   19850448.9474   19850447.2404
  -3679826.04046  -2719346.30044  25356555.5854   25356557.2304   25356555.0274
 -23056252.98549 -17922562.56148  21242754.1604   21242755.9414   21242754.4254
 04  1  1  0 42 30.0000000  0  9G10G29G 8G27G28G 4G 7G 9G26
  -2818887.85046  -2148325.61545  24700829.6334   24700834.3644   24700829.9344
 -25203014.40449 -19600010.89649  20596032.5524   20596034.5284   20596032.8104
 -15333881.53549 -11902442.09548  22164703.3794   22164704.6134   22164702.8144
  -3247587.81646  -2470942.40345  24774800.7924   24774802.2794   24774800.2124
 -17998952.67349 -13960809.07847  22114826.5044   22114826.7944   22114826.3944
  -7241445.79047  -5622312.56845  24281049.5664   24281051.9214   24281049.4944
 -30613626.39849 -23816916.86949  19851557.3734   19851559.1494   19851557.0434
  -3760679.17246  -2782348.58445  25341167.6714   25341173.5774   25341168.2434
 -23107802.91949 -17962731.33148  21232944.4824   21232947.0334   21232944.8504
 04  1  1  0 43  0.0000000  0  9G10G29G 8G27G28G 4G 7G 9G26
  -2758415.31247  -2101204.25144  24712337.7674   24712341.0644   24712337.4034
 -25196853.75749 -19595210.39749  20597204.8834   20597206.4614   20597205.0214
 -15300750.68049 -11876625.84348  22171008.1684   22171009.7894   22171007.9514
  -3171606.18146  -2411735.91845  24789258.2864   24789261.1484   24789257.9854
 -17940066.93849 -13914924.08847  22126031.9464   22126032.0914   22126031.1454
  -7311651.32047  -5677018.04145  24267689.5734   24267692.4444   24267689.8254
 -30607197.43449 -23811907.27149  19852780.8304   19852782.4434   19852780.4054
  -3841682.19947  -2845467.71345  25325755.3934   25325757.7324   25325753.6244
 -23158804.86649 -18002473.10848  21223239.0424   21223241.1174   21223239.1974
 04  1  1  0 43 30.0000000  0  9G10G29G 8G27G28G 4G 7G 9G26
  -2698071.12747  -2054182.89545  24723820.8774   24723825.2874   24723820.5384
 -25190077.25149 -19589930.00649  20598494.3994   20598496.2114   20598494.4444
 -15267369.98649 -11850614.91548  22177360.2544   22177361.5904   22177360.0204
  -3095473.90946  -2352412.10145  24803747.0224   24803749.0964   24803746.9464
 -17881166.78249 -13869027.87647  22137240.2804   22137239.4084   22137239.7564
  -7381957.27047  -5731801.74545  24254310.2824   24254313.3784   24254310.4014
 -30600171.91749 -23806432.82749  19854117.6744   19854119.2404   19854117.2374
  -3922832.69547  -2908701.75745  25310311.3014   25310314.8594   25310311.2364
 -23209255.01249 -18041784.90748  21213638.9804   21213640.7274   21213639.1244
 04  1  1  0 44  0.0000000  0  9G10G29G 8G27G28G 4G 7G 9G26
  -2637856.63847  -2007262.61245  24735279.6104   24735282.7894   24735279.8374
 -25182684.43249 -19584169.37249  20599901.2174   20599902.8254   20599901.2184
 -15233737.69049 -11824407.94148  22183760.4724   22183761.3034   22183760.4814
  -3019190.44846  -2292970.43645  24818262.9024   24818266.2434   24818262.8464
 -17822252.21949 -13823120.41647  22148451.3204   22148451.1014   22148451.6634
  -7452360.19347  -5786661.03745  24240912.7344   24240917.6724   24240913.8694
 -30592549.34549 -23800493.14649  19855568.4554   19855569.9284   19855568.0644
  -4004128.71546  -2972049.18145  25294840.8524   25294845.9154   25294841.6564
 -23259150.52249 -18080664.52548  21204143.9414   21204146.1174   21204144.3064
 04  1  1  0 44 30.0000000  0  9G10G29G 8G27G28G 4G 7G 9G26
  -2577764.83147  -1960437.92044  24746714.4694   24746719.7804   24746714.0084
 -25174666.03749 -19577921.27549  20601427.1614   20601428.7944   20601427.0684
 -15199843.23249 -11797996.67848  22190210.2244   22190211.3244   22190209.8714
  -2942746.43646  -2233403.66145  24832810.0744   24832810.8924   24832810.7684
 -17763314.77249 -13777195.12847  22159666.9354   22159667.3504   22159665.6574
  -7522847.75047  -5841586.26145  24227499.6354   24227503.6254   24227501.3774
 -30584320.88849 -23794081.35249  19857133.9154   19857135.8494   19857133.8484
  -4085560.16147  -3035502.13345  25279345.5394   25279351.3424   25279344.6204
 -23308479.83549 -18119102.95248  21194756.8554   21194759.0394   21194756.9154
 04  1  1  0 45  0.0000000  0  9G10G29G 8G27G28G 4G 7G 9G26
  -2517821.46947  -1913728.93944  24758121.5654   24758124.0224   24758119.9574
 -25166046.25049 -19571204.56149  20603067.3504   20603068.9214   20603067.3614
 -15165709.22949 -11771398.76448  22196706.0074   22196706.8114   22196706.1054
  -2866165.64246  -2173730.32845  24847382.2544   24847385.4074   24847382.0924
 -17704378.52649 -13731270.80247  22170881.6084   22170882.0034   22170882.0474
  -7593441.07947  -5896593.91945  24214066.1614   24214070.4224   24214066.9364
 -30575510.92249 -23787216.43349  19858810.6884   19858811.9584   19858810.4964
  -4167149.59647  -3099078.19845  25263818.9514   25263825.1424   25263818.0464
 -23357264.52749 -18157117.00148  21185473.3824   21185475.1624   21185473.7154
 04  1  1  0 45 30.0000000  0  9G10G29G 8G27G28G 4G 7G 9G26
  -2458016.51147  -1867127.78444  24769501.2814   24769505.5604   24769501.0704
 -25156812.80649 -19564009.67349  20604824.3884   20604825.7644   20604824.4274
 -15131322.07349 -11744603.56648  22203249.7274   22203250.6774   22203248.9154
  -2789436.22246  -2113941.17445  24861983.4594   24861985.6534   24861984.0104
 -17645432.14949 -13685338.56147  22182099.5154   22182099.4254   22182098.8134
  -7664125.09147  -5951672.23445  24200615.6364   24200619.8154   24200616.6534
 -30566107.43349 -23779889.02249  19860599.8384   19860601.5374   19860599.7954
  -4248883.63347  -3162766.95445  25248266.6304   25248269.8614   25248265.5214
 -23405490.25649 -18194695.48648  21176296.2384   21176298.6864   21176296.7734
 04  1  1  0 46  0.0000000  0  9G10G29G 8G27G28G 4G 7G 9G26
  -2398352.49247  -1820636.40845  24780854.3604   24780859.1094   24780852.9014
 -25146966.77849 -19556337.44749  20606698.1284   20606699.6414   20606698.2414
 -15096681.34349 -11717610.79048  22209841.9194   22209842.0124   22209841.3224
  -2712558.53046  -2054036.45245  24876612.6154   24876613.1724   24876612.5964
 -17586476.74049 -13639399.27647  22193317.9334   22193318.4394   22193317.5804
  -7734897.37247  -6006819.35045  24187148.2094   24187151.1474   24187148.5434
 -30556111.27549 -23772099.79949  19862501.9874   19862504.0474   19862501.7564
  -4330761.59846  -3226567.88345  25232685.3444   25232687.9734   25232684.7384
 -23453155.34449 -18231837.11448  21167226.2754   21167228.2644   21167226.1364
 04  1  1  0 46 30.0000000  0  9G10G29G 8G27G28G 4G 7G 9G26
  -2338832.44447  -1774257.25445  24792182.5504   24792188.1504   24792180.6294
 -25136508.97249 -19548188.50949  20608688.0624   20608690.1034   20608688.2284
 -15061786.68349 -11690420.15248  22216481.6634   22216483.1804   22216481.6814
  -2635533.48946  -1994016.94345  24891269.9044   24891272.7924   24891271.7414
 -17527514.03549 -13593454.31847  22204537.9024   22204538.8074   22204537.8434
  -7805756.06547  -6062033.77845  24173663.7964   24173667.1164   24173664.1504
 -30545523.92249 -23763849.90449  19864516.8954   19864518.5454   19864516.6354
  -4412783.13346  -3290480.68045  25217075.2854   25217079.4374   25217075.1734
 -23500258.41949 -18268540.80948  21158262.6434   21158264.9624   21158263.2504
 04  1  1  0 47  0.0000000  0  9G10G29G 8G27G28G 4G 7G 9G26
  -2279457.73847  -1727991.34345  24803480.2304   24803486.2784   24803477.9894
 -25125439.15349 -19539562.67649  20610794.9434   20610796.1804   20610794.9174
 -15026636.12849 -11663030.10248  22223170.1634   22223171.9084   22223170.2044
  -2558360.47146  -1933882.10945  24905955.2984   24905957.4234   24905956.0494
 -17468543.61249 -13547503.34747  22215760.2494   22215760.7524   22215759.9924
  -7876697.46148  -6117312.68245  24160164.8604   24160166.5454   24160164.1454
 -30534345.16849 -23755139.17349  19866643.8314   19866645.8714   19866643.5074
  -4494946.29946  -3354503.82845  25201442.1974   25201446.8654   25201440.9594
 -23546796.77349 -18304804.46348  21149406.6124   21149408.5094   21149407.1034
 04  1  1  0 47 30.0000000  0  9G10G29G 8G27G28G 4G 7G 9G26
  -2220232.38847  -1681841.83645  24814751.4814   24814757.1754   24814751.6124
 -25113759.56549 -19530461.69749  20613017.1184   20613018.6204   20613017.3114
 -14991230.66249 -11635441.42148  22229908.1244   22229909.5974   22229907.8624
  -2481041.58346  -1873633.62745  24920669.4294   24920672.7154   24920669.6094
 -17409568.20749 -13501548.47847  22226982.8934   22226982.0544   22226983.0174
  -7947720.76047  -6172655.40645  24146648.6784   24146652.2454   24146649.6294
 -30522577.48249 -23745969.54149  19868883.4474   19868885.2634   19868883.1724
  -4577252.21346  -3418638.21845  25185778.1464   25185784.1284   25185780.0304
 -23592770.24149 -18340627.94248  21140658.1744   21140660.2094   21140658.5374
 04  1  1  0 48  0.0000000  0  9G10G29G 8G27G28G 4G 7G 9G26
  -2161154.66847  -1635807.36744  24825993.3234   24826000.6114   24825992.9644
 -25101466.96549 -19520883.05349  20615356.3074   20615357.8514   20615356.6604
 -14955565.18349 -11607650.14748  22236695.0044   22236696.0144   22236694.9164
  -2403573.16546  -1813268.61945  24935410.3114   24935414.6784   24935408.9394
 -17350584.69949 -13455587.29047  22238206.7904   22238207.7194   22238205.8234
  -8018819.35348  -6228056.81246  24133119.3754   24133122.1714   24133119.6894
 -30510217.74049 -23736338.55949  19871235.3054   19871237.0814   19871235.1454
  -4659696.06247  -3482880.07545  25170091.0244   25170095.4044   25170090.8494
 -23638173.21549 -18376006.88648  21132018.6044   21132019.8234   21132018.5624
 04  1  1  0 48 30.0000000  0  9G10G29G 8G27G28G 4G 7G 9G26
  -2102232.82847  -1589894.31045  24837206.2224   24837210.9184   24837205.8144
 -25088567.86149 -19510831.80549  20617811.1794   20617812.6274   20617811.3244
 -14919644.92549 -11579660.34048  22243530.4964   22243531.4964   22243529.8654
  -2325961.52546  -1752792.00545  24950180.8694   24950182.1884   24950180.8844
 -17291599.72849 -13409624.97547  22249431.3454   22249430.2614   22249430.3754
  -8089996.49748  -6283519.40746  24119574.3514   24119578.7054   24119574.6834
 -30497272.78049 -23726251.57049  19873698.8154   19873700.2444   19873698.6274
  -4742282.96647  -3547233.39545  25154375.7764   25154377.8494   25154376.2484
 -23683009.81149 -18410944.49248  21123486.1584   21123488.5024   21123486.6364
 04  1  1  0 49  0.0000000  0  9G10G29G 8G27G28G 4G 7G 9G26
  -2043465.65147  -1544101.79645  24848389.9624   24848394.5544   24848388.4324
 -25075059.20249 -19500305.58849  20620381.6544   20620383.7054   20620381.5104
 -14883465.15649 -11551468.30448  22250414.8374   22250416.3354   22250414.3094
  -2248203.25946  -1692201.15745  24964977.3864   24964977.4894   24964977.1334
 -17232610.54849 -13363659.37247  22260656.3044   22260656.7964   22260656.5414
  -8161245.98948  -6339038.39446  24106017.0334   24106019.8474   24106016.4764
 -30483739.43549 -23715706.09149  19876273.9364   19876275.8034   19876273.7494
  -4825007.91547  -3611694.29745  25138633.1004   25138636.8544   25138633.1804
 -23727274.31549 -18445436.30848  21115062.9384   21115064.9754   21115063.1734
 04  1  1  0 49 30.0000000  0  9G10G29G 8G27G28G 4G 7G 9G26
  -1984855.79647  -1498431.89944  24859542.7014   24859547.5644   24859541.6404
 -25060941.90249 -19489305.09449  20623067.8334   20623069.5324   20623068.0174
 -14847025.53449 -11523073.79948  22257349.5164   22257350.8254   22257348.7554
  -2170299.24146  -1631496.72745  24979801.9604   24979805.4224   24979802.0764
 -17173618.46449 -13317691.52447  22271882.3774   22271882.4924   22271881.6414
  -8232565.32148  -6394611.78446  24092444.2994   24092448.0224   24092444.4514
 -30469619.19249 -23704703.30149  19878961.3004   19878962.7744   19878960.8984
  -4907870.54347  -3676262.49045  25122864.8104   25122867.9534   25122864.4854
 -23770965.66049 -18479481.51848  21106748.9634   21106750.3984   21106748.9614
 04  1  1  0 50  0.0000000  0  9G10G29G 8G27G28G 4G 7G 9G26
  -1926427.82747  -1452903.72545  24870659.7224   24870666.4614   24870660.4934
 -25046239.18649 -19477848.43149  20625865.8794   20625867.1144   20625866.2074
 -14810347.34949 -11494493.39348  22264328.8724   22264329.7564   22264328.7834
  -2092271.99346  -1570696.28445  24994650.9664   24994653.2324   24994649.6634
 -17114646.31349 -13271739.20347  22283103.9314   22283104.4444   22283104.3554
  -8303974.06848  -6450254.86646  24078855.9864   24078857.7174   24078856.7964
 -30454935.21749 -23693261.23249  19881755.2014   19881756.8174   19881754.8984
  -4990892.05347  -3740954.47145  25107065.9944   25107070.4794   25107066.2154
 -23814104.15049 -18513095.92448  21098539.8594   21098541.7904   21098540.0994
 04  1  1  0 50 30.0000000  0  9G10G29G 8G27G28G 4G 7G 9G26
  -1868143.29447  -1407487.30144  24881751.5254   24881758.6724   24881750.4164
 -25030911.01849 -19465904.40649  20628782.7914   20628784.4034   20628782.8154
 -14773388.99249 -11465694.67747  22271361.7714   22271363.9014   22271361.5604
  -2014081.33846  -1509768.50145  25009529.3834   25009529.9964   25009529.3344
 -17055654.29549 -13225771.39147  22294330.3014   22294329.7614   22294329.6674
  -8375429.18748  -6505934.08046  24065257.8614   24065260.3074   24065257.9404
 -30439647.73949 -23681348.90149  19884664.0854   19884665.8714   19884663.8584
  -5074030.98647  -3805737.96945  25091245.4744   25091248.1174   25091246.1334
 -23856647.51949 -18546246.59548  21090443.9124   21090445.8244   21090444.1914
 04  1  1  0 51  0.0000000  0  9G10G29G 8G27G28G 4G 7G 9G26
  -1810020.41746  -1362196.83244  24892811.7854   24892817.4974   24892811.8374
 -25014974.24949 -19453486.14649  20631815.2524   20631817.2324   20631815.3774
 -14736165.92049 -11436689.68447  22278444.9544   22278447.0574   22278444.3794
  -1935743.61846  -1448726.14045  25024436.4554   25024437.6774   25024435.5154
 -16996659.19749 -13179801.19447  22305556.4634   22305556.4154   22305555.9194
  -8446943.93448  -6561659.78146  24051649.3464   24051652.1154   24051650.0564
 -30423773.71349 -23668979.51949  19887685.2574   19887686.9544   19887684.9904
  -5157302.60947  -3870624.83545  25075399.0764   25075401.0444   25075399.6704
 -23898610.27549 -18578944.84448  21082458.7464   21082460.8794   21082458.8304
 04  1  1  0 51 30.0000000  0  9G10G29G 8G27G28G 4G 7G 9G26
  -1752065.64046  -1317037.35944  24903840.3784   24903846.5974   24903841.4434
 -24998434.33649 -19440597.90449  20634963.1424   20634964.7674   20634962.9454
 -14698681.49949 -11407481.05248  22285578.2454   22285579.5064   22285577.6184
  -1857263.84946  -1387573.07245  25039368.2804   25039372.2444   25039368.5794
 -16937666.30949 -13133832.70147  22316782.1264   22316783.2264   22316781.5924
  -8518520.17448  -6617433.38346  24038028.7674   24038031.6884   24038028.8854
 -30407318.78149 -23656157.48649  19890816.3704   19890818.1944   19890816.0414
  -5240710.12347  -3935617.60245  25059526.9714   25059530.6324   25059526.1334
 -23939995.19649 -18611192.83648  21074583.4334   21074585.4454   21074583.6714
 04  1  1  0 52  0.0000000  0  9G10G29G 8G27G28G 4G 7G 9G26
  -1694279.95646  -1272009.68144  24914837.0454   24914843.7064   24914837.2684
 -24981290.51549 -19427239.08349  20638225.1104   20638226.6584   20638225.5304
 -14660933.52249 -11378067.04348  22292761.2674   22292762.4164   22292761.2704
  -1778640.57146  -1326308.15744  25054332.6824   25054332.8314   25054332.1004
 -16878674.92149 -13087865.38947  22328008.4174   22328008.0854   22328008.0414
  -8590153.42848  -6673251.40346  24024398.1164   24024400.9404   24024397.8004
 -30390282.17449 -23642882.20249  19894058.5454   19894060.1614   19894058.1384
  -5324251.02947  -4000714.33145  25043628.0344   25043633.9004   25043628.3644
 -23980799.15549 -18642988.13348  21066818.8834   21066820.8104   21066819.0804
 04  1  1  0 52 30.0000000  0  9G10G29G 8G27G28G 4G 7G 9G26
  -1636667.09846  -1227116.65444  24925800.1684   24925806.2604   24925799.8064
 -24963544.88349 -19413411.32049  20641602.1204   20641603.6674   20641601.9474
 -14622922.34749 -11348447.93548  22299995.0104   22299995.2714   22299995.2694
   3026384.13156   2417866.92654  25069319.3544   25069321.6304   25069319.9164
 -16819687.08949 -13041900.84747  22339233.1104   22339233.5154   22339233.0734
  -8661842.42348  -6729112.85346  24010755.0444   24010758.1544   24010755.1024
 -30372666.27949 -23629155.51649  19897410.4364   19897412.0724   19897410.2214
  -5407925.70047  -4065915.27145  25027706.1824   25027708.8364   25027708.8364
 -24021021.69249 -18674330.36948  21059164.9824   21059166.8714   21059165.3874
 04  1  1  0 53  0.0000000  0  9G10G29G 8G27G28G 4G 7G 9G26
  -1579230.53146  -1182360.97844  24936730.4294   24936735.2284   24936730.0484
 -24945199.84049 -19399116.48549  20645093.2104   20645095.0004   20645093.1824
 -14584648.68749 -11318624.31747  22307278.1594   22307278.7994   22307278.0514
   3105288.50546   2479350.87045  25084335.3424   25084335.4984   25084334.1864
 -16760704.84249 -12995940.64947  22350456.9934   22350456.7774   22350456.7184
  -8733585.79948  -6785016.68046  23997103.6174   23997106.2864   23997103.2634
 -30354473.56549 -23614979.36849  19900872.3934   19900874.0854   19900872.2934
  -5491734.54647  -4131220.78345  25011757.2664   25011761.4794   25011758.2084
 -24060662.71049 -18705219.47448  21051621.1844   21051623.3884   21051621.6454
 04  1  1  0 53 30.0000000  0  9G10G29G 8G27G28G 4G 7G 9G26
  -1521968.39746  -1137741.22244  24947626.3054   24947634.0844   24947624.5604
 -24926252.08149 -19384352.00249  20648698.6444   20648700.3064   20648698.9634
 -14546107.77449 -11288592.44047  22314612.3664   22314613.5074   22314612.2654
   3184336.52646   2540946.69645  25099377.4724   25099380.9984   25099377.0304
 -16701724.84449 -12949982.21947  22361680.5914   22361679.9464   22361680.7384
  -8805376.93147  -6840957.72946  23983441.4844   23983444.2164   23983441.7254
 -30335701.16049 -23600351.51849  19904444.6664   19904446.4454   19904444.3114
  -5575672.42447  -4196626.86345  24995785.2464   24995787.3804   24995785.7614
 -24099716.65249 -18735651.12048  21044189.3984   21044191.7004   21044189.6264
 04  1  1  0 54  0.0000000  0  9G10G29G 8G27G28G 4G 7G 9G26
  -1464885.09546  -1093260.81644  24958489.7394   24958494.6454   24958487.7994
 -24906704.93749 -19369120.46549  20652418.3324   20652419.9194   20652418.3374
 -14507300.90449 -11258353.32948  22321996.7714   22321998.0714   22321996.6174
   3263525.21146   2602652.15445  25114446.5004   25114447.7344   25114447.0684
 -16642750.00149 -12904027.79947  22372902.9054   22372903.2704   22372902.7194
  -8877215.32648  -6896935.60946  23969771.1844   23969773.0674   23969770.5184
 -30316352.17249 -23585274.37949  19908126.7544   19908128.1764   19908126.3974
  -5659740.52046  -4262134.41645  24979786.7604   24979792.8454   24979785.7634
 -24138184.16949 -18765625.81448  21036869.3274   21036871.7464   21036869.7644
 04  1  1  0 54 30.0000000  0  9G10G29G 8G27G28G 4G 7G 9G26
  -1407983.91146  -1048922.33044  24969318.6444   24969322.3544   24969317.3704
 -24886560.46749 -19353423.48149  20656251.9814   20656253.4004   20656252.1304
 -14468228.33049 -11227907.17148  22329432.2494   22329433.6444   22329431.8994
   3342853.06346   2664466.04645  25129543.4764   25129543.8344   25129542.1514
 -16583782.21049 -12858078.86747  22384124.4404   22384123.7954   22384123.1714
  -8949099.20548  -6952948.92046  23956092.0724   23956094.8224   23956091.9844
 -30296428.85949 -23569749.71449  19911918.1424   19911919.6054   19911917.8694
  -5743938.87746  -4327743.43545  24963763.9104   24963769.6424   24963764.5994
 -24176065.05149 -18795143.39248  21029660.9504   21029663.0344   21029661.0004
 04  1  1  0 55  0.0000000  0  9G10G29G 8G27G28G 4G 7G 9G26
  -1351265.30946  -1004726.11744  24980110.2234   24980116.3174   24980109.9874
 -24865817.98949 -19337260.51049  20660198.9204   20660200.6154   20660199.0374
 -14428887.70049 -11197252.13748  22336918.8194   22336918.6244   22336917.5694
   3422321.24746   2726389.28445  25144664.2394   25144666.3564   25144664.8824
 -16524820.45849 -12812134.65247  22395344.5294   22395345.4324   22395344.5844
  -9021024.29048  -7008994.34646  23942405.2314   23942407.8994   23942404.9874
 -30275930.84449 -23553777.23349  19915818.4864   19915820.4374   19915818.3994
  -5828264.95047  -4393451.99645  24947718.0544   24947718.8554   24947717.2574
 -24213355.91949 -18824201.21648  21022564.7104   21022566.6384   21022564.8994
 04  1  1  0 55 30.0000000  0  9G10G29G 8G27G28G 4G 7G 9G26
  -1294735.16347   -960676.78344  24990870.2934   24990871.8484   24990870.8184
 -24844481.95449 -19320635.03449  20664259.2334   20664260.4044   20664259.1034
 -14389281.78549 -11166390.38347  22344455.3534   22344456.0654   22344454.9734
   3501925.92146   2788418.90645  25159813.8724   25159816.9304   25159812.8474
 -16465868.92049 -12766198.39147  22406562.7824   22406561.9874   22406561.7804
  -9092991.16248  -7065072.34246  23928709.6314   23928714.3244   23928710.0934
 -30254862.64249 -23537360.44749  19919827.8654   19919829.4304   19919827.7624
  -5912721.08247  -4459261.89145  24931647.1974   24931648.5334   24931645.4974
 -24250059.00549 -18852801.03248  21015580.3744   21015582.3014   21015580.7054
 04  1  1  0 56  0.0000000  0  9G10G29G 8G27G28G 4G 7G 9G26
  -1238391.61546   -916772.81344  25001591.0634   25001595.6854   25001588.6734
 -24822549.80349 -19303545.04949  20668432.5934   20668434.3534   20668432.5474
 -14349405.91549 -11135318.29648  22352043.5614   22352044.7124   22352043.1294
   3581670.47846   2850557.49945  25174987.6914   25174991.6244   25174988.2864
 -16406924.56249 -12720267.72547  22417779.6034   22417778.7274   22417779.0614
  -9164993.58348  -7121178.03046  23915009.0924   23915011.3014   23915008.7464
 -30233221.65749 -23520497.33549  19923945.8744   19923947.6344   19923945.6574
  -5997302.19546  -4525169.19645  24915550.3634   24915554.9564   24915550.3524
 -24286168.95049 -18880938.66048  21008708.6324   21008711.2014   21008708.8704
 04  1  1  0 56 30.0000000  0  9G10G29G 8G27G28G 4G 7G 9G26
  -1182236.46346   -873015.65844  25012277.6394   25012283.7194   25012278.3114
 -24800022.31049 -19285991.16149  20672719.5744   20672721.1354   20672719.7964
 -14309259.29349 -11104035.21548  22359683.0254   22359683.8794   22359682.9854
   3661554.42446   2912804.72844  25190189.1754   25190191.1624   25190188.8704
 -16347988.01249 -12674343.14447  22428994.1204   22428994.2544   22428993.4264
  -9237028.40648  -7177308.96746  23901300.5804   23901303.0844   23901301.4904
 -30211009.15149 -23503188.88649  19928172.8574   19928174.4124   19928172.4624
  -6082007.14446  -4591172.95545  24899432.8584   24899435.7044   24899433.0774
 -24321684.28949 -18908612.96148  21001950.6824   21001952.2584   21001951.2844
 04  1  1  0 57  0.0000000  0  9G10G29G 8G27G28G 4G 7G 9G26
  -1126274.95646   -829409.38544  25022927.4814   25022929.4234   25022923.5714
 -24776903.54449 -19267976.54449  20677118.9484   20677120.4354   20677118.8694
 -14268844.01049 -11072542.79548  22367373.8964   22367375.2574   22367373.4114
   3741574.50946   2975158.02744  25205416.3854   25205418.4344   25205416.7114
 -16289062.48149 -12628427.16047  22440207.3794   22440207.7164   22440206.8434
  -9309095.59748  -7233465.13446  23887586.1404   23887589.2964   23887587.1904
 -30188228.99849 -23485438.11349  19932507.5884   19932509.4934   19932507.6134
  -6166837.73047  -4657274.60145  24883289.5914   24883292.7684   24883289.5864
 -24356606.57149 -18935825.13748  20995304.8594   20995306.9164   20995305.2474
 04  1  1  0 57 30.0000000  0  9G10G29G 8G27G28G 4G 7G 9G26
  -1070508.56946   -785955.16344  25033537.3614   25033546.5234   25033536.0584
 -24753194.22849 -19249501.74849  20681630.4564   20681632.0274   20681630.6314
 -14228158.79749 -11040840.04447  22375115.8344   22375117.4794   22375116.0504
   3821730.86546   3037617.50545  25220668.9844   25220671.7184   25220670.2074
 -16230148.18949 -12582519.92347  22451418.9464   22451418.0414   22451419.5334
  -9381192.24748  -7289644.25546  23873866.4334   23873869.2314   23873866.8454
 -30164882.12049 -23467245.73449  19936950.4634   19936952.1434   19936950.3074
  -6251792.27846  -4723472.88245  24867123.3134   24867127.7034   24867124.7434
 -24390933.93849 -18962573.74048  20988772.8914   20988774.8574   20988773.1014
 04  1  1  0 58  0.0000000  0  9G10G29G 8G27G28G 4G 7G 9G26
  -1014939.30546   -742654.51344  25044111.6034   25044119.5424   25044110.4664
 -24728895.32349 -19230567.54749  20686254.5624   20686255.9714   20686254.4614
 -14187202.86249 -11008926.32947  22382909.6774   22382910.5694   22382909.0194
   3902022.90846   3100182.76145  25235948.8364   25235952.6364   25235948.3694
 -16171245.75049 -12536621.91547  22462627.5674   22462628.3184   22462627.1074
  -9453315.31148  -7345843.96246  23860143.1984   23860144.4704   23860143.6474
 -30140969.61249 -23448612.61049  19941500.9994   19941502.1834   19941500.7154
  -6336869.79247  -4789766.96645  24850933.9184   24850938.8224   24850934.2604
 -24424664.85249 -18988857.57648  20982353.8804   20982356.0574   20982353.9824
 04  1  1  0 58 30.0000000  0  9G10G29G 8G27G28G 4G 7G 9G26
   -959569.61346   -699509.41944  25054649.3294   25054654.3164   25054648.7494
 -24704008.18649 -19211174.96849  20690990.1794   20690992.1134   20690990.4004
 -14145975.75149 -10976801.31648  22390754.9484   22390755.5734   22390754.3604
   3982449.88946   3162853.09944  25251253.8974   25251256.1144   25251255.2814
 -16112355.86949 -12490733.70547  22473834.3194   22473833.9324   22473833.6374
  -9525462.12048  -7402062.19046  23846413.7024   23846416.2024   23846414.1644
 -30116492.97249 -23429539.89849  19946158.5784   19946160.4914   19946158.1044
  -6422069.14447  -4856156.01945  24834720.6284   24834723.0014   24834720.4214
 -24457798.39449 -19014675.92548  20976049.2484   20976050.5644   20976049.4494
 04  1  1  0 59  0.0000000  0  9G10G29G 8G27G28G 4G 7G 9G26
   -904398.96846   -656519.40844  25065147.5444   25065153.9884   25065146.7664
 -24678531.53149 -19191323.03349  20695838.5934   20695840.2054   20695838.8114
 -14104474.18349 -10944462.43548  22398652.3184   22398654.1834   22398652.2454
   4063014.05446   3225630.35144  25266584.1414   25266586.5324   25266583.2734
 -16053476.69849 -12444853.82547  22485038.0214   22485038.3544   22485037.3844
  -9597627.33548  -7458294.74346  23832680.1864   23832682.1314   23832680.8194
 -30091450.99849 -23410026.67449  19950924.1604   19950925.7054   19950923.6804
  -6507386.60647  -4922637.09345  24818485.0894   24818487.4584   24818484.9044
 -24490330.79149 -19040025.85248  20969857.8774   20969859.7354   20969858.0134
 04  1  1  0 59 30.0000000  0  9G10G29G 8G27G28G 4G 7G 9G26
   -849431.73146   -613687.89244  25075606.7074   25075615.9484   25075607.2264
 -24652469.20749 -19171014.73749  20700798.1914   20700799.6634   20700797.9164
 -14062699.87549 -10911911.02447  22406601.5494   22406602.3284   22406601.2394
   4143712.46746   3288512.23544  25281940.1164   25281940.0044   25281939.9274
 -15994611.05448 -12398984.49447  22496239.7414   22496240.4014   22496238.3814
  -9669810.81048  -7514541.52646  23818943.7764   23818946.8684   23818943.8894
 -30065847.49749 -23390075.88949  19955796.2524   19955797.7964   19955795.9584
  -6592823.69347  -4989211.39445  24802227.8604   24802230.3744   24802228.1474
 -24522263.02149 -19064908.12248  20963781.8314   20963783.4114   20963782.1944
 04  1  1  1  0  0.0000000  0  9G10G29G 8G27G28G 4G 7G 9G26
   -794670.53346   -571016.90844  25086029.1394   25086034.3084   25086029.0054
 -24625822.86749 -19150251.36049  20705868.8154   20705870.0914   20705868.7534
 -14020652.78249 -10879147.07447  22414602.9554   22414604.7074   22414603.2084
   4224543.91646   3351497.78744  25297323.1844   25297323.6354   25297321.5954
 -15935760.42449 -12353126.87647  22507438.8274   22507439.0784   22507438.3614
  -9742010.14248  -7570800.66346  23805205.3484   23805207.9874   23805205.3694
 -30039684.42849 -23369689.07449  19960774.8134   19960776.3404   19960774.7274
  -6678379.80347  -5055878.43045  24785946.0104   24785950.3844   24785944.8944
 -24553594.71849 -19089322.43548  20957819.3094   20957821.4024   20957819.7604
 04  1  1  1  0 30.0000000  0 10G24G10G29G 8G27G28G 4G 7G 9G26
  -1301858.46956   -980530.57354  25648270.1074   25648278.0464   25648271.9474
   -740117.96446   -528508.49444  25096409.8074   25096414.9824   25096409.2954
 -24598594.25349 -19129034.25949  20711049.8984   20711051.5544   20711050.1994
 -13978332.47149 -10846170.21447  22422656.2684   22422657.8754   22422654.4424
   4305507.45447   3414586.25444  25312731.1054   25312733.5474   25312729.9664
 -15876925.58749 -12307281.55147  22518634.7584   22518634.9164   22518633.7814
  -9814222.89048  -7627070.26146  23791462.5174   23791467.4704   23791463.7394
 -30012963.49549 -23348867.56449  19965859.5514   19965861.6614   19965859.2104
  -6764053.97947  -5122637.47945  24769643.4984   24769645.3764   24769643.0274
 -24584324.89649 -19113268.03648  20951971.6464   20951973.8594   20951971.5964
 04  1  1  1  1  0.0000000  0 10G24G10G29G 8G27G28G 4G 7G 9G26
  -1376619.81146  -1038785.74844  25634042.4184   25634054.2194   25634044.0944
   -685774.80346   -486163.26944  25106751.7394   25106755.3074   25106749.1204
 -24570783.54449 -19107363.58249  20716342.2044   20716343.6014   20716342.3544
 -13935737.31749 -10812979.18747  22430761.6894   22430763.4264   22430761.4764
   4386603.96546   3477778.34144  25328161.4684   25328160.7704   25328160.2574
 -15818105.84849 -12261447.98947  22529827.9814   22529829.0104   22529827.7454
  -9886445.03848  -7683347.17946  23777719.7684   23777723.9754   23777721.0464
 -29985684.96549 -23327611.57049  19971050.5514   19971051.9794   19971050.5844
  -6849843.82547  -5189486.66245  24753316.6744   24753321.6314   24753316.4184
 -24614451.20749 -19136743.09748  20946238.6854   20946240.7814   20946239.2174
 04  1  1  1  1 30.0000000  0 10G24G10G29G 8G27G28G 4G 7G 9G26
  -1451674.42146  -1097269.40344  25619760.3994   25619770.3634   25619760.4484
   -631643.66646   -443983.24844  25117050.9474   25117056.0034   25117048.0784
 -24542392.61449 -19085240.78749  20721744.9074   20721746.2044   20721744.7244
 -13892867.05249 -10779573.78747  22438919.8704   22438920.6584   22438919.0324
   4467831.97446   3541072.87644  25343618.4154   25343620.9594   25343621.3844
 -15759302.63449 -12215627.30847  22541018.0164   22541017.8524   22541017.1724
  -9958674.44648  -7739629.76546  23763976.2774   23763977.4804   23763976.3154
 -29957850.82449 -23305922.62549  19976347.0204   19976348.8374   19976347.0254
  -6935748.78947  -5256425.54445  24736969.9324   24736973.6484   24736970.2894
 -24643973.24449 -19159747.28448  20940621.1754   20940623.0644   20940621.2014
 04  1  1  1  2  0.0000000  0 10G24G10G29G 8G27G28G 4G 7G 9G26
  -1527019.17946  -1155979.09344  25605422.2174   25605429.6334   25605424.5654
   -577725.13746   -401968.90344  25127311.4124   25127319.2064   25127313.0414
 -24513421.55249 -19062665.95049  20727257.6624   20727259.3254   20727257.8384
 -13849719.77349 -10745952.53947  22447130.3464   22447131.4404   22447129.9694
   4549192.59146   3604470.73744  25359101.7094   25359099.7654   25359101.9594
 -15700514.81149 -12169818.60147  22552204.4744   22552204.8934   22552203.8264
 -10030906.89748  -7795914.72846  23750228.8944   23750232.3294   23750229.7304
 -29929461.14549 -23283800.80049  19981749.6574   19981751.2614   19981749.3984
  -7021766.49647  -5323452.26745  24720601.7284   24720605.0034   24720600.8624
 -24672888.50549 -19182278.66948  20935118.6784   20935120.8374   20935118.6344
 04  1  1  1  2 30.0000000  0 10G24G10G29G 8G27G28G 4G 7G 9G26
  -1602654.93246  -1214915.58644  25591029.5624   25591035.5684   25591030.7734
   -524024.12946   -360124.05244  25137529.9494   25137537.4844   25137530.7314
 -24483874.37349 -19039642.18149  20732880.5774   20732882.0394   20732880.7154
 -13806297.54949 -10712117.04147  22455393.3824   22455394.6114   22455392.6114
   4630682.49946   3667969.33944  25374606.8754   25374609.8614   25374608.3594
 -15641745.54449 -12124024.37347  22563388.2114   22563388.8754   22563388.1504
 -10103142.04848  -7852201.77946  23736484.4344   23736485.6294   23736484.2594
 -29900520.19849 -23261249.40949  19987256.6864   19987258.2074   19987256.4714
  -7107898.47247  -5390568.05245  24704211.1184   24704214.8444   24704211.4394
 -24701198.60249 -19204338.48948  20929731.2724   20929733.2904   20929731.3024
 04  1  1  1  3  0.0000000  0 10G24G10G29G 8G27G28G 4G 7G 9G26
  -1678578.31446  -1274076.16344  25576581.5614   25576587.0734   25576582.6944
   -470540.81446   -318448.80244  25147707.5724   25147715.2584   25147707.6484
 -24453751.14349 -19016169.53949  20738612.9204   20738614.2254   20738613.0474
 -13762598.17749 -10678065.58847  22463709.0674   22463710.6964   22463708.4274
   4712302.66446   3731569.49844  25390140.2914   25390142.5854   25390140.2864
 -15582993.76549 -12078243.77147  22574568.2614   22574569.4234   22574567.6644
 -10175375.69548  -7908487.67346  23722737.9334   23722741.4114   23722737.9494
 -29871027.94049 -23238268.43449  19992869.0134   19992870.7584   19992868.6034
  -7194141.63547  -5457770.45545  24687798.9404   24687802.7754   24687800.0294
 -24728900.87449 -19225924.68548  20924460.0684   20924461.5494   20924460.2964
 04  1  1  1  3 30.0000000  0 10G24G10G29G 8G27G28G 4G 7G 9G26
  -1754788.27846  -1333460.06744  25562078.0164   25562085.4454   25562080.7064
   -417277.88646   -276945.31744  25157843.0234   25157852.5224   25157842.5034
 -24423053.87749 -18992249.59549  20744454.1694   20744455.6534   20744454.3494
 -13718621.67549 -10643798.18247  22472077.3894   22472079.0544   22472077.3644
   4794051.87346   3795270.12944  25405696.3214   25405700.9374   25405696.1264
 -15524260.89049 -12032477.90747  22585744.6384   22585744.9544   22585743.0604
 -10247605.51348  -7964770.58646  23708993.1584   23708996.3374   23708993.9334
 -29840986.46949 -23214859.49449  19998585.7074   19998587.3934   19998585.4654
  -7280495.31347  -5525059.00045  24671366.8604   24671370.0184   24671367.1644
 -24755995.08449 -19247037.07148  20919303.8324   20919306.0854   20919304.3614
 04  1  1  1  4  0.0000000  0 10G24G10G29G 8G27G28G 4G 7G 9G26
  -1831282.36146  -1393065.37044  25547522.1144   25547529.9864   25547520.9614
   -364236.67546   -235614.59044  25167937.8494   25167943.1854   25167934.9634
 -24391783.29749 -18967882.91549  20750404.9914   20750406.4014   20750404.9674
 -13674366.86849 -10609313.92347  22480499.1694   22480499.6494   22480498.5554
   4875930.06546   3859071.32244  25421276.3764   25421277.7784   25421276.2154
 -15465546.57249 -11986726.47547  22596917.8744   22596917.2914   22596916.8964
 -10319828.19748  -8021047.93846  23695249.8634   23695251.4354   23695250.5404
 -29810396.69849 -23191023.30949  20004406.7184   20004408.2314   20004406.5314
  -7366957.81247  -5592432.29745  24654913.8384   24654917.1274   24654914.5064
 -24782479.46249 -19267674.25848  20914264.2604   20914266.5224   20914264.7204
 04  1  1  1  4 30.0000000  0 10G24G10G29G 8G27G28G 4G 7G 9G26
  -1908061.77946  -1452892.99644  25532910.8614   25532917.3464   25532909.4394
   -311421.92846   -194460.34944  25177988.1144   25177994.7824   25177988.3834
 -24359944.11549 -18943073.16849  20756463.7424   20756465.1084   20756463.6754
 -13629836.25949 -10574614.75047  22488972.6464   22488973.5764   22488971.9434
   4957933.80846   3922970.29844  25436882.4694   25436881.4804   25436883.4244
 -15406854.57149 -11940992.43447  22608086.6804   22608086.5844   22608086.7494
 -10392043.87148  -8077319.82546  23681507.4344   23681511.5154   23681507.8604
 -29779263.26349 -23166763.48749  20010331.3004   20010333.0664   20010331.0954
  -7453530.95547  -5659891.85045  24638439.7264   24638442.4264   24638439.1774
 -24808356.24649 -19287837.99048  20909339.8954   20909341.8814   20909340.1144
 04  1  1  1  5  0.0000000  0 10G24G10G29G 8G27G28G 4G 7G 9G26
  -1985121.96446  -1512939.39544  25518246.4004   25518253.6994   25518247.8274
   -258832.75046   -153481.88044  25187995.7914   25188004.5394   25187996.4144
 -24327534.65249 -18917819.05549  20762631.0274   20762632.0774   20762630.6864
 -13585025.95749 -10539697.63547  22497500.2114   22497500.8374   22497499.5764
   5040065.46145   3986968.92944  25452511.2194   25452512.7034   25452509.6684
 -15348182.20148 -11895273.70847  22619251.2944   22619251.5614   22619250.0494
 -10464246.42148  -8133581.49346  23667767.7644   23667770.4224   23667767.7634
 -29747584.66049 -23142078.86549  20016359.4784   20016361.0674   20016359.1064
  -7540210.09447  -5727433.99745  24621945.9734   24621948.3124   24621944.4774
 -24833621.37849 -19307525.11948  20904532.3874   20904534.5254   20904532.4714
 04  1  1  1  5 30.0000000  0 10G24G10G29G 8G27G28G 4G 7G 9G26
  -2062461.48846  -1573203.46944  25503527.8254   25503535.5514   25503528.6094
   -206471.66746   -112681.14444  25197960.1054   25197965.4564   25197959.6874
 -24294557.16949 -18892122.32349  20768906.4174   20768907.8734   20768906.4284
 -13539936.16249 -10504562.73547  22506080.1284   22506081.4224   22506079.7984
   5122324.10646   4051066.53944  25468165.1314   25468165.2474   25468163.7814
 -15289530.53049 -11849571.12447  22630412.6034   22630412.5154   22630412.9034
 -10536433.81848  -8189831.35246  23654031.6604   23654033.6744   23654031.9584
 -29715362.98449 -23116971.06649  20022491.1484   20022492.9724   20022490.9524
  -7626994.57347  -5795058.21246  24605431.4664   24605433.0174   24605430.4594
 -24858274.48349 -19326735.33848  20899840.7724   20899843.1204   20899840.9204
 04  1  1  1  6  0.0000000  0 10G24G10G29G 8G27G28G 4G 7G 9G26
  -2140081.19646  -1633685.90044  25488758.3204   25488765.6954   25488753.9794
   -154342.93346    -72061.44744  25207880.6064   25207887.1644   25207879.7794
 -24261015.63449 -18865986.06849  20775289.1884   20775290.4064   20775289.0364
 -13494568.65549 -10469211.43747  22514713.7144   22514715.2844   22514713.4234
   5204706.38446   4115260.46844  25483841.1504   25483843.2814   25483839.7354
 -15230902.10149 -11803886.62147  22641569.0524   22641570.1504   22641569.2694
 -10608605.33548  -8246068.83746  23640296.5324   23640298.4454   23640297.7414
 -29682602.47949 -23091443.39649  20028724.9004   20028726.8564   20028724.7764
  -7713885.63047  -5862765.46146  24588895.9074   24588897.7234   24588895.6404
 -24882317.18549 -19345469.91548  20895265.7504   20895268.0314   20895265.8614
 04  1  1  1  6 30.0000000  0 10G24G10G29G 8G27G28G 4G 7G 9G26
  -2217973.49346  -1694380.70444  25473934.2144   25473941.3804   25473933.4704
   -102442.81646    -31619.85544  25217756.3604   25217761.3264   25217752.9834
 -24226906.06849 -18839407.19549  20781779.6764   20781781.7114   20781780.0674
 -13448917.51449 -10433639.12647  22523400.6484   22523401.6884   22523400.4314
   5287217.44646   4179554.77844  25499543.6564   25499545.1554   25499542.3394
 -15172292.03649 -11758216.43647  22652722.1794   22652722.9394   22652721.0464
 -10680752.66348  -8302287.48946  23626567.8894   23626570.6244   23626568.7934
 -29649298.98949 -23065492.62649  20035062.8434   20035064.4874   20035062.5244
  -7800876.39547  -5930550.43745  24572341.8554   24572344.5074   24572341.8644
 -24905743.01349 -19363723.80848  20890807.7624   20890809.6624   20890808.4704
 04  1  1  1  7  0.0000000  0 10G24G10G29G 8G27G28G 4G 7G 9G26
  -2296142.64346  -1755291.24644  25459059.8234   25459065.1334   25459060.8974
    -50779.69646      8637.02444  25227586.8444   25227590.0694   25227584.7964
 -24192236.39149 -18812391.86949  20788377.5754   20788379.1474   20788377.7274
 -13402988.06649 -10397849.96847  22532140.8514   22532141.4424   22532140.1574
   5369850.42146   4243944.09045  25515267.8684   25515269.2614   25515267.8004
 -15113707.09549 -11712565.83847  22663870.4494   22663870.4554   22663870.7214
 -10752879.03348  -8358489.79646  23612843.0314   23612845.0024   23612842.5714
 -29615460.42649 -23039124.91349  20041502.0164   20041503.6974   20041501.6564
  -7887971.69247  -5998416.82245  24555768.3454   24555769.9874   24555768.4944
 -24928557.26149 -19381501.15248  20886466.4694   20886468.2324   20886466.9204
 04  1  1  1  7 30.0000000  0 10G24G10G29G 8G27G28G 4G 7G 9G26
  -2374584.72646  -1816414.47244  25444130.4264   25444137.8974   25444129.0024
       646.76246     48709.52644  25237373.3384   25237378.1664   25237372.8584
 -24157006.30249 -18784939.85949  20795081.6034   20795083.1134   20795081.5034
 -13356778.16549 -10361842.25347  22540934.2044   22540935.7594   22540933.5514
   5452606.65746   4308429.40545  25531016.3724   25531018.5934   25531016.2044
 -15055145.49949 -11666933.43947  22675014.8394   22675014.4664   22675013.6394
 -10824979.78048  -8414672.14046  23599122.2384   23599124.2384   23599123.5024
 -29581086.74849 -23012340.23049  20048043.0574   20048044.9724   20048042.6984
  -7975168.40847  -6066362.26446  24539175.8774   24539178.5854   24539174.8614
 -24950757.45949 -19398800.01048  20882242.0304   20882244.2934   20882242.2924
 04  1  1  1  8  0.0000000  0 10G24G10G29G 8G27G28G 4G 7G 9G26
  -2453296.08845  -1877747.53744  25429151.4014   25429159.1224   25429150.9664
     51836.76745     88597.70244  25247113.2394   25247123.7254   25247113.9374
 -24121215.38249 -18757050.84349  20801892.2884   20801894.0294   20801892.1864
 -13310285.04849 -10325613.85947  22549781.4824   22549783.1714   22549780.9854
   5535487.70546   4373011.99345  25546787.4854   25546790.4724   25546788.2054
 -14996605.71549 -11621318.02447  22686154.3234   22686156.0654   22686154.6334
 -10897049.75048  -8470830.51146  23585407.2024   23585410.0004   23585407.0554
 -29546177.42349 -22985138.15649  20054685.9624   20054687.5554   20054685.4884
  -8062462.91847  -6134383.91746  24522563.4264   24522566.0964   24522562.4634
 -24972340.61849 -19415618.06348  20878135.1144   20878136.6504   20878135.4094
 04  1  1  1  8 30.0000000  0 10G24G10G29G 8G27G28G 4G 7G 9G26
  -2532278.39245  -1939291.73644  25414123.4374   25414127.6184   25414121.3514
    102784.99745    128297.56844  25256810.2964   25256816.8084   25256812.2794
 -24084868.86249 -18728728.88449  20808808.9424   20808810.6114   20808808.9034
 -13263511.72049 -10289167.12347  22558682.1154   22558683.1724   22558682.1164
   5618489.21846   4437688.46644  25562582.9084   25562582.4354   25562581.5214
 -14938091.75148 -11575722.73447  22697288.8244   22697288.5474   22697288.5594
 -10969089.48748  -8526965.33346  23571699.5794   23571701.8264   23571699.4994
 -29510737.64949 -22957522.74649  20061430.0144   20061431.5884   20061429.9364
  -8149857.52347  -6202483.56746  24505931.9294   24505936.6864   24505932.2824
 -24993309.58949 -19431957.52748  20874144.6434   20874146.6164   20874145.0024
 04  1  1  1  9  0.0000000  0 10G24G10G29G 8G27G28G 4G 7G 9G26
  -2611525.96945  -2001042.66344  25399040.2414   25399050.3624   25399040.6834
   1728913.49546   1395410.55744  25266460.0744   25266465.0374   25266459.9804
 -24047964.50049 -18699972.24849  20815831.2074   20815833.2454   20815831.3744
 -13216453.89149 -10252498.69247  22567636.3304   22567638.0934   22567636.6564
   5701614.53445   4502461.39644  25578399.1824   25578399.8554   25578399.5664
 -14879599.93548 -11530144.70847  22708419.4544   22708419.3794   22708419.5024
 -11041092.36948  -8583071.42546  23557996.7234   23557998.8364   23557997.5714
 -29474765.20449 -22929492.26749  20068275.1614   20068276.8054   20068274.9134
  -8237346.81847  -6270656.98646  24489283.7574   24489286.9924   24489283.6474
 -25013659.73449 -19447814.79048  20870272.2264   20870274.1664   20870272.3444
 04  1  1  1  9 30.0000000  0 10G24G10G29G 8G27G28G 4G 7G 9G26
  -2691042.33145  -2063003.03644  25383909.7974   25383916.9884   25383908.4374
   1779374.87146   1434731.04444  25276061.8244   25276067.4634   25276061.9274
 -24010509.60949 -18670786.62949  20822959.0544   20822960.5824   20822959.2394
 -13169116.57649 -10215612.48847  22576645.2224   22576647.0354   22576644.4264
   5784857.44647   4567325.93844  25594240.6304   25594242.5694   25594240.9224
 -14821136.30449 -11484588.64147  22719544.8434   22719543.9644   22719544.6234
 -11113061.03148  -8639150.85946  23544302.2884   23544303.2084   23544303.1064
 -29438267.65449 -22901052.61749  20075220.4974   20075221.9724   20075220.0534
  -8324935.01147  -6338907.47845  24472616.4884   24472619.1224   24472616.4134
 -25033395.95849 -19463193.67748  20866516.4394   20866518.1874   20866516.6054
 04  1  1  1 10  0.0000000  0  9G24G29G 8G27G28G 4G 7G 9G26
  -2770820.88846  -2125167.72044  25368728.0124   25368736.4784   25368728.0614
 -23972501.41849 -18641169.86449  20830191.5724   20830192.6794   20830191.6054
 -13121494.71149 -10178504.54947  22585707.2324   22585707.8974   22585706.9324
   5868222.09346   4632285.34145  25610104.2624   25610107.6674   25610105.2984
 -14762696.45948 -11439051.11947  22730665.0794   22730664.7174   22730664.8474
 -11184987.85348  -8695197.66846  23530614.1484   23530615.1164   23530614.3864
 -29401241.86449 -22872201.35349  20082266.5224   20082267.8744   20082266.3154
  -8412616.24047  -6407230.47145  24455929.7254   24455933.4184   24455930.3784
 -25052512.96449 -19478090.05748  20862878.8154   20862880.1344   20862879.0054
 04  1  1  1 10 30.0000000  0  9G24G29G 8G27G28G 4G 7G 9G26
  -2850861.77546  -2187536.83545  25353495.8584   25353505.2524   25353496.2724
 -23933943.81149 -18611124.98649  20837528.9364   20837530.0874   20837529.0394
 -13073589.93549 -10141176.15747  22594823.4124   22594824.4394   22594823.6154
   5951705.41745   4697337.25345  25625990.1054   25625993.9854   25625989.8844
 -14704282.98348 -11393534.12147  22741781.5674   22741782.0204   22741781.4424
 -11256871.89748  -8751211.17646  23516935.8194   23516936.0294   23516935.8464
 -29363691.97649 -22842941.70149  20089411.9244   20089413.5264   20089411.6244
  -8500391.24547  -6475626.55045  24439227.2894   24439230.5544   24439227.6304
 -25071012.28149 -19492505.11748  20859358.2754   20859360.4134   20859358.5124
 04  1  1  1 11  0.0000000  0 10G24G29G 8G27G28G 4G 7G 9G26G 5
  -2931163.51246  -2250109.22744  25338215.9134   25338223.0214   25338215.0844
 -23894838.83349 -18580653.59049  20844970.3654   20844972.0184   20844970.4084
 -13025402.06249 -10103627.17247  22603992.9574   22603994.4464   22603992.5264
   6035306.63145   4762481.03944  25641899.0164   25641900.0444   25641896.8224
 -14645896.50949 -11348038.17247  22752892.2164   22752891.0744   22752891.1224
 -11328710.57448  -8807189.30746  23503265.1924   23503266.9434   23503265.7954
 -29325620.03949 -22813275.25649  20096656.9564   20096658.4124   20096656.4494
  -8588258.71047  -6544094.66245  24422506.8654   24422511.1334   24422506.9474
 -25088893.57849 -19506438.60048  20855955.5844   20855957.6184   20855955.9344
  -1220294.79217                  25367134.569
 04  1  1  1 11 30.0000000  0 10G24G29G 8G27G28G 4G 7G 9G26G 5
  -3011724.14146  -2312883.36045  25322884.8064   25322893.0944   25322886.7154
 -23855188.47549 -18549757.22049  20852515.4414   20852517.3634   20852515.6594
 -12976930.90349 -10065857.44947  22613216.5894   22613217.5644   22613216.3914
   6119025.04446   4827716.15944  25657831.0954   25657833.7764   25657830.9884
 -14587537.41349 -11302563.55447  22763997.3984   22763997.1264   22763997.9184
 -11400501.14748  -8863129.96746  23489603.9614   23489606.3424   23489604.3734
 -29287027.86449 -22783203.43349  20104000.3834   20104002.1544   20104000.1034
  -8676217.29447  -6612633.75345  24405769.9234   24405771.8704   24405769.4474
 -25106156.50449 -19519890.23948  20852670.7194   20852672.8494   20852670.9544
  -1274028.70917                  25356910.170
 04  1  1  1 12  0.0000000  0 10G24G29G 8G27G28G 4G 7G 9G26G 5
  -3092541.60747  -2375857.65145  25307506.2304   25307514.2304   25307506.3494
 -23814994.41149 -18518437.19049  20860164.5984   20860166.3644   20860164.5394
 -12928175.34149 -10027866.10947  22622494.5604   22622496.5434   22622494.1244
   6202860.26346   4893042.20644  25673784.8024   25673784.7564   25673783.0354
 -14529205.68348 -11257110.26547  22775097.8194   22775097.5244   22775096.7014
 -11472240.34448  -8919030.59146  23475951.8464   23475954.9644   23475952.5964
 -29247917.07749 -22752727.49749  20111443.2774   20111444.6714   20111442.8184
  -8764265.20747  -6681242.48245  24389014.7124   24389016.5724   24389014.0834
 -25122800.18449 -19532859.35448  20849503.2594   20849505.1484   20849503.6514
  -1327707.46357  -1010231.32855  25346696.0344   25346700.0094   25346695.1114
 04  1  1  1 12 30.0000000  0 10G24G29G 8G27G28G 4G 7G 9G26G 5
  -3173613.85246  -2439030.45744  25292078.1354   25292085.8184   25292076.9534
 -23774258.69349 -18486695.09249  20867916.1364   20867917.9194   20867915.9444
 -12879135.49549  -9989653.26147  22631826.2154   22631827.0094   22631825.4254
   6286811.33246   4958458.54544  25689759.3604   25689760.1554   25689758.9734
 -14470901.96248 -11211678.79747  22786192.4284   22786192.6924   22786191.3024
 -11543925.53448  -8974889.13447  23462311.0774   23462313.1594   23462311.6614
 -29208289.81849 -22721849.11449  20118983.8254   20118985.6154   20118983.7944
  -8852401.50647  -6749920.08245  24372242.6844   24372244.4104   24372242.1174
 -25138824.25549 -19545345.64748  20846454.1684   20846456.2714   20846454.3284
  -1381332.81046  -1052017.27344  25336490.8774   25336496.4234   25336489.7804
 04  1  1  1 13  0.0000000  0 10G24G29G 8G27G28G 4G 7G 9G26G 5
  -3254939.76047  -2502400.96245  25276603.4544   25276608.8784   25276602.9354
 -23732983.81849 -18454532.86749  20875770.3534   20875772.1594   20875770.1424
 -12829811.61849  -9951219.07747  22641212.6254   22641213.7224   22641211.7554
   6370877.19246   5023964.36644  25705757.0914   25705759.5024   25705756.7224
 -14412626.97048 -11166269.72547  22797281.8824   22797281.7164   22797282.2464
 -11615554.09948  -9030703.54347  23448680.9494   23448682.8124   23448680.9284
 -29168148.34149 -22690570.04349  20126622.5984   20126624.1634   20126622.2724
  -8940625.27547  -6818665.81345  24355454.1504   24355457.0714   24355453.5904
 -25154228.98149 -19557349.34148  20843522.4994   20843524.9524   20843522.8344
  -1434905.47146  -1093762.22344  25326295.5414   25326302.7634   25326293.6614
 04  1  1  1 13 30.0000000  0 10G24G29G 8G27G28G 4G 7G 9G26G 5
  -3336515.83547  -2565966.40545  25261078.4064   25261084.1034   25261079.9014
 -23691170.51749 -18421951.09549  20883727.1404   20883728.7824   20883727.2344
 -12780201.77849  -9912562.06247  22650653.2634   22650654.9574   22650652.3284
   6455058.41246   5089560.07845  25721776.7434   25721777.9104   25721776.6274
 -14354379.86448 -11120882.37647  22808365.6654   22808365.0974   22808365.4604
 -11687122.02348  -9086470.71847  23435061.8884   23435063.5164   23435061.8894
 -29127493.43649 -22658890.89349  20134358.9954   20134360.6824   20134358.6784
  -9028933.66348  -6887477.54046  24338650.1914   24338652.3884   24338649.9904
 -25169012.70549 -19568869.13948  20840709.5564   20840711.6094   20840709.9004
  -1488424.32846  -1135465.23144  25316110.7484   25316115.3684   25316110.6634
 04  1  1  1 14  0.0000000  0 10G24G29G 8G27G28G 4G 7G 9G26G 5
  -3418341.76547  -2629726.56545  25245507.2774   25245513.9414   25245507.8514
 -23648822.22149 -18388952.43449  20891785.5864   20891787.3884   20891785.4744
 -12730307.49549  -9873683.40847  22660147.9464   22660150.3514   22660147.2654
   6539352.40945   5155243.68544  25737817.5794   25737819.3114   25737816.2894
 -14296162.46248 -11075518.18047  22819444.0874   22819443.8674   22819444.3284
 -11758627.83548  -9142189.48147  23421454.1174   23421457.4994   23421455.1044
 -29086328.64049 -22626814.42649  20142192.2114   20142193.9744   20142191.9864
  -9117326.73147  -6956355.22546  24321829.1604   24321830.8704   24321829.4614
 -25183176.42749 -19579905.81348  20838013.9924   20838016.4134   20838014.5924
  -1541892.21846  -1177128.47844  25305936.8234   25305938.2604   25305936.0984
 04  1  1  1 14 30.0000000  0 10G24G29G 8G27G28G 4G 7G 9G26G 5
  -3500414.62647  -2693679.13345  25229889.8754   25229894.3974   25229890.3444
 -23605940.31249 -18355537.97249  20899945.9914   20899947.8844   20899945.9144
 -12680127.50049  -9834582.11947  22669696.6564   22669698.1464   22669695.3434
   6623758.95255   5221014.98954  25753879.3804   25753879.9284   25753878.7714
 -14237974.26548 -11030176.74147  22830516.9654   22830518.3854   22830516.7384
 -11830068.02548  -9197857.11247  23407859.7764   23407862.0484   23407860.7344
 -29044655.03849 -22594341.49149  20150122.4494   20150124.0114   20150122.3044
  -9205802.23847  -7025297.12146  24304992.7124   24304995.0714   24304992.5734
 -25196719.19849 -19590458.63648  20835437.1814   20835439.4534   20835437.3574
  -1595308.86846  -1218751.83844  25295771.7424   25295776.8164   25295771.7964
 04  1  1  1 15  0.0000000  0 10G24G29G 8G27G28G 4G 7G 9G26G 5
  -3582732.71447  -2757822.78545  25214225.8294   25214229.9994   25214226.9474
 -23562526.91749 -18321709.36949  20908207.3964   20908208.9774   20908207.6074
 -12629661.52649  -9795257.99447  22679300.2304   22679300.8554   22679300.2544
   6708277.91746   5286873.87044  25769961.4924   25769965.1544   25769962.3964
 -14179815.62448 -10984858.32747  22841584.3704   22841585.6964   22841582.4734
 -11901439.42648  -9253471.14547  23394278.2684   23394280.3254   23394278.9494
 -29002474.80949 -22561473.77849  20158149.2354   20158150.6364   20158149.0474
  -9294359.05648  -7094302.40046  24288141.3664   24288142.7464   24288140.7184
 -25209640.62949 -19600527.29948  20832978.3824   20832980.1704   20832978.6544
  -1648674.77946  -1260335.65744  25285616.6824   25285619.4374   25285615.9894
 04  1  1  1 15 30.0000000  0 10G24G29G 8G27G28G 4G 7G 9G26G 5
  -3665293.07347  -2822155.25745  25198513.2264   25198519.0874   25198512.8314
 -23518583.09849 -18287467.44149  20916569.0854   20916570.8994   20916569.3514
 -12578908.60149  -9755710.27747  22688957.7514   22688958.0924   22688957.3964
   6792909.09646   5352820.10544  25786067.6354   25786068.2234   25786069.4054
 -14121686.20348 -10939562.68547  22852645.8264   22852646.4424   22852645.4704
 -11972738.56248  -9309028.86547  23380710.5494   23380713.1754   23380711.5884
 -28959789.14249 -22528212.22049  20166271.8734   20166273.6624   20166271.9684
  -9382994.68948  -7163369.08046  24271274.0184   24271276.2884   24271274.1184
 -25221939.91949 -19610111.17448  20830637.8774   20830639.6194   20830638.3144
  -1701989.85446  -1301879.86444  25275472.0264   25275474.4734   25275470.3004
 04  1  1  1 16  0.0000000  0  9G24G29G 8G28G 4G 7G 9G26G 5
  -3748093.67347  -2886674.91545  25182757.2954   25182763.7844   25182756.1004
 -23474111.12349 -18252813.97049  20925032.4604   20925033.8804   20925032.3464
 -12527868.22749  -9715938.55547  22698670.5654   22698672.1564   22698669.7784
 -14063586.15248 -10894289.92347  22863702.2374   22863703.5104   22863701.5434
 -12043962.70848  -9364528.16347  23367157.0884   23367158.9674   23367156.4054
 -28916600.12049 -22494558.44449  20174490.6414   20174492.4064   20174490.5134
  -9471707.71648  -7232496.05146  24254392.5524   24254394.4324   24254391.9574
 -25233616.53449 -19619209.84648  20828415.8574   20828417.5674   20828416.2294
  -1755255.24246  -1343385.33244  25265335.4564   25265340.6604   25265334.0554
 04  1  1  1 16 30.0000000  0  9G24G29G 8G28G 4G 7G 9G26G 5
  -3831137.50347  -2951384.13045  25166954.6234   25166958.0354   25166952.7094
 -23429117.67549 -18217754.15449  20933594.1684   20933595.9124   20933594.4124
 -12476544.99649  -9675946.44847  22708437.0844   22708438.1734   22708437.0274
 -14005520.49448 -10849043.95647  22874751.6744   22874750.5844   22874752.0974
 -12115112.99649  -9419969.91147  23353617.9234   23353619.6184   23353617.3594
 -28872914.35549 -22460517.58949  20182803.8554   20182805.6264   20182803.3564
  -9560501.47648  -7301686.00546  24237496.2464   24237498.6254   24237495.7884
 -25244675.22949 -19627827.02248  20826311.5314   20826313.0544   20826311.6914
  -1808476.32346  -1384856.28444  25255208.3824   25255213.1724   25255206.7314
 04  1  1  1 17  0.0000000  0  9G24G29G 8G28G 4G 7G 9G26G 5
  -3914416.24247  -3016276.39845  25151105.6504   25151111.7274   25151104.7894
 -23383598.87949 -18182284.98049  20942255.9574   20942257.5954   20942256.1474
 -12424932.38349  -9635728.85047  22718258.4354   22718259.7594   22718257.7254
 -13947483.39048 -10803820.25147  22885795.7914   22885795.7714   22885795.2414
 -12186180.80848  -9475347.38647  23340093.7304   23340095.8744   23340095.0824
 -28828727.87549 -22426086.57049  20191212.1094   20191213.8994   20191212.1104
  -9649368.29848  -7370932.85646  24220584.7854   24220588.0594   24220584.9394
 -25255109.57749 -19635957.69048  20824325.8434   20824327.7344   20824326.2374
  -1861646.98146  -1426287.96344  25245090.2014   25245093.4494   25245092.0974
 04  1  1  1 17 30.0000000  0  9G24G29G 8G28G 4G 7G 9G26G 5
  -3997930.08847  -3081351.87945  25135213.1464   25135219.4574   25135215.0304
 -23337559.32049 -18146410.00849  20951017.2124   20951018.7084   20951017.1914
 -12373032.75649  -9595287.58447  22728134.1854   22728136.3044   22728133.8414
 -13889477.44248 -10758620.82247  22896833.8264   22896833.7434   22896833.5784
 -12257165.59649  -9530660.16847  23326585.7104   23326587.4134   23326585.0644
 -28784045.25649 -22391268.94649  20199715.1894   20199716.5174   20199714.6574
  -9738309.09548  -7440237.33346  24203660.1584   24203663.1204   24203659.7184
 -25264921.84749 -19643603.62348  20822458.7724   20822460.3444   20822458.8764
  -1914770.28046  -1467682.74644  25234981.1384   25234984.5654   25234979.5354
 04  1  1  1 18  0.0000000  0  9G24G29G 8G28G 4G 7G 9G26G 5
  -4081677.77647  -3146609.57145  25119276.5904   25119281.9434   25119277.9214
 -23291001.73849 -18110131.39148  20959876.8564   20959878.9604   20959877.4424
 -12320846.25249  -9554622.78247  22738065.6644   22738066.9004   22738065.2264
 -13831503.46548 -10713446.27947  22907866.1834   22907865.3764   22907865.7344
 -12328064.95549  -9585906.39747  23313094.4274   23313095.9994   23313094.8174
 -28738868.92449 -22356066.61549  20208311.7524   20208313.3804   20208311.4914
  -9827322.69648  -7509598.53346  24186721.1314   24186723.6384   24186719.9714
 -25274112.52949 -19650765.20948  20820710.0264   20820711.8194   20820709.9614
  -1967847.83547  -1509041.90744  25224880.4524   25224886.2224   25224879.7284
 04  1  1  1 18 30.0000000  0  9G24G29G 8G28G 4G 7G 9G26G 5
  -4165657.99247  -3212048.47745  25103295.4484   25103300.9394   25103294.9654
 -23243929.19749 -18073451.51648  20968834.3814   20968836.1304   20968834.4164
 -12268373.57649  -9513735.00847  22748050.7724   22748051.5354   22748049.5934
 -13773562.44948 -10668297.44846  22918891.9684   22918891.3394   22918891.8404
 -12398876.80448  -9641084.43647  23299618.5634   23299620.8794   23299618.3364
 -28693201.89849 -22320481.93149  20217001.9444   20217003.6814   20217001.4534
  -9916408.19548  -7579015.76346  24169768.0564   24169771.0854   24169768.4404
 -25282682.33749 -19657442.99048  20819078.9144   20819081.1754   20819079.1674
  -2020881.03346  -1550366.43044  25214788.3934   25214795.8724   25214790.5214
 04  1  1  1 19  0.0000000  0  9G24G29G 8G28G 4G 7G 9G26G 5
  -4249867.12147  -3277665.73945  25087271.5724   25087277.6674   25087270.6994
 -23196342.18949 -18036370.74748  20977890.0384   20977891.6404   20977890.0764
 -12215612.71749  -9472622.65947  22758090.5844   22758091.7694   22758090.3674
 -13715653.22748 -10623173.37446  22929911.3514   22929910.8124   22929910.6644
 -12469596.42649  -9696190.60247  23286161.7304   23286162.6894   23286163.1004
 -28647044.75749 -22284515.32749  20225785.2114   20225786.9484   20225784.8244
 -10005562.65448  -7648486.73246  24152803.2354   24152805.6334   24152803.4374
 -25290629.56149 -19663635.64148  20817566.8414   20817568.6574   20817566.8914
  -2073869.23246  -1591655.96044  25204705.5034   25204709.0954   25204704.2124
 04  1  1  1 19 30.0000000  0  9G24G29G 8G28G 4G 7G 9G26G 5
  -4334304.11347  -3343460.57445  25071202.7724   25071209.6694   25071203.6164
 -23148243.92949 -17998891.59748  20987042.7834   20987044.3274   20987042.8684
 -12162564.66049  -9431286.52647  22768186.1124   22768187.1394   22768185.8394
 -13657776.86148 -10578074.91746  22940925.0714   22940925.7444   22940924.3144
 -12540221.97248  -9751223.46646  23272721.4434   23272723.4324   23272722.2534
 -28600400.63149 -22248169.25849  20234660.9594   20234663.0814   20234661.0234
 -10094785.74548  -7718011.16546  24135824.4894   24135828.2044   24135825.1484
 -25297955.37149 -19669344.06948  20816172.4714   20816174.3854   20816172.8854
  -2126813.64946  -1632911.33144  25194630.5514   25194636.8084   25194628.3324
 04  1  1  1 20  0.0000000  0  9G24G29G 8G28G 4G 7G 9G26G 5
  -4418966.31347  -3409430.91845  25055091.4044   25055098.6304   25055090.6124
 -23099636.13949 -17961015.41748  20996292.5184   20996293.9944   20996292.7174
 -12109228.60349  -9389725.98147  22778335.2764   22778335.9714   22778333.5284
 -13599932.99048 -10533001.77746  22951932.5564   22951932.9564   22951931.6414
 -12610749.81048  -9806180.19046  23259300.8644   23259302.0954   23259301.0344
 -28553270.93249 -22211444.82049  20243630.0424   20243631.3794   20243629.7854
 -10184075.24248  -7787587.34946  24118832.5774   24118835.9704   24118833.0914
 -25304658.93349 -19674567.63748  20814896.8864   20814899.1734   20814897.3114
  -2179714.16546  -1674132.49744  25184563.7384   25184567.9264   25184563.3864
 04  1  1  1 20 30.0000000  0  9G24G29G 8G28G 4G 7G 9G26G 5
  -4503852.63047  -3475575.87645  25038938.1084   25038942.5894   25038937.9664
 -23050522.15349 -17922744.79548  21005638.7084   21005640.4454   21005638.7944
 -12055605.49448  -9347941.74747  22788538.5854   22788541.1264   22788538.3474
 -13542123.07448 -10487955.09047  22962932.8554   22962933.1154   22962932.3014
 -12681178.19048  -9861059.41046  23245898.1684   23245901.3434   23245899.0464
 -28505659.24049 -22174344.80149  20252689.7484   20252691.6804   20252689.6094
 -10273430.67448  -7857214.91646  24101829.0774   24101831.2684   24101828.1354
 -25310741.54249 -19679307.33948  20813739.4204   20813741.6234   20813739.9424
  -2232572.85446  -1715321.07844  25174504.1964   25174510.2504   25174505.4084
 04  1  1  1 21  0.0000000  0  9G24G29G 8G28G 4G 7G 9G26G 5
  -4588958.29746  -3541891.79345  25022742.5094   25022749.1474   25022742.7274
 -23000901.89349 -17884079.67048  21015081.3734   21015083.0554   21015080.9714
 -12001692.70849  -9305931.80047  22798798.6794   22798801.0364   22798798.4764
 -13484344.52848 -10442932.85147  22973927.7304   22973927.7664   22973927.2174
 -12751501.80148  -9915856.99147  23232516.6134   23232518.1704   23232516.6064
 -28457565.02749 -22136868.79949  20261842.2284   20261843.8224   20261842.1534
 -10362848.02448  -7926890.70146  24084813.7984   24084815.4554   24084813.2844
 -25316200.72549 -19683561.26048  20812700.8264   20812702.7594   20812701.1234
  -2285388.22546  -1756475.88744  25164455.1384   25164459.2004   25164454.0204
 04  1  1  1 21 30.0000000  0  9G24G29G 8G28G 4G 7G 9G26G 5
  -4674284.15847  -3608379.27245  25006507.4124   25006511.0484   25006505.2634
 -22950780.74449 -17845024.23748  21024619.0004   21024620.2444   21024619.0334
 -11947492.94649  -9263698.23447  22809112.5294   22809114.5234   22809111.8774
 -13426600.85748 -10397937.79746  22984916.1304   22984916.1184   22984916.3234
 -12821720.44648  -9970572.79546  23219154.2394   23219156.3554   23219155.1574
 -28408993.58249 -22099020.91949  20271084.9824   20271086.5344   20271084.7284
 -10452328.60648  -7996615.78946  24067786.2394   24067789.8084   24067785.5264
 -25321039.70849 -19687331.90448  20811780.0384   20811782.0054   20811779.7904
  -2338163.64646  -1797599.58744  25154410.5074   25154416.4064   25154411.7204
 04  1  1  1 22  0.0000000  0  9G24G29G 8G28G 4G 7G 9G26G 5
  -4759827.37746  -3675036.12245  24990227.5674   24990232.7684   24990228.2984
 -22900159.97549 -17805579.49848  21034251.6834   21034253.3594   21034251.9414
 -11893005.10949  -9221240.18447  22819481.2714   22819482.5314   22819481.0614
 -13368891.11548 -10352969.17747  22995898.5054   22995899.4234   22995897.5314
 -12891830.47648 -10025203.96047  23205812.6284   23205813.8004   23205812.9884
 -28359946.12249 -22060802.12749  20280417.8454   20280420.2244   20280417.7664
 -10541869.91748  -8066388.18546  24050746.4724   24050750.1774   24050747.6004
 -25325257.64149 -19690618.61548  20810977.1484   20810979.3744   20810977.5264
  -2390898.79946  -1838691.90444  25144375.1554   25144381.7794   25144375.8874
 04  1  1  1 22 30.0000000  0  9G24G29G 8G28G 4G 7G 9G26G 5
  -4845587.16146  -3741861.73745  24973906.3074   24973914.3714   24973907.1434
 -22849043.30749 -17765748.33648  21043979.0704   21043980.5774   21043979.1064
 -11838230.55749  -9178558.72347  22829904.7594   22829905.4404   22829904.8564
 -13311216.74848 -10308028.12147  23006873.4784   23006874.6194   23006872.2904
 -12961830.11448 -10079749.10847  23192491.9434   23192493.3274   23192491.9824
 -28310426.15849 -22022215.15049  20289841.7864   20289843.3314   20289841.5554
 -10631471.45548  -8136207.53046  24033696.3714   24033699.1724   24033697.0494
 -25328855.94549 -19693422.49548  20810292.6764   20810294.9704   20810292.9054
  -2443596.04146  -1879754.67644  25134348.9514   25134353.0534   25134348.4514
 04  1  1  1 23  0.0000000  0  9G24G29G 8G28G 4G 7G 9G26G 5
  -4931557.60846  -3808851.49445  24957548.7124   24957553.4904   24957547.6584
 -22797429.20949 -17725529.56948  21053800.8514   21053802.1614   21053800.5814
 -11783165.24349  -9135650.70147  22840383.2694   22840384.7864   22840382.8774
 -13253574.06248 -10263111.73647  23017842.0994   23017843.1574   23017841.7734
 -13031712.46648 -10134202.85647  23179193.4724   23179196.8174   23179194.4214
 -28260432.10149 -21983258.74449  20299355.4544   20299357.0894   20299355.3124
 -10721127.94848  -8206069.67846  24016635.0664   24016637.7584   24016635.2004
 -25331830.96349 -19695740.70148  20809726.5664   20809728.4004   20809726.8354
  -2496251.51246  -1920784.89845  25124327.9864   25124333.6444   25124326.4424
 04  1  1  1 23 30.0000000  0  9G24G29G 8G28G 4G 7G 9G26G 5
  -5017739.32947  -3876005.91145  24941148.8104   24941154.1134   24941148.7184
 -22745323.07849 -17684927.40348  21063716.2454   21063717.5804   21063715.9884
 -11727811.96149  -9092518.28247  22850916.1684   22850917.5594   22850915.6484
 -13195966.11248 -10218222.42547  23028805.2614   23028804.5334   23028804.4444
 -13101477.66949 -10188565.32147  23165917.6884   23165920.7394   23165917.8894
 -28209969.13549 -21943936.95249  20308957.9134   20308959.5664   20308957.8634
 -10810840.65248  -8275975.65246  23999562.9404   23999566.4284   23999563.4414
 -25334185.94149 -19697575.75748  20809278.1104   20809280.4964   20809278.7144
  -2548869.43045  -1961785.87044  25114315.0224   25114318.4024   25114314.7284
 04  1  1  1 24  0.0000000  0  9G24G29G 8G28G 4G 7G 9G26G 5
  -5104129.76547  -3943322.94145  24924710.3304   24924714.1944   24924709.0264
 -22692726.96649 -17643943.43248  21073724.8424   21073726.3634   21073725.0834
 -11672170.32149  -9049161.17247  22861504.4734   22861505.4424   22861505.1184
 -13138392.78048 -10173360.09246  23039760.5404   23039760.2794   23039760.9734
 -13171122.15349 -10242833.72847  23152665.4534   23152666.6964   23152665.6704
 -28159039.12949 -21904251.23749  20318649.8014   20318651.2714   20318649.4294
 -10900607.56848  -8345923.84846  23982480.8674   23982485.1914   23982480.9304
 -25335920.64549 -19698927.48448  20808948.2464   20808950.3574   20808948.3474
  -2601450.00846  -2002757.72944  25104310.9674   25104314.4364   25104308.0764
 04  1  1  1 24 30.0000000  0  9G24G29G 8G28G 4G 7G 9G26G 5
  -5190740.99247  -4010812.03045  24908226.7854   24908231.8044   24908228.0194
 -22639657.32349 -17602590.47448  21083824.0274   21083825.8994   21083823.7304
 -11616254.17848  -9005590.16547  22872144.8974   22872146.4904   22872145.0834
 -13080868.08348 -10128535.64646  23050707.3144   23050706.8664   23050706.9814
 -13240657.14249 -10297016.79847  23139433.3604   23139435.0664   23139433.1364
 -28107658.44449 -21864214.34749  20328427.1504   20328428.6614   20328427.0194
 -10990441.07848  -8415923.95046  23965386.7844   23965389.4104   23965386.5694
 -25337049.53849 -19699807.14748  20808733.2844   20808735.6084   20808733.4824
  -2654007.93346  -2043711.94845  25094307.0044   25094313.8204   25094307.1264
 04  1  1  1 25  0.0000000  0  9G24G29G 8G28G 4G 7G 9G26G 5
  -5277546.09447  -4078452.19345  24891709.2544   24891712.2134   24891709.0314
 -22586092.16949 -17560851.40348  21094016.8574   21094018.3664   21094016.8704
 -11560039.11549  -8961786.23047  22882843.0924   22882843.6224   22882842.0444
 -13023367.83548 -10083730.26546  23061649.2204   23061649.7094   23061648.5354
 -13310055.27349 -10351093.24047  23126226.6454   23126229.3264   23126227.6324
 -28055804.93449 -21823809.02449  20338294.5944   20338296.3994   20338294.2174
 -11080315.03048  -8485955.55746  23948284.1234   23948287.5354   23948284.7174
 -25337548.46449 -19700195.92748  20808638.3714   20808640.7284   20808638.6444
  -2706519.67445  -2084630.18144  25084313.9274   25084320.0904   25084313.9424
 04  1  1  1 25 30.0000000  0  9G24G29G 8G28G 4G 7G 9G26G 5
  -5364550.97247  -4146248.05345  24875153.2564   24875156.9124   24875152.1944
 -22532041.98749 -17518734.39548  21104302.2254   21104304.2494   21104302.2574
 -11503533.16048  -8917755.61847  22893595.9024   22893596.0584   22893596.0484
 -12965900.26248 -10038950.33846  23072584.6274   23072585.4494   23072583.4324
 -13379321.58949 -10405066.96947  23113046.7634   23113048.9644   23113046.8994
 -28003488.92449 -21783043.30549  20348250.0824   20348251.7854   20348250.0484
 -11170235.73248  -8556023.59646  23931172.7374   23931176.2754   23931172.7454
 -25337425.78049 -19700100.33048  20808661.7044   20808663.8854   20808662.0084
  -2758993.43446  -2125518.79845  25074331.2904   25074335.1324   25074330.0124
 04  1  1  1 26  0.0000000  0  9G24G29G 8G28G 4G 7G 9G26G 5
  -5451757.60747  -4214201.10545  24858556.9434   24858562.3124   24858558.0234
 -22477513.49449 -17476244.67848  21114678.7254   21114680.6994   21114678.8274
 -11446740.41749  -8873501.54347  22904402.4124   22904403.7804   22904401.5614
 -12908469.52848  -9994199.13046  23083512.9024   23083514.2074   23083512.9814
 -13448457.22149 -10458938.85947  23099890.2254   23099892.9044   23099890.5094
 -27950717.01249 -21741922.33649  20358292.2374   20358293.7824   20358291.8344
 -11260205.77548  -8626130.07246  23914052.2244   23914054.7194   23914052.1544
 -25336686.07049 -19699523.93548  20808802.6044   20808804.9174   20808802.7734
  -2811434.51445  -2166381.95844  25064349.1534   25064354.8924   25064349.3994
 04  1  1  1 26 30.0000000  0  9G24G29G 8G28G 4G 7G 9G26G 5
  -5539159.71047  -4282306.47645  24841924.3284   24841929.1404   24841924.7714
 -22422505.13649 -17433381.04448  21125146.7424   21125148.3104   21125146.5234
 -11389656.93548  -8829020.92247  22915265.5214   22915267.1244   22915266.0084
 -12851071.46648  -9949473.38646  23094436.0024   23094435.7414   23094435.5934
 -13517455.20549 -10512703.49847  23086760.1654   23086762.2124   23086761.2474
 -27897487.40549 -21700444.72349  20368421.3934   20368423.1604   20368421.1984
 -11350219.29648  -8696270.45646  23896923.0324   23896925.8944   23896923.3144
 -25335325.70949 -19698463.92348  20809061.5954   20809063.5514   20809061.7814
  -2863839.19946  -2207216.77345  25054378.9624   25054383.5234   25054376.7164
 04  1  1  1 27  0.0000000  0  9G24G29G 8G28G 4G 7G 9G26G 5
  -5626758.47847  -4350565.10045  24825254.8374   24825259.2124   24825254.2694
 -22367023.07649 -17390148.29248  21135704.3634   21135705.9544   21135704.4424
 -11332285.88148  -8784316.21747  22926182.6764   22926183.1734   22926181.8444
 -12793709.81948  -9904776.01646  23105350.7414   23105351.5664   23105350.2884
 -13586316.09749 -10566361.30647  23073655.8344   23073657.4464   23073655.3264
 -27843805.77649 -21658614.88649  20378636.6774   20378638.2514   20378636.4224
 -11440278.06148  -8766446.09146  23879786.0334   23879787.5044   23879785.4304
 -25333348.58749 -19696923.32048  20809437.4944   20809439.7274   20809437.8834
  -2916211.98646  -2248026.68545  25044412.8274   25044416.8234   25044412.1794
 04  1  1  1 27 30.0000000  0  9G24G29G 8G28G 4G 7G 9G26G 5
  -5714550.50047  -4418974.31645  24808549.1084   24808553.8614   24808548.2744
 -22311068.82349 -17346547.58848  21146352.1934   21146354.2654   21146352.1654
 -11274626.59748  -8739386.90847  22937154.2634   22937156.2754   22937153.5624
 -12736383.76948  -9860106.37446  23116260.2634   23116260.4154   23116260.5914
 -13655035.97449 -10619909.22847  23060579.2574   23060580.5954   23060579.0754
 -27789673.76749 -21616434.09649  20388937.8074   20388939.2134   20388937.5244
 -11530379.56848  -8836655.04246  23862639.9144   23862642.6864   23862640.8174
 -25330754.26749 -19694901.78448  20809931.2304   20809933.5764   20809931.3554
  -2968552.45446  -2288811.47145  25034451.7614   25034455.2964   25034450.4864
 04  1  1  1 28  0.0000000  0  9G24G29G 8G28G 4G 7G 9G26G 5
  -5802534.08147  -4487532.79945  24791805.3114   24791810.2494   24791805.1544
 -22254645.11549 -17302581.08048  21157089.2164   21157091.3774   21157089.3634
 -11216679.15448  -8694233.07947  22948181.7574   22948183.1734   22948180.4144
 -12679093.69748  -9815464.76046  23127161.9244   23127162.7274   23127162.0714
 -13723612.13549 -10673345.17247  23047529.8794   23047531.6054   23047530.1664
 -27735093.99949 -21573904.40049  20399323.8864   20399325.6004   20399323.6604
 -11620522.47248  -8906896.23046  23845485.6544   23845488.4414   23845484.4434
 -25327543.69049 -19692400.04548  20810542.1954   20810544.2794   20810542.0874
  -3020861.47947  -2329571.72545  25024499.0664   25024501.2464   25024497.8654
 04  1  1  1 28 30.0000000  0  9G24G29G 8G28G 4G 7G 9G26G 5
  -5890706.75847  -4556238.63545  24775026.9214   24775032.2844   24775027.6894
 -22197754.30349 -17258250.59648  21167915.1064   21167917.0754   21167915.4054
 -11158443.50548  -8648854.65647  22959263.4204   22959264.5454   22959263.4234
 -12621839.30048  -9770850.95347  23138057.7294   23138057.9494   23138056.7284
 -13792041.57649 -10726666.77847  23034508.3044   23034509.5294   23034507.5274
 -27680068.53649 -21531027.41749  20409794.8584   20409796.5164   20409794.8204
 -11710704.44548  -8977167.84446  23828324.7044   23828328.1774   23828324.7064
 -25323716.95649 -19689418.18848  20811270.6324   20811272.2724   20811270.6144
  -3073139.97146  -2370308.18445  25014549.4224   25014553.5154   25014549.1674
 04  1  1  1 29  0.0000000  0  9G24G29G 8G28G 4G 7G 9G26G 5
  -5979067.04647  -4625090.66345  24758212.5384   24758216.6894   24758212.1774
 -22140399.85849 -17213558.83248  21178829.4394   21178831.2294   21178829.2504
 -11099920.24748  -8603252.13947  22970400.5674   22970402.3194   22970399.2544
 -12564621.53848  -9726265.69746  23148945.4934   23148946.2264   23148945.6674
 -13860321.79848 -10779872.12247  23021513.8904   23021516.4064   23021514.9754
 -27624600.51649 -21487805.57849  20420350.0264   20420351.7904   20420349.8854
 -11800924.73148  -9047469.33546  23811156.8904   23811159.0674   23811156.5634
 -25319275.44349 -19685957.27448  20812115.2244   20812117.5754   20812115.4764
  -3125389.04046  -2411021.73745  25004606.5254   25004611.7314   25004605.6874
 04  1  1  1 29 30.0000000  0  9G24G29G 8G28G 4G 7G 9G26G 5
  -6067612.61947  -4694087.07745  24741362.3484   24741368.3324   24741363.0524
 -22082584.05949 -17168507.57748  21189831.4334   21189833.1694   21189831.3684
 -11041109.67748  -8557425.72347  22981591.9244   22981592.6214   22981591.4964
 -12507440.33548  -9681708.91246  23159826.7754   23159827.5924   23159826.9414
 -13928449.88349 -10832958.91347  23008550.0684   23008552.1934   23008550.8464
 -27568692.22249 -21444240.66649  20430989.1914   20430990.8324   20430988.8634
 -11891181.44648  -9117799.19746  23793981.2694   23793983.7784   23793981.3894
 -25314219.71849 -19682017.76348  20813078.0014   20813079.7514   20813078.1354
  -3177609.43747  -2451712.95545  24994669.1124   24994674.1484   24994669.1994
 04  1  1  1 30  0.0000000  0  9G24G29G 8G28G 4G 7G 9G26G 5
  -6156338.83847  -4763224.27245  24724479.6614   24724483.0214   24724478.8294
 -22024307.47449 -17123097.27348  21200920.8494   21200922.6194   21200920.9614
 -10982009.23348  -8511373.44047  22992837.5984   22992839.3604   22992837.3694
 -12450293.05648  -9637178.57346  23170701.7604   23170702.2794   23170701.4194
 -13996420.40549 -10885922.93247  22995616.6394   22995617.8854   22995617.1234
 -27512343.78949 -21400332.79549  20441711.4614   20441713.6294   20441711.2874
 -11981470.48048  -9188154.25246  23776799.2654   23776801.7214   23776800.0414
 -25308548.05749 -19677598.29648  20814156.9814   20814159.1014   20814157.1474
  -3229799.24647  -2492380.29445  24984738.8144   24984743.4544   24984737.0884
 04  1  1  1 30 30.0000000  0  9G24G29G 8G28G 4G 7G 9G26G 5
  -6245246.33347  -4832502.71945  24707559.6574   24707566.8664   24707561.1954
 -21965575.77949 -17077332.33048  21212097.2094   21212099.1404   21212097.3654
 -10922622.04348  -8465097.71847  23004139.1024   23004140.7364   23004137.7634
 -12393183.15448  -9592677.34346  23181568.9564   23181568.9524   23181568.6564
 -14064233.52849 -10938764.29747  22982711.4744   22982712.4424   22982712.1994
 -27455560.71549 -21356086.24249  20452517.2744   20452519.0244   20452516.7904
 -12071793.25548  -9258535.60646  23759611.6674   23759614.3554   23759612.0224
 -25302264.17949 -19672701.77648  20815352.7074   20815354.9664   20815353.1124
  -3281962.36347  -2533026.83645  24974812.3874   24974816.7314   24974811.8924
 04  1  1  1 31  0.0000000  0  9G24G29G 8G28G 4G 7G 9G26G 5
  -6334331.68847  -4901919.74645  24690608.1614   24690611.7044   24690607.8254
 -21906390.25349 -17031213.74948  21223359.9984   21223361.6724   21223360.1554
 -10862947.31548  -8418597.92947  23015494.3474   23015495.3004   23015493.8584
 -12336109.48648  -9548204.37846  23192430.0674   23192430.5674   23192429.7234
 -14131885.20149 -10991479.86747  22969838.1184   22969839.5494   22969839.2014
 -27398344.30449 -21311502.02249  20463405.0814   20463406.5724   20463404.6874
 -12162146.56848  -9328940.75346  23742418.4934   23742419.9364   23742418.4414
 -25295367.68649 -19667327.90048  20816665.2344   20816667.0974   20816665.4924
  -3334098.41847  -2573652.27345  24964890.8864   24964895.1444   24964889.7874
 04  1  1  1 31 30.0000000  0  9G24G29G 8G28G 4G 7G 9G26G 5
  -6423594.76847  -4971475.26445  24673621.2894   24673627.1874   24673620.5484
 -21846756.16949 -16984745.64048  21234708.0314   21234709.8744   21234708.0124
 -10802987.36848  -8371875.90147  23026904.4914   23026905.9484   23026903.6714
 -12279074.09548  -9503761.20746  23203283.3454   23203283.8414   23203283.5094
 -14199374.60049 -11044068.97447  22956994.8854   22956997.0324   22956995.4214
 -27340699.11249 -21266583.68749  20474374.4974   20474375.9794   20474373.9344
 -12252530.86948  -9399370.03146  23725218.1434   23725221.3954   23725218.5634
 -25287861.51249 -19661478.94848  20818093.5214   20818095.5344   20818093.6004
  -3386210.27747  -2614258.87745  24954974.9214   24954978.5214   24954974.7814
 04  1  1  1 32  0.0000000  0  9G24G29G 8G28G 4G 7G 9G26G 5
  -6513028.51547  -5041163.78045  24656602.0134   24656607.1214   24656602.1664
 -21786671.29049 -16937926.27648  21246141.7904   21246143.7674   21246141.9054
 -10742737.39948  -8324927.89047  23038369.9694   23038370.8564   23038370.9174
 -12222072.39148  -9459344.31446  23214130.7384   23214130.7154   23214130.7324
 -14266694.12949 -11096525.73547  22944184.3724   22944186.3414   22944184.6324
 -27282623.12849 -21221329.67249  20485426.0344   20485427.7784   20485425.7894
 -12342939.80048  -9469818.50046  23708013.7904   23708017.0574   23708014.6524
 -25279741.69749 -19655151.82948  20819638.9334   20819640.7764   20819638.8534
  -3438294.04947  -2654843.59045  24945062.4244   24945067.6894   24945061.4144
 04  1  1  1 32 30.0000000  0  9G24G29G 8G28G 4G 7G 9G26G 5
  -6602633.62547  -5110985.81445  24639550.2404   24639554.7874   24639551.9164
 -21726141.48149 -16890760.20448  21257660.1484   21257662.3504   21257660.4834
 -10682200.61948  -8277756.38547  23049889.7394   23049890.8234   23049888.7944
 -12165107.33248  -9414955.97646  23224970.2254   23224970.7934   23224970.8054
 -14333843.90149 -11148850.20147  22931406.2774   22931408.6734   22931406.1604
 -27224121.63949 -21175744.09149  20496558.8554   20496560.4814   20496558.3474
 -12433374.43748  -9540287.00146  23690805.3544   23690807.2394   23690804.5394
 -25271012.06249 -19648349.52548  20821300.0124   20821301.8984   20821300.3404
  -3490353.08547  -2695409.02445  24935157.1834   24935161.7784   24935158.2894
 04  1  1  1 33  0.0000000  0  9G24G29G 8G28G 4G 7G 9G26G 5
  -6692409.14047  -5180940.62645  24622467.9234   24622471.1804   24622467.7784
 -21665170.57649 -16843250.42648  21269262.7144   21269264.8874   21269262.8134
 -10621378.34049  -8230362.41347  23061464.8044   23061464.6774   23061463.7534
 -12108180.15048  -9370597.15846  23235803.8994   23235804.1594   23235802.6114
 -14400821.94949 -11201040.87847  22918661.0894   22918661.7804   22918661.2144
 -27165198.31849 -21129829.81649  20507771.2484   20507773.2214   20507771.2334
 -12523834.16748  -9610775.05146  23673591.4264   23673593.8024   23673590.1684
 -25261674.56049 -19641073.56648  20823076.7774   20823078.9664   20823077.0144
  -3542389.72447  -2735956.99745  24925254.9364   24925258.4244   24925254.7784
 04  1  1  1 33 30.0000000  0  9G24G29G 8G28G 4G 7G 9G26G 5
  -6782349.33047  -5251023.77945  24605352.2674   24605355.9204   24605351.3604
 -21603758.34949 -16795396.74548  21280948.8024   21280950.9974   21280948.9084
 -10560268.01649  -8182743.97647  23073093.3934   23073094.9434   23073093.4844
 -12051287.89648  -9326265.53846  23246629.4744   23246630.2474   23246628.2474
 -14467622.51349 -11253093.23947  22905949.1134   22905951.2774   22905949.5204
 -27105852.76149 -21083586.52449  20519064.3174   20519066.1764   20519064.1984
 -12614314.37448  -9681279.06646  23656372.2294   23656375.3304   23656372.5224
 -25251727.25049 -19633322.42948  20824969.6434   20824971.8224   20824970.0794
  -3594401.62147  -2776485.69545  24915356.2294   24915360.3404   24915356.7064
 04  1  1  1 34  0.0000000  0  9G24G29G 8G28G 4G 7G 9G26G 5
  -6872453.72747  -5321234.88145  24588206.7494   24588210.0854   24588205.6194
 -21541908.97449 -16747202.44248  21292718.6534   21292720.2194   21292718.6384
 -10498871.14248  -8134902.24847  23084775.8004   23084777.3654   23084775.2414
 -11994432.15748  -9281962.35446  23257448.4174   23257448.4204   23257448.5784
 -14534244.08049 -11305006.13547  22893271.2874   22893274.2744   22893271.9374
 -27046088.91349 -21037017.28749  20530436.9404   20530438.9834   20530436.5994
 -12704814.56048  -9751798.64546  23639150.9994   23639153.2924   23639150.4104
 -25241172.37649 -19625097.86548  20826978.5594   20826980.5714   20826978.5454
  -3646390.58347  -2816996.49045  24905463.9904   24905468.4314   24905462.5234
 04  1  1  1 34 30.0000000  0  9G24G29G 8G28G 4G 7G 9G26G 5
  -6962720.33147  -5391572.37445  24571028.5734   24571032.7954   24571028.7194
 -21479625.75649 -16698670.07248  21304570.7844   21304572.2894   21304570.7284
 -10437188.38848  -8086837.79647  23096513.8254   23096515.8304   23096513.6764
 -11937613.07248  -9237687.73446  23268261.8294   23268263.1964   23268262.0584
 -14600684.26549 -11356777.68547  22880628.2004   22880630.5774   22880628.9394
 -26985909.66349 -20990124.36149  20541888.7824   20541890.6074   20541888.4654
 -12795333.30348  -9822332.68846  23621925.6964   23621928.6864   23621926.0144
 -25230011.28349 -19616400.93048  20829101.7914   20829104.2514   20829102.2734
  -3698358.19147  -2857490.69445  24895574.9034   24895579.2074   24895573.0854
 04  1  1  1 35  0.0000000  0  9G24G29G 8G28G 4G 7G 9G26G 5
  -7053146.68648  -5462034.37046  24553820.7614   24553825.2104   24553821.3874
 -21416911.64149 -16649801.94648  21316504.7884   21316506.9274   21316504.6924
 -10375219.78248  -8038550.59447  23108306.3404   23108306.8224   23108306.3664
 -11880830.76848  -9193441.77446  23279065.7974   23279067.7624   23279066.0264
 -14666940.14549 -11408405.62047  22868020.0344   22868022.2614   22868019.6434
 -26925317.68549 -20942909.82849  20553418.8984   20553420.8914   20553418.3114
 -12885868.97248  -9892879.90746  23604697.5524   23604700.2534   23604696.7254
 -25218244.93949 -19607232.36848  20831341.4354   20831343.3944   20831341.7534
  -3750304.95647  -2897968.66045  24885689.2424   24885692.5904   24885689.6804
 04  1  1  1 35 30.0000000  0  9G24G29G 8G28G 4G 7G 9G26G 5
  -7143729.56848  -5532618.33646  24536584.3494   24536587.2224   24536583.4094
 -21353768.37049 -16600599.40848  21328520.3674   21328522.2034   21328520.4934
 -10312964.87248  -7990040.27847  23120152.9504   23120155.6464   23120152.4434
 -11824084.19748  -9149223.67046  23289865.8874   23289864.9454   23289863.5974
 -14733007.83349 -11459886.91347  22855447.5994   22855449.8444   22855448.5504
 -26864314.54549 -20895374.91649  20565027.5174   20565029.4574   20565027.3394
 -12976418.63448  -9963438.04747  23587466.6544   23587468.9184   23587466.5374
 -25205873.55449 -19597592.34548  20833695.3214   20833697.5964   20833695.3584
  -3802231.06247  -2938430.55145  24875807.8134   24875813.7974   24875807.1424
 04  1  1  1 36  0.0000000  0  9G24G29G 8G28G 4G 7G 9G26G 5
  -7234467.80148  -5603323.36246  24519316.8564   24519321.0014   24519316.7084
 -21290200.06949 -16551065.66548  21340617.1904   21340618.6224   21340617.1784
 -10250425.14748  -7941308.02747  23132053.8684   23132055.8934   23132052.3844
 -11767374.45748  -9105034.26546  23300656.7824   23300656.9564   23300655.5554
 -14798885.19749 -11511219.90147  22842911.5274   22842912.4524   22842912.0604
 -26802904.05949 -20847522.58249  20576713.3714   20576715.2044   20576713.2384
 -13066981.70648 -10034006.63347  23570232.9524   23570236.1464   23570233.3464
 -25192899.24049 -19587482.51148  20836164.4694   20836166.5314   20836164.5514
  -3854138.33047  -2978877.75045  24865930.8524   24865934.8414   24865929.9704
 04  1  1  1 36 30.0000000  0  9G24G29G 8G28G 4G 7G 9G26G 5
  -7325358.71048  -5674147.34846  24502021.0014   24502024.9644   24502020.2414
 -21226209.35949 -16501202.79048  21352794.3394   21352795.8594   21352794.2244
 -10187600.52448  -7892353.79046  23144008.6224   23144009.9044   23144008.1054
 -11710701.49148  -9060873.51646  23311440.8274   23311441.8664   23311441.2854
 -14864569.67349 -11562402.59147  22830412.5814   22830414.3034   22830413.0334
 -26741088.52349 -20799354.63149  20588476.6134   20588478.4154   20588476.5364
 -13157555.93948 -10104583.91947  23552997.5724   23553000.0204   23552997.8774
 -25179322.89949 -19576903.55648  20838747.8684   20838749.9054   20838748.1424
  -3906027.32347  -3019310.71345  24856055.8584   24856060.8944   24856054.4964
 04  1  1  1 37  0.0000000  0  9G24G29G 8G28G 4G 7G 9G26G 5
  -7416397.80648  -5745086.81146  24484696.8754   24484700.6174   24484696.6104
 -21161797.16349 -16451011.47948  21365051.5584   21365053.1724   21365051.6464
 -10124489.43648  -7843176.33747  23156019.0624   23156020.4554   23156018.4934
 -11654063.41848  -9016739.95746  23322218.8514   23322218.3704   23322218.8474
 -14930056.12649 -11613430.96647  22817950.7234   22817952.5914   22817950.3304
 -26678868.54149 -20750871.52249  20600316.8304   20600318.3974   20600316.5704
 -13248137.67348 -10175167.04847  23535760.8214   23535762.2904   23535759.8534
 -25165143.83449 -19565854.94848  20841445.9654   20841448.2434   20841446.3114
  -3957896.59347  -3059728.32145  24846185.3134   24846189.1234   24846184.7944
 04  1  1  1 37 30.0000000  0  9G24G29G 8G28G 4G 7G 9G26G 5
  -7507586.55048  -5816142.88646  24467344.4764   24467347.0774   24467343.8494
 -21096970.03249 -16400496.83848  21377387.5514   21377388.8234   21377387.2684
 -10061095.78148  -7793778.69647  23168082.3644   23168084.3614   23168081.7914
 -11597463.51948  -8972636.14746  23332989.5964   23332989.7894   23332989.9714
 -14995345.46049 -11664305.75047  22805526.5344   22805528.4384   22805526.7084
 -26616250.41749 -20702078.17648  20612232.4414   20612234.3224   20612232.4594
 -13338728.35448 -10245757.15547  23518521.4044   23518524.1794   23518521.8824
 -25150366.55549 -19554340.19748  20844258.1284   20844260.0374   20844258.1254
  -4009750.69447  -3100134.10145  24836317.9134   24836321.8934   24836317.9424
 04  1  1  1 38  0.0000000  0  9G24G29G 8G28G 4G 7G 9G26G 5
  -7598920.43348  -5887312.04046  24449962.9244   24449967.6184   24449963.6304
 -21031728.76049 -16349659.48948  21389802.4414   21389804.2924   21389802.3354
  -9997418.01548  -7744159.66746  23180200.0824   23180199.9864   23180200.0114
 -11540899.95347  -8928560.64846  23343753.1054   23343752.6484   23343753.2004
 -15060432.72149 -11715023.07947  22793141.1994   22793143.3434   22793141.1914
 -26553234.72749 -20652975.03048  20624224.0624   20624225.4894   20624224.0004
 -13429324.37948 -10316351.42247  23501281.2974   23501284.6204   23501281.2854
 -25134990.47449 -19542358.84748  20847184.0554   20847185.9964   20847184.3124
  -4061588.22447  -3140526.99645  24826454.2854   24826458.3094   24826452.9474
 04  1  1  1 38 30.0000000  0  9G24G29G 8G28G 4G 7G 9G26G 5
  -7690415.81847  -5958607.05046  24432552.8644   24432556.7714   24432552.8994
 -20966095.03149 -16298516.32048  21402292.2964   21402294.2314   21402292.5034
  -9933475.19548  -7694334.10646  23192367.6314   23192369.0024   23192367.3374
 -11484391.40348  -8884528.03046  23354506.8004   23354506.3494   23354505.9404
 -15125333.66549 -11765595.21947  22780790.4684   22780792.1604   22780791.2994
 -26489842.80249 -20603578.71848  20636286.8784   20636288.6934   20636286.5944
 -13519942.47448 -10386962.87447  23484037.5654   23484041.5664   23484037.5424
 -25119035.17849 -19529926.15348  20850220.0524   20850222.5404   20850220.9394
  -4113428.60747  -3180922.09245  24816589.5264   24816593.8384   24816589.4364
 04  1  1  1 39  0.0000000  0  9G24G29G 8G28G 4G 7G 9G26G 5
  -7782030.84847  -6029995.28545  24415118.9934   24415121.4244   24415116.7364
 -20900032.32649 -16247038.89648  21414863.5164   21414865.1474   21414863.2434
  -9869227.71448  -7644271.15346  23204593.8234   23204593.9224   23204592.2624
 -11427898.04848  -8840507.24346  23365257.9704   23365257.6754   23365257.5024
 -15190005.82249 -11815989.09147  22768484.4594   22768485.0424   22768484.7824
 -26426037.50449 -20553860.29848  20648429.0694   20648430.3944   20648428.5124
 -13610541.25148 -10457559.28447  23466796.8574   23466800.0754   23466796.5524
 -25102462.38849 -19517012.29948  20853374.1054   20853376.1364   20853374.4104
  -4165232.84347  -3221289.02345  24806731.2444   24806735.2164   24806731.0714
 04  1  1  1 39 30.0000000  0  9G24G29G 8G28G 4G 7G 9G26G 5
  -7873783.68447  -6101490.89845  24397658.0394   24397660.7694   24397658.1404
 -20833564.19749 -16195245.55348  21427511.9234   21427514.1524   21427512.1224
  -9804696.95148  -7593987.44946  23216872.6654   23216873.5034   23216872.6494
 -11371440.59948  -8796514.41546  23376000.2464   23376000.0274   23375999.2794
 -15254467.04249 -11866218.59247  22756217.2364   22756219.4294   22756216.7014
 -26361842.42349 -20503838.14648  20660644.7654   20660646.5074   20660644.3864
 -13701139.56248 -10528155.33746  23449556.2814   23449559.4144   23449555.3744
 -25085294.29949 -19503634.58148  20856640.9444   20856642.9174   20856641.3474
  -4217022.91847  -3261644.92945  24796875.2464   24796879.2244   24796874.1004
 04  1  1  1 40  0.0000000  0  9G24G29G 8G28G 4G 7G 9G26G 5
  -7965670.90446  -6173091.21745  24380171.7244   24380177.4254   24380171.9834
 -20766692.69849 -16143137.90648  21440237.3164   21440239.1634   21440237.2424
  -9739882.07148  -7543482.36246  23229207.2544   23229209.0014   23229206.8774
 -11315017.96848  -8752548.71446  23386737.6114   23386737.9564   23386737.5154
 -15318713.56349 -11916280.81347  22743991.6974   22743992.7674   22743992.5284
 -26297259.12749 -20453513.48948  20672934.4534   20672936.4044   20672934.3894
 -13791734.18748 -10598748.52547  23432316.6474   23432319.1434   23432317.1074
 -25067531.20849 -19489793.23048  20860021.4474   20860023.2204   20860021.3094
  -4268798.37347  -3301989.43245  24787022.5244   24787027.9084   24787021.5084
 04  1  1  1 40 30.0000000  0  9G24G29G 8G28G 4G 7G 9G26G 5
  -8057692.08546  -6244795.92945  24362660.2254   24362665.0164   24362659.9354
 -20699422.79849 -16090719.81948  21453038.3924   21453040.3514   21453038.4484
  -9674785.82848  -7492758.02546  23241593.9974   23241595.4874   23241593.4684
 -11258632.24348  -8708611.77946  23397467.3454   23397466.7954   23397467.4544
 -15382744.32149 -11966174.88147  22731807.1924   22731809.2824   22731807.2194
 -26232292.29749 -20402889.97748  20685297.2604   20685299.3424   20685297.0984
 -13882325.49548 -10669339.11647  23415078.1324   23415081.1964   23415079.0274
 -25049176.28949 -19475490.70648  20863514.2434   20863516.3624   20863514.2114
  -4320561.49447  -3342324.33345  24777173.1164   24777177.2224   24777171.1414
 04  1  1  1 41  0.0000000  0  9G24G29G 8G28G 4G 7G 9G26G 5
  -8149842.94547  -6316601.69345  24345124.5554   24345128.8514   24345123.6204
 -20631755.86749 -16037992.34448  21465915.3974   21465916.4574   21465914.8804
  -9609407.04348  -7441813.51446  23254035.3344   23254036.2504   23254035.0514
 -11202281.67948  -8664702.24446  23408189.6204   23408189.4184   23408189.9414
 -15446555.23049 -12015897.65047  22719664.1114   22719666.0984   22719664.9194
 -26166942.95049 -20351968.40348  20697732.8594   20697734.7684   20697732.3644
 -13972909.97148 -10739924.39647  23397840.2804   23397843.9654   23397839.3764
 -25030229.38449 -19460726.90448  20867119.2424   20867121.4774   20867119.7064
  -4372312.09447  -3382649.47145  24767325.0884   24767327.5214   24767324.3184
 04  1  1  1 41 30.0000000  0  9G24G29G 8G28G 4G 7G 9G26G 5
  -8242123.84647  -6388508.79845  24327564.7234   24327568.5934   24327564.5014
 -20563697.90149 -15984960.15748  21478865.9454   21478868.3194   21478866.1264
  -9543748.49448  -7390651.04346  23266530.8364   23266531.1304   23266530.9974
 -11145968.68448  -8620822.00346  23418906.3754   23418905.7544   23418906.5384
 -15510145.86749 -12065448.78047  22707563.1374   22707564.8564   22707564.4544
 -26101216.57549 -20300753.03848  20710240.3154   20710241.9234   20710240.0274
 -14063488.59148 -10810505.10147  23380603.7974   23380605.5324   23380604.6124
 -25010694.72449 -19445505.11648  20870836.7724   20870839.5974   20870837.3314
  -4424053.40347  -3422967.37145  24757479.4794   24757481.9344   24757478.9364
 04  1  1  1 42  0.0000000  0  9G24G29G 8G28G 4G 7G 9G26G 5
  -8334530.29047  -6460513.74145  24309981.8184   24309984.6594   24309980.2194
 -20495249.39249 -15931623.68248  21491891.4284   21491893.5524   21491891.3894
  -9477808.78648  -7339269.45946  23279077.6914   23279079.5094   23279077.8364
 -11089690.98547  -8576969.25446  23429615.5874   23429616.6914   23429616.2564
 -15573511.19149 -12114824.33847  22695504.9124   22695507.8034   22695505.1864
 -26035113.53749 -20249244.16348  20722819.2144   20722820.9564   20722818.6534
 -14154056.82348 -10881077.72247  23363369.4424   23363372.0754   23363369.1554
 -24990571.23849 -19429824.49148  20874666.0564   20874668.7264   20874666.7374
  -4475784.15947  -3463277.04645  24747635.5954   24747639.7534   24747634.1254
 04  1  1  1 42 30.0000000  0  9G24G29G 8G28G 4G 7G 9G26G 5
  -8427057.41447  -6532612.70845  24292371.6794   24292377.8534   24292372.7904
 -20426411.15749 -15877983.51248  21504991.0414   21504992.6324   21504990.9384
  -9411585.78348  -7287667.12446  23291680.0634   23291680.8574   23291678.6884
 -11033446.34647  -8533142.27746  23440318.1604   23440318.7574   23440318.0584
 -15636646.12049 -12164020.37447  22683491.2714   22683492.6894   22683491.5674
 -25968634.20149 -20197442.07748  20735469.5954   20735471.6424   20735469.4214
 -14244610.33648 -10951638.87647  23346137.5674   23346140.0994   23346137.7704
 -24969858.13949 -19413684.42648  20878607.7664   20878610.1064   20878607.8194
  -4527502.59547  -3503577.14545  24737794.6384   24737797.1454   24737793.1004
 04  1  1  1 43  0.0000000  0  9G24G29G 8G28G 4G 7G 9G26G 5
  -8519706.65447  -6604806.85945  24274742.8714   24274746.0814   24274742.6744
 -20357190.03249 -15824044.97948  21518163.3754   21518165.4084   21518163.3664
  -9345083.95348  -7235847.54646  23304334.9454   23304337.2924   23304334.2144
 -10977238.49647  -8489343.95446  23451014.1874   23451015.9144   23451014.2634
 -15699551.45749 -12213037.49947  22671520.8254   22671522.6454   22671520.6274
 -25901785.23049 -20145351.96348  20748190.6544   20748192.2304   20748190.4404
 -14335151.28648 -11022190.24347  23328908.3444   23328910.5434   23328908.6964
 -24948560.87549 -19397089.17348  20882660.8224   20882662.8964   20882660.9754
  -4579213.35447  -3543871.26545  24727953.7384   24727955.7654   24727951.8654
 04  1  1  1 43 30.0000000  0  9G24G29G 8G28G 4G 7G 9G26G 5
  -8612472.62548  -6677091.95545  24257090.2434   24257093.5364   24257089.6254
 -20287586.09549 -15769808.15348  21531408.3644   21531410.4544   21531408.0674
  -9278300.78048  -7183808.72446  23317042.6754   23317043.5584   23317042.8264
 -10921064.33647  -8445571.89546  23461704.2894   23461704.6294   23461703.7244
 -15762221.57849 -12261871.33647  22659594.7144   22659596.6594   22659594.9104
 -25834566.04649 -20092973.37648  20760982.1474   20760983.7124   20760982.1864
 -14425674.75448 -11092727.96547  23311682.4024   23311684.5134   23311682.3144
 -24926677.95849 -19380037.56648  20886824.6464   20886826.9444   20886825.1364
  -4630914.17847  -3584157.64645  24718114.5724   24718120.1294   24718115.3644
 04  1  1  1 44  0.0000000  0  9G24G29G 8G28G 4G 7G 9G26G 5
  -8705354.42848  -6749467.33245  24239416.5644   24239419.7524   24239416.4284
 -20217603.98749 -15715276.65648  21544725.4294   21544727.6564   21544725.5024
  -9211238.14348  -7131552.14246  23329804.9204   23329805.0054   23329804.3964
 -10864925.42548  -8401827.28546  23472387.0314   23472388.2994   23472386.6614
 -15824655.01249 -12310520.75347  22647714.4254   22647715.5524   22647713.9644
 -25766981.15249 -20040309.81648  20773843.1054   20773844.2864   20773842.7574
 -14516179.98148 -11163251.47447  23294459.3624   23294461.9124   23294459.0674
 -24904212.26149 -19362531.85148  20891100.0924   20891102.0104   20891100.4674
  -4682607.18047  -3624437.93745  24708278.7534   24708283.0414   24708278.1074
 04  1  1  1 44 30.0000000  0  9G24G29G 8G28G 4G 7G 9G26G 5
  -8798349.00348  -6821930.55946  24221718.9544   24221721.7924   24221718.1114
 -20147246.60749 -15660452.73648  21558114.3134   21558115.5084   21558114.2434
  -9143896.46148  -7079078.13046  23342619.7924   23342620.6834   23342618.3294
 -10808821.09148  -8358109.64346  23483063.3804   23483063.5854   23483063.0464
 -15886848.77949 -12358983.40047  22635879.0034   22635880.3144   22635879.9954
 -25699032.73849 -19987362.99148  20786773.4704   20786774.8554   20786773.0454
 -14606664.90248 -11233759.17047  23277240.9714   23277243.3294   23277240.4374
 -24881165.19749 -19344573.12048  20895485.4094   20895487.5824   20895485.8554
  -4734293.32246  -3664712.87645  24698442.2454   24698446.3004   24698441.8854
 04  1  1  1 45  0.0000000  0  9G24G29G 8G28G 4G 7G 9G26G 5
  -8891454.35048  -6894480.11046  24204001.0844   24204005.0744   24204000.9944
 -20076517.59449 -15605339.23348  21571573.1994   21571575.6454   21571573.3754
  -9076276.81048  -7026387.50347  23355487.0604   23355489.2624   23355486.4534
 -10752751.80548  -8314419.29846  23493733.4464   23493733.2754   23493733.0694
 -15948800.69749 -12407257.60447  22624089.6014   22624092.0804   22624089.9904
 -25630724.29049 -19934135.61748  20799771.7374   20799773.3564   20799771.3364
 -14697128.17548 -11304249.99747  23260025.9814   23260028.9724   23260026.7114
 -24857539.10149 -19326163.19448  20899981.0834   20899984.0434   20899981.3874
  -4785973.57646  -3704983.21745  24688607.9434   24688612.8434   24688607.5544
 04  1  1  1 45 30.0000000  0  9G24G29G 8G28G 4G 7G 9G26G 5
  -8984667.68948  -6967113.79446  24186262.9884   24186267.3064   24186263.0484
 -20005419.61849 -15549938.22848  21585102.7914   21585104.9244   21585102.8324
  -9008379.50948  -6973480.52646  23368407.6404   23368408.8884   23368407.0974
 -10696717.12848  -8270755.91546  23504396.7844   23504396.2784   23504396.6944
 -16010507.35549 -12455340.68847  22612347.4574   22612350.1754   22612348.0924
 -25562058.06649 -19880629.45848  20812838.5964   20812840.4424   20812838.1764
 -14787567.30548 -11374722.00447  23242815.7374   23242818.0064   23242817.5844
 -24833334.99649 -19307302.87748  20904587.5934   20904589.6724   20904587.3624
  -4837648.27746  -3745249.22845  24678773.6244   24678780.9784   24678774.0634
 04  1  1  1 46  0.0000000  0  9G24G29G 8G28G 4G 7G 9G26G 5
  -9077982.92048  -7039826.88146  24168505.4484   24168509.7974   24168505.7544
 -19933952.05149 -15494249.20848  21598702.5454   21598704.3574   21598702.4834
  -8940201.10148  -6920354.51846  23381381.4504   23381382.9814   23381380.3114
 -10640713.39248  -8227116.65546  23515053.5894   23515052.6844   23515054.0974
 -16071962.54749 -12503227.82947  22600652.3014   22600655.0434   22600652.9824
 -25493033.21749 -19826843.86648  20825973.6914   20825975.4894   20825973.4144
 -14877976.73948 -11445170.86647  23225611.7084   23225613.7194   23225610.8644
 -24808550.96549 -19287990.66348  20909303.7374   20909305.7124   20909303.9454
  -4889314.69846  -3785508.77345  24668941.7714   24668947.4494   24668942.6114
 04  1  1  1 46 30.0000000  0  9G24G29G 8G28G 4G 7G 9G26G 5
  -9171402.51448  -7112621.28746  24150729.2494   24150731.5164   24150729.3384
 -19862123.23349 -15438278.70548  21612371.4324   21612373.0754   21612371.4994
  -8871747.49648  -6867014.05947  23394407.7484   23394410.1714   23394407.3434
 -10584745.16248  -8183505.05246  23525703.7554   23525704.1984   23525703.7044
 -16133168.44749 -12550920.71247  22589005.9514   22589006.9694   22589005.5874
 -25423657.34449 -19772784.74248  20839175.6584   20839176.8344   20839174.9624
 -14968359.38049 -11515598.85647  23208413.0794   23208414.6264   23208412.3544
 -24783193.66649 -19268231.75048  20914129.4374   20914131.1464   20914129.0924
  -4940978.53346  -3825766.28245  24659110.9024   24659115.9144   24659110.0144
 04  1  1  1 47  0.0000000  0  9G24G29G 8G28G 4G 7G 9G26G 5
  -9264922.18148  -7185493.68446  24132932.3984   24132936.6604   24132932.2144
 -19789934.16549 -15382027.49148  21626108.5724   21626110.3024   21626109.2454
  -8803017.32748  -6813458.08846  23407486.1714   23407488.0304   23407485.8254
 -10528810.56147  -8139919.65346  23536347.8934   23536347.6224   23536348.5004
 -16194120.10249 -12598415.48347  22577406.9664   22577409.0384   22577408.4074
 -25353931.41949 -19718452.84148  20852443.6584   20852446.0154   20852443.2484
 -15058711.35149 -11586002.96947  23191219.4284   23191221.0034   23191218.8224
 -24757263.03449 -19248026.07948  20919063.3614   20919065.8694   20919063.6004
  -4992638.73246  -3866020.99745  24649280.4674   24649284.7194   24649280.1604
 04  1  1  1 47 30.0000000  0  9G24G29G 8G28G 4G 7G 9G26G 5
  -9358538.66648  -7258441.52646  24115118.1204   24115121.9214   24115117.9344
 -19717387.42649 -15325497.57548  21639913.1814   21639914.7624   21639913.2944
  -8734010.21648  -6759686.33946  23420618.6364   23420619.1804   23420617.7214
 -10472908.70948  -8096359.77246  23546985.7444   23546984.9774   23546985.5914
 -16254814.15249 -12645709.52847  22565857.3994   22565858.5654   22565858.0014
 -25283857.32149 -19663849.65448  20865778.4644   20865780.1264   20865778.3964
 -15149030.06049 -11656381.15847  23174032.3364   23174033.6424   23174032.3554
 -24730759.87349 -19227374.28448  20924106.8354   20924109.0384   20924107.0894
  -5044295.38247  -3906272.91845  24639450.8864   24639455.9494   24639451.1454
 04  1  1  1 48  0.0000000  0  9G24G29G 8G28G 4G 7G 9G26G 5
  -9452250.02948  -7331463.27746  24097285.0964   24097288.3254   24097284.6934
 -19644486.93749 -15268692.00648  21653786.0944   21653787.9204   21653785.9864
  -8664727.92948  -6705700.15646  23433802.3534   23433803.1954   23433801.1034
 -10417040.31347  -8052825.97146  23557616.2514   23557617.2834   23557616.4954
 -16315248.63449 -12692801.31147  22554356.6534   22554357.4714   22554356.6744
 -25213438.75049 -19608978.03448  20879178.6784   20879180.1814   20879178.3294
 -15239313.97149 -11726732.21847  23156851.6774   23156854.3824   23156852.6184
 -24703686.94449 -19206278.51548  20929258.7024   20929261.1994   20929258.8564
  -5095950.22347  -3946523.44445  24629621.8574   24629625.4374   24629620.5704
 04  1  1  1 48 30.0000000  0  9G24G29G 8G28G 4G 7G 9G26G 5
  -9546054.48848  -7404557.58546  24079434.7084   24079438.2484   24079434.6604
 -19571236.79949 -15211613.98748  21667725.2434   21667727.4144   21667725.3024
  -8595171.66948  -6651500.48146  23447038.7574   23447040.7194   23447038.1394
 -10361205.84047  -8009318.59145  23568242.1874   23568242.6884   23568242.2334
 -16375421.68349 -12739689.38947  22542906.1124   22542907.5484   22542907.5674
 -25142679.19549 -19553840.71648  20892643.8664   20892645.2234   20892643.6244
 -15329561.95349 -11797055.28247  23139678.1004   23139680.0204   23139678.6634
 -24676046.72049 -19184740.69848  20934518.2914   20934520.4494   20934518.7504
  -5147604.36547  -3986773.40045  24619791.4444   24619796.7084   24619790.8914
 04  1  1  1 49  0.0000000  0  9G24G29G 8G28G 4G 7G 9G26G 5
  -9639948.01448  -7477721.28746  24061567.3714   24061570.0024   24061567.3074
 -19497638.71949 -15154264.83448  21681730.4144   21681732.3804   21681730.3344
  -8525340.69148  -6597086.75046  23460327.0084   23460327.7554   23460327.1994
 -10305403.79547  -7965836.49445  23578860.8134   23578860.5574   23578861.2694
 -16435329.03049 -12786370.42347  22531506.3994   22531507.9264   22531506.4294
 -25071579.95149 -19498438.71348  20906173.2544   20906175.4494   20906173.6144
 -15419770.56949 -11867347.67147  23122511.8794   23122514.0394   23122511.8424
 -24647839.66849 -19162761.19748  20939885.9374   20939888.6354   20939886.2134
  -5199257.37747  -4027022.46145  24609962.6684   24609967.1864   24609963.4254
 04  1  1  1 49 30.0000000  0  9G24G29G 8G28G 4G 7G 9G26G 5
  -9733926.45448  -7550951.17546  24043683.9744   24043687.5254   24043683.8494
 -19423694.26549 -15096645.78748  21695801.5774   21695803.3804   21695801.8434
  -8455234.19648  -6542458.33646  23473667.6374   23473668.3634   23473665.9214
 -10249632.30547  -7922378.20045  23589473.2814   23589472.4204   23589472.5524
 -16494966.30649 -12832841.01147  22520158.1034   22520159.8564   22520158.6754
 -25000142.20649 -19442772.94248  20919767.4744   20919769.7354   20919767.5804
 -15509936.21549 -11937606.58147  23105353.6704   23105355.9814   23105353.9564
 -24619066.02949 -19140340.19648  20945361.6024   20945363.9104   20945362.0504
  -5250908.18147  -4067269.80345  24600133.5044   24600137.7254   24600133.1424
 04  1  1  1 50  0.0000000  0  9G24G29G 8G28G 4G 7G 9G26G 5
  -9827990.30047  -7624247.59246  24025783.9744   24025787.3214   24025783.8824
 -19349409.55549 -15038761.60848  21709937.6514   21709939.3954   21709937.4604
  -8384856.06748  -6487618.23946  23487060.3444   23487061.0044   23487059.1044
 -10193894.47247  -7878946.13245  23600080.0514   23600079.5604   23600078.7874
 -16554333.92049 -12879101.46947  22508860.7224   22508862.1624   22508861.3324
 -24928371.88849 -19386848.01348  20933425.2894   20933426.8394   20933424.9834
 -15600059.88949 -12007832.77947  23088203.8924   23088206.1924   23088204.1764
 -24589730.91949 -19117481.67848  20950943.7454   20950946.3264   20950944.2854
  -5302560.89447  -4107518.63845  24590302.9114   24590309.3794   24590303.5884
 04  1  1  1 50 30.0000000  0  9G24G29G 8G28G 4G 7G 9G26G 5
  -9922134.54147  -7697606.66846  24007867.6574   24007873.0984   24007868.1194
 -19274785.22449 -14980612.79448  21724137.8554   21724140.0444   21724137.8334
  -8314203.92248  -6432564.63746  23500505.0314   23500505.7424   23500506.2474
 -10138187.09647  -7835537.79845  23610680.7414   23610681.5604   23610679.9074
 -16613426.23149 -12925147.41147  22497616.0034   22497617.2934   22497616.3844
 -24856268.86649 -19330663.84348  20947145.6874   20947147.7804   20947145.2324
 -15690136.62248 -12078022.39247  23071062.6654   23071065.1534   23071062.8584
 -24559833.26149 -19094184.83148  20956633.3474   20956635.2654   20956633.4534
  -5354213.42147  -4147767.30545  24580475.5654   24580480.3284   24580473.9474
 04  1  1  1 51  0.0000000  0  9G24G29G 8G28G 4G 7G 9G26G 5
 -10016358.21347  -7771027.62946  23989937.6254   23989942.6774   23989938.3584
 -19199826.39949 -14922203.32248  21738402.0954   21738404.1904   21738402.2084
  -8243280.27748  -6377299.46646  23514001.4964   23514001.6094   23514000.8424
 -10082512.07547  -7792154.66745  23621275.0404   23621274.3844   23621275.6834
 -16672242.38749 -12970978.16547  22486422.9864   22486425.7184   22486423.5234
 -24783837.83149 -19274224.07248  20960929.2134   20960930.7234   20960928.3484
 -15780166.28849 -12148175.32847  23053930.2414   23053933.7834   23053930.0604
 -24529376.83649 -19070452.56548  20962429.0264   20962431.0274   20962429.0784
  -5405868.27047  -4188017.81745  24570645.2184   24570649.2674   24570645.7734
 04  1  1  1 51 30.0000000  0  9G24G29G 8G28G 4G 7G 9G26G 5
 -10110658.59448  -7844508.37646  23971994.1274   23971996.6884   23971993.7914
 -19124535.81649 -14863535.34648  21752729.7624   21752731.8674   21752729.3124
  -8172085.76948  -6321823.25346  23527549.9724   23527550.5114   23527549.4784
 -10026868.72147  -7748796.22645  23631863.9114   23631864.1864   23631863.1674
 -16730779.31249 -13016591.32347  22475283.8684   22475286.0754   22475283.8474
 -24711081.11149 -19217530.52648  20974773.9164   20974775.7974   20974773.9394
 -15870146.24548 -12218289.54847  23036807.2774   23036810.8824   23036807.2914
 -24498363.40849 -19046286.26948  20968330.7274   20968332.6544   20968330.9294
  -5457526.07547  -4228270.62145  24560815.8744   24560819.9024   24560815.5434
 04  1  1  1 52  0.0000000  0  9G24G29G 8G28G 4G 7G 9G26G 5
 -10205033.90748  -7918047.53446  23954035.4424   23954038.0344   23954034.7734
 -19048917.81549 -14804612.24148  21767119.3734   21767121.1914   21767118.9084
  -8100622.11148  -6266137.29746  23541148.4004   23541149.5214   23541148.3704
  -9971258.15247  -7705463.33545  23642447.1474   23642446.8914   23642446.4594
 -16789035.42749 -13061985.67047  22464197.6264   22464200.3194   22464198.4634
 -24638002.72649 -19160586.32748  20988680.6294   20988682.2384   20988680.2214
 -15960075.44249 -12288364.20947  23019694.6394   23019699.5674   23019695.7754
 -24466796.05949 -19021688.34548  20974337.6554   20974339.8874   20974337.6674
  -5509188.79447  -4268527.24046  24550984.7094   24550987.9284   24550984.6894
 04  1  1  1 52 30.0000000  0  9G24G29G 8G28G 4G 7G 9G26G 5
 -10299479.32148  -7991641.30146  23936063.0004   23936065.7054   23936062.4754
 -18972973.61549 -14745434.93448  21781570.6494   21781572.5844   21781570.6784
  -8028887.83548  -6210240.47946  23554798.9134   23554799.9944   23554799.0214
  -9915677.79847  -7662153.97345  23653022.8064   23653023.8584   23653023.0844
 -16847005.92449 -13107157.46347  22453167.0434   22453168.6544   22453167.1064
 -24564603.24249 -19103391.93548  21002647.9394   21002649.9104   21002647.6194
 -16049949.87949 -12358396.18547  23002592.7514   23002596.0244   23002592.9274
 -24434674.55649 -18996658.61148  20980449.9774   20980452.2614   20980450.3574
  -5560854.55747  -4308786.22946  24541152.5574   24541156.1044   24541152.5984
 04  1  1  1 53  0.0000000  0  9G24G29G 8G28G 4G 7G 9G26G 5
 -10393991.16047  -8065286.82746  23918076.3014   23918080.5784   23918076.5774
 -18896705.17149 -14686004.98048  21796084.1194   21796086.0364   21796083.9564
  -7956882.56948  -6154132.50946  23568500.8064   23568502.5814   23568499.8774
  -9860126.28147  -7618867.09345  23663594.2854   23663594.9684   23663593.5904
 -16904686.81649 -13152103.59847  22442190.1704   22442192.7664   22442191.3024
 -24490884.21949 -19045948.53848  21016676.3794   21016678.1494   21016676.0614
 -16139766.35349 -12428383.00547  22985500.7924   22985502.6684   22985500.4864
 -24401999.86449 -18971197.83048  20986668.2184   20986670.0404   20986667.7994
  -5612523.20047  -4349047.45446  24531320.4834   24531325.7324   24531320.7824
 04  1  1  1 53 30.0000000  0  9G24G29G 8G28G 4G 7G 9G26G 5
 -10488569.07548  -8138983.84146  23900079.5984   23900082.5814   23900079.4504
 -18820118.21749 -14626326.84148  21810657.9674   21810659.8854   21810658.1344
  -7884609.61648  -6097815.93346  23582253.5604   23582254.2214   23582254.1974
  -9804605.87247  -7575604.44945  23674159.5584   23674158.6024   23674159.6184
 -16962078.04649 -13196824.01248  22431269.5374   22431270.6634   22431269.7424
 -24416850.96549 -18988260.28648  21030764.2014   21030765.5284   21030763.8444
 -16229525.15849 -12498324.88347  22968419.7144   22968423.2054   22968420.6694
 -24368776.50249 -18945309.50748  20992990.0074   20992992.3914   20992990.3914
  -5664198.04847  -4389313.52446  24521486.8394   24521491.8134   24521486.3754
 04  1  1  1 54  0.0000000  0  9G24G29G 8G28G 4G 7G 9G26G 5
 -10583208.04148  -8212728.43546  23882070.3834   23882073.4424   23882070.4154
 -18743213.64149 -14566401.20648  21825292.8974   21825294.6334   21825292.2174
  -7812067.04448  -6041289.28046  23596058.3654   23596061.1974   23596057.8264
  -9749113.66047  -7532363.78545  23684719.3004   23684718.7554   23684719.8764
 -17019174.36049 -13241314.63548  22420403.9704   22420405.1934   22420404.2074
 -24342503.89249 -18930327.50648  21044912.0204   21044913.5524   21044911.7644
 -16319221.56549 -12568218.13647  22951351.7074   22951353.2754   22951352.0644
 -24335003.98049 -18918993.26348  20999416.8814   20999419.0204   20999417.1244
  -5715877.28347  -4429583.00546  24511652.7304   24511657.4704   24511652.4884
 04  1  1  1 54 30.0000000  0  9G24G29G 8G28G 4G 7G 9G26G 5
 -10677908.66348  -8286521.06546  23864049.0164   23864052.3434   23864048.5694
 -18665997.87949 -14506233.08248  21839986.3504   21839988.1364   21839986.4794
  -7739259.13048  -5984555.86246  23609913.6674   23609914.8114   23609912.2084
  -9693652.98147  -7489147.66745  23695272.5844   23695274.0684   23695271.6594
 -17075976.11749 -13285575.72748  22409595.2694   22409596.7764   22409595.6304
 -24267848.88249 -18872154.77648  21059118.2124   21059120.5534   21059118.2254
 -16408856.76649 -12638063.69847  22934294.9184   22934296.4584   22934295.7664
 -24300687.71749 -18892253.32348  21005947.0214   21005949.3344   21005947.2484
  -5767564.95747  -4469859.05446  24501817.7034   24501822.2984   24501816.2644
 04  1  1  1 55  0.0000000  0  9G24G29G 8G28G 4G 7G 9G26G 5
 -10772666.38348  -8360358.21446  23846017.6964   23846019.9174   23846017.8354
 -18588471.98749 -14445823.29848  21854739.1944   21854740.4964   21854739.5274
  -7666184.51148  -5927614.62046  23623819.7334   23623820.1744   23623818.9464
  -9638221.32847  -7445954.18245  23705821.5574   23705821.4274   23705821.1674
 -17132478.75849 -13329603.73948  22398843.1774   22398844.1124   22398843.8884
 -24192886.58749 -18813742.60648  21073383.4994   21073384.9164   21073383.5884
 -16498426.55649 -12707858.29047  22917249.5714   22917251.5944   22917249.6424
 -24265827.77849 -18865089.73048  21012580.6244   21012583.0154   21012580.7314
  -5819259.68147  -4510140.58546  24491979.4914   24491983.8584   24491979.5084
 04  1  1  1 55 30.0000000  0  9G24G29G 8G28G 4G 7G 9G26G 5
 -10867478.68448  -8434237.88846  23827975.4034   23827978.1264   23827975.3204
 -18510639.65849 -14385174.72948  21869550.3674   21869551.6294   21869550.1604
  -7592844.27348  -5870466.40946  23637775.3304   23637776.0814   23637774.7114
  -9582818.78047  -7402783.37045  23716363.9474   23716362.8034   23716364.9204
 -17188679.81749 -13373396.75448  22388148.2264   22388150.5064   22388148.8154
 -24117620.08549 -18755093.38148  21087706.1464   21087706.7244   21087705.5704
 -16587928.82149 -12777600.27947  22900218.1364   22900220.4174   22900218.4214
 -24230426.55149 -18837504.36048  21019317.0844   21019319.8164   21019317.2634
  -5870962.19447  -4550428.19246  24482141.2244   24482144.9314   24482140.4884
 04  1  1  1 56  0.0000000  0  9G24G29G 8G28G 4G 7G 9G26G 5
 -10962342.06548  -8508157.35746  23809923.6014   23809927.0444   23809923.8934
 -18432503.31449 -14324289.25848  21884419.0654   21884420.7124   21884418.3894
  -7519238.66948  -5813111.41646  23651782.3984   23651783.5354   23651781.4614
  -9527444.31847  -7359634.46445  23726901.8664   23726900.8364   23726901.7724
 -17244575.91049 -13416952.12748  22377511.4874   22377513.3044   22377511.4734
 -24042051.51949 -18696208.77648  21102086.2134   21102087.3654   21102085.9264
 -16677360.73249 -12847287.45647  22883199.8124   22883202.1034   22883199.1814
 -24194485.62849 -18809498.45448  21026156.7114   21026158.7624   21026157.2114
  -5922672.83347  -4590722.13246  24472300.9334   24472305.4854   24472299.8914
 04  1  1  1 56 30.0000000  0  9G24G29G 8G28G 4G 7G 9G26G 5
 -11057254.56448  -8582115.10946  23791862.0994   23791865.4064   23791862.2854
 -18354066.98449 -14263170.04248  21899344.6824   21899346.9504   21899344.8724
  -7445369.01748  -5755550.66746  23665838.5464   23665840.3714   23665837.8844
  -9472098.35147  -7316507.77245  23737433.7204   23737432.5584   23737433.4024
 -17300165.03349 -13460268.30948  22366933.8814   22366935.0844   22366934.0434
 -23966184.25549 -18637091.43548  21116523.3604   21116525.0864   21116523.4394
 -16766720.77349 -12916918.62747  22866195.1304   22866197.8204   22866194.7924
 -24158007.89549 -18781074.25348  21033098.2144   21033100.0974   21033098.6584
  -5974393.31047  -4631023.77146  24462458.7964   24462464.0274   24462458.1734
 04  1  1  1 57  0.0000000  0  9G24G29G 8G28G 4G 7G 9G26G 5
 -11152213.06448  -8656108.69946  23773792.4084   23773794.7694   23773792.2524
 -18275333.25549 -14201819.08148  21914327.8454   21914328.9824   21914327.2544
  -7371235.53848  -5697784.34146  23679946.3544   23679946.3934   23679945.3534
  -9416779.84847  -7273402.46545  23747960.4564   23747960.5094   23747960.9154
 -17355443.98449 -13503342.79548  22356414.1604   22356415.8124   22356414.0004
 -23890020.48149 -18577743.04648  21131016.5914   21131018.4284   21131016.3734
 -16856006.14249 -12986491.61547  22849205.1294   22849207.2724   22849204.4184
 -24120994.75149 -18752232.85648  21040141.5174   21040144.1474   21040141.6594
  -6026122.94648  -4671332.53646  24452614.9464   24452618.7444   24452615.3184
 04  1  1  1 57 30.0000000  0  9G24G29G 8G28G 4G 7G 9G26G 5
 -11247215.03748  -8730136.18146  23755713.8324   23755716.5214   23755713.8774
 -18196306.16249 -14140239.52748  21929365.8774   21929367.4104   21929366.1394
  -7296839.59148  -5639813.50346  23694103.4284   23694103.7464   23694102.7684
  -9361489.02147  -7230318.73445  23758481.4494   23758482.4784   23758481.0524
 -17410410.40149 -13546173.75348  22345954.7884   22345956.1194   22345955.3844
 -23813563.37949 -18518166.09448  21145566.0584   21145567.8864   21145565.9614
 -16945215.02949 -13056005.01047  22832229.1484   22832230.6464   22832229.4344
 -24083448.93549 -18722976.37948  21047286.3344   21047288.3674   21047286.3014
  -6077863.16347  -4711649.54445  24442769.1954   24442772.3544   24442769.4484
 04  1  1  1 58  0.0000000  0  9G24G29G 8G28G 4G 7G 9G26G 5
 -11342256.53248  -8804194.44646  23737627.5774   23737630.9714   23737628.4204
 -18116987.50749 -14078432.79648  21944459.5744   21944461.5154   21944459.5444
  -7222180.91448  -5581637.92246  23708310.1154   23708311.5864   23708309.7234
  -9306224.65747  -7187255.60545  23768997.3224   23768998.1854   23768996.4664
 -17465060.47749 -13588758.20948  22335554.8524   22335555.5854   22335555.4144
 -23736814.63049 -18458361.87648  21160170.9904   21160172.4674   21160170.3554
 -17034344.24649 -13125456.33947  22815268.3424   22815270.0004   22815268.3884
 -24045371.72449 -18693305.82848  21054532.2844   21054534.5154   21054532.1714
  -6129613.99147  -4751974.83545  24432921.1974   24432924.8034   24432920.6644
 04  1  1  1 58 30.0000000  0  9G24G29G 8G28G 4G 7G 9G26G 5
 -11437335.49848  -8878281.90946  23719534.7704   23719537.3784   23719534.4904
 -18037381.48749 -14016402.13848  21959607.7354   21959610.5874   21959608.2164
  -7147260.76548  -5523258.61846  23722567.2314   23722568.6184   23722566.3664
  -9250986.85047  -7144213.16645  23779508.9404   23779509.1624   23779508.0064
 -17519392.62749 -13631094.93548  22325215.7644   22325217.3694   22325216.4814
 -23659777.60149 -18398333.02148  21174830.3804   21174832.2574   21174830.2034
 -17123392.04449 -13194844.21547  22798322.7294   22798324.6114   22798322.3004
 -24006765.77149 -18663223.28248  21061878.7144   21061880.6194   21061878.7394
  -6181376.27147  -4792309.03245  24423071.0744   24423075.6604   24423070.5804
 04  1  1  1 59  0.0000000  0  9G24G29G 8G28G 4G 7G 9G26G 5
 -11532450.78148  -8952397.66246  23701435.6034   23701438.9504   23701434.9094
 -17957492.77749 -13954151.20248  21974810.7294   21974812.9034   21974810.4224
  -7072082.13348  -5464677.89446  23736873.3784   23736874.7114   23736872.5664
  -9195777.06347  -7101192.54345  23790015.1244   23790014.9764   23790014.9084
 -17573405.43349 -13673182.81448  22314937.3864   22314939.2464   22314937.6304
 -23582456.69949 -18338082.97348  21189544.5434   21189545.2464   21189543.4944
 -17212357.74449 -13264168.12447  22781393.4364   22781395.4414   22781393.6704
 -23967635.21649 -18632731.94248  21069324.8754   21069326.8654   21069325.1184
  -6233152.27147  -4832653.93845  24413217.9814   24413222.5384   24413218.6454
 04  1  1  1 59 30.0000000  0  9G24G29G 8G28G 4G 7G 9G26G 5
 -11627596.62148  -9026537.22146  23683328.3794   23683332.1244   23683328.4244
 -17877321.62149 -13891680.17548  21990066.4694   21990068.4954   21990066.3094
  -6996642.22148  -5405893.57446  23751229.1394   23751230.4184   23751228.7904
  -9140591.76247  -7058191.01445  23800517.4994   23800517.1384   23800517.6484
 -17627093.33649 -13715017.52948  22304721.3454   22304723.4744   22304721.5174
 -23504851.63949 -18277611.48948  21204312.3264   21204313.7694   21204312.0834
 -17301236.06749 -13333423.94947  22764480.1364   22764482.1094   22764480.2764
 -23927979.33249 -18601831.26848  21076871.0214   21076873.8194   21076870.9744
  -6284939.83348  -4873007.83345  24403364.2804   24403367.9294   24403363.9944
 04  1  1  2  0  0.0000000  0  9G24G29G 8G28G 4G 7G 9G26G 5
 -11722773.53548  -9100700.99246  23665217.4804   23665220.4244   23665218.0204
 -17796874.51049 -13828994.13348  22005374.9924   22005377.0114   22005375.1474
  -6920945.51248  -5346909.15046  23765633.3954   23765635.5814   23765632.3924
  -9085433.79747  -7015210.76845  23811014.4234   23811014.4904   23811014.0004
 -17680456.93349 -13756599.53548  22294566.0634   22294567.8864   22294566.6384
 -23426968.13949 -18216923.05148  21219132.6364   21219134.4774   21219132.2984
 -17390028.03549 -13402612.47347  22747583.5794   22747586.2104   22747583.6934
 -23887803.53949 -18570525.45848  21084516.4174   21084518.7314   21084516.5784
  -6336742.63347  -4913373.61145  24393505.9524   24393509.5804   24393505.7014
 04  1  1  2  0 30.0000000  0  9G24G29G 8G28G 4G 7G 9G26G 5
 -11817975.69948  -9174884.45746  23647100.8304   23647105.3364   23647101.2884
 -17716151.63649 -13766093.20348  22020736.0794   22020738.6724   22020736.4644
  -6844989.59548  -5287722.74846  23780087.3064   23780088.6124   23780086.5914
  -9030299.54347  -6972249.00645  23821505.3794   23821505.6664   23821503.8734
 -17733490.33849 -13797924.25248  22284474.2764   22284475.3624   22284474.3124
 -23348806.03649 -18156017.52448  21234006.4594   21234007.9764   21234005.9714
 -17478728.18849 -13471729.46047  22730704.5084   22730706.9614   22730703.9354
 -23847107.11849 -18538813.96748  21092260.4754   21092263.0544   21092260.3144
  -6388558.18647  -4953749.34445  24383645.7674   24383648.5984   24383646.2564
 04  1  1  2  1  0.0000000  0  9G24G29G 8G28G 4G 7G 9G26G 5
 -11913200.67348  -9249085.67446  23628980.8084   23628983.8904   23628980.9694
 -17635156.68649 -13702980.27448  22036149.1104   22036150.5134   22036148.7174
  -6768776.24048  -5228335.74646  23794590.4374   23794591.5954   23794590.1344
  -8975189.46747  -6929306.05645  23831992.1994   23831991.7854   23831992.1994
 -17786191.45249 -13838990.03848  22274445.2524   22274447.8604   22274445.4454
 -23270368.46849 -18094897.34448  21248932.7894   21248934.7164   21248932.4544
 -17567334.63049 -13540773.40747  22713843.4024   22713845.4634   22713842.8684
 -23805892.93149 -18506699.01548  21100103.1654   21100105.4954   21100103.6794
  -6440387.92947  -4994136.09445  24373783.0774   24373786.2414   24373783.6854
 04  1  1  2  1 30.0000000  0  9G24G29G 8G28G 4G 7G 9G26G 5
 -12008449.10648  -9323305.19046  23610855.5574   23610858.6594   23610855.8464
 -17553896.73649 -13639660.84748  22051612.5884   22051613.7094   22051612.7024
  -6692309.60548  -5168751.38246  23809141.7934   23809143.0294   23809141.0614
  -8920106.62446  -6886384.33844  23842474.2194   23842475.0744   23842472.9584
 -17838561.22849 -13879797.63848  22264479.7124   22264481.2644   22264479.7594
 -23191661.82149 -18033567.49148  21263909.7144   21263912.2154   21263909.9454
 -17655848.51149 -13609745.22947  22696999.5774   22697002.0304   22696999.8524
 -23764166.95149 -18474185.26548  21108043.3654   21108046.1264   21108043.5524
  -6492235.54747  -5034536.79745  24363915.9404   24363919.3844   24363916.8044
 04  1  1  2  2  0.0000000  0  9G24G29G 8G28G 4G 7G 9G26G 5
 -12103715.03448  -9397538.32746  23592726.6134   23592730.2694   23592727.0314
 -17472371.56649 -13576134.75348  22067126.0604   22067128.1354   22067125.5974
  -6615587.24848  -5108967.75246  23823740.6934   23823743.5374   23823741.2004
  -8865047.48346  -6843481.11945  23852951.8784   23852952.1024   23852951.1864
 -17890593.92749 -13920342.58648  22254578.4074   22254579.5884   22254578.5534
 -23112685.36849 -17972027.40648  21278938.8144   21278941.0814   21278938.7314
 -17744264.47149 -13678640.73247  22680174.4724   22680176.6454   22680174.1624
 -23721928.33749 -18441272.07248  21116080.9584   21116083.5024   21116081.4844
  -6544099.07847  -5074949.88845  24354047.8934   24354051.9044   24354047.5864
 04  1  1  2  2 30.0000000  0  9G24G29G 8G28G 4G 7G 9G26G 5
 -12198992.09648  -9471780.14846  23574596.1714   23574599.2314   23574595.2944
 -17390581.11549 -13512401.93748  22082690.3874   22082692.9304   22082691.2484
  -6538606.82148  -5048983.01946  23838389.6924   23838390.9024   23838391.0174
  -8810008.09747  -6800593.28845  23863425.6594   23863424.9874   23863425.7874
 -17942283.19549 -13960619.92548  22244741.9094   22244744.1914   22244742.1174
 -23033438.53849 -17910276.63048  21294019.0474   21294020.4104   21294018.5744
 -17832576.59549 -13747455.32447  22663369.3364   22663371.5384   22663368.8574
 -23679175.91649 -18407958.50248  21124217.2694   21124218.9794   21124217.0494
  -6595975.77247  -5115373.26845  24344174.5274   24344179.9354   24344174.9374
 04  1  1  2  3  0.0000000  0  9G24G29G 8G28G 4G 7G 9G26G 5
 -12294284.80548  -9546034.16446  23556463.3584   23556465.8254   23556462.6474
 -17308535.92949 -13448470.63248  22098302.9794   22098305.0064   22098302.9854
  -6461376.72648  -4988803.76446  23853086.9294   23853087.9464   23853084.8064
  -8754995.49347  -6757726.33645  23873894.8354   23873894.8314   23873893.7064
 -17993634.05549 -14000633.56648  22234970.0604   22234971.5214   22234970.7434
 -22953931.34449 -17848322.98348  21309148.6104   21309151.0044   21309148.8704
 -17920789.87849 -13816192.89047  22646582.5454   22646585.2274   22646582.6044
 -23635919.57949 -18374252.27048  21132448.3064   21132450.4664   21132448.5514
  -6647873.52747  -5155813.01645  24334299.8924   24334303.0984   24334299.1384
 04  1  1  2  3 30.0000000  0  9G24G29G 8G28G 4G 7G 9G26G 5
 -12389586.93648  -9620295.52046  23538327.6454   23538330.3144   23538327.2784
 -17226236.01549 -13384340.83148  22113964.3464   22113966.3354   22113964.8184
  -6383894.21348  -4928427.79646  23867831.5304   23867833.5904   23867830.6704
  -8700005.69847  -6714877.16545  23884358.8974   23884358.3394   23884357.8144
 -18044640.58549 -14040378.90648  22225264.2454   22225266.6364   22225264.1764
 -22874163.21149 -17786166.01048  21324328.2194   21324329.6594   21324327.6054
 -18008898.59449 -13884848.99447  22629815.9514   22629818.5674   22629815.9164
 -23592158.56749 -18340152.78848  21140775.7124   21140777.9894   21140775.8574
  -6699789.31947  -5196266.83245  24324420.5274   24324423.8444   24324419.8454
 04  1  1  2  4  0.0000000  0  9G24G29G 8G28G 4G 7G 9G26G 5
 -12484893.54648  -9694560.35546  23520190.7674   23520194.1044   23520191.4194
 -17143682.84549 -13320013.70248  22129673.5454   22129675.0534   22129674.1054
  -6306158.76548  -4867854.74746  23882624.3214   23882624.9434   23882623.2114
  -8645036.58946  -6672044.11845  23894818.0494   23894816.6844   23894816.5924
 -18095298.38049 -14079852.50248  22215624.6634   22215625.9644   22215625.1544
 -22794134.80949 -17723806.21548  21339557.0794   21339558.6944   21339557.0464
 -18096898.74449 -13953420.52947  22613069.7134   22613072.3344   22613069.3644
 -23547893.39449 -18305660.44948  21149199.4524   21149201.7884   21149199.5564
  -6751721.57647  -5236733.48745  24314537.7884   24314541.6934   24314537.9464
 04  1  1  2  4 30.0000000  0  9G24G29G 8G28G 4G 7G 9G26G 5
 -12580204.17048  -9768828.34246  23502053.4324   23502057.7254   23502053.3654
 -17060881.87849 -13255493.49048  22145429.9734   22145431.8684   22145429.9154
  -6228173.15747  -4807086.76846  23897463.5924   23897465.0234   23897464.5874
  -8590089.91047  -6629228.54745  23905273.0794   23905273.9124   23905272.9814
 -18145606.79349 -14119053.85348  22206051.2034   22206052.3474   22206051.6924
 -22713851.30249 -17661247.64648  21354834.3224   21354836.2724   21354833.9434
 -18184790.09549 -14021907.28847  22596344.6994   22596348.1824   22596345.0364
 -23503128.65249 -18270778.83848  21157717.4074   21157720.2734   21157718.3484
  -6803673.33847  -5277215.34545  24304652.1824   24304654.5334   24304650.9454
 04  1  1  2  5  0.0000000  0  9G24G29G 8G28G 4G 7G 9G26G 5
 -12675514.05348  -9843095.74046  23483917.0784   23483919.9544   23483915.8464
 -16977833.86349 -13190780.75848  22161233.6674   22161236.0774   22161232.9174
  -6149936.55047  -4746123.19445  23912351.8504   23912355.3324   23912351.7544
  -8535163.01347  -6586428.38645  23915726.5814   23915726.1784   23915725.7294
 -18195561.26349 -14157979.40148  22196545.0804   22196546.8734   22196544.7854
 -22633312.90449 -17598490.46848  21370160.4374   21370162.0874   21370160.0214
 -18272568.07149 -14090305.68947  22579640.9074   22579643.6544   22579641.8094
 -23457864.75249 -18235508.27448  21166330.9994   21166333.3784   21166331.2284
  -6855643.09547  -5317711.24845  24294761.0004   24294765.9144   24294761.1134
 04  1  1  2  5 30.0000000  0  9G24G29G 8G28G 4G 7G 9G26G 5
 -12770823.67748  -9917362.93246  23465780.0064   23465783.4484   23465780.1074
 -16894546.15849 -13125881.25748  22177082.7124   22177083.9074   22177082.7934
  -6071453.32147  -4684967.47045  23927286.8154   23927286.7264   23927286.5074
  -8480259.25047  -6543646.24145  23926174.4434   23926174.1014   23926174.3154
 -18245163.01249 -14196630.09448  22187105.7424   22187107.7184   22187105.8804
 -22552526.19549 -17535539.79048  21385533.7154   21385535.0724   21385533.1944
 -18360233.94549 -14158616.74548  22562959.2004   22562961.6124   22562959.7784
 -23412108.03749 -18199853.70248  21175038.3864   21175040.3634   21175038.4844
  -6907635.03847  -5358224.41045  24284868.4774   24284872.0924   24284867.7174
 04  1  1  2  6  0.0000000  0  9G24G29G 8G28G 4G 7G 9G26G 5
 -12866127.54548  -9991625.65046  23447644.6054   23447647.5574   23447644.0064
 -16811019.03749 -13060795.19248  22192977.3714   22192979.3804   22192976.9724
  -5992722.04247  -4623618.46445  23942267.3534   23942269.3114   23942267.8584
  -8425375.13447  -6500879.40645  23936619.0104   23936619.6024   23936618.4414
 -18294406.63749 -14235001.74048  22177735.0844   22177736.9544   22177735.3694
 -22471490.94349 -17472395.43448  21400954.3044   21400955.8544   21400954.0634
 -18447782.48949 -14226836.39148  22546299.4274   22546301.0104   22546299.6684
 -23365858.17849 -18163814.86148  21183839.1554   21183841.4134   21183839.5904
  -6959646.98247  -5398753.13845  24274970.8094   24274975.2544   24274970.2864
 04  1  1  2  6 30.0000000  0  9G24G29G 8G28G 4G 7G 9G26G 5
 -12961422.48048 -10065881.41646  23429510.2684   23429514.8084   23429511.1594
 -16727256.01549 -12995525.31748  22208916.8344   22208919.1234   22208916.5884
  -5913743.25247  -4562076.57145  23957296.9794   23957300.2994   23957296.6204
  -8370510.68647  -6458127.90845  23947059.5544   23947059.2844   23947057.7354
 -18343289.52449 -14273092.28748  22168432.9014   22168434.6274   22168433.6274
 -22390210.04849 -17409059.67848  21416421.4914   21416422.6194   21416421.4454
 -18535211.22849 -14294962.67048  22529662.2634   22529663.7244   22529661.7884
 -23319117.69749 -18127393.71048  21192733.5554   21192735.7384   21192733.8934
  -7011680.02447  -5439298.34345  24265068.9074   24265073.6604   24265069.1674
 04  1  1  2  7  0.0000000  0  9G24G29G 8G28G 4G 7G 9G26G 5
 -13056706.14548 -10140128.38946  23411378.1814   23411381.3534   23411378.7044
 -16643260.53149 -12930074.30048  22224900.2884   22224902.5894   22224900.6404
  -5834518.74547  -4500343.21545  23972374.1774   23972375.6424   23972374.0664
  -8315665.42947  -6415391.34445  23957496.2844   23957495.5194   23957495.4354
 -18391809.71349 -14310900.21248  22159200.3854   22159201.6164   22159200.3144
 -22308686.26849 -17345534.65448  21431934.8054   21431935.7324   21431934.4284
 -18622518.09449 -14362993.98348  22513048.2934   22513050.2004   22513047.9004
 -23271889.66949 -18090592.65048  21201720.9814   21201723.0144   21201721.3574
  -7063734.94647  -5479860.58845  24255162.7904   24255167.3794   24255162.0394
 04  1  1  2  7 30.0000000  0  9G24G29G 8G28G 4G 7G 9G26G 5
 -13151977.37148 -10214365.67846  23393249.7034   23393252.2234   23393248.4354
 -16559037.83249 -12864446.22848  22240927.6214   22240930.1314   22240928.1874
  -5755051.00947  -4438420.34345  23987496.2984   23987497.3664   23987495.8054
  -8260840.94647  -6372670.95245  23967928.0044   23967929.7774   23967928.2384
 -18439966.17449 -14348424.71448  22150036.1634   22150037.8624   22150036.0134
 -22226924.25649 -17281823.99848  21447493.5584   21447494.8224   21447493.5104
 -18709702.34249 -14430929.75148  22496457.3144   22496459.5804   22496457.3034
 -23224178.48249 -18053415.10048  21210799.8944   21210802.1534   21210800.4824
  -7115813.68747  -5520441.38545  24245253.1774   24245257.1494   24245252.1734
 04  1  1  2  8  0.0000000  0  9G24G29G 8G28G 4G 7G 9G26G 5
 -13247232.20648 -10288590.17646  23375122.9044   23375125.4704   23375123.4484
 -16474589.94849 -12798642.69548  22256997.3724   22256999.7324   22256998.1234
  -5675340.04848  -4376307.92645  24002665.5104   24002665.3324   24002664.6824
  -8206035.61247  -6329965.52745  23978357.5934   23978358.5934   23978356.8274
 -18487755.54749 -14385663.18148  22140942.3804   22140943.6224   22140942.4774
 -22144925.48949 -17217928.86548  21463097.6594   21463099.2114   21463097.5204
 -18796760.61249 -14498767.35148  22479891.0344   22479893.4374   22479891.2754
 -23175985.53049 -18015862.16548  21219970.8274   21219973.4014   21219971.1104
  -7167916.06447  -5561040.60545  24235338.4774   24235342.4944   24235337.4224
 04  1  1  2  8 30.0000000  0  9G24G29G 8G28G 4G 7G 9G26G 5
 -13342465.74748 -10362798.09446  23356999.8164   23357003.8944   23357000.8544
 -16389918.72849 -12732665.13747  22273109.9514   22273112.6454   22273109.9664
  -5595385.48848  -4314005.70646  24017879.5344   24017881.0294   24017879.3784
  -8151247.64947  -6287273.62445  23988783.6524   23988783.7564   23988783.2704
 -18535173.85249 -14422612.49448  22131918.2944   22131920.6114   22131918.9564
 -22062691.08649 -17153850.11148  21478746.1344   21478747.5474   21478745.4414
 -18883688.88849 -14566503.62548  22463349.4214   22463350.9424   22463348.9134
 -23127312.02449 -17977934.77748  21229233.2714   21229235.7264   21229233.5654
  -7220040.74047  -5601657.22145  24225418.3844   24225423.3354   24225418.5874
 04  1  1  2  9  0.0000000  0  9G24G29G 8G28G 4G 7G 9G26G 5
 -13437677.42448 -10436988.96147  23338882.1484   23338884.7534   23338882.2864
 -16305029.39249 -12666517.61447  22289264.1074   22289265.3624   22289263.8424
  -5515190.48548  -4251516.13046  24033141.1374   24033141.8654   24033140.0584
  -8096478.30247  -6244596.20645  23999206.0754   23999206.0814   23999204.0004
 -18582220.46949 -14459272.18948  22122965.6714   22122968.1064   22122966.1954
 -21980225.88249 -17089591.52448  21494438.5644   21494440.5454   21494438.0664
 -18970486.98549 -14634138.45748  22446831.7344   22446833.5204   22446831.7444
 -23078162.77249 -17939636.68048  21238585.9284   21238588.3034   21238586.2664
  -7272190.80947  -5642293.60746  24215495.8144   24215498.8504   24215494.7004
 04  1  1  2  9 30.0000000  0  9G24G29G 8G28G 4G 7G 9G26G 5
 -13532861.29348 -10511158.17046  23320769.4034   23320772.0174   23320769.1214
 -16219922.39349 -12600200.47148  22305459.0904   22305461.2254   22305459.3484
  -5434753.14748  -4188837.70746  24048447.2104   24048449.1814   24048446.4654
  -8041723.85447  -6201930.40845  24009624.3044   24009624.1354   24009624.8664
 -18628890.06949 -14495638.09948  22114085.0884   22114086.7194   22114085.9304
 -21897529.51449 -17025152.81648  21510175.0564   21510176.5264   21510174.2764
 -19057149.34649 -14701667.53548  22430340.1314   22430342.9484   22430340.4144
 -23028537.38549 -17900967.56148  21248029.2544   21248031.6504   21248029.4434
  -7324363.80247  -5682947.86546  24205567.2384   24205570.3734   24205566.0994
 04  1  1  2 10  0.0000000  0  9G24G29G 8G28G 4G 7G 9G26G 5
 -13628017.57148 -10585305.87647  23302661.9124   23302665.4544   23302661.3344
 -16134604.10649 -12533718.70947  22321694.7234   22321696.9604   22321694.2974
  -5354077.56748  -4125973.65546  24063799.8574   24063800.2024   24063799.3204
  -7986987.19747  -6159278.47545  24020040.0794   24020041.9034   24020040.6744
 -18675183.57549 -14531710.94848  22105275.7394   22105277.3954   22105276.2644
 -21814607.85649 -16960538.53248  21525954.9654   21525956.5744   21525954.9134
 -19143676.71149 -14769091.42048  22413874.9564   22413876.2694   22413874.5294
 -22978441.70949 -17861931.97848  21257562.3084   21257564.5144   21257562.2064
  -7376563.09647  -5723622.62146  24195633.5844   24195637.3534   24195633.5694
 04  1  1  2 10 30.0000000  0  9G24G29G 8G28G 4G 7G 9G26G 5
 -13723142.74148 -10659429.35447  23284559.1584   23284563.0134   23284559.5384
 -16049077.26149 -12467074.41747  22337970.0764   22337971.1514   22337970.3974
  -5273164.29148  -4062924.39146  24079196.5854   24079197.2394   24079195.4544
  -7932267.32047  -6116639.62445  24030453.8774   24030453.8534   24030453.5974
 -18721097.81549 -14567488.27248  22096538.7004   22096540.0654   22096538.7534
 -21731462.94849 -16895750.29548  21541776.6424   21541778.7804   21541776.2634
 -19230066.01149 -14836407.73148  22397435.6674   22397437.3724   22397435.4124
 -22927877.94049 -17822531.65848  21267184.0064   21267186.8464   21267184.6324
  -7428788.89747  -5764318.04346  24185696.4854   24185699.7444   24185695.4124
 04  1  1  2 11  0.0000000  0  9G24G29G 8G28G 4G 7G 9G26G 5
 -13818231.59748 -10733524.53047  23266464.5494   23266468.5454   23266464.7924
 -15963342.54949 -12400268.15547  22354284.5814   22354287.4364   22354285.2404
  -5192011.94447  -3999688.82446  24094638.5364   24094641.1874   24094638.5994
  -7877561.45447  -6074011.67145  24040863.5784   24040864.7684   24040864.9394
 -18766627.75449 -14602966.13948  22087874.6434   22087875.9264   22087874.7264
 -21648094.84449 -16830788.14648  21557641.1554   21557642.6944   21557640.7604
 -19316312.12049 -14903612.47848  22381023.6514   22381025.7564   22381023.1004
 -22876846.29249 -17782766.74948  21276895.4884   21276897.6424   21276895.1564
  -7481039.20647  -5805032.54246  24175752.6324   24175757.1144   24175752.3634
 04  1  1  2 11 30.0000000  0  9G24G29G 8G28G 4G 7G 9G26G 5
 -13913283.26848 -10807590.73647  23248376.7294   23248380.1184   23248376.3064
 -15877405.85549 -12333304.51147  22370637.9944   22370638.8594   22370637.6154
  -5110624.09248  -3936269.76446  24110126.9654   24110128.6704   24110125.7704
  -7822871.39247  -6031396.06245  24051271.3614   24051270.6024   24051270.4994
 -18811773.44849 -14638144.59348  22079283.4784   22079285.1784   22079283.7264
 -21564508.65949 -16765656.06748  21573546.7914   21573548.6764   21573546.4124
 -19402415.00649 -14970705.62548  22364638.5004   22364640.7464   22364638.5394
 -22825351.84249 -17742641.21948  21286694.0624   21286696.5984   21286694.4024
  -7533316.97848  -5845768.44646  24165805.1584   24165808.4684   24165804.6764
 04  1  1  2 12  0.0000000  0  9G24G29G 8G28G 4G 7G 9G26G 5
 -14008294.40548 -10881625.35047  23230297.3664   23230299.4884   23230297.5254
 -15791270.01949 -12266185.69047  22387029.3484   22387030.9434   22387029.4144
  -5029001.36648  -3872667.66546  24125658.6184   24125661.2174   24125658.6264
  -7768196.38247  -5988792.20645  24061675.4314   24061675.0034   24061674.2164
 -18856532.04949 -14673021.41948  22070766.2244   22070768.0974   22070766.3394
 -21480706.73349 -16700355.87348  21589494.3954   21589495.8044   21589494.2044
 -19488371.86349 -15037684.97648  22348281.5634   22348283.3994   22348281.0674
 -22773397.14449 -17702157.04548  21296580.8894   21296583.3874   21296581.3034
  -7585622.48948  -5886525.96046  24155851.3124   24155855.3104   24155851.2864
 04  1  1  2 12 30.0000000  0  9G24G29G 8G28G 4G 7G 9G26G 5
 -14103260.73648 -10955625.06747  23212225.7624   23212227.6114   23212225.3024
 -15704937.04549 -12198913.25247  22403457.7534   22403459.7114   22403457.6544
  -4947143.88348  -3808882.64746  24141236.4444   24141237.0474   24141235.9664
  -7713534.44547  -5946198.48845  24072077.0034   24072077.1954   24072078.5164
 -18900900.17949 -14707593.98848  22062323.2434   22062325.2004   22062323.6874
 -21396690.39749 -16634888.60948  21605481.8494   21605483.9724   21605481.1194
 -19574178.66349 -15104547.40148  22331953.0864   22331954.6244   22331953.0274
 -22720983.72849 -17661315.44348  21306555.1254   21306557.5694   21306555.1844
  -7637954.77748  -5927304.35246  24145892.8874   24145896.6024   24145892.5974
 04  1  1  2 13  0.0000000  0  9G24G29G 8G28G 4G 7G 9G26G 5
 -14198181.64148 -11029589.37847  23194162.3094   23194164.9914   23194162.0964
 -15618412.38949 -12131491.45947  22419922.9454   22419924.6974   22419923.7434
  -4865054.96048  -3744917.28346  24156857.0954   24156859.3264   24156856.5084
  -7658887.50847  -5903616.46245  24082477.3704   24082477.4114   24082476.8824
 -18944877.63349 -14741862.12448  22053954.9694   22053955.3904   22053955.1914
 -21312464.61949 -16569258.14648  21621509.4254   21621511.2934   21621509.6204
 -19659835.78349 -15171293.19448  22315652.8414   22315654.9344   22315652.9934
 -22668116.85749 -17620120.49548  21316615.0574   21316617.6084   21316615.6374
  -7690316.88948  -5968105.97046  24135928.9564   24135932.2314   24135927.7934
 04  1  1  2 13 30.0000000  0  9G24G29G 8G28G 4G 7G 9G26G 5
 -14293052.34548 -11103514.56547  23176108.6734   23176112.2434   23176109.2234
 -15531697.73749 -12063921.61947  22436424.3314   22436425.8044   22436424.0774
  -4782734.06748  -3680771.17746  24172522.6644   24172523.5484   24172522.4254
  -7604253.24247  -5861044.32645  24092874.0194   24092873.5614   24092873.6624
 -18988460.20549 -14775822.56748  22045661.2444   22045662.4494   22045661.6774
 -21228030.12849 -16503465.05348  21637576.8414   21637578.7044   21637576.8024
 -19745338.76649 -15237918.86548  22299382.1264   22299383.9914   22299382.3664
 -22614797.20849 -17578572.72648  21326761.6074   21326764.1724   21326762.0204
  -7742707.44148  -6008929.75746  24125958.8334   24125963.0394   24125958.2664
 04  1  1  2 14  0.0000000  0  9G24G29G 8G28G 4G 7G 9G26G 5
 -14387870.80448 -11177399.05447  23158065.4304   23158068.6384   23158065.3424
 -15444796.98049 -11996206.76647  22452960.9214   22452962.0674   22452961.2894
  -4700182.76847  -3616445.53946  24188231.2974   24188233.5524   24188229.8194
  -7549631.86347  -5818482.22345  24103267.1464   24103266.7494   24103266.9744
 -19031646.27249 -14809474.05148  22037442.9644   22037445.4574   22037443.5434
 -21143390.37449 -16437512.01248  21653683.3884   21653685.0964   21653683.7634
 -19830685.74649 -15304422.97748  22283141.2354   22283143.5874   22283141.1074
 -22561028.52649 -17536675.06948  21336993.3504   21336995.5724   21336993.7054
  -7795127.63348  -6049776.64246  24115984.0514   24115986.8254   24115983.5614
 04  1  1  2 14 30.0000000  0  9G24G29G 8G28G 4G 7G 9G26G 5
 -14482631.14148 -11251238.25147  23140033.3124   23140036.2564   23140034.2074
 -15357711.30949 -11928347.79347  22469532.8444   22469534.4524   22469532.4954
  -4617400.42347  -3551939.84246  24203983.1734   24203986.5954   24203984.1214
  -7495020.68847  -5775928.06645  24113659.5674   24113658.0374   24113658.4354
 -19074431.39349 -14842813.10248  22029301.5284   22029302.0234   22029301.9944
 -21058545.70549 -16371399.30548  21669828.8234   21669831.1734   21669828.3134
 -19915872.06549 -15370801.90248  22266930.6444   22266933.1794   22266930.5814
 -22506811.50149 -17494428.05348  21347310.3944   21347312.9954   21347310.7854
  -7847575.92348  -6090645.39746  24106002.6984   24106006.5214   24106002.5564
 04  1  1  2 15  0.0000000  0  9G24G29G 8G28G 4G 7G 9G26G 5
 -14577333.26549 -11325032.09147  23122012.9444   23122015.3154   23122011.9034
 -15270446.41949 -11860349.20047  22486138.7484   22486140.5124   22486138.2474
  -4534390.44247  -3487256.79145  24219780.4944   24219783.7484   24219779.4114
  -7440421.47147  -5733383.24545  24124049.8054   24124048.6164   24124049.1634
 -19116815.72649 -14875839.85148  22021235.9484   22021236.8814   22021235.9544
 -20973501.28249 -16305130.93548  21686012.3264   21686013.7854   21686011.2814
 -20000897.42249 -15437055.39048  22250751.0614   22250753.1384   22250751.3674
 -22452151.40449 -17451835.79248  21357712.2584   21357714.5484   21357712.2174
  -7900055.30448  -6131538.40246  24096017.0324   24096020.2344   24096015.5294
 04  1  1  2 15 30.0000000  0  9G24G29G 8G28G 4G 7G 9G26G 5
 -14671973.97149 -11398778.07347  23104002.6654   23104005.9854   23104003.6754
 -15183005.48749 -11792213.41647  22502777.8544   22502780.2934   22502778.3784
  -4451154.09247  -3422397.34545  24235620.3544   24235622.1274   24235618.8824
  -7385833.55646  -5690847.24045  24134435.8914   24134437.3384   24134436.9064
 -19158796.77449 -14908552.35748  22013247.7034   22013248.5584   22013247.6114
 -20888259.50249 -16238708.78748  21702233.2434   21702235.0754   21702232.6974
 -20085759.23049 -15503181.46048  22234602.7904   22234603.9224   22234602.2954
 -22397051.09849 -17408900.50348  21368197.5704   21368199.8594   21368197.5494
  -7952565.80548  -6172455.63946  24086024.1134   24086027.9524   24086024.2354
 04  1  1  2 16  0.0000000  0  9G24G29G 8G28G 4G 7G 9G26G 5
 -14766547.67949 -11472471.84147  23086005.8154   23086009.0014   23086006.2324
 -15095389.23649 -11723941.03147  22519450.7924   22519452.6294   22519450.8714
  -4367690.06247  -3357360.47745  24251503.4404   24251504.3584   24251502.1524
  -7331254.11146  -5648317.78945  24144822.5254   24144824.5554   24144821.2264
 -19200369.86849 -14940946.97248  22005336.0574   22005337.6904   22005336.4584
 -20802820.59849 -16172133.04048  21718491.8414   21718493.2464   21718491.2934
 -20170452.74849 -15569176.40248  22218486.0884   22218487.4124   22218486.0154
 -22341511.03149 -17365622.54248  21378766.4954   21378768.7264   21378766.9274
  -8005105.93148  -6213395.95246  24076025.8524   24076029.7404   24076025.5024
 04  1  1  2 16 30.0000000  0  9G24G29G 8G28G 4G 7G 9G26G 5
 -14861056.39948 -11546114.96147  23068021.0724   23068024.7014   23068021.1554
 -15007605.69149 -11655538.28747  22536155.4774   22536157.4384   22536155.8634
  -4284004.00447  -3292150.61645  24267427.6294   24267429.4624   24267427.1704
  -7276687.11347  -5605798.08445  24155206.5824   24155206.0204   24155207.3994
 -19241537.41749 -14973025.57748  21997501.9904   21997503.5614   21997502.0284
 -20717191.69549 -16105409.23148  21734786.2524   21734787.8744   21734786.1804
 -20254979.67149 -15635041.51948  22202400.9554   22202402.3664   22202401.2384
 -22285538.51549 -17322007.61448  21389417.3794   21389420.1204   21389417.6244
  -8057680.70248  -6254363.27846  24066021.4834   24066027.3884   24066021.6524
 04  1  1  2 17  0.0000000  0  9G24G29G 8G28G 4G 7G 9G26G 5
 -14955492.12949 -11619701.21047  23050051.2044   23050053.6564   23050051.0164
 -14919653.59049 -11587004.19647  22552892.3284   22552894.8154   22552891.4764
  -4200092.92546  -3226765.38545  24283394.8204   24283396.2364   24283393.8854
  -7222127.58647  -5563284.18345  24165588.7114   24165587.5064   24165589.3474
 -19282292.42249 -15004782.72448  21989746.4784   21989748.3364   21989746.5344
 -20631370.90449 -16038535.90947  21751117.4504   21751119.4264   21751116.9824
 -20339333.09149 -15700771.43848  22186348.7924   22186350.8654   22186349.0964
 -22229132.22649 -17278054.68448  21400151.2304   21400153.6774   21400151.4034
  -8110285.89948  -6295354.30046  24056010.9814   24056016.0334   24056009.5864
 04  1  1  2 17 30.0000000  0  9G24G29G 8G28G 4G 7G 9G26G 5
 -15049854.23149 -11693230.09347  23032094.5964   23032098.1254   23032093.8324
 -14831538.67549 -11518343.25047  22569659.8994   22569661.4194   22569659.2884
  -4115960.26046  -3161207.53945  24299405.3244   24299407.8064   24299404.6404
  -7167577.54146  -5520777.67345  24175969.7524   24175972.4094   24175969.6704
 -19322635.44449 -15036218.84448  21982069.9984   21982071.0634   21982070.3924
 -20545363.22549 -15971516.97248  21767484.3074   21767485.4674   21767483.6304
 -20423513.36949 -15766366.44648  22170329.7124   22170332.0664   22170329.6924
 -22172297.49049 -17233767.90748  21410966.7464   21410969.0914   21410967.0214
  -8162924.51548  -6336371.35946  24045993.6874   24045998.9974   24045993.2934
 04  1  1  2 18  0.0000000  0  9G24G29G 8G28G 4G 7G 9G26G 5
 -15144138.56349 -11766698.37447  23014153.0334   23014154.8964   23014153.0414
 -14743262.72249 -11449556.80747  22586458.3774   22586460.3324   22586458.4044
  -4031606.26346  -3095477.19245  24315454.6654   24315460.5844   24315454.9424
  -7113034.80247  -5478276.87645  24186348.4934   24186348.5264   24186347.3384
 -19362562.57349 -15067330.88548  21974471.9564   21974473.6854   21974472.2214
 -20459169.95249 -15904353.41448  21783886.1744   21783888.2294   21783886.5424
 -20507516.05049 -15831823.06248  22154344.7124   22154346.3774   22154345.0344
 -22115035.93349 -17189148.52548  21421862.7834   21421865.7834   21421863.3834
  -8215595.57448  -6377413.70246  24035971.3054   24035975.8124   24035970.3854
 04  1  1  2 18 30.0000000  0  9G24G29G 8G28G 4G 7G 9G26G 5
 -15238341.64149 -11840103.34247  22996226.2054   22996229.5374   22996226.5334
 -14654828.69849 -11380647.19647  22603286.7624   22603289.3954   22603287.5914
  -3947031.35147  -3029574.70845  24331551.5344   24331553.5064   24331551.0194
  -7058498.62047  -5435781.16245  24196727.8144   24196727.1034   24196725.7094
 -19402071.35149 -15098116.95048  21966953.6144   21966955.7654   21966953.3694
 -20372793.13649 -15837046.81848  21800323.2024   21800325.8464   21800322.3714
 -20591338.18149 -15897138.99148  22138393.9094   22138395.7364   22138393.7864
 -22057350.07049 -17144198.52948  21432840.4134   21432843.0654   21432840.8524
  -8268299.35048  -6418481.54946  24025942.1704   24025946.7504   24025941.9514
 04  1  1  2 19  0.0000000  0  9G24G29G 8G28G 4G 7G 9G26G 5
 -15332463.95949 -11913445.37647  22978315.5714   22978318.9604   22978315.1924
 -14566243.24049 -11311619.57147  22620144.0564   22620147.5404   22620143.2454
  -3862240.46047  -2963503.95045  24347686.7194   24347687.9664   24347686.0804
  -7003971.73447  -5393292.70345  24207102.0784   24207104.0254   24207102.4584
 -19441162.91049 -15128577.90148  21959514.2414   21959515.7064   21959514.7444
 -20286238.75449 -15769601.85647  21816794.0184   21816795.3854   21816793.0904
 -20674980.63449 -15962314.90948  22122477.1544   22122479.0274   22122477.2204
 -21999246.25749 -17098922.83848  21443897.2924   21443899.7794   21443897.8774
  -8321039.55448  -6459577.76546  24015905.9624   24015910.1074   24015904.9844
 04  1  1  2 19 30.0000000  0  9G24G29G 8G28G 4G 7G 9G26G 5
 -15426498.36649 -11986718.91247  22960421.5524   22960423.0414   22960421.6364
 -14477505.56149 -11242473.34147  22637030.5214   22637032.5174   22637030.3634
  -3777230.76247  -2897262.67045  24363862.3014   24363864.9354   24363861.9644
  -6949449.66546  -5350807.98844  24217477.9744   24217477.5244   24217479.0464
 -19479831.20149 -15158709.03148  21952156.4554   21952157.8644   21952156.4574
 -20199505.40549 -15702017.45747  21833298.4734   21833300.2994   21833298.1414
 -20758436.93649 -16027345.77848  22106595.9004   22106598.1804   22106596.0044
 -21940723.60849 -17053320.79148  21455033.9994   21455035.8194   21455034.5114
  -8373812.45248  -6500699.46246  24005864.0104   24005867.7154   24005863.1824
 04  1  1  2 20  0.0000000  0  9G24G29G 8G28G 4G 7G 9G26G 5
 -15520444.33249 -12059923.53647  22942544.1694   22942547.5884   22942543.4754
 -14388621.62449 -11173213.14447  22653944.2644   22653946.3704   22653944.1464
  -3692006.12547  -2830853.88945  24380081.1784   24380082.4944   24380081.0754
  -6894934.39347  -5308328.57845  24227851.7414   24227850.7884   24227851.1434
 -19518076.49549 -15188510.55748  21944878.2024   21944880.5534   21944878.6984
 -20112598.36749 -15634297.71047  21849836.4164   21849837.6294   21849835.5224
 -20841707.07849 -16092231.56648  22090750.3234   22090751.9074   22090750.1754
 -21881787.69649 -17007396.72048  21466248.6544   21466251.0964   21466249.3144
  -8426621.58548  -6541849.40646  23995814.8804   23995818.7034   23995813.9764
 04  1  1  2 20 30.0000000  0  9G24G29G 8G28G 4G 7G 9G26G 5
 -15614297.13049 -12133055.56347  22924684.5664   22924687.1614   22924684.6414
 -14299593.12249 -11103840.31647  22670886.0134   22670887.9524   22670885.9954
  -3606566.44447  -2764277.56345  24396340.0964   24396340.8074   24396338.7694
  -6840423.79947  -5265852.80445  24238225.4184   24238225.3524   24238225.3484
 -19555895.33449 -15217979.78248  21937681.9374   21937683.5554   21937682.3944
 -20025518.42449 -15566443.22847  21866407.4494   21866409.7534   21866407.1804
 -20924787.05749 -16156969.17848  22074940.3594   22074942.4084   22074940.3104
 -21822440.02949 -16961151.79848  21477541.9334   21477544.3664   21477542.6474
  -8479465.84248  -6583026.73246  23985758.2664   23985761.8624   23985757.5354
 04  1  1  2 21  0.0000000  0 10G24G17G29G 8G28G 4G 7G 9G26G 5
 -15708053.69149 -12206112.61047  22906843.6064   22906845.8004   22906843.4174
   -546757.18717                  24999538.499
 -14210423.34349 -11034357.39347  22687854.7824   22687856.7434   22687854.9214
  -3520913.00947  -2697534.66545  24412639.2704   24412641.3304   24412638.7994
  -6785917.24846  -5223380.17245  24248597.7164   24248597.3994   24248596.4464
 -19593285.55849 -15247115.02248  21930567.0224   21930568.0874   21930567.0904
 -19938268.42149 -15498456.25347  21883010.3404   21883012.2174   21883009.6854
 -21007674.26749 -16221556.60348  22059167.8444   22059169.3014   22059167.9284
 -21762683.61849 -16914588.38248  21488913.6704   21488916.1204   21488914.0274
  -8532345.34648  -6624231.50246  23975695.1634   23975700.1554   23975696.2284
 04  1  1  2 21 30.0000000  0 10G24G17G29G 8G28G 4G 7G 9G26G 5
 -15801710.79649 -12279092.15047  22889020.5394   22889023.5814   22889020.9834
   -652272.99917                  24979459.190
 -14121115.24148 -10964766.67847  22704849.3714   22704851.4214   22704849.5634
  -3435046.67847  -2630625.86945  24428978.8554   24428980.8804   24428978.3674
  -6731414.22246  -5180910.27145  24258968.5194   24258967.7054   24258967.5574
 -19630244.58949 -15275914.26748  21923533.6534   21923535.0794   21923533.5264
 -19850850.31949 -15430338.27047  21899645.4944   21899647.7554   21899644.6944
 -21090365.86749 -16285991.61648  22043431.7174   22043433.0174   22043432.0794
 -21702521.33549 -16867708.69448  21500362.2524   21500364.1134   21500362.7354
  -8585260.38248  -6665463.97246  23965626.7214   23965629.7114   23965625.3734
 04  1  1  2 22  0.0000000  0 10G24G17G29G 8G28G 4G 7G 9G26G 5
 -15895265.83249 -12351992.15647  22871217.8174   22871220.8694   22871216.5584
   -757978.34057   -348806.23955  24959344.4254   24959349.6804   24959344.1914
 -14031672.75849 -10895071.26847  22721869.0914   22721872.6794   22721870.4144
  -3348969.86247  -2563553.07745  24445358.7424   24445360.1364   24445358.8404
  -6676914.65446  -5138443.08045  24269340.4254   24269339.6064   24269339.6754
 -19666771.06649 -15304376.46448  21916583.1544   21916584.5174   21916582.8554
 -19763267.45549 -15362091.90247  21916312.0074   21916313.6344   21916311.9164
 -21172859.91949 -16350272.69548  22027733.5324   22027735.4854   22027733.6144
 -21641956.86749 -16820515.60248  21511887.1514   21511889.7364   21511887.4024
  -8638212.02347  -6706724.95646  23955549.2524   23955553.8454   23955549.8374
 04  1  1  2 22 30.0000000  0 10G24G17G29G 8G28G 4G 7G 9G26G 5
 -15988715.79049 -12424810.27447  22853434.7264   22853437.9654   22853433.7284
   -863870.75447   -431319.56345  24939192.5394   24939199.2964   24939192.0174
 -13942099.03249 -10825273.58147  22738915.0114   22738916.7434   22738915.7304
  -3262683.14847  -2496316.72745  24461778.5224   24461780.0524   24461777.2894
  -6622417.74546  -5095977.98144  24279708.7524   24279710.6074   24279708.6594
 -19702862.90149 -15332499.96648  21909714.6064   21909715.3734   21909715.4984
 -19675522.18749 -15293718.99447  21933009.6044   21933011.4124   21933009.5504
 -21255153.46149 -16414397.51948  22012073.8484   22012076.1154   22012073.5824
 -21580993.14749 -16773011.42148  21523488.1014   21523490.5974   21523488.1324
  -8691200.43848  -6748014.59646  23945465.9034   23945469.1684   23945467.1484
 04  1  1  2 23  0.0000000  0 10G24G17G29G 8G28G 4G 7G 9G26G 5
 -16082057.46048 -12497544.01547  22835672.3094   22835675.1434   22835672.4164
   -969947.64947   -513976.66345  24919006.7954   24919012.4854   24919006.6364
 -13852396.97849 -10755375.88847  22755984.7354   22755986.5004   22755984.4654
  -3176188.09747  -2428918.04945  24478239.1024   24478240.8394   24478238.8664
  -6567922.59647  -5053514.27045  24290080.6674   24290082.6134   24290079.8614
 -19738517.64749 -15360282.89748  21902929.8454   21902931.6864   21902929.9314
 -19587616.71349 -15225221.23647  21949737.7404   21949738.5224   21949736.9024
 -21337243.80949 -16478364.03748  21996452.3614   21996454.1914   21996452.0974
 -21519633.00249 -16725198.34948  21535164.5274   21535166.7104   21535164.5974
  -8744225.95748  -6789333.16446  23935375.1654   23935380.4234   23935375.1824
 04  1  1  2 23 30.0000000  0 10G24G17G29G 8G28G 4G 7G 9G26G 5
 -16175288.65349 -12570191.66647  22817931.5454   22817934.1354   22817932.2104
  -1076207.72947   -596776.50045  24898786.6284   24898792.6844   24898786.4464
 -13762571.07249 -10685381.70347  22773077.8464   22773080.2974   22773077.7814
  -3089487.27847  -2361359.00745  24494735.9894   24494739.4534   24494735.6584
  -6513429.94346  -5011052.49145  24300448.7104   24300449.0744   24300449.3624
 -19773734.52249 -15387724.61248  21896228.3444   21896229.8934   21896228.8894
 -19499554.83349 -15156601.60347  21966495.1364   21966497.0304   21966494.6574
 -21419129.66449 -16542171.20948  21980870.5244   21980872.1304   21980870.4584
 -21457880.89049 -16677079.83348  21546915.7504   21546917.8954   21546915.8324
  -8797290.27048  -6830681.98846  23925277.9894   23925281.6574   23925277.9404
 04  1  1  2 24  0.0000000  0 10G24G17G29G 8G28G 4G 7G 9G26G 5
 -16268404.53249 -12642749.47147  22800212.1674   22800215.2514   22800211.7094
  -1182646.74947   -679715.76445  24878530.9534   24878536.0104   24878532.1294
 -13672622.71049 -10615292.09247  22790194.9944   22790197.0204   22790194.8164
  -3002580.21647  -2293639.25645  24511274.8224   24511276.8724   24511274.3344
  -6458937.42247  -4968590.80945  24310818.6904   24310819.7164   24310818.2224
 -19808509.72949 -15414822.16948  21889611.0754   21889612.1244   21889610.9774
 -19411337.29249 -15087860.68247  21983282.1724   21983285.3574   21983282.2944
 -21500806.56749 -16605815.54848  21965327.8354   21965329.4924   21965327.7264
 -21395738.03149 -16628656.83348  21558740.7254   21558743.4894   21558740.8744
  -8850391.56647  -6872059.55746  23915172.3424   23915176.0484   23915171.2384
 04  1  1  2 24 30.0000000  0 10G24G17G29G 8G28G 4G 7G 9G26G 5
 -16361403.20249 -12715215.94147  22782514.9744   22782518.0934   22782515.0684
  -1289263.50547   -762793.54445  24858243.2244   24858247.9624   24858242.4394
 -13582556.15249 -10545110.37447  22807334.1004   22807336.5184   22807333.8844
  -2915469.07147  -2225760.49945  24527852.6464   24527854.0694   24527850.9104
  -6404445.33447  -4926129.47845  24321189.0724   24321190.4374   24321187.6904
 -19842842.16349 -15441574.71748  21883077.8054   21883079.4594   21883078.2104
 -19322967.42449 -15019001.06147  22000098.5094   22000100.7184   22000098.3914
 -21582272.74349 -16669295.67848  21949825.2474   21949827.1844   21949825.1384
 -21333208.48449 -16579932.53648  21570639.8044   21570642.9364   21570640.1344
  -8903531.59248  -6913467.32746  23905060.2304   23905063.6384   23905059.8754
 04  1  1  2 25  0.0000000  0 10G24G17G29G 8G28G 4G 7G 9G26G 5
 -16454281.51749 -12787588.62947  22764840.9084   22764842.7994   22764840.7284
  -1396055.78647   -846008.09045  24837920.9834   24837925.8674   24837919.4784
 -13492374.82549 -10474839.24547  22824494.8064   22824497.0144   22824495.5394
  -2828155.49747  -2157724.01445  24544467.9304   24544468.1804   24544466.8604
  -6349953.23246  -4883668.13545  24331558.3314   24331558.2044   24331558.2094
 -19876730.11949 -15467980.91348  21876629.1374   21876630.1004   21876629.2314
 -19234447.86249 -14950024.80347  22016943.0224   22016944.3494   22016943.0124
 -21663525.76649 -16732609.71048  21934363.3464   21934364.9204   21934363.2554
 -21270295.72249 -16530909.61948  21582612.0634   21582614.6294   21582612.1204
  -8956711.04548  -6954905.81146  23894941.4534   23894944.9434   23894940.6824
 04  1  1  2 25 30.0000000  0 10G24G17G29G 8G28G 4G 7G 9G26G 5
 -16547038.24349 -12859866.57047  22747189.3324   22747192.5424   22747189.2214
  -1503022.99747   -929358.94245  24817564.5004   24817569.6744   24817565.7844
 -13402083.63849 -10404482.50347  22841676.7884   22841678.5344   22841676.5314
  -2740642.80247  -2089532.35545  24561119.8654   24561120.8504   24561119.7214
  -6295462.44946  -4841207.79145  24341927.4974   24341926.8644   24341926.7634
 -19910173.26649 -15494040.50448  21870264.8384   21870266.4504   21870265.1364
 -19145783.00949 -14880935.34347  22033815.8074   22033818.2044   22033815.9724
 -21744565.02149 -16795757.16848  21918941.7344   21918943.8154   21918941.9354
 -21207004.48149 -16481591.78548  21594655.6944   21594658.8184   21594656.2654
  -9009931.89848  -6996376.56246  23884813.3374   23884816.8614   23884813.4334
 04  1  1  2 26  0.0000000  0 10G24G17G29G 8G28G 4G 7G 9G26G 5
 -16639665.43749 -12932043.57947  22729563.2084   22729565.4344   22729562.9694
  -1610158.00847  -1012840.55145  24797179.1564   24797183.0494   24797177.3064
 -13311681.32049 -10334039.16247  22858879.5954   22858881.7424   22858879.8174
  -2652927.64547  -2021182.94345  24577811.0744   24577814.4114   24577810.7964
  -6240967.66746  -4798744.34645  24352298.6014   24352297.5364   24352296.6574
 -19943165.08949 -15519748.41748  21863986.9184   21863988.7294   21863987.4984
 -19056970.71149 -14811730.96547  22050716.4484   22050718.8684   22050715.7444
 -21825383.18549 -16858732.33448  21903562.5614   21903564.4414   21903562.4184
 -21143333.39749 -16431977.97148  21606771.8914   21606774.6964   21606772.2984
  -9063189.78048  -7037876.14046  23874678.8894   23874682.9944   23874678.9744
 04  1  1  2 26 30.0000000  0 10G24G17G29G 8G28G 4G 7G 9G26G 5
 -16732161.96949 -13004118.78247  22711962.0684   22711963.7954   22711961.8034
  -1717460.15747  -1096452.40045  24776760.0644   24776765.5144   24776759.6324
 -13221172.91748 -10263513.14547  22876102.6694   22876104.7014   22876103.9434
  -2565013.22847  -1952678.26745  24594540.8154   24594543.4144   24594541.6264
  -6186470.07547  -4756278.68045  24362669.0304   24362670.4834   24362669.0134
 -19975705.40249 -15545104.50648  21857795.0024   21857795.8664   21857795.5294
 -18968015.18749 -14742414.99047  22067644.0434   22067645.5594   22067643.8234
 -21905979.28549 -16921534.47948  21888225.8544   21888227.7844   21888225.7304
 -21079287.44649 -16382072.04148  21618959.8044   21618962.2254   21618960.1274
  -9116487.06348  -7079406.41346  23864536.5914   23864540.2504   23864536.0454
 04  1  1  2 27  0.0000000  0 10G24G17G29G 8G28G 4G 7G 9G26G 5
 -16824525.27349 -13076090.16547  22694385.8384   22694387.6314   22694385.9854
  -1824927.42147  -1180192.94345  24756308.5864   24756312.4434   24756308.4574
 -13130561.78548 -10192907.08747  22893345.0534   22893347.8414   22893344.3024
  -2476901.41847  -1884019.77345  24611307.7084   24611310.2124   24611307.3824
  -6131969.65947  -4713810.82945  24373038.9574   24373039.6434   24373039.2164
 -20007792.76149 -15570107.64048  21851688.4904   21851689.5644   21851688.8094
 -18878919.28249 -14672989.63347  22084598.3444   22084600.1244   22084598.3054
 -21986351.17049 -16984161.91048  21872931.5414   21872933.2794   21872931.1724
 -21014870.25749 -16331876.84748  21631217.9034   21631220.2094   21631217.7884
  -9169824.41148  -7120967.90846  23854387.1594   23854390.7894   23854387.7694
 04  1  1  2 27 30.0000000  0 10G24G17G29G 8G28G 4G 7G 9G26G 5
 -16916752.45149 -13147955.47247  22676835.4634   22676837.9974   22676834.9634
  -1932557.72047  -1264060.50645  24735827.6624   24735831.7214   24735827.3374
 -13039851.76148 -10122223.98347  22910607.0654   22910608.9474   22910608.1684
  -2388594.01346  -1815208.87345  24628111.5094   24628115.1174   24628110.8484
  -6077466.02647  -4671340.45645  24383411.3544   24383412.8974   24383411.0264
 -20039425.67349 -15594756.66148  21845669.1954   21845670.4994   21845669.7994
 -18789685.81049 -14603457.07447  22101579.1934   22101580.7174   22101579.0824
 -22066496.55949 -17046612.86148  21857680.5984   21857682.4284   21857680.5054
 -20950085.42749 -16281395.19348  21643545.8784   21643548.3264   21643546.2044
  -9223202.53348  -7162561.21846  23844229.2734   23844232.9094   23844229.4254
 04  1  1  2 28  0.0000000  0 10G24G17G29G 8G28G 4G 7G 9G26G 5
 -17008827.79549 -13219702.47147  22659313.9694   22659315.3144   22659314.3084
  -2040336.15647  -1348043.51645  24715317.6014   24715321.4334   24715317.2834
 -12949033.49048 -10051456.51947  22927889.3574   22927892.0674   22927888.3134
  -2300079.88946  -1746236.89745  24644956.6704   24644958.6734   24644955.3734
  -6022946.03747  -4628857.34045  24393785.3864   24393785.4214   24393785.3684
 -20070589.51649 -15619040.17148  21839738.9254   21839740.6394   21839738.9704
 -18700304.54149 -14533809.36247  22118587.7884   22118589.6644   22118587.9684
 -22146400.20049 -17108875.42448  21842475.3414   21842477.2874   21842475.3614
 -20884923.43749 -16230619.62948  21655945.6274   21655948.9804   21655946.4774
  -9276609.34548  -7204176.85546  23834066.5954   23834070.4124   23834065.8844
 04  1  1  2 28 30.0000000  0 10G24G17G29G 8G28G 4G 7G 9G26G 5
 -17100774.40449 -13291349.14447  22641816.4944   22641818.7904   22641816.7664
  -2148286.26947  -1432160.29445  24694775.3474   24694778.6974   24694775.6624
 -12858136.38448  -9980627.63347  22945186.6924   22945188.4344   22945186.0304
  -2211386.84946  -1677125.51245  24661833.9944   24661836.1134   24661832.3084
  -5968435.34947  -4586381.49045  24404158.5014   24404159.0014   24404158.9564
 -20101308.86349 -15642977.31948  21833892.9414   21833894.4564   21833893.4154
 -18610804.36249 -14464068.97847  22135618.7594   22135620.8084   22135619.1284
 -22226085.86349 -17170968.13248  21827311.7644   21827313.3984   21827311.6614
 -20819413.87249 -16179573.23448  21668411.8434   21668414.2034   21668412.2464
  -9330071.68248  -7245835.74446  23823892.9364   23823896.6134   23823893.0374
 04  1  1  2 29  0.0000000  0 10G24G17G29G 8G28G 4G 7G 9G26G 5
 -17192572.48449 -13362880.09647  22624348.1374   22624351.1074   22624347.7494
  -2256389.23447  -1516396.19545  24674203.9894   24674208.5914   24674203.3724
 -12767146.99448  -9909726.83647  22962501.4484   22962502.3864   22962501.3494
  -2122499.73746  -1607862.90945  24678748.8454   24678752.0624   24678747.9014
  -5913916.77647  -4543899.49245  24414533.3064   24414534.8144   24414533.9004
 -20131565.24449 -15666553.71948  21828135.4444   21828137.2164   21828135.9644
 -18521171.04849 -14394224.84547  22152675.4154   22152676.9044   22152675.7534
 -22305534.22949 -17232875.92748  21812192.9104   21812194.8874   21812192.6544
 -20753543.45049 -16128245.64848  21680946.2484   21680949.3224   21680946.4694
  -9383572.80248  -7287524.87346  23813712.0214   23813716.1554   23813711.3514
 04  1  1  2 29 30.0000000  0 10G24G17G29G 8G28G 4G 7G 9G26G 5
 -17284223.61549 -13434296.52547  22606908.0554   22606911.1614   22606907.9184
  -2364647.06347  -1600752.74945  24653603.0324   24653607.3694   24653602.4244
 -12676073.26448  -9838760.31347  22979832.1744   22979832.8434   22979831.3094
  -2033424.45446  -1538453.65445  24695698.1594   24695700.9154   24695697.9064
  -5859394.39747  -4501414.56345  24424908.7244   24424909.2004   24424907.8414
 -20161361.34749 -15689771.46348  21822465.2194   21822467.2914   21822465.3494
 -18431411.77749 -14324282.58147  22169756.4504   22169757.9444   22169755.9194
 -22384747.40949 -17294600.46748  21797119.5204   21797121.2444   21797119.6784
 -20687319.96749 -16076642.95248  21693548.7784   21693550.6864   21693548.7464
  -9437118.15848  -7329248.45346  23803522.0904   23803526.8494   23803522.4064
 04  1  1  2 30  0.0000000  0 10G24G17G29G 8G28G 4G 7G 9G26G 5
 -17375719.96449 -13505592.35147  22589496.7464   22589499.4174   22589496.2174
  -2473052.44147  -1685224.29945  24632974.0394   24632977.6334   24632973.6444
 -12584913.51548  -9767726.76347  22997178.9934   22997181.3974   22997177.9404
  -1944158.00946  -1468895.45245  24712686.0574   24712688.2794   24712685.5964
  -5804862.48947  -4458922.18945  24435286.1434   24435286.1304   24435284.9304
 -20190690.84749 -15712625.61048  21816884.2414   21816885.5544   21816884.3784
 -18341524.00449 -14254240.17847  22186861.2544   22186862.9894   22186861.6124
 -22463718.08749 -17356136.03248  21782091.7564   21782093.5684   21782091.9824
 -20620741.92349 -16024763.97548  21706217.8074   21706220.5484   21706218.4234
  -9490703.03148  -7371002.84046  23793324.8514   23793329.6064   23793324.7204
 04  1  1  2 30 30.0000000  0 10G24G17G29G 8G28G 4G 7G 9G26G 5
 -17467061.14249 -13576767.27447  22572115.0204   22572117.7674   22572115.4184
  -2581605.65947  -1769811.05845  24612317.5194   24612322.4054   24612316.3744
 -12493673.68948  -9696630.81947  23014541.2204   23014543.7334   23014542.2904
  -1854704.37247  -1399191.40345  24729708.4784   24729711.5454   24729707.1054
  -5750323.38947  -4416424.20345  24445663.8084   24445665.0294   24445664.3524
 -20219554.33549 -15735116.63048  21811391.8704   21811393.2464   21811391.8664
 -18251512.89149 -14184101.67347  22203989.7044   22203990.5694   22203988.8804
 -22542446.05149 -17417482.46748  21767109.9824   21767111.6544   21767109.8024
 -20553815.20349 -15972613.31048  21718953.7624   21718955.9334   21718954.0674
  -9544330.40948  -7412790.33846  23783119.7864   23783123.2564   23783118.6344
 04  1  1  2 31  0.0000000  0 10G24G17G29G 8G28G 4G 7G 9G26G 5
 -17558243.91249 -13647818.75947  22554763.4694   22554765.9314   22554763.3854
  -2690304.06947  -1854510.95945  24591632.0504   24591636.7044   24591632.5294
 -12402356.76148  -9625474.78447  23031918.7914   23031921.2284   23031918.7584
  -1765065.28046  -1329342.84244  24746766.3574   24746768.3474   24746766.7054
  -5695776.52447  -4373920.16645  24456044.3574   24456044.0134   24456044.5124
 -20247950.24149 -15757243.31248  21805988.3164   21805989.5184   21805988.5414
 -18161380.68348 -14113868.81547  22221141.3014   22221143.9014   22221141.2594
 -22620928.62149 -17478637.68548  21752175.3974   21752177.0864   21752175.6344
 -20486543.16749 -15920193.56048  21731755.2034   21731757.3764   21731756.2424
  -9598000.83848  -7454611.38446  23772907.1504   23772911.9134   23772906.7814
 04  1  1  2 31 30.0000000  0 10G24G17G29G 8G28G 4G 7G 9G26G 5
 -17649266.28949 -13718745.26747  22537442.6434   22537443.9674   22537442.2944
  -2799146.25547  -1939322.88745  24570919.8804   24570922.9884   24570920.1554
 -12310967.07848  -9554262.06447  23049308.7564   23049311.8984   23049309.3854
  -1675242.90246  -1259351.44645  24763859.5114   24763861.4894   24763858.8314
  -5641222.26847  -4331410.35145  24466425.9784   24466425.8714   24466425.0404
 -20275877.86849 -15779005.09248  21800673.8154   21800675.3474   21800674.0114
 -18071130.92148 -14043544.35347  22238315.3234   22238317.3724   22238316.0374
 -22699164.23649 -17539600.47648  21737287.7754   21737288.9834   21737287.8264
 -20418930.13449 -15867508.10048  21744621.6284   21744623.8834   21744621.7784
  -9651715.47148  -7496466.88946  23762685.7004   23762689.6484   23762685.9244
 04  1  1  2 32  0.0000000  0 10G24G17G29G 8G28G 4G 7G 9G26G 5
 -17740124.04849 -13789543.49947  22520152.2784   22520154.4334   22520152.7494
  -2908128.63547  -2024244.06345  24550180.7074   24550185.8974   24550181.4254
 -12219507.03848  -9482994.54047  23066713.3234   23066716.1254   23066713.4704
  -1585237.99747  -1189217.81945  24780987.0554   24780987.5904   24780986.3414
  -5586658.96047  -4288893.48645  24476808.4924   24476808.4944   24476808.1924
 -20303334.42349 -15800399.81048  21795448.7344   21795450.0994   21795448.8744
 -17980765.06049 -13973129.40647  22255511.7114   22255511.8534   22255511.4594
 -22777149.34049 -17600368.06548  21722447.5574   21722449.3764   21722447.7564
 -20350978.26549 -15814558.60648  21757552.6194   21757554.7654   21757552.7764
  -9705473.76448  -7538356.41546  23752455.7264   23752458.8394   23752455.3914
 04  1  1  2 32 30.0000000  0 10G24G17G29G 8G28G 4G 7G 9G26G 5
 -17830819.25649 -13860215.06047  22502893.9454   22502897.1574   22502893.2324
  -3017253.59747  -2109276.34745  24529414.5294   24529419.2684   24529415.2174
 -12127984.68748  -9411678.44947  23084129.6184   23084131.1004   23084129.9014
  -1495057.01646  -1118946.98245  24798147.3344   24798148.9834   24798146.6934
  -5532091.11647  -4246373.07745  24487192.8094   24487194.1504   24487192.2494
 -20330323.26449 -15821430.07148  21790313.1234   21790314.2334   21790313.2464
 -17890290.49049 -13902629.75547  22272728.3794   22272729.7794   22272728.0754
 -22854886.35549 -17660942.34548  21707654.6864   21707656.3934   21707654.7444
 -20282695.97749 -15761351.65048  21770546.4974   21770548.7084   21770546.3294
  -9759280.70948  -7580283.80146  23742216.7924   23742219.3464   23742217.1414
 04  1  1  2 33  0.0000000  0 10G24G17G29G 8G28G 4G 7G 9G26G 5
 -17921337.04249 -13930748.36947  22485669.4324   22485671.8074   22485669.1164
  -3126507.16747  -2194408.83945  24508624.4574   24508629.2264   24508624.9544
 -12036391.69348  -9340307.30447  23101559.8584   23101561.0404   23101559.7344
  -1404690.01347  -1048531.19245  24815344.1714   24815346.0544   24815342.6094
  -5477506.57547  -4203839.65845  24497579.9114   24497579.6124   24497579.4264
 -20356831.32849 -15842085.69848  21785268.6084   21785270.3024   21785269.6294
 -17799698.01148 -13832038.24247  22289967.0034   22289969.4894   22289967.3884
 -22932361.29749 -17721312.40148  21692911.6004   21692913.5024   21692911.5024
 -20214075.13049 -15707880.87348  21783604.1784   21783606.3764   21783604.6544
  -9813125.24448  -7622240.52846  23731970.6594   23731974.7804   23731969.9264
 04  1  1  2 33 30.0000000  0 10G24G17G29G 8G28G 4G 7G 9G26G 5
 -18011679.29849 -14001144.91447  22468477.0394   22468479.6794   22468477.3054
  -3235891.66547  -2279643.35545  24487808.9574   24487812.0834   24487809.2454
 -11944735.90148  -9268887.22347  23119001.2164   23119003.5924   23119000.6604
  -1314143.38047   -977975.43445  24832574.2514   24832576.4524   24832574.8804
  -5422909.37747  -4161296.39445  24507968.5594   24507968.5824   24507968.7784
 -20382861.51449 -15862368.95548  21780315.3254   21780316.6654   21780315.7704
 -17708994.78748 -13761360.42747  22307227.7794   22307229.4744   22307227.9794
 -23009576.19649 -17781479.81848  21678218.0804   21678220.2414   21678218.2454
 -20145123.72349 -15654152.51348  21796724.9684   21796727.7794   21796725.5504
  -9867012.64948  -7664230.66646  23721716.3584   23721719.1904   23721715.2574
 04  1  1  2 34  0.0000000  0 10G24G17G29G 8G28G 4G 7G 9G26G 5
 -18101844.82449 -14071403.73347  22451319.4604   22451320.9754   22451318.8784
  -3345406.30747  -2364979.29445  24466968.9534   24466975.1404   24466969.4774
 -11853022.64048  -9197422.37547  23136453.4554   23136454.8864   23136454.0284
  -1223420.79247   -907282.55745  24849838.0984   24849840.5834   24849839.0124
  -5368300.99447  -4118744.43045  24518360.5944   24518361.1374   24518361.1794
 -20408414.19049 -15882280.11948  21775452.5984   21775454.4114   21775452.4314
 -17618185.18548 -13690599.72047  22324508.0304   22324510.5064   22324507.8974
 -23086530.20049 -17841443.93448  21663574.0734   21663576.0934   21663574.0014
 -20075847.08849 -15600170.73148  21809907.9524   21809910.7844   21809908.7184
  -9920945.43548  -7706256.18146  23711452.7464   23711455.6874   23711452.7194
 04  1  1  2 34 30.0000000  0 10G24G17G29G 8G28G 4G 7G 9G26G 5
 -18191830.01349 -14141522.04147  22434195.5734   22434198.5894   22434195.8034
  -3455048.29647  -2450414.46445  24446105.6994   24446108.9064   24446104.3874
 -11761254.56848  -9125914.80547  23153916.6414   23153918.8934   23153917.1014
  -1132523.45647   -836453.52245  24867136.0474   24867136.2454   24867135.6194
  -5313680.68547  -4076183.14945  24528755.4034   24528754.4954   24528754.7864
 -20433487.65449 -15901817.88448  21770681.5594   21770683.1134   21770681.7814
 -17527271.32148 -13619757.77047  22341807.9004   22341810.3494   22341808.6284
 -23163220.50849 -17901202.57148  21648980.5514   21648982.7934   21648980.7914
 -20006248.24749 -15545937.88547  21823152.5044   21823154.7634   21823152.6394
  -9974923.25848  -7748316.74746  23701181.1454   23701184.4054   23701180.9524
 04  1  1  2 35  0.0000000  0 10G24G17G29G 8G28G 4G 7G 9G26G 5
 -18281630.45249 -14211496.38447  22417107.2724   22417109.6124   22417107.1204
  -3564813.97347  -2535946.00545  24425217.3414   24425221.2814   24425217.5514
 -11669433.80748  -9054366.17347  23171389.6274   23171392.8814   23171390.1984
  -1041451.82247   -765488.69945  24884467.0674   24884466.9584   24884465.9934
  -5259046.57447  -4033611.15445  24539151.8274   24539151.2194   24539151.3144
 -20458079.21449 -15920980.13748  21766002.0574   21766003.5194   21766002.3294
 -17436254.36848 -13548835.48547  22359128.3654   22359130.5454   22359127.3774
 -23239643.25749 -17960752.72748  21634437.6754   21634439.7474   21634437.4804
 -19936329.64649 -15491455.86947  21836457.4234   21836460.5334   21836457.6274
 -10028945.08048  -7790411.59446  23690901.2764   23690904.0784   23690901.2594
 04  1  1  2 35 30.0000000  0 10G24G17G29G 8G28G 4G 7G 9G26G 5
 -18371243.91149 -14281325.03448  22400054.4084   22400056.7394   22400054.4494
  -3674701.14647  -2621572.23445  24404306.5804   24404310.8304   24404306.6624
 -11577564.33548  -8982779.61247  23188871.4534   23188873.7084   23188871.9854
   -950207.90747   -694389.58745  24901829.1644   24901831.1074   24901829.6264
  -5204398.62547  -3991028.34945  24549550.8554   24549551.0074   24549550.2774
 -20482187.70049 -15939765.96448  21761414.1134   21761414.9624   21761414.6084
 -17345137.17448 -13477835.09147  22376467.5234   22376469.8514   22376466.4964
 -23315796.76949 -18020093.08048  21619946.0544   21619947.7734   21619945.7504
 -19866095.01449 -15436727.60647  21849822.7874   21849824.9964   21849823.0224
 -10083012.34448  -7832541.85046  23680612.1764   23680615.5904   23680611.0964
 04  1  1  2 36  0.0000000  0 10G24G17G29G 8G28G 4G 7G 9G26G 5
 -18460665.35349 -14351004.04848  22383038.4124   22383040.2994   22383038.7564
  -3784705.58747  -2707289.82845  24383373.1494   24383377.8114   24383372.1314
 -11485647.08648  -8911155.80547  23206362.4514   23206365.7634   23206364.4324
   -858791.51047   -623156.09245  24919225.6504   24919226.3474   24919224.8584
  -5149734.51347  -3948432.94145  24559953.2894   24559953.0684   24559952.4964
 -20505809.88049 -15958172.85648  21756919.2974   21756920.4924   21756919.5064
 -17253920.34448 -13406757.05147  22393825.0374   22393827.8264   22393824.8164
 -23391676.32849 -18079219.95748  21605506.4354   21605508.5604   21605506.4224
 -19795545.88749 -15381754.27947  21863247.7044   21863250.6604   21863248.1514
 -10137123.15948  -7874706.05146  23670315.5014   23670318.8374   23670314.7584
 04  1  1  2 36 30.0000000  0 10G24G17G29G 8G28G 4G 7G 9G26G 5
 -18549893.64649 -14420532.56748  22366058.6634   22366061.0414   22366059.0414
  -3894826.32847  -2793098.05445  24362416.4814   24362421.2224   24362418.2564
 -11393687.28748  -8839498.83447  23223862.7914   23223863.4724   23223862.7104
   -767206.11447   -551790.93645  24936654.3964   24936658.1564   24936652.4134
  -5095055.39547  -3905825.84645  24570357.9414   24570358.5254   24570359.1174
 -20528945.93849 -15976200.94748  21752516.6894   21752518.0974   21752516.7484
 -17162608.02948 -13335604.61247  22411202.2384   22411203.5924   22411202.3824
 -23467281.04449 -18138132.67548  21591119.3064   21591120.8814   21591119.4994
 -19724687.55249 -15326539.99647  21876732.2544   21876734.4184   21876732.2384
 -10191279.55448  -7916905.76346  23660009.7044   23660013.4674   23660009.1074
 04  1  1  2 37  0.0000000  0 10G24G17G29G 8G28G 4G 7G 9G26G 5
 -18638925.59149 -14489908.08048  22349116.4044   22349117.9734   22349115.9964
  -4005060.57847  -2878994.74245  24341441.4324   24341445.3284   24341439.6684
 -11301687.73948  -8767810.88747  23241368.7524   23241370.9834   23241369.5504
   -675453.30946   -480295.29745  24954112.9614   24954118.1984   24954113.7114
  -5040360.18547  -3863206.21545  24580766.1994   24580766.5484   24580764.7964
 -20551594.27449 -15993848.99948  21748206.7164   21748207.9524   21748206.9864
 -17071202.27348 -13264379.37147  22428595.4534   22428598.4634   22428595.8884
 -23542608.29849 -18196829.19848  21576785.1264   21576786.5994   21576785.5944
 -19653523.22249 -15271087.28947  21890273.8434   21890276.3444   21890273.9474
 -10245481.85948  -7959141.29046  23649695.4024   23649698.8204   23649694.4634
 04  1  1  2 37 30.0000000  0 10G24G17G29G 8G28G 4G 7G 9G26G 5
 -18727759.53249 -14559129.31548  22332211.1214   22332214.2074   22332210.3334
  -4115407.46847  -2964979.19945  24320442.7144   24320446.7134   24320441.7184
 -11209653.46848  -8696095.88047  23258882.2644   23258883.7964   23258882.5084
   -583536.43247   -408671.81445  24971605.8044   24971608.4734   24971605.9334
  -4985650.37247  -3820575.21045  24591176.6954   24591178.1524   24591176.9134
 -20573755.08849 -16011117.16548  21743989.5224   21743991.1874   21743989.9624
 -16979707.28348 -13193084.61147  22446006.2984   22446008.9614   22446006.4164
 -23617657.09649 -18255308.74848  21562504.0584   21562505.6224   21562503.4904
 -19582057.92249 -15215400.06147  21903873.2634   21903875.4804   21903873.7644
 -10299731.67048  -8001413.81046  23639371.8754   23639376.0864   23639371.6664
 04  1  1  2 38  0.0000000  0 10G24G17G29G 8G28G 4G 7G 9G26G 5
 -18816388.70749 -14628190.97748  22315346.0824   22315347.5794   22315345.8714
  -4225860.62947  -3051046.47145  24299423.6724   24299426.6334   24299423.8594
 -11117583.79648  -8624353.31247  23276403.0694   23276404.2794   23276403.0364
   -491453.14847   -336918.68145  24989127.2984   24989127.9844   24989125.0524
  -4930921.63247  -3777929.43745  24601590.6724   24601591.3674   24601590.3254
 -20595423.18549 -16028001.38748  21739866.1704   21739867.0094   21739866.1684
 -16888121.49048 -13121719.07947  22463434.7414   22463436.5774   22463435.0414
 -23692421.13649 -18313566.39748  21548276.7284   21548278.0404   21548276.3744
 -19510291.29449 -15159478.02847  21917530.1004   21917531.9334   21917531.2064
 -10354025.55748  -8043720.71546  23629039.9914   23629043.2664   23629039.4944
 04  1  1  2 38 30.0000000  0 10G24G17G29G 8G28G 4G 7G 9G26G 5
 -18904810.82149 -14697091.29748  22298519.5384   22298522.0414   22298519.4764
  -4336418.31047  -3137195.19445  24278385.4344   24278388.4854   24278383.9174
 -11025482.73948  -8552586.27846  23293929.2844   23293931.6654   23293929.4324
   -399206.29746   -265038.09645  25006681.4344   25006682.9874   25006682.1094
  -4876174.26047  -3735269.15145  24612009.9374   24612009.7534   24612009.1474
 -20616598.12449 -16044501.33148  21735836.6444   21735838.1034   21735837.3114
 -16796448.29748 -13050285.44047  22480879.7364   22480881.6564   22480879.9434
 -23766898.77849 -18371600.87448  21534103.7524   21534105.6894   21534103.9584
 -19438227.78249 -15103324.65247  21931243.1754   21931245.9864   21931244.3484
 -10408364.84748  -8086062.95546  23618699.4164   23618703.3504   23618699.2414
 04  1  1  2 39  0.0000000  0 10G24G17G29G 8G28G 4G 7G 9G26G 5
 -18993024.49149 -14765829.20248  22281733.4684   22281736.3844   22281733.5834
  -4447079.27847  -3223424.37345  24257328.2994   24257330.6814   24257327.4944
 -10933355.09848  -8480798.55146  23311460.5954   23311462.2994   23311460.3964
   -306798.92546   -193032.42245  25024266.4904   25024269.6864   25024264.7754
  -4821409.12147  -3692595.01945  24622430.4624   24622431.1244   24622428.5324
 -20637280.17549 -16060617.21148  21731900.9104   21731902.5144   21731901.7334
 -16704691.24748 -12978786.45647  22498340.2734   22498342.3404   22498339.9264
 -23841088.78049 -18429411.20648  21519985.8624   21519987.6894   21519986.1044
 -19365872.25949 -15046943.74347  21945012.1624   21945014.8244   21945011.9174
 -10462751.48748  -8128442.12146  23608349.0834   23608353.4134   23608350.3784
 04  1  1  2 39 30.0000000  0 10G24G17G29G 8G28G 4G 7G 9G26G 5
 -19081024.64249 -14834400.72748  22264987.8014   22264989.6564   22264987.9134
  -4557839.07447  -3309730.58645  24236251.1794   24236252.8464   24236251.2844
 -10841201.94348  -8408990.92846  23328997.3094   23328998.1044   23328995.7914
   -214230.90947   -120901.57545  25041881.6494   25041884.4594   25041881.1284
  -4766623.59547  -3649905.00045  24632856.2374   24632856.2644   24632856.9014
 -20657465.83649 -16076346.29748  21728059.8304   21728061.0874   21728060.3224
 -16612850.87948 -12907222.54847  22515817.0684   22515818.4904   22515816.6224
 -23914986.69649 -18486993.96748  21505923.5754   21505925.3154   21505923.5544
 -19293226.30749 -14990336.51447  21958835.9864   21958839.5464   21958836.4884
 -10517183.60448  -8170856.68746  23597991.4964   23597993.7814   23597990.7934
 04  1  1  2 40  0.0000000  0 10G24G17G29G 8G28G 4G 7G 9G26G 5
 -19168810.84249 -14902805.53348  22248282.4474   22248284.3774   22248282.7114
  -4668697.74847  -3396113.84145  24215155.2854   24215157.7594   24215153.2554
 -10749029.06248  -8337167.92046  23346536.4304   23346538.6954   23346536.4894
   -121506.30947    -48648.73545  25059526.8604   25059530.6134   25059526.6644
  -4711819.71147  -3607200.68845  24643285.1324   24643285.0204   24643285.5324
 -20677156.46249 -16091689.63548  21724312.8214   21724314.5254   21724313.0424
 -16520932.09848 -12835597.52747  22533308.5924   22533310.6304   22533307.3394
 -23988592.49549 -18544349.12848  21491917.2194   21491918.8074   21491917.2934
 -19220295.92649 -14933507.65547  21972714.2264   21972716.9184   21972714.3054
 -10571664.18648  -8213309.04246  23587624.8894   23587627.3604   23587624.2244
 04  1  1  2 40 30.0000000  0 10G24G17G29G 8G28G 4G 7G 9G26G 5
 -19256376.69549 -14971038.64248  22231618.7514   22231621.9724   22231618.4754
  -4779649.39447  -3482569.54345  24194041.0204   24194044.6284   24194042.0174
 -10656836.79948  -8265329.82046  23364080.7204   23364083.0674   23364080.5144
    -28624.11247     23726.91745  25077202.8814   25077204.3804   25077203.2074
  -4656994.06347  -3564479.40145  24653717.9364   24653717.0544   24653717.5704
 -20696347.75449 -16106643.87848  21720660.6674   21720662.1464   21720661.1224
 -16428934.28848 -12763910.94747  22550814.8604   22550817.1744   22550813.8754
 -24061900.93649 -18601472.53848  21477966.9024   21477968.7404   21477966.7184
 -19147081.68649 -14876457.60547  21986646.4904   21986648.8084   21986647.3024
 -10626190.39248  -8255796.88846  23577247.9234   23577251.0784   23577248.2544
 04  1  1  2 41  0.0000000  0 10G24G17G29G 8G28G 4G 7G 9G26G 5
 -19343720.17849 -15039098.47748  22214997.7884   22215000.5174   22214998.2404
  -4890692.09447  -3569096.19945  24172910.4594   24172913.5414   24172910.4614
 -10564628.62448  -8193479.32246  23381626.6874   23381630.2664   23381627.3524
     64413.55346     96223.73144  25094905.0754   25094910.9134   25094903.6334
  -4602146.73447  -3521741.22045  24664155.7344   24664154.5634   24664156.9514
 -20715039.21149 -16121208.64348  21717104.1064   21717105.4434   21717104.0184
 -16336860.26448 -12692164.97546  22568336.4384   22568338.7864   22568336.2334
 -24134909.73449 -18658362.48048  21464073.8784   21464075.9234   21464073.4714
 -19073587.73349 -14819189.60047  22000631.7404   22000634.4604   22000631.5594
 -10680763.35648  -8298321.24546  23566863.3934   23566865.4584   23566862.6994
 04  1  1  2 41 30.0000000  0 10G24G17G29G 8G28G 4G 7G 9G26G 5
 -19430838.00049 -15106982.47248  22198419.8374   22198422.6534   22198419.9204
  -5001823.07247  -3655691.65645  24151762.3884   24151765.6654   24151762.2354
 -10472407.75048  -8121618.93846  23399175.8054   23399178.4214   23399176.2574
    157604.75846    168840.17545  25112640.8444   25112639.8124   25112639.5614
  -4547276.96246  -3478985.58044  24674596.5814   24674596.3274   24674597.4284
 -20733229.13949 -16135382.61548  21713642.7124   21713644.2444   21713642.7394
 -16244712.07748 -12620361.21746  22585871.2434   22585875.0544   22585872.0754
 -24207616.12349 -18715016.76948  21450238.0714   21450239.9774   21450238.5224
 -18999817.22749 -14761706.11147  22014669.8624   22014672.2774   22014670.0204
 -10735382.80348  -8340881.77046  23556469.5574   23556471.8884   23556468.9634
 04  1  1  2 42  0.0000000  0 10G24G17G29G 8G28G 4G 7G 9G26G 5
 -19517727.84249 -15174688.81848  22181885.7764   22181887.9724   22181885.4824
  -5113040.44347  -3742354.43445  24130598.8714   24130602.3564   24130598.6334
 -10380178.14348  -8049751.74746  23416726.7904   23416729.0444   23416726.8394
    250947.06046    241574.35145  25130402.5894   25130406.2744   25130401.3284
  -4492385.15346  -3436212.75944  24685042.1414   24685044.7704   24685041.5184
 -20750917.66649 -16149165.87448  21710276.6824   21710278.0834   21710276.7844
 -16152493.06348 -12548502.26846  22603420.1484   22603422.0184   22603419.3054
 -24280018.65749 -18771434.29848  21436460.4474   21436462.3984   21436460.3474
 -18925774.64349 -14704010.61047  22028759.7784   22028762.2274   22028759.6714
 -10790049.75548  -8383479.32546  23546066.8454   23546068.6594   23546066.4364
 04  1  1  2 42 30.0000000  0 10G24G17G29G 8G28G 4G 7G 9G26G 5
 -19604384.60149 -15242213.54148  22165395.4814   22165397.3364   22165395.3014
  -5224339.48347  -3829080.85545  24109418.8314   24109421.3284   24109418.7844
 -10287940.74148  -7977878.47746  23434279.2414   23434280.5794   23434277.8774
    344440.89146    314426.60944  25148192.8614   25148196.0624   25148190.1904
  -4437468.44046  -3393420.52844  24695492.4704   24695492.5134   24695491.9914
 -20768100.92549 -16162555.41648  21707006.5254   21707008.3354   21707006.7634
 -16060203.28248 -12476588.17847  22620982.3474   22620985.0774   22620982.5514
 -24352112.37849 -18827611.20448  21422741.4794   21422742.8624   21422741.0204
 -18851461.21349 -14646104.05347  22042900.8834   22042904.1684   22042901.1204
 -10844762.64048  -8426112.66446  23535655.4384   23535658.4704   23535655.4884
 04  1  1  2 43  0.0000000  0 10G24G17G29G 8G28G 4G 7G 9G26G 5
 -19690806.98249 -15309555.63748  22148949.5664   22148952.2034   22148949.0824
  -5335719.10847  -3915870.05845  24088222.8394   24088228.2164   24088223.9684
 -10195700.46148  -7906002.97046  23451831.4494   23451834.0774   23451832.6594
    438082.71746    387394.18244  25166013.4004   25166016.2154   25166012.8674
  -4382528.12046  -3350609.90244  24705946.2164   24705947.8614   24705946.3404
 -20784779.93249 -16175552.04748  21703832.4544   21703834.0034   21703832.8674
 -15967846.88648 -12404622.18247  22638557.2064   22638560.4214   22638557.2334
 -24423896.68549 -18883547.00848  21409081.5034   21409083.4244   21409081.2424
 -18776882.28349 -14587990.61047  22057092.9754   22057095.7664   22057093.5124
 -10899523.50548  -8468783.40046  23525234.7734   23525237.5434   23525233.8194
 04  1  1  2 43 30.0000000  0 10G24G17G29G 8G28G 4G 7G 9G26G 5
 -19776990.68849 -15376711.75748  22132549.6554   22132551.4104   22132549.9724
  -5447175.53047  -4002719.11645  24067014.2074   24067018.2794   24067014.8784
 -10103459.17248  -7834126.65246  23469384.6374   23469387.4944   23469384.9434
    531871.96746    460476.66144  25183861.6894   25183867.7934   25183859.9564
  -4327562.52246  -3307779.53544  24716405.9574   24716406.5924   24716404.6274
 -20800952.08249 -16188153.71948  21700755.2144   21700756.8854   21700755.5634
 -15875424.90548 -12332605.06946  22656144.8494   22656146.4604   22656144.9714
 -24495367.64949 -18939238.66348  21395481.0734   21395482.2724   21395480.9524
 -18702040.23749 -14529672.14347  22071335.3514   22071337.6644   22071335.9094
 -10954331.50648  -8511490.90146  23514805.6074   23514807.8254   23514804.5494
 04  1  1  2 44  0.0000000  0 10G24G17G29G 8G28G 4G 7G 9G26G 5
 -19862934.50649 -15443680.94348  22116194.7604   22116196.8134   22116194.6874
  -5558707.81747  -4089627.26345  24045790.7714   24045794.9424   24045790.0894
 -10011221.93748  -7762253.51346  23486936.7044   23486937.8264   23486936.6554
    625804.94845    533671.13944  25201734.8864   25201736.3804   25201733.1534
  -4272572.86946  -3264930.43245  24726871.0514   24726872.2934   24726870.5394
 -20816618.15449 -16200361.04148  21697774.1274   21697775.0154   21697774.3344
 -15782941.33348 -12260539.95946  22673744.1504   22673745.3954   22673744.5524
 -24566524.56949 -18994685.58548  21381939.8864   21381941.8124   21381939.9194
 -18626940.38649 -14471152.79947  22085626.2144   22085629.4384   22085626.0574
 -11009188.59448  -8554236.62346  23504366.0744   23504368.6824   23504364.7544
 04  1  1  2 44 30.0000000  0 10G24G17G29G 8G28G 4G 7G 9G26G 5
 -19948632.20949 -15510458.35648  22099886.7344   22099889.1604   22099887.3774
  -5670309.77847  -4176589.71445  24024551.6974   24024555.6394   24024552.5194
  -9918988.50148  -7690383.33046  23504488.0814   23504490.7424   23504487.8004
    719883.35745    606978.93044  25219636.8274   25219640.3114   25219633.3724
  -4217555.36747  -3222059.65545  24737340.0234   24737341.9294   24737338.3524
 -20831773.63849 -16212170.50948  21694890.1464   21694891.4324   21694890.0364
 -15690394.97248 -12188425.93646  22691354.3464   22691357.7514   22691352.6824
 -24637361.77449 -19049883.39448  21368460.0944   21368461.7134   21368460.1324
 -18551582.92749 -14412432.69547  22099966.4494   22099968.5504   22099966.1794
 -11064091.36948  -8597017.90046  23493918.9584   23493921.5474   23493917.5594
 04  1  1  2 45  0.0000000  0 10G24G17G29G 8G28G 4G 7G 9G26G 5
 -20034081.60149 -15577042.28448  22083626.2534   22083628.7744   22083626.0704
  -5781979.65146  -4263605.08445  24003303.2194   24003307.1574   24003303.3604
  -9826762.64148  -7618519.06146  23522038.2614   23522040.4474   23522038.4464
    814104.40246    680397.81944  25237567.3474   25237570.3354   25237568.8934
  -4162510.15847  -3179167.28844  24747814.9334   24747815.3074   24747815.2054
 -20846418.54449 -16223582.12148  21692103.5724   21692104.8574   21692103.6954
 -15597789.09548 -12116265.53646  22708977.2854   22708979.3044   22708976.9624
 -24707877.69449 -19104830.84048  21355041.3444   21355043.1204   21355041.4444
 -18475972.08149 -14353515.15247  22114354.8354   22114357.5934   22114354.6994
 -11119041.17048  -8639835.88646  23483461.4234   23483464.3234   23483461.6614
 04  1  1  2 45 30.0000000  0 10G24G17G29G 8G28G 4G 7G 9G26G 5
 -20119281.09149 -15643431.48448  22067413.5694   22067415.7794   22067413.4944
  -5893716.22747  -4350672.43345  23982040.1904   23982043.2744   23982039.4734
  -9734548.87148  -7546664.20746  23539585.9274   23539588.2214   23539585.6914
    908464.76545    753925.24844  25255524.3144   25255528.4644   25255523.1614
  -4107438.28446  -3136254.15344  24758295.9254   24758295.8464   24758293.5114
 -20860552.94249 -16234595.93848  21689413.5544   21689415.3084   21689413.8764
 -15505127.36548 -12044061.63846  22726610.0674   22726612.0174   22726609.3704
 -24778071.05849 -19159526.95148  21341684.0784   21341685.8974   21341683.9624
 -18400113.03949 -14294404.21147  22128790.1144   22128791.9134   22128790.9804
 -11174039.52148  -8682691.66847  23472995.5594   23472999.5094   23472994.3594
 04  1  1  2 46  0.0000000  0 10G24G17G29G 8G28G 4G 7G 9G26G 5
 -20204227.63449 -15709623.57948  22051248.9844   22051251.6774   22051248.9464
  -6005516.80447  -4437789.66945  23960764.7384   23960768.3694   23960765.3104
  -9642350.59148  -7474821.43546  23557130.6194   23557132.9584   23557130.9974
   1002962.62245    827559.90444  25273505.8844   25273510.9474   25273505.4894
  -4052339.16647  -3093319.78844  24768780.9764   24768779.6374   24768779.9444
 -20874176.27449 -16245211.51048  21686821.2114   21686822.7404   21686821.4044
 -15412412.08448 -11971815.98346  22744253.4804   22744255.2264   22744253.4004
 -24847939.46349 -19213969.85048  21328388.2604   21328390.4914   21328388.0884
 -18324009.40449 -14235102.68047  22143272.4534   22143273.9754   22143272.7114
 -11229086.84048  -8725585.62847  23462520.6994   23462523.8954   23462518.6814
 04  1  1  2 46 30.0000000  0 10G24G17G29G 8G28G 4G 7G 9G26G 5
 -20288916.85649 -15775615.16648  22035133.2734   22035134.8494   22035133.1834
  -6117377.09347  -4524953.44145  23939478.7934   23939481.6024   23939478.9294
  -9550169.35448  -7402991.93246  23574672.5074   23574674.4594   23574671.6374
   1097597.88446    901301.55644  25291515.4714   25291519.3594   25291514.7754
  -3997210.78947  -3050362.58545  24779271.0904   24779269.4884   24779271.5114
 -20887285.67849 -16255426.62048  21684326.4814   21684328.1334   21684327.2204
 -15319644.04648 -11899529.22746  22761906.9674   22761908.4684   22761905.8124
 -24917478.91149 -19268156.41148  21315155.4434   21315157.3504   21315155.7674
 -18247662.98149 -14175611.96947  22157800.2484   22157802.8424   22157800.5534
 -11284181.76248  -8768516.65747  23452036.2344   23452040.0604   23452036.4794
 04  1  1  2 47  0.0000000  0 10G24G17G29G 8G28G 4G 7G 9G26G 5
 -20373345.18349 -15841403.46748  22019066.9184   22019069.0994   22019066.8704
  -6229294.18547  -4612161.46345  23918181.7874   23918183.3774   23918181.8884
  -9458008.01748  -7331177.94146  23592209.9054   23592211.7954   23592208.9054
   1192368.67246    975148.80444  25309548.7554   25309550.4894   25309549.9994
  -3942052.47847  -3007382.08045  24789767.6544   24789766.0854   24789767.6374
 -20899880.10949 -16265240.46448  21681929.7564   21681931.1954   21681930.5954
 -15226825.08148 -11827202.79346  22779569.3584   22779572.3874   22779569.3764
 -24986686.78749 -19322084.61849  21301985.8374   21301987.5314   21301985.8014
 -18171077.26149 -14115934.79647  22172373.8204   22172375.8664   22172373.3964
 -11339324.09248  -8811484.64947  23441542.6044   23441546.7444   23441542.5064
 04  1  1  2 47 30.0000000  0 10G24G17G29G 8G28G 4G 7G 9G26G 5
 -20457509.57149 -15906986.09448  22003050.9194   22003053.1724   22003050.6694
  -6341265.04947  -4699411.41845  23896874.4354   23896876.4394   23896874.6134
  -9365869.24248  -7259381.51446  23609743.3484   23609746.3044   23609744.0054
   1287273.64846   1049100.63744  25327609.3774   25327609.1204   25327610.2674
  -3886863.18447  -2964377.44045  24800269.9624   24800270.5064   24800268.5554
 -20911958.38949 -16274652.10648  21679631.5264   21679633.2474   21679631.7624
 -15133956.88348 -11754837.97446  22797241.8674   22797244.9424   22797240.9624
 -25055559.92949 -19375751.99248  21288879.7224   21288881.3714   21288879.7664
 -18094255.27449 -14056073.51147  22186993.3364   22186996.2264   22186993.5414
 -11394513.61848  -8854489.41547  23431040.6134   23431043.6284   23431039.7164
 04  1  1  2 48  0.0000000  0 10G24G17G29G 8G28G 4G 7G 9G26G 5
 -20541401.57649 -15972356.46748  21987086.3854   21987088.6404   21987086.5804
  -6453281.04448  -4786696.52245  23875559.0494   23875561.4074   23875557.9314
  -9273750.57148  -7187600.76446  23627272.9594   23627275.3164   23627273.7004
   1382316.85046   1123160.16045  25345695.0744   25345698.1484   25345694.6594
  -3831636.85346  -2921343.91544  24810778.3594   24810778.2044   24810778.3584
 -20923513.71549 -16283656.25348  21677432.8184   21677434.2044   21677432.9074
 -15041036.29148 -11682432.35746  22814923.7954   22814925.5944   22814923.5114
 -25124090.23349 -19429152.21149  21275838.8154   21275840.3314   21275838.6274
 -18017195.14849 -13996026.65147  22201656.4464   22201659.4344   22201656.4734
 -11449745.01648  -8897526.77847  23420529.8224   23420534.1494   23420529.6404
 04  1  1  2 48 30.0000000  0 10G24G17G29G 8G28G 4G 7G 9G26G 5
 -20625029.19049 -16037520.83348  21971172.9964   21971175.1534   21971172.7824
  -6565350.52348  -4874023.30846  23854233.0344   23854235.4704   23854232.6974
  -9181666.16948  -7115846.73246  23644796.1154   23644799.5454   23644795.9504
   1477484.74646   1197316.88344  25363806.6604   25363809.3224   25363805.3494
  -3776384.41646  -2878290.04744  24821292.8834   24821294.7204   24821292.9554
 -20934556.63249 -16292261.11848  21675331.3594   21675332.6144   21675331.6524
 -14948076.76148 -11609996.37846  22832613.9664   22832614.9744   22832612.2994
 -25192286.54149 -19482292.17549  21262861.4814   21262863.1944   21262861.3524
 -17939911.56449 -13935805.67147  22216363.3484   22216366.0624   22216363.0284
 -11505029.97348  -8940605.87047  23410009.6974   23410013.6874   23410008.6084
 04  1  1  2 49  0.0000000  0 10G24G17G29G 8G28G 4G 7G 9G26G 5
 -20708382.96049 -16102471.81448  21955311.3334   21955313.6974   21955311.0734
  -6677464.55048  -4961384.81446  23832897.7174   23832900.7214   23832897.6804
  -9089612.67948  -7044116.77846  23662313.6014   23662315.5814   23662313.6674
   1572782.08145   1271574.42044  25381939.8834   25381943.9784   25381939.0084
  -3721098.61547  -2835210.23244  24831812.3004   24831814.1834   24831811.7764
 -20945079.81049 -16300460.99748  21673328.8414   21673330.3064   21673328.7864
 -14855073.79148 -11537526.56146  22850311.3804   22850314.2494   22850311.2204
 -25260139.89149 -19535164.90649  21249949.5084   21249951.0974   21249949.5404
 -17862401.83849 -13875408.49147  22231113.5294   22231115.7984   22231114.1154
 -11560362.27948  -8983721.87747  23399480.6134   23399483.3384   23399479.4514
 04  1  1  2 49 30.0000000  0 10G24G17G29G 8G28G 4G 7G 9G26G 5
 -20791461.19949 -16167208.10148  21939501.6884   21939504.2134   21939502.0544
  -6789621.47247  -5048779.76046  23811554.2714   23811557.0984   23811554.0624
  -8997594.55948  -6972414.37946  23679823.6494   23679826.3504   23679824.1124
   1668205.97847   1345930.59344  25400099.3294   25400101.4474   25400100.0644
  -3665780.25047  -2792105.00945  24842339.8814   24842339.1274   24842340.2774
 -20955083.69549 -16308256.23548  21671424.8984   21671426.6314   21671425.1214
 -14762031.13448 -11465025.81346  22868016.9644   22868018.6764   22868016.6934
 -25327649.37049 -19587769.69249  21237102.6984   21237104.3324   21237102.5664
 -17784670.64749 -13814838.73647  22245905.2224   22245906.3594   22245904.6424
 -11615743.24348  -9026875.81347  23388941.9264   23388944.5554   23388941.8554
 04  1  1  2 50  0.0000000  0 10G24G17G29G 8G28G 4G 7G 9G26G 5
 -20874260.30449 -16231726.87348  21923746.1194   21923747.6124   21923745.5174
  -6901817.99347  -5136205.53546  23790203.3124   23790206.1194   23790203.6904
  -8905614.08948  -6900741.32446  23697326.4264   23697330.3624   23697326.8554
   1763755.08147   1420384.35845  25418280.9074   25418285.9264   25418279.8854
  -3610428.26346  -2748973.62145  24852872.1384   24852872.8004   24852873.0604
 -20964566.76549 -16315645.63548  21669620.3694   21669621.7044   21669620.8724
 -14668950.02948 -11392495.11746  22885729.7844   22885732.0994   22885728.5864
 -25394811.61749 -19640103.89549  21224322.2374   21224324.0454   21224322.2144
 -17706720.89949 -13754098.67147  22260738.0394   22260740.7884   22260738.1054
 -11671172.38148  -9070067.30747  23378394.3714   23378396.1124   23378394.1744
 04  1  1  2 50 30.0000000  0  9G24G17G29G28G 4G 7G 9G26G 5
 -20956776.24349 -16296024.99348  21908043.3184   21908045.7554   21908043.6274
  -7014050.29247  -5223659.20546  23768846.5064   23768850.5194   23768846.6204
  -8813673.76448  -6829099.55246  23714822.6794   23714825.9124   23714822.7944
  -3555041.09346  -2705814.77545  24863412.0544   24863413.7054   24863411.7254
 -20973527.35549 -16322627.90648  21667915.3044   21667916.7444   21667915.3004
 -14575831.84748 -11319935.51746  22903449.7084   22903451.2904   22903449.2414
 -25461623.49849 -19692165.10549  21211608.2894   21211609.9964   21211608.1344
 -17628555.37749 -13693190.48647  22275612.6354   22275613.9844   22275612.7494
 -11726648.83548  -9113295.64247  23367837.4714   23367839.8844   23367836.5994
 04  1  1  2 51  0.0000000  0  9G24G17G29G28G 4G 7G 9G26G 5
 -21039005.59649 -16360099.80648  21892395.6774   21892398.2044   21892395.8654
  -7126314.76147  -5311137.94546  23747484.6764   23747486.9044   23747483.3484
  -8721775.47948  -6757490.52446  23732309.8614   23732313.0134   23732310.7074
  -3499617.76946  -2662627.73945  24873958.6504   24873960.0724   24873959.4724
 -20981963.97849 -16329201.90148  21666309.8214   21666311.4374   21666309.7734
 -14482678.16348 -11247348.24946  22921176.0344   22921177.0404   22921175.6654
 -25528081.58749 -19743950.62049  21198961.7374   21198963.3014   21198961.6704
 -17550176.87948 -13632116.33447  22290527.2254   22290529.3444   22290527.1194
 -11782172.45148  -9156560.71547  23357271.7914   23357274.1944   23357271.2384
 04  1  1  2 51 30.0000000  0  9G24G17G29G28G 4G 7G 9G26G 5
 -21120947.35349 -16423950.51548  21876802.7754   21876805.6744   21876802.7064
  -7238610.87947  -5398641.33046  23726115.2774   23726117.8444   23726114.0644
  -8629924.52248  -6685918.40046  23749789.2954   23749791.7834   23749789.3504
  -3444159.72747  -2619413.67745  24884513.3304   24884511.8884   24884511.3564
 -20989877.90049 -16335368.59248  21664803.9614   21664805.2634   21664803.5244
 -14389492.94648 -11174736.42346  22938908.8324   22938909.7264   22938909.2134
 -25594185.43749 -19795460.11549  21186382.8104   21186384.1054   21186382.7004
 -17471591.02649 -13570880.61047  22305481.9384   22305484.5964   22305482.3964
 -11837744.56648  -9199863.59147  23346696.6964   23346700.1254   23346696.1584
 04  1  1  2 52  0.0000000  0  9G24G17G29G28G 4G 7G 9G26G 5
 -21202596.77649 -16487573.42848  21861265.4014   21861267.3124   21861265.2124
  -7350933.80947  -5486165.61946  23704739.2764   23704742.7244   23704739.6354
  -8538122.00347  -6614384.00146  23767257.7224   23767260.6914   23767258.7874
  -3388664.53747  -2576170.68945  24895072.7034   24895073.8494   24895074.5054
 -20997266.92649 -16341126.27248  21663397.9584   21663399.2734   21663398.0024
 -14296276.78248 -11102100.48346  22956647.6054   22956649.7344   22956646.8074
 -25659930.97649 -19846690.39349  21173871.6264   21173873.5904   21173871.8174
 -17392799.71849 -13509484.80447  22320475.5824   22320478.3944   22320476.5864
 -11893363.83048  -9243203.20647  23336112.3944   23336115.0214   23336111.6034
 04  1  1  2 52 30.0000000  0  9G24G17G29G28G 4G 7G 9G26G 5
 -21283951.23249 -16550966.49448  21845784.1694   21845786.7524   21845784.4404
  -7463281.11747  -5573708.91546  23683361.1284   23683365.3374   23683360.5764
  -8446371.30248  -6542890.00246  23784717.7854   23784721.4444   23784719.3444
  -3333132.19346  -2532898.77844  24905640.5644   24905640.6494   24905640.3904
 -21004130.29049 -16346474.35048  21662091.5474   21662093.4204   21662091.9914
 -14203031.69348 -11029442.00146  22974391.1394   22974393.3704   22974390.9474
 -25725315.99649 -19897639.76149  21161429.4294   21161431.0824   21161429.4854
 -17313806.64049 -13447931.77047  22335508.0064   22335510.0124   22335507.6234
 -11949030.64048  -9286579.88847  23325519.2484   23325522.4474   23325519.6794
 04  1  1  2 53  0.0000000  0  9G24G17G29G28G 4G 7G 9G26G 5
 -21365006.74049 -16614126.62348  21830359.7684   21830361.9124   21830360.2774
  -7575648.76247  -5661268.04446  23661977.7564   23661981.1924   23661977.3004
  -8354674.34048  -6471437.86046  23802167.0644   23802170.1624   23802167.7944
  -3277561.06246  -2489596.59045  24916215.7114   24916214.2634   24916215.3124
 -21010466.27549 -16351411.48648  21660886.3144   21660887.8354   21660886.3454
 -14109759.02348 -10956762.02746  22992140.1894   22992141.7924   22992140.2074
 -25790336.99549 -19948305.47749  21149056.3204   21149057.8854   21149056.2984
 -17234614.30749 -13386223.47247  22350577.6884   22350579.9814   22350577.7614
 -12004744.35548  -9329993.13746  23314916.8044   23314919.4674   23314916.8834
 04  1  1  2 53 30.0000000  0  9G24G17G29G28G 4G 7G 9G26G 5
 -21445760.99549 -16677051.99948  21814992.9544   21814995.0084   21814992.6834
  -7688034.64747  -5748841.38146  23640591.7944   23640595.3254   23640590.8814
  -8263034.98048  -6400030.60046  23819606.4834   23819608.8454   23819607.2274
  -3221951.44046  -2446264.38445  24926797.9774   24926797.5784   24926797.2834
 -21016275.22449 -16355937.93848  21659780.6464   21659782.1774   21659781.0284
 -14016461.62848 -10884062.78346  23009894.2034   23009895.5454   23009894.7124
 -25854992.31049 -19998686.23649  21136752.7984   21136754.4704   21136752.6344
 -17155227.19549 -13324363.37747  22365683.9904   22365686.5914   22365683.3334
 -12060505.77248  -9373443.56746  23304305.7364   23304309.8514   23304304.9944
 04  1  1  2 54  0.0000000  0  9G24G17G29G28G 4G 7G 9G26G 5
 -21526210.88749 -16739740.21948  21799683.3844   21799685.3384   21799683.7774
  -7800435.63847  -5836426.51946  23619202.4164   23619204.9654   23619202.0914
  -8171455.75348  -6328670.17946  23837032.9374   23837035.7404   23837033.8334
  -3166302.22146  -2402901.38845  24937388.2784   24937387.9684   24937389.0884
 -21021556.17449 -16360052.95648  21658775.5164   21658776.9114   21658775.8074
 -13923141.20048 -10811345.59346  23027652.4464   23027654.3814   23027652.6524
 -25919279.11449 -20048779.84049  21124519.1464   21124521.1144   21124519.2804
 -17075648.54248 -13262354.03747  22380826.8884   22380829.2744   22380827.8934
 -12116314.40048  -9416930.78046  23293685.4104   23293689.2634   23293684.4724
 04  1  1  2 54 30.0000000  0  9G24G17G29G28G 4G 7G 9G26G 5
 -21606352.89349 -16802188.52948  21784433.1444   21784435.1554   21784432.5664
  -7912848.43847  -5924020.85946  23597810.9574   23597814.0194   23597810.8214
  -8079939.18048  -6257358.61746  23854447.6974   23854451.2974   23854447.9024
  -3110612.65046  -2359506.92344  24947984.9414   24947982.5784   24947984.3864
 -21026307.92949 -16363755.62348  21657871.5674   21657872.9294   21657871.6634
 -13829799.33948 -10738611.70746  23045415.6404   23045416.2754   23045415.0504
 -25983194.78949 -20098584.27149  21112356.5754   21112358.2044   21112356.5464
 -16995881.44148 -13200197.88447  22396006.0214   22396009.1014   22396005.6694
 -12172170.03348  -9460454.67446  23283056.2204   23283059.5284   23283057.1064
 04  1  1  2 55  0.0000000  0  9G24G17G29G28G 4G 7G 9G26G 5
 -21686183.83549 -16864394.44348  21769241.9094   21769243.9174   21769241.6924
  -8025269.47948  -6011621.61646  23576417.8994   23576421.3274   23576417.6024
  -7988487.73048  -6186097.78246  23871850.9794   23871853.3614   23871850.5584
  -3054881.75046  -2316080.31744  24958590.4594   24958591.6564   24958589.7314
 -21030529.32349 -16367045.01648  21657068.0834   21657069.8444   21657068.1944
 -13736437.55248 -10665862.27946  23063180.4914   23063183.6384   23063181.5584
 -26046736.13249 -20148097.00649  21100264.9904   21100266.7844   21100265.1064
 -16915928.84948 -13137897.15747  22411220.5724   22411222.5774   22411221.5384
 -12228072.77748  -9504015.29547  23272418.9264   23272421.9614   23272418.0314
 04  1  1  2 55 30.0000000  0  9G24G17G29G28G 4G 7G 9G26G 5
 -21765703.86149 -16926358.08448  21754109.2914   21754111.9894   21754109.5794
  -8137699.58848  -6099229.44646  23555023.1564   23555026.0094   23555022.2054
  -7897107.87048  -6114892.76246  23889239.9594   23889242.3834   23889240.3874
  -2999112.42746  -2272623.70244  24969202.5054   24969204.6134   24969200.3064
 -21034223.52849 -16369923.62648  21656365.1124   21656366.7304   21656365.6174
 -13643061.26148 -10593101.55546  23080950.0494   23080950.7614   23080949.3744
 -26109904.15749 -20197318.84649  21088244.4864   21088246.2164   21088244.4264
 -16835797.73748 -13075457.33847  22426469.9384   22426471.6134   22426471.3804
 -12284025.41648  -9547614.79347  23261771.5104   23261774.5284   23261770.8144
 04  1  1  2 56  0.0000000  0  9G24G17G29G28G 4G 7G 9G26G 5
 -21844904.12449 -16988072.56348  21739038.6094   21739040.6444   21739038.2754
  -8250129.70048  -6186837.27646  23533628.3444   23533631.2444   23533628.6724
  -7805796.70848  -6043741.25246  23906615.7754   23906618.0354   23906616.0154
  -2943298.33546  -2229132.20744  24979823.1864   24979824.1284   24979822.8814
 -21037383.95849 -16372386.29848  21655764.0094   21655765.4064   21655763.5734
 -13549666.69048 -10520326.59846  23098722.8244   23098724.0784   23098723.7554
 -26172690.77949 -20246243.48849  21076296.5674   21076298.4534   21076296.5454
 -16755486.05448 -13012876.81947  22441752.5464   22441753.6764   22441752.1864
 -12340022.50448  -9591248.91847  23251115.4624   23251117.7144   23251115.1974
 04  1  1  2 56 30.0000000  0  9G24G17G29G28G 4G 7G 9G26G 5
 -21923785.51449 -17049538.56748  21724027.5894   21724029.9084   21724027.3394
  -8362560.57648  -6274445.70446  23512234.6094   23512236.9244   23512232.8564
  -7714560.79848  -5972648.39546  23923977.6584   23923981.0154   23923978.3994
  -2887442.45846  -2185608.18144  24990451.1184   24990455.0504   24990451.4234
 -21040013.70549 -16374435.45248  21655263.3984   21655264.7444   21655263.4684
 -13456259.66548 -10447541.93146  23116497.3834   23116498.3894   23116497.8864
 -26235097.05449 -20294871.74949  21064421.1574   21064422.4474   21064421.2204
 -16675000.75148 -12950160.98846  22457068.3014   22457070.8094   22457067.9084
 -12396067.66549  -9634920.51347  23240451.2364   23240454.3194   23240450.6484
 04  1  1  2 57  0.0000000  0  9G24G17G29G28G 4G 7G 9G26G 5
 -22002342.05049 -17110751.43248  21709078.8924   21709080.7384   21709079.2354
  -8474986.34948  -6362050.17346  23490839.6814   23490842.9404   23490839.5444
  -7623399.75248  -5901613.87546  23941325.4154   23941327.7624   23941325.3234
  -2831541.17146  -2142048.72444  25001089.8414   25001091.5604   25001089.4724
 -21042109.27149 -16376068.36048  21654864.4524   21654865.7634   21654864.6644
 -13362838.73348 -10374746.43046  23134274.2394   23134276.1994   23134273.6394
 -26297117.46349 -20343199.34349  21052618.9884   21052620.5614   21052618.9654
 -16594342.34648 -12887310.29546  22472416.8664   22472418.8024   22472417.1874
 -12452157.40148  -9678626.81147  23229777.7624   23229779.4944   23229776.7734
 04  1  1  2 57 30.0000000  0  9G24G17G29G28G 4G 7G 9G26G 5
 -22080573.36449 -17171710.88048  21694191.7984   21694194.3214   21694192.2204
  -8587406.11348  -6449649.95046  23469446.7464   23469449.6314   23469446.7194
  -7532318.91647  -5830641.85546  23958657.2344   23958660.9834   23958657.6194
  -2775596.62346  -2098455.57944  25011735.6004   25011736.2324   25011735.2344
 -21043672.57849 -16377286.52148  21654567.1434   21654568.6454   21654567.4564
 -13269408.55348 -10301943.72746  23152054.1164   23152055.1354   23152053.1534
 -26358752.13449 -20391226.35549  21040890.3814   21040891.7774   21040890.3734
 -16513516.79348 -12824329.35847  22487797.3104   22487800.7994   22487799.6634
 -12508294.51648  -9722370.05347  23219094.6964   23219097.4674   23219093.9564
 04  1  1  2 58  0.0000000  0  9G24G17G29G28G 4G 7G 9G26G 5
 -22158475.70149 -17232413.99048  21679367.6374   21679369.7534   21679367.3964
  -8699816.24048  -6537242.21246  23448056.0074   23448058.7664   23448055.6824
  -7441320.46047  -5759734.03846  23975973.3434   23975976.4254   23975972.9194
  -2719607.15746  -2054827.48144  25022390.4364   25022390.2964   25022391.7634
 -21044702.28649 -16378088.89248  21654371.0994   21654373.0044   21654371.2724
 -13175970.22648 -10229134.66046  23169834.9114   23169836.1134   23169834.9024
 -26419997.85049 -20438950.28149  21029235.9254   21029237.4944   21029236.1864
 -16432526.75048 -12761220.24647  22503209.3494   22503211.8734   22503209.3984
 -12564478.26048  -9766149.60847  23208403.3704   23208405.7884   23208402.7054
 04  1  1  2 58 30.0000000  0  9G24G17G29G28G 4G 7G 9G26G 5
 -22236046.02349 -17292858.38548  21664606.0174   21664608.3364   21664605.7894
  -8812214.02948  -6624824.85946  23426667.5474   23426670.2904   23426667.2384
  -7350407.26548  -5688892.64946  23993274.3034   23993275.9054   23993274.1434
  -2663572.56046  -2011164.19044  25033053.6174   25033053.2444   25033055.8574
 -21045198.04949 -16378475.20648  21654276.9034   21654278.4844   21654277.3114
 -13082525.73748 -10156320.79246  23187616.6724   23187617.9564   23187616.3644
 -26480852.15649 -20486369.22449  21017655.7634   21017656.9744   21017656.0024
 -16351375.97248 -12697985.88347  22518651.6974   22518654.6254   22518652.1534
 -12620708.19248  -9809965.14747  23197703.1254   23197706.0204   23197702.8294
 04  1  1  2 59  0.0000000  0  9G24G17G29G28G 4G 7G 9G26G 5
 -22313280.05549 -17353040.73748  21649909.2254   21649911.4924   21649909.2344
  -8924594.70748  -6712394.16146  23405281.6174   23405284.4894   23405282.0024
  -7259580.93047  -5618118.94646  24010558.1894   24010559.7444   24010558.1004
  -2607490.53646  -1967463.94344  25043725.5274   25043726.5044   25043724.8144
 -21045157.90549 -16378443.92448  21654284.3644   21654286.4474   21654284.4724
 -12989075.50348 -10083502.45246  23205399.2864   23205401.8244   23205399.1314
 -26541311.12549 -20533480.10149  21006150.7324   21006152.4034   21006150.3764
 -16270066.38848 -12634627.77247  22534124.7164   22534127.2464   22534125.3744
 -12676982.88948  -9853815.54347  23186994.7894   23186998.2474   23186993.4034
 04  1  1  2 59 30.0000000  0  9G24G17G29G28G 4G 7G 9G26G 5
 -22390174.96449 -17412958.83548  21635276.7034   21635278.9434   21635276.8124
  -9036955.34248  -6799947.84946  23383900.3304   23383902.6744   23383899.5914
  -7168844.18347  -5547415.05546  24027824.8734   24027826.2794   24027824.1444
  -2551360.91747  -1923726.51044  25054407.1734   25054407.3044   25054404.3994
 -21044581.56949 -16377994.83248  21654394.1524   21654395.9904   21654394.3584
 -12895621.57848 -10010681.24546  23223183.2124   23223184.4434   23223183.1104
 -26601372.44249 -20580281.12849  20994721.3664   20994722.8214   20994721.6084
 -16188601.57848 -12571148.71347  22549626.9924   22549629.8944   22549627.2434
 -12733302.49649  -9897700.93247  23176277.0634   23176280.7634   23176276.6974
 04  1  1  3  0  0.0000000  0  9G24G17G29G28G 4G 7G 9G26G 5
 -22466730.20749 -17472612.26048  21620708.6804   21620710.6194   21620708.9334
  -9149295.80048  -6887485.81846  23362522.4304   23362525.3744   23362522.4054
  -7078202.63047  -5476785.33446  24045073.2254   24045075.7974   24045073.8154
  -2495185.81446  -1879953.69844  25065096.4724   25065097.4944   25065096.3194
 -21043471.59149 -16377129.92148  21654605.3704   21654606.6994   21654605.6904
 -12802168.65648  -9937860.80446  23240966.9414   23240967.5994   23240966.2904
 -26661036.61649 -20626772.68349  20983367.7034   20983369.4704   20983367.6124
 -16106987.82448 -12507553.60847  22565157.3584   22565159.9404   22565158.2074
 -12789670.07948  -9941623.64347  23165550.9134   23165553.4744   23165550.5934
 04  1  1  3  0 30.0000000  0  9G24G17G29G28G 4G 7G 9G26G 5
 -22542937.48249 -17531994.53448  21606206.8444   21606208.8844   21606206.8344
  -9261607.38748  -6975001.29546  23341149.9734   23341152.8284   23341149.8824
  -6987653.16747  -5406227.38346  24062304.2494   24062306.9714   24062304.4544
  -2438958.82547  -1836140.47044  25075796.6784   25075795.1884   25075796.0884
 -21041821.64449 -16375844.24948  21654919.4314   21654920.7104   21654919.7564
 -12708712.77548  -9865038.05246  23258750.6384   23258752.2394   23258750.6644
 -26720295.37949 -20672948.34349  20972090.9624   20972092.7104   20972090.9664
 -16025222.85848 -12443840.66847  22580716.7814   22580718.6004   22580717.6244
 -12846079.77248  -9985579.16747  23154816.0984   23154819.1564   23154816.6424
 04  1  1  3  1  0.0000000  0  9G24G17G29G28G 4G 7G 9G26G 5
 -22618799.23949 -17591107.58248  21591770.9324   21591773.2814   21591770.7514
  -9373892.14748  -7062495.87446  23319782.7704   23319786.4034   23319783.6774
  -6897204.00447  -5335747.59345  24079515.2414   24079519.5844   24079516.0584
  -2382684.74047  -1792290.57445  25086505.4944   25086506.6564   25086503.6324
 -21039636.72149 -16374141.71248  21655335.0444   21655336.2874   21655335.3764
 -12615261.07748  -9792218.56546  23276534.0424   23276535.1624   23276532.8974
 -26779151.83349 -20718810.51449  20960890.9994   20960893.0104   20960891.1734
 -15943315.44648 -12380016.72747  22596303.5584   22596306.4234   22596303.5284
 -12902536.61748 -10029571.42147  23144072.5124   23144075.1214   23144072.3564
 04  1  1  3  1 30.0000000  0  9G24G17G29G28G 4G 7G 9G26G 5
 -22694310.95649 -17649947.86548  21577401.5104   21577403.3194   21577401.1354
  -9486145.37948  -7149965.87646  23298421.7644   23298425.9064   23298421.1644
  -6806856.45647  -5265346.96345  24096707.8444   24096711.6094   24096708.2374
  -2326361.26447  -1748402.18545  25097222.5954   25097223.7724   25097221.6474
 -21036914.94849 -16372020.85348  21655853.0404   21655854.1644   21655853.3004
 -12521813.85048  -9719402.54046  23294316.2594   23294317.7124   23294316.7174
 -26837601.74649 -20764355.89949  20949768.3034   20949769.7764   20949768.2204
 -15861267.27348 -12316083.09447  22611916.5094   22611918.9864   22611916.0234
 -12959038.66548 -10073598.88047  23133320.9584   23133324.2804   23133321.2064
 04  1  1  3  2  0.0000000  0  9G24G17G29G28G 4G 7G 9G26G 5
 -22769468.02149 -17708511.80048  21563099.3314   21563101.3094   21563099.1574
  -9598362.02448  -7237407.36746  23277067.8904   23277070.6824   23277067.6464
  -6716611.09947  -5195025.97645  24113881.4404   24113884.1154   24113881.8604
  -2269986.09047  -1704473.47145  25107951.7134   25107950.8934   25107949.9184
 -21033654.05449 -16369479.90348  21656473.7434   21656474.8594   21656473.4204
 -12428370.87148  -9646589.83946  23312098.0914   23312098.9964   23312097.4564
 -26895640.94049 -20809581.24249  20938723.7564   20938725.3844   20938723.6904
 -15779080.10848 -12252041.16647  22627556.2954   22627558.4784   22627556.7324
 -13015583.77148 -10117659.87647  23122560.1594   23122562.3224   23122559.8134
 04  1  1  3  2 30.0000000  0  9G24G17G29G28G 4G 7G 9G26G 5
 -22844269.97949 -17766799.02548  21548865.0244   21548867.0514   21548865.3614
  -9710542.18248  -7324820.43346  23255720.6524   23255723.8394   23255720.1864
  -6626473.80948  -5124789.18545  24131034.8404   24131036.9794   24131034.5014
  -2213561.92046  -1660506.54744  25118687.2454   25118690.7024   25118687.4744
 -21029856.84849 -16366521.04248  21657196.1604   21657197.3594   21657196.8044
 -12334937.25447  -9573784.43145  23329877.2644   23329878.5474   23329876.8104
 -26953270.25749 -20854487.20349  20927757.3824   20927758.7514   20927757.4824
 -15696760.46448 -12187896.00447  22643221.2024   22643223.5224   22643221.3494
 -13072175.03948 -10161756.83347  23111790.8394   23111795.2784   23111790.2244
 04  1  1  3  3  0.0000000  0  9G24G17G29G28G 4G 7G 9G26G 5
 -22918709.92049 -17824804.17048  21534699.6264   21534701.8424   21534699.2324
  -9822678.49248  -7412199.33246  23234382.3214   23234384.6594   23234382.8684
  -6536443.28947  -5054635.60445  24148166.6204   24148168.0784   24148166.9054
  -2157083.70847  -1616497.56444  25129435.9774   25129436.0054   25129436.0604
 -21025518.90649 -16363140.82948  21658021.7594   21658023.4414   21658021.7494
 -12241510.41747  -9500984.32345  23347656.1034   23347657.3074   23347655.4264
 -27010482.99249 -20899068.55849  20916870.2174   20916871.5294   20916870.1674
 -15614307.68348 -12123647.10947  22658910.5624   22658913.9414   22658912.1554
 -13128808.50448 -10205886.64647  23101014.1154   23101017.1554   23101014.7174
 04  1  1  3  3 30.0000000  0  9G24G17G29G28G 4G 7G 9G26G 5
 -22992788.54449 -17882527.76448  21520603.1924   21520604.9804   21520603.1794
  -9934771.51048  -7499544.50046  23213051.5144   23213054.0144   23213051.1954
  -6446526.00447  -4984570.25345  24165277.8054   24165279.8294   24165276.6574
  -2100554.59446  -1572448.90344  25140192.3984   25140190.4404   25140192.0334
 -21020643.46749 -16359341.78648  21658949.6134   21658950.7164   21658949.9504
 -12148095.80247  -9428193.72245  23365432.8304   23365435.9964   23365430.8794
 -27067280.44149 -20943326.30949  20906061.9084   20906063.5344   20906062.0684
 -15531728.70148 -12059299.87746  22674626.3614   22674627.4014   22674626.8094
 -13185487.02049 -10250051.55047  23090228.5674   23090232.0044   23090227.9884
 04  1  1  3  4  0.0000000  0  9G24G17G29G28G 4G 7G 9G26G 5
 -23066500.80449 -17939965.87648  21506576.1904   21506578.3354   21506576.1974
 -10046815.67348  -7586851.59046  23191729.9034   23191732.7594   23191728.8904
  -6356721.69347  -4914592.93145  24182366.5104   24182370.6544   24182366.3954
  -2043971.52746  -1528358.25844  25150960.2714   25150959.7984   25150959.1904
 -21015227.98549 -16355121.93948  21659979.9364   21659981.5904   21659979.9874
 -12054692.85647  -9355412.22445  23383206.2644   23383210.1304   23383207.1354
 -27123657.65249 -20987256.61549  20895333.7544   20895335.1554   20895333.6984
 -15449024.47548 -11994855.05846  22690363.8434   22690365.9464   22690363.5544
 -13242208.40449 -10294249.89347  23079435.1874   23079437.1754   23079434.9564
 04  1  1  3  4 30.0000000  0  9G24G17G29G28G 4G 7G 9G26G 5
 -23139846.38249 -17997118.27148  21492618.9234   21492620.6674   21492618.5534
 -10158810.37948  -7674120.13446  23170418.7514   23170420.5624   23170417.3364
  -6267035.96247  -4844708.04045  24199433.5224   24199436.6434   24199433.9204
  -1987336.57746  -1484227.08044  25161737.1674   25161737.9184   25161737.1164
 -21009274.83449 -16350483.11948  21661112.8824   21661114.9444   21661113.3144
 -11961305.81447  -9282643.11745  23400976.6494   23400978.9124   23400977.4994
 -27179614.75649 -21030859.55149  20884685.4684   20884686.8944   20884685.3444
 -15366200.97648 -11930317.29446  22706124.3084   22706126.2084   22706124.4204
 -13298975.25249 -10338483.67747  23068632.2654   23068634.2234   23068631.5874
 04  1  1  3  5  0.0000000  0  9G24G17G29G28G 4G 7G 9G26G 5
 -23212818.53849 -18053979.67948  21478732.7214   21478734.8774   21478732.7714
 -10270749.00748  -7761344.99646  23149117.0444   23149119.4774   23149116.4604
  -6177468.05947  -4774914.92945  24216476.6274   24216479.9674   24216477.4934
  -1930645.77046  -1440052.43044  25172525.0334   25172525.6394   25172525.6034
 -21002780.41749 -16345422.53448  21662348.5994   21662350.1084   21662349.1134
 -11867933.09947  -9209885.17045  23418745.8914   23418747.1644   23418744.5884
 -27235146.25149 -21074130.84449  20874118.2434   20874119.6764   20874118.1794
 -15283258.32748 -11865686.65546  22721907.9254   22721911.2734   22721908.3984
 -13355783.54149 -10382749.79947  23057821.7664   23057824.2164   23057821.1894
 04  1  1  3  5 30.0000000  0  9G24G17G29G28G 4G 7G 9G26G 5
 -23285416.28149 -18110549.34248  21464917.7674   21464919.9744   21464917.7054
 -10382630.15248  -7848525.07746  23127826.5954   23127829.9554   23127826.6524
  -6088022.33147  -4705217.04445  24233498.6754   24233501.3454   24233497.2974
  -1873900.22846  -1395835.10344  25183323.6154   25183324.3724   25183324.1854
 -20995746.17149 -16339941.31048  21663687.0884   21663688.7034   21663687.2324
 -11774578.00747  -9137140.93845  23436510.6734   23436513.3014   23436510.9134
 -27290251.36449 -21117069.89849  20863632.0294   20863633.3864   20863632.0694
 -15200201.72248 -11800967.24346  22737714.3384   22737715.6444   22737714.6214
 -13412634.66349 -10427049.33847  23047003.6294   23047007.0104   23047002.9804
 04  1  1  3  6  0.0000000  0  9G24G17G29G28G 4G 7G 9G26G 5
 -23357636.33249 -18166824.69548  21451174.7864   21451176.7454   21451174.5884
 -10494450.18848  -7935657.54046  23106547.8324   23106550.1824   23106547.9034
  -5998701.01347  -4635616.08945  24250495.4804   24250498.7334   24250494.8464
  -1817098.66346  -1351574.17344  25194133.0094   25194133.3874   25194134.0444
 -20988171.44249 -16334038.93048  21665128.7354   21665130.2554   21665128.8654
 -11681241.80348  -9064411.43545  23454273.2074   23454273.4974   23454271.6674
 -27344927.31049 -21159674.53749  20853227.4844   20853229.0204   20853227.5384
 -15117033.98448 -11736161.22446  22753539.9704   22753543.2254   22753538.9964
 -13469528.15549 -10471381.89247  23036176.9824   23036179.0234   23036176.8064
 04  1  1  3  6 30.0000000  0  9G24G17G29G28G 4G 7G 9G26G 5
 -23429475.72349 -18222803.42848  21437503.8884   21437506.5044   21437503.8284
 -10606205.29548  -8022739.41646  23085280.8114   23085283.7744   23085279.9204
  -5909506.33447  -4566113.82245  24267468.4744   24267473.2224   24267469.2174
  -1760240.47846  -1307269.17444  25204951.8214   25204952.6584   25204950.1714
 -20980055.87649 -16327715.11648  21666672.8844   21666674.2104   21666673.0614
 -11587925.88847  -8991697.75146  23472029.4384   23472031.3764   23472028.2364
 -27399171.19449 -21201942.50049  20842905.1404   20842906.8414   20842904.9724
 -15033758.00348 -11671270.85046  22769386.0274   22769388.3134   22769386.0684
 -13526463.31649 -10515746.89247  23025342.9254   23025345.9014   23025342.1614
 04  1  1  3  7  0.0000000  0  9G24G17G29G28G 4G 7G 9G26G 5
 -23500930.92749 -18278482.80148  21423906.9294   21423908.8654   21423906.6524
 -10717892.33748  -8109768.23646  23064026.9444   23064029.8684   23064026.9774
  -5820440.63247  -4496712.05245  24284417.8044   24284419.9394   24284418.5064
  -1703324.74946  -1262919.22244  25215783.5514   25215781.8694   25215781.5184
 -20971399.12949 -16320969.60348  21668320.3334   21668321.5844   21668320.6134
 -11494631.56148  -8919000.88646  23489783.0834   23489785.3124   23489782.5974
 -27452980.47149 -21243871.81249  20832665.8844   20832667.4954   20832665.7604
 -14950377.04948 -11606298.71346  22785253.0254   22785256.0814   22785252.9324
 -13583439.52449 -10560143.90347  23014500.4074   23014502.3994   23014500.1074
 04  1  1  3  7 30.0000000  0  9G24G17G29G28G 4G 7G 9G26G 5
 -23572001.66749 -18333862.58448  21410382.3984   21410384.5714   21410382.0914
 -10829510.15748  -8196743.12746  23042787.1934   23042790.8994   23042787.2244
  -5731508.79247  -4427414.58245  24301341.3334   24301342.8214   24301340.3724
  -1646353.22447  -1218525.81444  25226624.8054   25226623.3724   25226623.8044
 -20962203.43749 -16313804.12348  21670070.3414   21670072.0834   21670070.6194
 -11401362.82848  -8846323.95846  23507532.1434   23507533.9974   23507531.3594
 -27506355.37549 -21285462.64049  20822508.5624   20822510.6744   20822508.5694
 -14866896.80548 -11541249.19746  22801138.8984   22801141.1044   22801139.1114
 -13640459.10849 -10604574.76047  23003649.8674   23003652.4164   23003649.7244
 04  1  1  3  8  0.0000000  0  9G24G17G29G28G 4G 7G 9G26G 5
 -23642682.43149 -18388938.50148  21396932.1884   21396934.0704   21396932.3714
 -10941053.10848  -8283659.66146  23021561.7754   23021565.1414   23021561.8834
  -5642710.68047  -4358221.32545  24318239.1044   24318241.8344   24318239.0324
  -1589322.52946  -1174086.31544  25237476.5604   25237475.4864   25237476.1074
 -20952466.12249 -16306216.60748  21671922.8384   21671924.6224   21671923.0924
 -11308118.69348  -8773666.20646  23525275.2604   23525277.2224   23525275.1914
 -27559290.92649 -21326711.13049  20812435.8054   20812436.8404   20812435.6914
 -14783317.90648 -11476122.79846  22817043.4864   22817046.9164   22817043.9044
 -13697519.10349 -10649037.12247  22992791.7724   22992793.6044   22992791.7624
 04  1  1  3  8 30.0000000  0  9G24G17G29G28G 4G 7G 9G26G 5
 -23712971.16449 -18443708.93148  21383557.0614   21383558.4924   21383556.7964
 -11052518.52048  -8370515.77446  23000351.1754   23000354.2434   23000350.7424
  -5554049.83247  -4289135.00545  24335110.3294   24335113.5164   24335109.1754
  -1532232.67946  -1129600.75544  25248340.1824   25248338.2634   25248340.5714
 -20942187.71049 -16298207.46148  21673879.0484   21673880.6264   21673879.6464
 -11214901.46548  -8701029.40246  23543013.3924   23543015.7044   23543013.0674
 -27611785.46449 -21367615.97549  20802445.9134   20802447.5204   20802445.9774
 -14699644.55448 -11410922.80246  22832966.2234   22832969.6804   22832966.5614
 -13754619.81049 -10693531.21247  22981925.7824   22981927.7894   22981925.2024
